~Version ---------------------------------------------------
VERS.   2.0 : CWLS log ASCII Standard -VERSION 2.0
WRAP.    NO : One line per depth step
DLM . SPACE : Column Data Section Delimiter
~Well ------------------------------------------------------
STRT .FT                 65.0 : START DEPTH
STOP .FT               9444.0 : STOP DEPTH
STEP .FT                  0.5 : STEP
NULL .               -9999.25 : NULL VALUE
COMP .                        : COMPANY
WELL .                        : WELL
FLD  .                        : FIELD
LOC  .                        : LOCATION
PROV .                        : PROVINCE
CNTY .                        : COUNTY
STAT .                        : STATE
CTRY .                        : COUNTRY
SRVC .                        : SERVICE COMPANY
DATE .                        : DATE
UWI  .                        : UNIQUE WELL ID
API  .                        : API NUMBER
SLAT .WGS84    6.466453497505 : SURFACE LATITUDE
SLON .WGS84 3.614651016597719 : SURFACE LONGITUDE
DATUM.F                   nan : DEPTH DATUM ELEV
~Curve Information -----------------------------------------
DEPT   .FT    : 
AT10   .OHMM  : ARRAY INDUCTION TWO FOOT RESISTIVITY A10
AT30   .OHMM  : ARRAY INDUCTION TWO FOOT RESISTIVITY A30
AT90   .OHMM  : ARRAY INDUCTION TWO FOOT RESISTIVITY A90
DPHZ_LS.DEC   : HGRD STANDARD RESOLUTION DENSITY POROSITY
DTCO   .US/F  : DELTA-T COMPRESSIONAL
DTSM   .US/F  : DELTA-T SHEAR
HCALR  .IN    : HRCC CALIPER CALIBRATED FROM RESISTIVITY LOG
PEFZ   .B/E   : HRDD STANDARD RESOLUTION FORMATION PHOTOELECTRIC FACTOR
SPR    .MV    : SPONTANEOUS POTENTIAL FROM RESISTIVITY LOG
TNPH_LS.DEC   : THERMAL NEUTRON POROSITY [LIMESTONE]
~Params ----------------------------------------------------
~Other -----------------------------------------------------
~ASCII -----------------------------------------------------
# ...
 8579.00000    7.02110    7.71390    9.46600    0.02900   64.58330  124.08860    9.00030    4.69810    6.36540    0.11230
 8579.50000    9.87320   11.05120   12.91390    0.00760   63.94310  122.89610    8.99870    4.82460    6.36540    0.09160
 8580.00000   11.93650   13.11930   14.98350   -0.00260   63.30660  119.59370    8.99700    4.92580    6.36540    0.07280
 8580.50000   10.83630   11.74090   13.05870   -0.00050   62.71740  119.17380    8.99530    4.82370    6.38300    0.07080
 8581.00000    8.32720   10.01740   10.65220    0.01000   62.08700  118.42260    8.99360    4.57570    6.07700    0.08540
 8581.50000    8.17140    9.06750    9.32980    0.02040   62.05360  117.45450    8.99200    4.44540    5.77090    0.09270
 8582.00000    8.17310    8.81410    9.15560    0.02300   62.05810  116.81530    8.99030    4.36920    5.46480    0.09510
 8582.50000    8.17320    8.81530    9.07060    0.02420   62.47520  116.87190    8.98860    4.39170    5.15870    0.09470
 8583.00000    8.09820    8.81560    9.07130    0.02170   62.92580  117.19710    8.98700    4.38200    4.85270    0.09310
 8583.50000    8.09870    8.73450    9.07300    0.01640   63.24150  117.61370    8.98530    4.31330    4.54660    0.09560
 8584.00000    7.90000    8.53130    9.03150    0.01320   63.26270  118.22290    8.98360    4.23320    4.24760    0.10100
 8584.50000    7.22990    8.33220    8.64670    0.01320   62.71840  117.62930    8.98200    4.16250    3.95930    0.10640
 8585.00000    6.90380    7.77300    8.21740    0.01830   62.25240  116.36850    8.98030    4.20830    3.67090    0.11050
 8585.50000    6.57750    7.69860    7.87410    0.02020   61.88540  114.20810    8.96880    4.26710    3.38260    0.11160
 8586.00000    7.28980    9.00280    9.74840    0.02270   60.05600  111.50110    8.94960    4.41310    3.48870    0.09080
 8586.50000    8.44340   10.30700   12.44060    0.02310   57.66870  110.64910    8.93040    4.71400    5.17250    0.07620
 8587.00000   14.37080   15.74690   17.63570    0.01500   57.26780  109.45210    8.91120    5.07970    6.85620    0.06190
 8587.50000   20.29830   25.29540   31.90610    0.00050   56.43170  108.11340    8.89190    5.27540    8.14370    0.04760
 8588.00000   26.22570   39.89160   43.03990   -0.01150   55.79280  107.53440    8.90410    5.32890    9.43120    0.03350
 8588.50000   25.67520   37.48180   43.45650   -0.01410   55.75930  107.97950    8.92410    5.26770   10.71870    0.02870
 8589.00000   17.05800   31.44920   35.07300   -0.00520   56.99420  107.84450    8.94410    5.09660   12.21140    0.03670
 8589.50000   13.70800   24.60770   27.83410    0.00530   57.44350  109.05030    8.96420    4.90970   13.75540    0.05480
 8590.00000   11.09180   17.82300   22.55540    0.01550   58.20060  110.81440    8.98420    4.76870   15.03550    0.06940
 8590.50000   10.04810   14.92370   16.93210    0.01940   59.42400  112.51050    9.00420    4.66480   15.91990    0.07600
 8591.00000    9.35060   12.02440   12.07310    0.02050   60.60400  114.18960    9.05330    4.58330   16.80430    0.08160
 8591.50000    9.52570   10.28540   10.99260    0.01850   61.07080  115.27900    9.01620    4.58210   16.98240    0.07250
 8592.00000   10.47220   12.20230   12.79640    0.01910   61.56170  116.48820    8.97900    4.60020   17.98670    0.06360
 8592.50000   11.04330   12.55640   13.29320    0.02200   62.20530  118.28170    8.94190    4.61820   17.83770    0.06200
 8593.00000   10.09760   11.93360   12.80010    0.02230   62.69170  119.48640    8.90470    4.59550   17.68870    0.06790
 8593.50000    9.39690   10.99780   11.90990    0.02210   63.14450  120.69120    8.89000    4.52710   19.02740    0.08410
 8594.00000    8.60070   10.16050   10.82590    0.02400   63.23310  121.71490    8.94900    4.44870   19.40740    0.09920
 8594.50000    8.04740    9.54180    9.81810    0.02800   63.06880  122.17380    8.94230    4.42250   19.62460    0.11210
 8595.00000    7.82170    9.27650    9.41550    0.02890   63.40970  122.56670    8.93560    4.45920   19.84180    0.11430
 8595.50000    7.44170    8.84680    9.01280    0.02550   63.68200  122.58050    8.93170    4.48420   20.05900    0.11370
 8596.00000    7.25210    8.24440    8.68360    0.02360   63.82500  122.59590    8.91130    4.52680   20.27610    0.10760
 8596.50000    8.84040    9.88630   11.42940    0.01910   64.18600  123.27310    8.91140    4.54330   20.49330    0.09860
 8597.00000   10.20760   13.69340   15.34590    0.01640   64.31450  124.11990    8.91140    4.51410   20.49330    0.08960
 8597.50000    8.20760   11.75760   13.98400    0.01670   64.44290  124.30130    8.93230    4.46800   20.49330    0.09580
 8598.00000    7.46560    8.76910    9.10930    0.02070   64.57140  124.26840    8.93250    4.42180   20.31860    0.10650
 8598.50000    7.44070    8.44370    9.11040    0.02380   64.69980  124.15740    8.93260    4.42860   20.00770    0.11720
 8599.00000    7.72470    8.36520    8.94040    0.02370   64.84300  124.04630    8.92670    4.44300   19.69680    0.11610
 8599.50000    7.74400    8.49460    9.11300    0.02020   64.90540  123.97060    8.91140    4.43630   19.38580    0.11430
 8600.00000    7.81960    9.11840    9.65220    0.02360   64.84120  123.94800    8.89620    4.47200   19.07490    0.11270
 8600.50000    7.97970    9.40020   10.11840    0.02650   64.65740  123.68470    8.88100    4.52140   18.76400    0.11110
 8601.00000    8.13980    9.29070   10.41310    0.02870   64.44380  123.34710    8.87190    4.55010   18.45310    0.10820
 8601.50000    8.85240    9.31600   10.86920    0.02600   64.00740  123.07210    8.87570    4.53700   18.14220    0.10050
 8602.00000    9.20880    9.59680   11.89480    0.01620   63.23710  122.24880    8.88190    4.58770   17.83130    0.09400
 8602.50000    8.86690   10.02760   11.23820    0.00870   63.31260  121.94420    8.88810    4.63380   17.52040    0.09110
 8603.00000    8.95260   10.82070   11.79850    0.00660   63.28930  122.06800    8.89310    4.66150   17.20950    0.09110
 8603.50000    9.93900   11.45550   12.35970    0.01930   63.39240  121.93580    8.89450    4.68930   16.89860    0.09610
 8604.00000    9.04040   11.45700   12.20100    0.02760   63.37110  121.69960    8.90120    4.71700   16.58770    0.10070
 8604.50000    8.46050   10.72210   11.79070    0.03350   63.29000  121.46350    8.90780    4.71610   16.22010    0.10430
 8605.00000    8.46180   10.22680   10.81820    0.03170   63.28920  121.66330    8.91450    4.68380   15.81470    0.10430
 8605.50000    8.61720    9.97690   10.52460    0.03020   63.28850  121.88880    8.92110    4.68260   15.40930    0.10690
 8606.00000    8.80200   10.06810   10.62640    0.02950   63.18390  123.11250    8.92780    4.71350   15.08020    0.10660
 8606.50000    8.96120   10.15930   11.03360    0.03060   63.23170  124.18600    8.93440    4.72780   14.80200    0.10570
 8607.00000    9.04770   10.23240   11.35970    0.03140   63.27950  123.78340    8.94110    4.73270   14.52380    0.10530
 8607.50000    9.04930    9.99440   10.99610    0.03320   63.32730  123.16290    8.94380    4.69370   14.24560    0.10610
 8608.00000    8.88070    9.76090   10.40860    0.03310   62.96900  122.60770    8.92950    4.62720   13.96740    0.10450
 8608.50000    8.74220    9.76220   10.33520    0.03240   62.36900  121.94870    8.91520    4.58780   13.68920    0.10310
 8609.00000    9.67710   10.60620   10.74110    0.02650   62.26650  120.99050    8.90080    4.60390   14.01640    0.09120
 8609.50000   11.90550   11.54440   12.17800    0.01790   62.26700  120.10780    8.91570    4.62010   14.49500    0.07000
 8610.00000   15.07140   12.03420   12.86240    0.00440   62.54670  120.39690    8.91580    4.75940   14.87790    0.04660
 8610.50000   14.43610   11.69820   12.26810   -0.00330   62.89400  121.42380    8.91580    4.77580   14.87790    0.04300
 8611.00000    8.82960   10.24680   10.78970    0.00440   63.90300  123.37310    8.91580    4.62520   14.88570    0.06180
 8611.50000    6.64470    8.79540    9.37180    0.02080   64.91480  125.12230    8.91640    4.46430   14.88570    0.08060
