~Version ---------------------------------------------------
VERS.   2.0 : CWLS log ASCII Standard -VERSION 2.0
WRAP.    NO : One line per depth step
DLM . SPACE : Column Data Section Delimiter
~Well ------------------------------------------------------
STRT .FT                 65.0 : START DEPTH
STOP .FT               9444.0 : STOP DEPTH
STEP .FT                  0.5 : STEP
NULL .               -9999.25 : NULL VALUE
COMP .                        : COMPANY
WELL .                        : WELL
FLD  .                        : FIELD
LOC  .                        : LOCATION
PROV .                        : PROVINCE
CNTY .                        : COUNTY
STAT .                        : STATE
CTRY .                        : COUNTRY
SRVC .                        : SERVICE COMPANY
DATE .                        : DATE
UWI  .                        : UNIQUE WELL ID
API  .                        : API NUMBER
SLAT .WGS84    6.466453497505 : SURFACE LATITUDE
SLON .WGS84 3.614651016597719 : SURFACE LONGITUDE
DATUM.F                   nan : DEPTH DATUM ELEV
~Curve Information -----------------------------------------
DEPT   .FT    : 
AT10   .OHMM  : ARRAY INDUCTION TWO FOOT RESISTIVITY A10
AT30   .OHMM  : ARRAY INDUCTION TWO FOOT RESISTIVITY A30
AT90   .OHMM  : ARRAY INDUCTION TWO FOOT RESISTIVITY A90
DPHZ_LS.DEC   : HGRD STANDARD RESOLUTION DENSITY POROSITY
DTCO   .US/F  : DELTA-T COMPRESSIONAL
DTSM   .US/F  : DELTA-T SHEAR
HCALR  .IN    : HRCC CALIPER CALIBRATED FROM RESISTIVITY LOG
PEFZ   .B/E   : HRDD STANDARD RESOLUTION FORMATION PHOTOELECTRIC FACTOR
SPR    .MV    : SPONTANEOUS POTENTIAL FROM RESISTIVITY LOG
TNPH_LS.DEC   : THERMAL NEUTRON POROSITY [LIMESTONE]
~Params ----------------------------------------------------
~Other -----------------------------------------------------
~ASCII -----------------------------------------------------
# ...
 9239.00000   61.82870 1972.77310 1342.00290    0.01090   49.35780   87.68770    8.66580    4.40910 -208.94670   -0.00010
 9239.50000   61.85760 1972.76990 1321.82130    0.01300   49.48840   87.52950    8.66710    4.34560 -208.68830    0.00080
 9240.00000   61.88640 1972.76990 1276.38630    0.01500   49.61910   87.72970    8.66840    4.33300 -208.42990    0.00170
 9240.50000   61.91530 1972.76990 1228.35260    0.01580   49.74980   87.67090    8.66970    4.33310 -208.17150    0.00130
 9241.00000   61.94410 1972.76990 1165.50950    0.01170   49.75830   87.61210    8.67110    4.38230 -207.91300    0.00180
 9241.50000   61.97300 1972.76990 1066.52780    0.01460   49.58360   87.55330    8.67240    4.58370 -207.65460    0.00110
 9242.00000   62.00180 1972.76990 1017.41860    0.01460   49.40900   87.68030    8.67370    4.82540 -207.39620    0.00200
 9242.50000   62.03070 1972.76990  971.64200    0.01260   49.52420   87.66630    8.67500    4.97920 -207.13770    0.00250
 9243.00000   60.38170 1972.76990  926.27170    0.00750   49.71200   87.52240    8.67640    4.98280 -206.87930    0.00290
 9243.50000   60.81450 1972.76990  997.38300    0.01280   49.88300   87.53090    8.67770    4.87950 -206.62090    0.00350
 9244.00000   61.24720 1972.76990 1108.54460    0.01120   49.66090   87.67590    8.67900    4.72830 -206.36240    0.00220
 9244.50000   61.67990 1972.76990 1140.43530    0.00150   49.43880   87.45100    8.68030    4.50820 -206.10400    0.00040
 9245.00000   62.02600 1972.63790 1173.24430    0.00070   49.39690   87.25250    8.68170    4.16030 -205.45500   -0.00050
 9245.50000   62.26240 1971.98480 1279.91230    0.01240   49.62520   87.03390    8.68300    3.73750 -205.45500   -0.00090
 9246.00000   62.55820 1971.33160 1382.40420    0.02750   49.63950   86.93310    8.68430    3.44680 -205.45500   -0.00100
 9246.50000   64.43710 1970.67840 1431.71350    0.03380   49.51110   86.80470    8.68560    3.46790 -205.33230   -0.00120
 9247.00000   62.32230 1970.02520 1381.57540    0.03020   49.74410   86.61200    8.68050    3.73830 -204.83420   -0.00130
 9247.50000   60.57310 1969.37200 1239.31080    0.02770   49.91820   86.41930    8.67410    3.98000 -204.35780   -0.00140
 9248.00000   60.81660 1968.71890 1085.33200    0.02030   49.87020   86.26810    8.66780    4.47490 -204.21590   -0.00100
 9248.50000   61.47930 1968.06570  959.29810    0.01370   49.97880   86.28290    8.66640    4.65660 -203.75630   -0.00040
 9249.00000   61.58420 1967.41250  891.85680    0.00930   49.91640   86.48420    8.66850    4.65860 -203.29680    0.00020
 9249.50000   61.54970 1966.75930  914.33000    0.01380   49.88890   86.89720    8.67060    4.53680 -202.83720    0.00080
 9250.00000   61.51520 1966.10610 1048.68260    0.02260   49.86130   87.24400    8.67260    4.49140 -202.37760    0.00140
 9250.50000   61.48070 1965.45290 1202.52310    0.02520   49.85990   87.60510    8.67470    4.52830 -201.91800    0.00270
 9251.00000   61.44620 1964.79980 1269.69250    0.02520   49.87600   88.13710    8.67680    4.56570 -201.45840    0.00520
 9251.50000   61.41170 1964.14660 1409.95540    0.02280   49.86850   88.59320    8.67880    4.59790 -200.99890    0.00730
 9252.00000   60.95960 1963.49340 1500.17840    0.04000   49.97320   89.02700    8.68090    4.67500 -200.53930    0.00900
 9252.50000   60.84880 1962.84020 1500.17660    0.03470   49.99620   89.46070    8.68300    4.89380 -200.07970    0.00820
 9253.00000   60.73800 1962.18700 1579.64370    0.02440   49.99290   89.85330    8.68500    5.12720 -199.62010    0.00620
 9253.50000   60.62720 1961.53390 1664.61290    0.00080   49.97750   90.08150    8.68710    5.27610 -199.16050    0.00420
 9254.00000   60.51640 1960.88070 1618.05490   -0.01020   49.91380   90.08130    8.68910    5.34920 -198.70100    0.00300
 9254.50000   60.40550 1960.22750 1543.33380   -0.00710   49.85010   90.08110    8.69120    5.19370 -198.24140    0.00180
 9255.00000   60.29470 1959.57430 1543.33230   -0.00230   49.82460   89.53280    8.69330    4.99440 -197.78180    0.00020
 9255.50000   60.90290 1958.92110 1587.73780    0.00380   49.54160   88.84750    8.69530    4.78290 -197.32220   -0.00130
 9256.00000   61.69090 1958.26790 1129.63820    0.00680   49.05940   88.45540    8.69740    4.55240 -197.00560   -0.00080
 9256.50000   63.65840 1957.61480 1199.90690    0.01550   49.02490   87.97520    8.69950    4.36700 -197.26090    0.00030
 9257.00000   64.50980 1956.96160 1369.43520    0.02290   49.10220   87.55710    8.70150    4.18920 -197.51620    0.00130
 9257.50000   65.19080 1956.30840 1254.91530    0.02480   49.17960   87.42470    8.70360    4.18920 -197.77150    0.00230
 9258.00000   64.35500 1955.65520 1083.01440    0.02320   49.25690   87.26960    8.70570    4.18920 -197.77150    0.00330
 9258.50000   63.51940 1955.00200  951.31040    0.01660   49.33430   87.48140    8.70770    4.35250 -197.77150    0.00380
 9259.00000   63.51960 1954.34890  831.12390    0.00760   49.41160   87.69310    8.70980    4.56790 -197.76880    0.00410
 9259.50000   63.51970 1953.69570  786.18760    0.00380   49.36950   87.90490    8.71180    4.64360 -197.76680    0.00300
 9260.00000   62.93930 1953.04250  781.20730    0.00750   49.34660   88.15060    8.71390    4.56990 -196.22640    0.00250
 9260.50000   63.48220 1952.38930  796.11920    0.01420   49.32380   88.41890    8.71600    4.37520 -195.31900    0.00300
 9261.00000   63.42110 1951.73610  866.83770    0.01900   49.32830   88.59830    8.71800    4.23160 -195.36100    0.00300
 9261.50000   63.39750 1951.08290  942.58190    0.01990   49.44180   88.95280    8.72010    4.11550 -195.40310    0.00250
 9262.00000   62.01180 1950.42980 1027.67980    0.01870   49.55540   89.30740    8.72220    4.11410 -195.44510    0.00030
 9262.50000   61.79830 1949.77660 1037.44120    0.02480   49.66900   89.66190    8.72420    4.14770 -195.48710    0.00250
 9263.00000   61.58470 1949.12340 1018.00170    0.02850   49.78260   90.02490    8.72630    4.32910 -195.12510    0.00500
 9263.50000   63.39220 1948.47020  961.84620    0.02850   49.89610   90.39360    8.72840    4.68730 -194.45560    0.00850
 9264.00000   62.22370 1947.81700  982.60180    0.02570   49.95610   90.76230    8.73040    4.90230 -193.63460    0.00890
 9264.50000   63.51050 1947.16390 1018.08370    0.02200   49.97970   91.15350    8.73250    5.05580 -194.45120    0.00930
 9265.00000   63.50700 1946.51070 1196.01470    0.02540   50.33420   91.54480    8.73450    5.11720 -193.49360    0.00890
 9265.50000   63.50350 1945.85750 1301.73760    0.02510   50.52340   91.85780    8.73660    5.12580 -193.24230    0.00870
 9266.00000   63.92220 1945.20430 1230.15070    0.02360   50.53710   92.11610    8.73870    5.11720 -193.11310    0.00770
 9266.50000   64.97420 1944.55110 1253.41140    0.01780   50.06360   91.91750    8.74070    5.11110 -191.85850    0.00570
 9267.00000   65.33690 1943.89790 1283.52450    0.00720   50.04380   91.78780    8.75140    5.11170 -191.52630    0.00440
 9267.50000   65.61930 1943.24480 1301.72850    0.00440   49.73080   91.47470    8.74400    5.12690 -191.19410    0.00200
 9268.00000   64.18650 1942.59160 1301.72550    0.00270   49.60560   91.19040    8.73660    5.16620 -190.86180   -0.00040
 9268.50000   64.43970 1941.93840 1241.60390    0.00310   49.60560   90.74450    8.72920    5.21400 -190.52960   -0.00240
 9269.00000   63.51020 1941.28520 1178.46580    0.00430   49.45880   90.31560    8.72180    5.26190 -190.19740   -0.00460
 9269.50000   63.34120 1940.63200 1112.85850    0.00520   49.36150   89.88660    8.72150    5.15960 -189.86510   -0.00160
 9270.00000   63.17210 1939.97890 1103.47020    0.00670   49.29730   89.80070    8.72340    4.95440 -189.53290    0.00090
 9270.50000   63.42680 1939.32570 1114.28590    0.00890   49.25510   89.49270    8.72540    4.74920 -189.50060    0.00190
 9271.00000   63.51360 1938.67250 1163.12770    0.01460   49.24940   89.35540    8.72740    4.57130 -189.38510    0.00300
 9271.50000   63.53200 1938.01930 1218.03950    0.02110   49.13460   89.35540    8.72940    4.52240 -188.44610    0.00360
