~Version ---------------------------------------------------
VERS.   2.0 : CWLS log ASCII Standard -VERSION 2.0
WRAP.    NO : One line per depth step
DLM . SPACE : Column Data Section Delimiter
~Well ------------------------------------------------------
STRT .FT                 65.0 : START DEPTH
STOP .FT               9444.0 : STOP DEPTH
STEP .FT                  0.5 : STEP
NULL .               -9999.25 : NULL VALUE
COMP .                        : COMPANY
WELL .                        : WELL
FLD  .                        : FIELD
LOC  .                        : LOCATION
PROV .                        : PROVINCE
CNTY .                        : COUNTY
STAT .                        : STATE
CTRY .                        : COUNTRY
SRVC .                        : SERVICE COMPANY
DATE .                        : DATE
UWI  .                        : UNIQUE WELL ID
API  .                        : API NUMBER
SLAT .WGS84    6.466453497505 : SURFACE LATITUDE
SLON .WGS84 3.614651016597719 : SURFACE LONGITUDE
DATUM.F                   nan : DEPTH DATUM ELEV
~Curve Information -----------------------------------------
DEPT   .FT    : 
AT10   .OHMM  : ARRAY INDUCTION TWO FOOT RESISTIVITY A10
AT30   .OHMM  : ARRAY INDUCTION TWO FOOT RESISTIVITY A30
AT90   .OHMM  : ARRAY INDUCTION TWO FOOT RESISTIVITY A90
DPHZ_LS.DEC   : HGRD STANDARD RESOLUTION DENSITY POROSITY
DTCO   .US/F  : DELTA-T COMPRESSIONAL
DTSM   .US/F  : DELTA-T SHEAR
HCALR  .IN    : HRCC CALIPER CALIBRATED FROM RESISTIVITY LOG
PEFZ   .B/E   : HRDD STANDARD RESOLUTION FORMATION PHOTOELECTRIC FACTOR
SPR    .MV    : SPONTANEOUS POTENTIAL FROM RESISTIVITY LOG
TNPH_LS.DEC   : THERMAL NEUTRON POROSITY [LIMESTONE]
~Params ----------------------------------------------------
~Other -----------------------------------------------------
~ASCII -----------------------------------------------------
# ...
 8909.00000    8.14990    9.56330   10.35400    0.05100   68.49730  116.73920    8.91260    2.84830   -0.45250    0.12140
 8909.50000    7.67320    8.90080    9.56240    0.05580   69.18780  118.46860    8.92440    2.88240   -0.45250    0.12800
 8910.00000    7.43590    8.65030    9.38210    0.05590   69.64890  119.73380    8.96540    2.91660   -0.45250    0.13460
 8910.50000    7.29670    8.65030    9.20180    0.05590   70.02270  121.39280    8.96880    2.93800   -0.45250    0.13910
 8911.00000    7.23580    8.56970    9.02150    0.05430   70.34380  122.72380    8.97450    2.94060   -1.22340    0.13930
 8911.50000    7.24500    8.14880    8.84120    0.05650   70.56370  123.03560    8.98020    2.94310   -1.07800    0.13940
 8912.00000    7.14080    7.87000    8.73330    0.05940   71.29790  123.85760    8.98590    2.97740   -1.12700    0.14070
 8912.50000    7.03660    7.72270    9.03650    0.05980   71.85850  125.19870    8.98690    2.97620   -1.17600    0.14310
 8913.00000    6.93240    7.68280    9.42220    0.05990   72.49960  126.81500    8.98930    2.97500   -1.22500    0.14720
 8913.50000    6.60840    7.65080    8.30130    0.05520   73.03960  128.47100    8.99180    2.93980   -1.27400    0.15160
 8914.00000    6.34870    7.39190    7.75870    0.05500   73.27210  129.20260    8.99420    2.94720   -0.66820    0.15840
 8914.50000    6.09270    6.89440    7.38960    0.05810   73.81990  130.92980    8.99670    2.97890   -0.66820    0.16810
 8915.00000    5.89070    6.73360    7.18290    0.05930   74.67350  133.03980    8.99910    2.98870   -0.66820    0.17270
 8915.50000    5.90490    6.57670    7.09290    0.05690   74.71060  134.28680    9.00160    3.00780   -1.22190    0.17760
 8916.00000    5.94450    6.45310    7.16090    0.05230   74.94510  135.16480    9.00400    2.99910   -1.23670    0.18000
 8916.50000    5.91660    6.70280    7.16130    0.04760   75.24020  136.03420    9.00640    2.94270   -1.25140    0.18190
 8917.00000    5.72440    6.70330    7.12120    0.04740   75.27440  137.25180    9.00640    2.94730   -1.26620    0.18210
 8917.50000    5.69190    6.43500    7.02770    0.04820   75.76520  137.96320    9.00640    3.04960   -1.28100    0.18100
 8918.00000    5.61760    6.27390    6.85310    0.05010   76.01650  138.50420    9.00640    3.12470   -1.68700    0.17880
 8918.50000    5.65540    6.10270    6.48420    0.05420   77.34540  140.31420    9.00640    3.13610   -1.77890    0.17930
 8919.00000    5.29830    5.91580    6.04030    0.06410   77.88570  142.12420    9.00640    3.14740   -1.26300    0.18530
 8919.50000    4.99200    5.72890    5.69060    0.07260   78.68590  143.37740    9.00640    3.19360   -1.23680    0.19870
 8920.00000    4.75000    5.65430    5.34090    0.07040   79.48080  143.96360    9.00640    3.27720   -1.21060    0.20990
 8920.50000    4.61750    5.60130    5.14260    0.06250   79.26110  143.71730    9.00640    3.35280   -1.18440    0.21040
 8921.00000    4.74620    5.60170    5.14300    0.05340   78.00540  144.16740    9.00640    3.43330   -0.66840    0.21090
 8921.50000    4.78410    5.54920    5.14330    0.06160   76.88750  143.69780    8.99020    3.44970   -0.66840    0.21100
 8922.00000    4.81080    5.54930    5.14360    0.06930   77.16310  144.87610    8.97400    3.48980   -0.46320    0.20570
 8922.50000    5.14720    5.60270    5.44490    0.07130   77.78480  145.60990    8.95780    3.61310    0.56280    0.19790
 8923.00000    5.74400    7.30440    6.59500    0.05930   78.44420  146.34370    8.92430    3.83630    1.58890    0.19320
 8923.50000    5.83890    9.00600    7.51520    0.04230   77.97980  146.63440    8.87300    4.00890    2.61490    0.18410
 8924.00000    4.60670    7.37680    6.13320    0.04120   77.69520  145.41130    8.84230    3.98380    3.73570    0.17600
 8924.50000    3.80170    4.91480    4.40580    0.04820   77.23400  142.73390    9.04190    3.85550    4.91960    0.18650
 8925.00000    3.97060    4.80920    4.40410    0.05580   75.92150  140.05660    9.11650    3.68740    6.10350    0.21940
 8925.50000    4.99340    5.88000    5.35900    0.05230   74.69670  136.85920    9.19110    3.52910    7.06800    0.22910
 8926.00000    5.85410    6.58470    6.08490    0.04530   75.64030  134.00860    9.17060    3.34940    7.28180    0.20890
 8926.50000    6.47160    7.17120    6.97320    0.04160   75.11170  130.68270    8.86280    3.10600    7.17300    0.17390
 8927.00000    6.90750    7.95930    8.91940    0.04590   73.31510  127.85420    8.86280    3.02660    8.87380    0.14230
 8927.50000    6.84280    9.47090   10.86560    0.05470   71.86740  123.49640    8.89970    3.05900    7.45560    0.13000
 8928.00000    7.31230   10.37810   12.66030    0.06410   69.25080  121.99520    8.93670    3.20940    9.79720    0.12710
 8928.50000    6.92660    9.67380   11.63690    0.06440   67.91600  120.04400    8.97360    3.46050    9.79720    0.13250
 8929.00000    6.71560    7.66520    8.66830    0.05370   66.84390  118.76500    8.96270    3.78250    9.79720    0.15770
 8929.50000    9.21730   11.63250   13.29670    0.02480   66.02320  118.51930    8.95170    4.06640    9.44660    0.16790
 8930.00000    9.99820   15.59980   17.92510   -0.01050   65.83260  118.14910    8.77660    4.06640    9.51040    0.13360
 8930.50000   10.38480   14.84790   19.03100   -0.03160   65.98350  117.70210    8.79850    3.97080    9.91130    0.09210
 8931.00000   10.09680   12.66660   16.19350   -0.02060   66.33870  116.19600    8.83220    3.59550    9.90330    0.07570
 8931.50000    9.10210   12.42960   13.66220    0.00200   65.36580  114.47050    8.83680    3.28850    9.89540    0.09060
 8932.00000    9.04890   12.19680   13.28010    0.02120   64.55990  113.00800    8.84130    3.20570    9.88740    0.10740
 8932.50000    9.13390   12.31370   13.40730    0.03350   64.93180  111.53170    8.84220    3.12290    9.87950    0.11900
 8933.00000    9.77830   13.26300   14.45850    0.03750   64.82940  109.44320    8.85050    3.08850    9.87150    0.11820
 8933.50000   11.19030   14.06130   15.56590    0.03930   64.63190  108.39590    8.82990    3.03820    9.86360    0.10820
 8934.00000   12.76850   17.13290   16.67330    0.03850   64.52570  107.86620    8.82170    3.04920    9.85570    0.08820
 8934.50000   12.92640   19.77690   16.67430    0.04140   64.27230  107.72150    8.82070    3.06020    9.84770    0.08270
 8935.00000   12.94460   19.96610   17.31890    0.04570   63.60320  107.10160    8.81590    3.11960    9.83980    0.07940
 8935.50000   12.88690   19.77880   17.21360    0.05050   63.38270  106.48180    8.81100    3.18900    9.83180    0.08230
 8936.00000   12.87260   19.59330   17.83990    0.04910   63.18390  106.70640    8.80610    3.22990    9.82390    0.08650
 8936.50000   12.84220   20.15910   18.68510    0.04870   63.24810  107.30550    8.80120    3.25430    9.81590    0.09030
 8937.00000   13.16430   18.51300   18.16260    0.04530   63.43900  107.50070    8.82170    3.24860    9.80800    0.09440
 8937.50000   12.77750   17.24920   15.96090    0.04520   63.58660  107.89370    8.82370    3.23410    9.80010    0.09520
 8938.00000   12.72300   16.21570   14.19970    0.04520   63.65660  108.32490    8.82860    3.21970    9.70470    0.09610
 8938.50000   13.35980   16.37090   14.47200    0.04460   63.66170  108.90680    8.83350    3.20920    9.55100    0.09740
 8939.00000   11.57230   14.79910   13.62380    0.04290   63.99990  110.01000    8.83850    3.21100    9.79690    0.09880
 8939.50000   10.20060   12.44050   11.20800    0.04320   65.01120  111.45900    8.84340    3.19890    9.79680    0.10020
 8940.00000   11.19760   15.43190   14.05340    0.04490   65.40530  113.81340    8.84830    3.16430    9.40130    0.10150
 8940.50000   11.53820   18.87350   16.68470    0.04690   66.96040  115.72330    8.85320    3.16430    9.79680    0.10560
 8941.00000    9.98100   14.57730   12.15840    0.04890   68.18080  118.87830    8.86890    3.16430    9.79680    0.11250
 8941.50000    8.03420    8.60070    8.30590    0.05050   69.84980  122.33520    8.90790    3.16430    9.79680    0.12360
