~Version ---------------------------------------------------
VERS.   2.0 : CWLS log ASCII Standard -VERSION 2.0
WRAP.    NO : One line per depth step
DLM . SPACE : Column Data Section Delimiter
~Well ------------------------------------------------------
STRT .FT                 65.0 : START DEPTH
STOP .FT               9444.0 : STOP DEPTH
STEP .FT                  0.5 : STEP
NULL .               -9999.25 : NULL VALUE
COMP .                        : COMPANY
WELL .                        : WELL
FLD  .                        : FIELD
LOC  .                        : LOCATION
PROV .                        : PROVINCE
CNTY .                        : COUNTY
STAT .                        : STATE
CTRY .                        : COUNTRY
SRVC .                        : SERVICE COMPANY
DATE .                        : DATE
UWI  .                        : UNIQUE WELL ID
API  .                        : API NUMBER
SLAT .WGS84    6.466453497505 : SURFACE LATITUDE
SLON .WGS84 3.614651016597719 : SURFACE LONGITUDE
DATUM.F                   nan : DEPTH DATUM ELEV
~Curve Information -----------------------------------------
DEPT   .FT    : 
AT10   .OHMM  : ARRAY INDUCTION TWO FOOT RESISTIVITY A10
AT30   .OHMM  : ARRAY INDUCTION TWO FOOT RESISTIVITY A30
AT90   .OHMM  : ARRAY INDUCTION TWO FOOT RESISTIVITY A90
DPHZ_LS.DEC   : HGRD STANDARD RESOLUTION DENSITY POROSITY
DTCO   .US/F  : DELTA-T COMPRESSIONAL
DTSM   .US/F  : DELTA-T SHEAR
HCALR  .IN    : HRCC CALIPER CALIBRATED FROM RESISTIVITY LOG
PEFZ   .B/E   : HRDD STANDARD RESOLUTION FORMATION PHOTOELECTRIC FACTOR
SPR    .MV    : SPONTANEOUS POTENTIAL FROM RESISTIVITY LOG
TNPH_LS.DEC   : THERMAL NEUTRON POROSITY [LIMESTONE]
~Params ----------------------------------------------------
~Other -----------------------------------------------------
~ASCII -----------------------------------------------------
# ...
 8249.00000    5.94750   16.93680   58.89900   -0.01020   50.03010  108.79390    9.14910    5.80210   10.14430    0.01600
 8249.50000    5.01540   13.67410   21.99850   -0.01310   54.78320  112.99210    9.12910    5.78850   10.15540    0.01760
 8250.00000    4.02220    5.65400   12.47540   -0.00810   65.26480  114.65520    9.09500    5.56950   10.16650    0.02500
 8250.50000    4.72550    5.69020    8.26470    0.01430   76.31380  115.51310    9.06090    5.35050   10.17750    0.03860
 8251.00000    3.80950    4.37890    5.55280    0.03390   87.36280  115.68520    9.03010    5.05900   10.18860    0.10010
 8251.50000    1.83250    2.46720    3.08600    0.05510   98.41180  114.93240    9.12940    4.65870   10.71180    0.17160
 8252.00000    1.21530    1.43760    1.56480    0.08870  109.46080  113.28880    9.84990    4.25840   10.18460    0.24300
 8252.50000    1.05800    1.15340    1.20820    0.11690  109.21800  125.36330   10.28550    3.85810   10.17240    0.30010
 8253.00000    1.00920    1.07440    1.11730    0.14340  108.92530  240.10270   10.60700    3.62200   10.16010    0.39500
 8253.50000    1.00640    1.04110    1.07850    0.14930  108.07280  240.10270   10.65890    3.50360   10.14780    0.39910
 8254.00000    0.99940    1.03800    1.08890    0.15240  106.94230  240.10270   10.50860    3.47530   10.13550    0.40460
 8254.50000    0.99240    1.03420    1.13100    0.15140  106.54180  240.10270   10.47810    3.44900   10.12320    0.39820
 8255.00000    0.98540    1.03040    1.09940    0.14960  106.75450  240.10270   10.45380    3.39790   10.11090    0.40460
 8255.50000    0.97840    1.02650    1.10650    0.14970  106.75800  240.10270   10.37600    3.34680   10.09860    0.38710
 8256.00000    0.97140    1.02270    1.11000    0.15120  106.84920  240.10270   10.33950    3.34430   10.11220    0.40000
 8256.50000    0.96440    1.02200    1.09990    0.15130  106.85920  240.10270   10.50550    3.39130   10.13220    0.41380
 8257.00000    0.95400    1.01610    1.04880    0.15290  107.05680  240.10270   10.53490    3.45960   10.15230    0.42300
 8257.50000    0.94210    1.00140    1.04810    0.15300  107.95470  240.10270   10.58390    3.51330   10.17230    0.42730
 8258.00000    0.93380    0.98670    1.04430    0.15460  109.15960  240.10270   10.54110    3.56880   10.19240    0.44570
 8258.50000    0.92200    0.97190    1.04040    0.15560  107.68410  240.10270   10.50160    3.60320   10.21240    0.43740
 8259.00000    0.91010    0.96590    1.03660    0.15870  107.12440  240.10270   10.44640    3.63390   10.23240    0.43140
 8259.50000    0.91020    0.96590    1.03270    0.16150  105.88100  240.10270   10.53370    3.64430    9.70760    0.42430
 8260.00000    0.91020    0.95400    1.02960    0.16780  104.00780  240.10270   10.44010    3.68530    9.61620    0.44130
 8260.50000    0.91030    0.95040    1.02970    0.16410  102.89660  240.10270   10.50580    3.91170   13.37450    0.41870
 8261.00000    0.99780    1.11580    1.18110    0.14200  102.89340  240.10270   10.22450    4.12920   13.99520    0.39530
 8261.50000    1.21630    1.32410    1.43340    0.12070  103.30130  229.00570    9.63050    4.25640   13.31120    0.34800
 8262.00000    1.43480    1.54200    1.68560    0.11360  103.41940  210.51060    9.73240    4.30510   12.62710    0.32670
 8262.50000    1.32150    1.43700    1.56040    0.14410  103.12810  192.01550   10.09300    4.13090   10.10510    0.34780
 8263.00000    1.08680    1.17430    1.24710    0.16670  102.92140  192.71480   10.25760    3.91350   10.14970    0.37850
 8263.50000    0.96860    1.01500    1.06630    0.16660  102.63270  239.90000   10.30530    3.83320   10.19430    0.40740
 8264.00000    0.95500    0.98390    1.01730    0.15630   92.60730  117.83340   10.36100    3.78730   10.23890    0.40230
 8264.50000    0.95510    0.97900    1.03030    0.14750   87.35190  119.54490   10.37780    3.76790   10.28350    0.40480
 8265.00000    0.98270    1.14540    1.19290    0.13800   80.62210  121.99370   10.10180    3.98010   10.62540    0.39030
 8265.50000    1.28130    1.66610    1.68860    0.10500   73.89240  126.05350    9.95160    4.30590   11.16540    0.36130
 8266.00000    2.00780    2.55830    2.58330    0.05670   65.54810  124.61540    9.86960    4.65460   11.70550    0.31010
 8266.50000    2.73440    3.45060    4.04160    0.01540   60.27360  124.09460    9.35430    5.02500   12.24550    0.23400
 8267.00000    4.03920    4.69770    5.30790   -0.00230   59.83810  122.15850    9.10980    5.11650   11.98870    0.16850
 8267.50000    5.37690    6.18130    6.60770    0.00780   57.34240  118.60920    9.08340    5.16410   11.53270    0.12570
 8268.00000    7.42510    7.91300    8.35970    0.00930   55.40360  114.79550    9.05700    5.19120   11.15950    0.11620
 8268.50000    9.47320   18.72380   11.38570    0.00340   55.20280  111.82820    9.03060    5.23340   10.78640    0.10400
 8269.00000   14.18910   31.71120   22.62260    0.00060   56.34770  105.69860    9.00420    5.25280   10.64280    0.04450
 8269.50000   18.41930   45.08940   38.10120   -0.00290   54.32800  103.61720    8.97790    5.18040   10.55650    0.02600
 8270.00000   18.62080   54.71300   39.19520   -0.00670   54.24720  103.23890    8.94960    5.05490   10.47020    0.01500
 8270.50000   16.51350   46.44040   24.63290   -0.00930   54.15270  103.07430    8.92000    4.90180   10.36740    0.01610
 8271.00000   14.33720   28.58920   21.80360   -0.01200   54.87550  103.43770    8.89050    4.78470   10.19870    0.02670
 8271.50000   12.64390   23.73660   22.10750   -0.01900   55.65400  103.82600    8.86990    4.70950   10.03000    0.04330
 8272.00000   10.29580   18.88410   16.15620   -0.02490   55.69420  104.00670    8.86290    4.58030   10.81910    0.06290
 8272.50000    8.63200   14.03150   11.66190   -0.02880   56.13630  104.99230    8.85590    4.42250   11.84760    0.08410
 8273.00000    7.81170   14.99550   12.95470   -0.02070   56.61700  105.70340    8.84880    4.25920   12.05330    0.11080
 8273.50000   12.01900   24.66480   19.41510   -0.01830   55.73840  104.77980    8.84180    4.23670   11.82330    0.11870
 8274.00000   17.82260   34.66120   25.24440   -0.00800   54.42860  103.65780    8.83470    4.37540   11.23930    0.08540
 8274.50000   23.27830   77.52700   34.40610    0.00210   54.24320  102.52640    8.82770    4.56140   10.83110    0.05380
 8275.00000   29.28540  120.39290   48.31410    0.01340   54.03790  101.45400    8.82060    4.87980   10.60560    0.02930
 8275.50000   34.77960  163.25870   79.42470    0.01940   53.17650   99.41450    8.81360    5.10120   10.38000    0.01910
 8276.00000   36.31700  219.79780  128.16310    0.01580   51.82820   98.12570    8.80650    5.17730   10.15440    0.01120
 8276.50000   38.37610  384.41120  208.13650    0.01280   51.05750   95.59800    8.80760    5.20280    9.06240    0.01060
 8277.00000   40.13010  629.17440  280.58890    0.01090   50.95470   93.97730    8.81060    5.20590    6.58990    0.01170
 8277.50000   41.42660  697.97150  302.25330    0.01430   50.85190   94.52230    8.81370    5.20950    3.79400    0.01620
 8278.00000   41.34920  820.42180  268.95010    0.01720   51.01800   95.20590    8.81670    5.19130    0.99820    0.02060
 8278.50000   40.69760  681.55420  228.54110    0.02140   51.15410   94.44570    8.81980    5.17320    0.41430    0.02320
 8279.00000   40.81770  600.25280  216.33090    0.02470   51.26300   95.40360    8.82280    5.16440   -0.16950    0.02480
 8279.50000   42.44360 1208.68560  209.74940    0.03240   51.21900   96.03790    8.82930    5.22290   -1.04660    0.02480
 8280.00000   41.62720 1105.21190  200.06060    0.03410   51.17880   95.83660    8.82710    5.27760   -3.04910    0.02430
 8280.50000   40.97600  606.09920  135.68570    0.03200   51.13860   95.63520    8.82500    5.28390   -3.88430    0.02090
 8281.00000   40.62140  426.30210   96.10480    0.02470   51.02340   95.51850    8.82280    5.21380   -4.83040    0.01500
 8281.50000   42.74620  346.63010  101.16600    0.01600   50.69780   95.08380    8.82070    5.16880   -5.58390    0.01330
