~Version ---------------------------------------------------
VERS.   2.0 : CWLS log ASCII Standard -VERSION 2.0
WRAP.    NO : One line per depth step
DLM . SPACE : Column Data Section Delimiter
~Well ------------------------------------------------------
STRT .FT                 65.0 : START DEPTH
STOP .FT               9444.0 : STOP DEPTH
STEP .FT                  0.5 : STEP
NULL .               -9999.25 : NULL VALUE
COMP .                        : COMPANY
WELL .                        : WELL
FLD  .                        : FIELD
LOC  .                        : LOCATION
PROV .                        : PROVINCE
CNTY .                        : COUNTY
STAT .                        : STATE
CTRY .                        : COUNTRY
SRVC .                        : SERVICE COMPANY
DATE .                        : DATE
UWI  .                        : UNIQUE WELL ID
API  .                        : API NUMBER
SLAT .WGS84    6.466453497505 : SURFACE LATITUDE
SLON .WGS84 3.614651016597719 : SURFACE LONGITUDE
DATUM.F                   nan : DEPTH DATUM ELEV
~Curve Information -----------------------------------------
DEPT   .FT    : 
AT10   .OHMM  : ARRAY INDUCTION TWO FOOT RESISTIVITY A10
AT30   .OHMM  : ARRAY INDUCTION TWO FOOT RESISTIVITY A30
AT90   .OHMM  : ARRAY INDUCTION TWO FOOT RESISTIVITY A90
DPHZ_LS.DEC   : HGRD STANDARD RESOLUTION DENSITY POROSITY
DTCO   .US/F  : DELTA-T COMPRESSIONAL
DTSM   .US/F  : DELTA-T SHEAR
HCALR  .IN    : HRCC CALIPER CALIBRATED FROM RESISTIVITY LOG
PEFZ   .B/E   : HRDD STANDARD RESOLUTION FORMATION PHOTOELECTRIC FACTOR
SPR    .MV    : SPONTANEOUS POTENTIAL FROM RESISTIVITY LOG
TNPH_LS.DEC   : THERMAL NEUTRON POROSITY [LIMESTONE]
~Params ----------------------------------------------------
~Other -----------------------------------------------------
~ASCII -----------------------------------------------------
# ...
 9173.00000   59.12490 1700.54360  398.18470    0.01240   50.92760   89.79120    8.69950    4.87980 -158.94350    0.01430
 9173.50000   58.95520 1917.71810  923.97330    0.00720   50.82800   89.62900    8.70150    4.24360 -158.62320    0.01280
 9174.00000   59.15580 1470.98470 1185.29600    0.01750   50.96390   89.46690    8.70360    3.60650 -159.31450    0.01390
 9174.50000   59.35650 1041.70640  705.18020    0.04250   51.13520   89.30480    8.70560    3.18290 -160.33200    0.01560
 9175.00000   58.93790  685.21940  630.58600    0.05950   51.13470   89.17490    8.70760    3.02920 -160.00760    0.01560
 9175.50000   58.41860  516.54000  541.31930    0.05190   51.21670   89.03690    8.70960    3.64880 -160.79060    0.01480
 9176.00000   59.10410  665.76760  551.61700    0.03200   50.98780   89.03580    8.71170    4.52270 -161.57360    0.01280
 9176.50000   59.60620  796.89420  562.11340    0.02150   50.78970   89.17170    8.71370    4.99980 -162.35660    0.01120
 9177.00000   59.60620  838.72560  613.05620    0.01260   50.09500   89.46440    8.71570    5.18710 -163.13960    0.01230
 9177.50000   60.10680  933.48740  739.74200    0.01520   49.99150   89.95270    8.71780    5.17180 -164.41480    0.01390
 9178.00000   60.74380 1028.24700  728.01140    0.01940   49.93060   90.44100    8.71980    5.17180 -165.73330    0.01450
 9178.50000   61.38080  981.36610  704.32200    0.02340   49.83120   90.81200    8.72180    5.02790 -167.70680    0.01450
 9179.00000   62.01780  843.23500  659.05520    0.02650   49.77380   90.81090    8.72380    4.84800 -170.30700    0.01360
 9179.50000   62.27060  819.65720  804.61010    0.03710   49.56550   90.80990    8.72590    4.56590 -171.09050    0.01280
 9180.00000   62.26270  952.65200  827.74650    0.04570   49.35730   90.80880    8.72790    4.40760 -169.38730    0.01190
 9180.50000   62.12890 1135.34500  930.03810    0.04250   49.14910   90.80780    8.72990    4.58690 -174.48470    0.01110
 9181.00000   61.99510  911.58650  736.52450    0.03260   48.96950   90.80670    8.73190    4.86960 -176.28860    0.01030
 9181.50000   61.86130 1019.10410  808.48670    0.02440   48.90480   90.80570    8.73400    5.11180 -177.61510    0.00790
 9182.00000   61.72760 1301.91780  944.63030    0.02090   48.84000   90.53070    8.73600    5.22640 -177.78040    0.00520
 9182.50000   61.06510 1326.73040  725.07980    0.01980   48.77530   90.66680    8.73800    5.21370 -178.65070    0.00250
 9183.00000   61.05920 1954.24520  914.57330    0.01700   48.77530   91.07680    8.74010    5.21240 -180.74770   -0.00030
 9183.50000   63.40310 1954.79720 1290.08750    0.01460   48.81320   91.34970    8.74210    5.19000 -181.51260   -0.00140
 9184.00000   64.35310 1955.48730 1184.91730    0.01110   48.84510   91.34870    8.74210    5.18520 -181.73030    0.00140
 9184.50000   64.66900 1956.17750 1013.34410    0.00820   48.74680   91.34760    8.74210    5.15030 -182.30160    0.00350
 9185.00000   64.65580 1956.86760  900.96550    0.00710   48.67520   91.34670    8.74210    5.10490 -182.49770    0.00320
 9185.50000   63.60630 1957.55770  819.68410    0.00480   48.76030   91.05630    8.74210    5.05110 -182.50730    0.00300
 9186.00000   63.62160 1958.24790  784.69230    0.00440   48.72390   90.67480    8.74210    5.00430 -182.97210    0.00300
 9186.50000   63.63690 1958.93800  746.00810    0.00440   48.74020   90.24750    8.74210    4.98570 -183.50840    0.00300
 9187.00000   63.65210 1959.62810  718.06730    0.00480   48.67470   90.24650    8.74210    4.96710 -184.56360    0.00300
 9187.50000   63.66740 1960.31820  731.74090    0.00600   48.67690   90.24540    8.74210    4.96710 -184.67340    0.00300
 9188.00000   64.73330 1961.00840  767.11860    0.00810   48.65510   90.24430    8.74210    4.98070 -184.78330    0.00330
 9188.50000   65.16790 1961.69850  874.32740    0.00850   48.70220   90.24330    8.74210    5.04630 -184.89310    0.00410
 9189.00000   65.56100 1962.38860  991.17240    0.00760   48.66990   90.32850    8.74210    5.14180 -185.00290    0.00410
 9189.50000   65.92650 1963.07880 1057.70290    0.00220   48.65340   90.43520    8.74210    5.23730 -186.19560    0.00410
 9190.00000   67.49020 1963.76890 1050.31530   -0.00010   48.67830   90.38920    8.74210    5.28100 -186.20100    0.00410
 9190.50000   67.47720 1964.45900  971.43490   -0.00050   48.65240   90.61050    8.74320    5.26740 -186.20630    0.00410
 9191.00000   68.34090 1965.14910  988.22160   -0.00050   48.82690   90.62600    8.74470    5.20830 -186.21170    0.00460
 9191.50000   68.40300 1965.83930  985.30870    0.00130   48.65150   90.64160    8.74620    5.15140 -186.21700    0.00460
 9192.00000   67.94430 1966.52940  982.39580    0.00440   48.73320   90.64720    8.74770    5.10140 -186.22240    0.00460
 9192.50000   67.14590 1967.21950  962.28540    0.00740   48.82660   90.64620    8.74920    5.07810 -187.57130    0.00460
 9193.00000   65.98590 1967.90970  867.27010    0.00950   48.67930   90.56180    8.75070    5.08680 -187.03870    0.00570
 9193.50000   66.00760 1968.59980  794.55400    0.01010   48.54660   90.35220    8.75220    5.09550 -187.21060    0.00570
 9194.00000   66.02930 1969.28990  547.57240    0.01380   48.50210   90.14270    8.75370    5.11000 -187.38240    0.00410
 9194.50000   66.05110 1969.98000  373.98700    0.00920   48.28140   89.93320    8.75520    5.16980 -187.55420    0.00500
 9195.00000   67.19640 1970.67020  491.90700    0.00490   48.32920   89.72360    8.75670    5.26830 -188.32310    0.00080
 9195.50000   68.29440 1971.36030  662.55650    0.00070   48.21890   89.40690    8.75820    5.28030 -187.64590   -0.00470
 9196.00000   68.29440 1972.05040  811.73420   -0.00020   48.04560   89.43830    8.75970    5.24470 -187.67500   -0.00150
 9196.50000   68.29440 1972.74060  840.70950    0.00110   48.20350   89.51820    8.76120    5.20910 -187.70410    0.00330
 9197.00000   68.29440 1973.43070  869.68480    0.00280   48.23510   89.59820    8.76280    5.17020 -188.01500    0.00800
 9197.50000   67.21970 1974.12080  909.20720    0.00460   48.33700   89.67810    8.76340    5.14550 -188.59580    0.00900
 9198.00000   65.97070 1974.81090  985.84450    0.00630   48.39010   89.75810    8.76190    5.11820 -189.18080    0.00830
 9198.50000   65.74020 1975.50110 1062.48170    0.00840   48.62640   89.83800    8.75940    5.11800 -188.66790    0.00780
 9199.00000   65.13020 1976.19120 1221.10670    0.00840   48.67800   89.91800    8.75700    5.11780 -188.82560    0.00730
 9199.50000   64.69050 1976.88130 1400.22860    0.00810   48.82710   89.99790    8.75450    5.11770 -189.24610    0.00710
 9200.00000   64.99650 1977.57150 1562.19870    0.00750   48.87870   90.07790    8.75210    5.12430 -189.66670    0.00680
 9200.50000   65.30240 1978.26160 1649.09490    0.00720   48.93030   90.15780    8.74960    5.14130 -190.08720    0.00650
 9201.00000   65.92160 1978.95170 1696.52120    0.01110   48.92150   90.23780    8.74720    5.15820 -189.92470    0.00550
 9201.50000   66.27850 1979.64190 1712.63040    0.01260   48.84810   90.31770    8.74470    5.19440 -189.90380    0.00440
 9202.00000   67.10120 1980.33200 1572.97250    0.01280   48.84810   90.39760    8.74220    5.20870 -189.95460    0.00310
 9202.50000   67.09880 1981.02210 1325.13060    0.01250   48.84810   90.47760    8.73980    5.22300 -189.95420    0.00190
 9203.00000   65.91520 1981.71220 1088.27520    0.01420   48.91660   90.64720    8.73730    5.23730 -190.78490    0.00190
 9203.50000   65.58540 1982.40240  851.41980    0.01630   49.05130   90.73030    8.73490    5.24740 -191.55840    0.00190
 9204.00000   65.08760 1983.09250  715.93430    0.01760   49.18290   90.81330    8.73240    5.23870 -190.78410    0.00190
 9204.50000   63.52850 1983.78260  619.38300    0.01920   49.32070   90.89630    8.73000    5.22490 -190.78410    0.00410
 9205.00000   63.54760 1984.47280  572.14340    0.01950   49.48930   90.97940    8.72750    5.19820 -190.78410    0.00660
 9205.50000   63.56680 1985.16290  577.57330    0.01950   49.71550   91.06240    8.72500    5.19250 -190.78410    0.00990
