~Version ---------------------------------------------------
VERS.   2.0 : CWLS log ASCII Standard -VERSION 2.0
WRAP.    NO : One line per depth step
DLM . SPACE : Column Data Section Delimiter
~Well ------------------------------------------------------
STRT .FT                 65.0 : START DEPTH
STOP .FT               9444.0 : STOP DEPTH
STEP .FT                  0.5 : STEP
NULL .               -9999.25 : NULL VALUE
COMP .                        : COMPANY
WELL .                        : WELL
FLD  .                        : FIELD
LOC  .                        : LOCATION
PROV .                        : PROVINCE
CNTY .                        : COUNTY
STAT .                        : STATE
CTRY .                        : COUNTRY
SRVC .                        : SERVICE COMPANY
DATE .                        : DATE
UWI  .                        : UNIQUE WELL ID
API  .                        : API NUMBER
SLAT .WGS84    6.466453497505 : SURFACE LATITUDE
SLON .WGS84 3.614651016597719 : SURFACE LONGITUDE
DATUM.F                   nan : DEPTH DATUM ELEV
~Curve Information -----------------------------------------
DEPT   .FT    : 
AT10   .OHMM  : ARRAY INDUCTION TWO FOOT RESISTIVITY A10
AT30   .OHMM  : ARRAY INDUCTION TWO FOOT RESISTIVITY A30
AT90   .OHMM  : ARRAY INDUCTION TWO FOOT RESISTIVITY A90
DPHZ_LS.DEC   : HGRD STANDARD RESOLUTION DENSITY POROSITY
DTCO   .US/F  : DELTA-T COMPRESSIONAL
DTSM   .US/F  : DELTA-T SHEAR
HCALR  .IN    : HRCC CALIPER CALIBRATED FROM RESISTIVITY LOG
PEFZ   .B/E   : HRDD STANDARD RESOLUTION FORMATION PHOTOELECTRIC FACTOR
SPR    .MV    : SPONTANEOUS POTENTIAL FROM RESISTIVITY LOG
TNPH_LS.DEC   : THERMAL NEUTRON POROSITY [LIMESTONE]
~Params ----------------------------------------------------
~Other -----------------------------------------------------
~ASCII -----------------------------------------------------
# ...
 8843.00000   36.92660  155.53810  135.00030    0.02120   52.08530   94.00850    8.76240    4.40690  -20.39170    0.03030
 8843.50000   41.07690  279.40410  194.52310    0.01950   52.05580   94.18990    8.76780    4.67370  -20.52000    0.02380
 8844.00000   42.28750  310.15590  203.04390    0.00760   51.98200   94.37120    8.77320    4.92320  -20.64830    0.01830
 8844.50000   41.44440  225.19560  126.59400   -0.00040   52.01360   94.55260    8.77860    4.91570  -20.77650    0.01900
 8845.00000   40.33250  173.85580  104.62870   -0.00100   52.00630   94.64460    8.78400    4.90820  -20.90480    0.01980
 8845.50000   38.44580  158.35070   96.28450    0.00030   51.80960   94.93390    8.78940    4.90230  -21.77110    0.02060
 8846.00000   37.27470  149.37210   87.80420   -0.00180   52.11910   95.38170    8.79480    4.82590  -23.74430    0.02140
 8846.50000   35.99480  135.85310   80.95250   -0.00530   52.44500   95.68670    8.80020    4.73040  -25.71750    0.02520
 8847.00000   34.38260  122.39040   74.89870   -0.00670   52.98450   96.23310    8.80560    4.63850  -26.36470    0.02770
 8847.50000   32.77030   86.97560   67.34280   -0.00510   53.52400   96.67640    8.81100    4.46210  -26.68050    0.02920
 8848.00000   29.79890   71.91100   54.42000    0.00120   54.06350   97.26340    8.81640    4.24350  -26.91140    0.03450
 8848.50000   24.84060   54.82480   41.49710    0.00810   54.60300   97.80840    8.82180    4.08130  -26.80350    0.04450
 8849.00000   22.77100   37.73860   37.13230    0.01420   55.14260   98.66000    8.81740    4.01220  -26.69550    0.05780
 8849.50000   22.25780   34.98130   33.68410    0.01670   55.68210   99.58840    8.81290    4.02160  -26.58750    0.06490
 8850.00000   21.34940   34.48870   30.63380    0.01420   56.16470  100.51670    8.80840    4.07340  -26.64900    0.06740
 8850.50000   20.44100   34.65860   33.36640    0.01280   56.54460  100.96020    8.80400    4.17560  -26.96470    0.07010
 8851.00000   20.48570   35.99600   33.05280    0.01140   56.69220  100.84320    8.79950    4.30370  -27.28040    0.07010
 8851.50000   20.53040   36.68740   31.88400    0.01350   56.45270  100.72610    8.79510    4.47050  -27.27220    0.06680
 8852.00000   23.01750   41.50570   34.99220    0.01130   56.19530  100.90900    8.79060    4.61540  -27.18300    0.05780
 8852.50000   28.28240   64.49360   57.36410    0.00750   55.88310   99.62280    8.78610    4.67530  -27.09380    0.04290
 8853.00000   34.43760   87.48150   79.73590    0.00480   55.47650   98.39060    8.78170    4.67700  -27.00460    0.02990
 8853.50000   37.53630  110.30390   91.24690    0.00300   55.25790   97.37250    8.77720    4.55340  -26.85110    0.02250
 8854.00000   38.23680  145.30370  110.03020    0.00270   54.71010   95.73860    8.77270    4.33050  -26.44070    0.02130
 8854.50000   38.77450  178.96550  121.30170    0.00560   54.54140   94.10460    8.76830    4.09560  -26.03030    0.02200
 8855.00000   37.51440  177.28020  117.90130    0.01200   54.69930   93.58690    8.76380    3.87190  -25.61990    0.02330
 8855.50000   34.35240  151.74920   95.96390    0.01680   54.79380   92.65920    8.76030    3.68420  -25.20950    0.02590
 8856.00000   31.19050  112.56850   71.31140    0.02140   54.92190   92.28800    8.76030    3.56240  -24.86840    0.02850
 8856.50000   27.67630   81.98540   59.58410    0.02650   55.16480   92.32800    8.76030    3.40840  -24.80430    0.03110
 8857.00000   24.83940   60.68800   46.97810    0.03430   55.44540   91.91700    8.76030    3.36350  -24.74020    0.03370
 8857.50000   24.11790   60.11730   46.53650    0.04210   55.47650   91.71150    8.76030    3.33370  -24.67600    0.03520
 8858.00000   26.21500   75.31040   50.57670    0.04570   55.40560   91.83910    8.76030    3.34980  -24.61190    0.03470
 8858.50000   29.14840   92.13130   55.62380    0.04390   54.97010   92.14450    8.76030    3.49880  -24.54780    0.03300
 8859.00000   32.88060  108.95230   72.98450    0.03670   55.09600   92.82040    8.76030    3.62190  -24.48370    0.03060
 8859.50000   38.12670  118.48450   80.69230    0.02950   54.96620   93.49640    8.76030    3.69310  -23.75270    0.02750
 8860.00000   37.92410  103.25890   78.46250    0.02440   55.00590   93.92090    8.76030    3.67360  -22.85490    0.02540
 8860.50000   31.86190   85.71960   75.51280    0.02860   54.97790   94.67490    8.76030    3.75490  -21.95710    0.03050
 8861.00000   24.96490   64.43210   56.83690    0.03470   55.32970   96.40930    8.76030    3.91970  -21.13220    0.03570
 8861.50000   21.10950   49.27330   37.78290    0.03110   55.77090   97.77450    8.76030    4.18120  -20.35590    0.04200
 8862.00000   20.47230   47.89250   39.24560    0.02350   55.86390   98.67550    8.76030    4.26340  -19.57960    0.04270
 8862.50000   19.54660   44.81750   38.41480    0.01510   55.85160  100.65420    8.76370    4.24210  -18.80330    0.04300
 8863.00000   17.40730   37.48530   32.38350    0.00980   56.23080  101.22740    8.76810    4.22080  -17.90420    0.04780
 8863.50000   16.53000   32.46480   26.35210    0.00790   56.49380  101.84400    8.77250    4.21650  -16.79470    0.05320
 8864.00000   19.28260   32.77570   29.53080    0.00680   56.60570  102.46060    8.77680    4.25990  -15.97150    0.05520
 8864.50000   21.36940   40.76830   38.15290    0.00350   57.22350  103.30140    8.78120    4.30330  -15.14830    0.04960
 8865.00000   17.39660   38.51460   32.38130    0.00300   57.78870  104.29160    8.78560    4.31200  -14.32540    0.04660
 8865.50000   13.93990   26.10580   23.74570    0.00300   59.09880  105.10510    8.78990    4.27180  -13.32670    0.04810
 8866.00000   12.73720   22.86040   21.59780    0.00380   59.79760  105.90810    8.79430    4.08440  -12.34400    0.05840
 8866.50000   10.95630   18.95200   16.62870    0.00390   59.82230  106.93830    8.79870    3.86380  -12.00620    0.07560
 8867.00000    8.92570   12.34120   11.65960    0.01000   59.63460  107.29030    8.82180    3.62210  -11.74210    0.09060
 8867.50000    8.43440   12.11000   11.49190    0.02010   59.37230  107.04920    8.80130    3.54700  -10.91810    0.10950
 8868.00000    9.91610   13.70000   12.82120    0.02740   58.86740  106.38730    8.76710    3.74560  -10.51310    0.10730
 8868.50000   13.25060   38.89920   19.46270    0.02840   57.61060  105.72550    8.73770    4.15850   -9.90110    0.08600
 8869.00000   18.20230   70.06990   51.49260    0.02060   56.22350  105.06360    8.72740    4.60540   -9.90110    0.05640
 8869.50000   22.72570  101.24070   83.52260    0.01560   54.79140  103.71100    8.71710    4.98940   -9.90110    0.03380
 8870.00000   22.55090  132.41150  115.55260    0.01060   52.77480  101.46730    8.70690    5.07630   -9.90110    0.02020
 8870.50000   22.87930  237.99780  152.35280    0.00560   51.81750   99.56730    8.69870    5.02170   -9.90110    0.01170
 8871.00000   21.83130  355.48600  192.58470    0.00350   51.00120   98.28840    8.73970    5.00800   -9.90110    0.01120
 8871.50000   20.72370  449.47790  214.51650    0.00190   50.33400   97.32940    8.74260    5.08210  -10.45820    0.01120
 8872.00000   19.91670  440.60870  200.74190    0.00230   50.28330   96.47300    8.74970    5.17180  -10.79370    0.01230
 8872.50000   19.10970  328.69730  148.19810   -0.00010   50.53380   95.71930    8.75690    5.17180  -11.12930    0.01450
 8873.00000   19.79190  247.30650  140.31900   -0.00140   50.63630   95.55400    8.76410    5.17180  -11.13040    0.01720
 8873.50000   21.21320  386.21840  187.97530   -0.00190   50.63630   96.26560    8.77120    5.19930  -11.13150    0.01830
 8874.00000   21.82650  620.45770  254.70940   -0.00240   50.46440   97.57160    8.77840    5.23320  -11.13260    0.01770
 8874.50000   23.63710 1149.50790  801.54360   -0.00290   50.21590   98.18570    8.78550    5.26050  -10.92200    0.01390
 8875.00000   24.00020  904.90110  484.57880   -0.00320   50.16300   98.24740    8.79270    5.20590  -11.11100    0.01340
 8875.50000   21.68600  290.60520  130.62240   -0.00210   50.59330   98.56240    8.79980    5.14990   -9.75650    0.01340
