~Version ---------------------------------------------------
VERS.   2.0 : CWLS log ASCII Standard -VERSION 2.0
WRAP.    NO : One line per depth step
DLM . SPACE : Column Data Section Delimiter
~Well ------------------------------------------------------
STRT .FT                 65.0 : START DEPTH
STOP .FT               9444.0 : STOP DEPTH
STEP .FT                  0.5 : STEP
NULL .               -9999.25 : NULL VALUE
COMP .                        : COMPANY
WELL .                        : WELL
FLD  .                        : FIELD
LOC  .                        : LOCATION
PROV .                        : PROVINCE
CNTY .                        : COUNTY
STAT .                        : STATE
CTRY .                        : COUNTRY
SRVC .                        : SERVICE COMPANY
DATE .                        : DATE
UWI  .                        : UNIQUE WELL ID
API  .                        : API NUMBER
SLAT .WGS84    6.466453497505 : SURFACE LATITUDE
SLON .WGS84 3.614651016597719 : SURFACE LONGITUDE
DATUM.F                   nan : DEPTH DATUM ELEV
~Curve Information -----------------------------------------
DEPT   .FT    : 
AT10   .OHMM  : ARRAY INDUCTION TWO FOOT RESISTIVITY A10
AT30   .OHMM  : ARRAY INDUCTION TWO FOOT RESISTIVITY A30
AT90   .OHMM  : ARRAY INDUCTION TWO FOOT RESISTIVITY A90
DPHZ_LS.DEC   : HGRD STANDARD RESOLUTION DENSITY POROSITY
DTCO   .US/F  : DELTA-T COMPRESSIONAL
DTSM   .US/F  : DELTA-T SHEAR
HCALR  .IN    : HRCC CALIPER CALIBRATED FROM RESISTIVITY LOG
PEFZ   .B/E   : HRDD STANDARD RESOLUTION FORMATION PHOTOELECTRIC FACTOR
SPR    .MV    : SPONTANEOUS POTENTIAL FROM RESISTIVITY LOG
TNPH_LS.DEC   : THERMAL NEUTRON POROSITY [LIMESTONE]
~Params ----------------------------------------------------
~Other -----------------------------------------------------
~ASCII -----------------------------------------------------
# ...
 8744.00000    7.04840    7.35380    7.78640    0.02170   66.15040  124.40540    8.96290    4.32400   -3.31420    0.11210
 8744.50000    7.06000    7.48520    8.10600    0.02110   66.96810  125.47400    8.99490    4.25740   -3.15630    0.12800
 8745.00000    7.44700    7.86100    8.71810    0.01880   67.06570  126.22210    9.02130    4.28810   -2.29370    0.13150
 8745.50000    7.78990    8.16630    9.33030    0.01620   67.37860  126.43760    9.04770    4.28200   -3.02510    0.13550
 8746.00000    7.16890    7.73850    8.70880    0.01420   67.41100  126.63980    9.04770    4.20620   -3.05140    0.14170
 8746.50000    6.59700    7.02510    7.52410    0.01640   68.77360  127.51880    9.04770    4.21400   -3.07760    0.14670
 8747.00000    6.62290    6.98610    7.22600    0.01580   68.83200  128.16580    9.04770    4.24960   -3.10380    0.14720
 8747.50000    6.82260    7.17460    7.58500    0.01890   68.99380  128.40190    9.04770    4.25500   -3.12480    0.14480
 8748.00000    7.02220    7.28780    7.94400    0.02080   69.18130  128.87110    9.04770    4.28220   -3.12870    0.14200
 8748.50000    7.22190    7.39300    8.01620    0.02410   69.34090  129.49570    9.04770    4.27650   -3.13360    0.13850
 8749.00000    6.95270    7.17590    7.64780    0.02740   69.61440  130.12040    9.04770    4.24410   -3.13840    0.14100
 8749.50000    6.63030    7.03530    7.39470    0.03120   69.71250  130.07730    9.04770    4.16930   -3.14330    0.14800
 8750.00000    6.52650    6.95100    7.35990    0.03530   69.74230  130.49020    9.04770    4.17640   -3.14810    0.15340
 8750.50000    6.69570    7.07830    7.46840    0.03700   70.19360  130.56260    9.04770    4.21310   -3.15300    0.15460
 8751.00000    7.02090    7.38070    7.73900    0.03790   69.41740  130.36870    9.04770    4.24980   -3.15780    0.15060
 8751.50000    6.87730    7.29680    8.01910    0.03740   69.24820  130.17730    9.04770    4.28810   -3.18730    0.14660
 8752.00000    6.51780    6.88700    7.41320    0.03360   69.30520  129.62420    9.04770    4.27530   -3.72330    0.14650
 8752.50000    6.80710    7.36850    7.80020    0.02630   69.13600  128.76970    9.04770    4.26180   -4.35630    0.15050
 8753.00000    8.01350    8.57160    8.76180    0.01960   68.82040  128.50270    9.04460    4.28020   -4.35630    0.14690
 8753.50000    8.25530    8.63770    9.42820    0.01640   68.76050  128.48780    9.04150    4.31880   -5.66150    0.14070
 8754.00000    7.71350    8.14290    8.77590    0.01750   68.75190  127.83900    9.03830    4.36220   -6.42880    0.13690
 8754.50000    7.29620    7.87000    8.25400    0.02040   68.54830  126.07580    9.03520    4.43140   -7.18680    0.13890
 8755.00000    7.31490    8.27580    8.87200    0.02130   66.88910  123.90590    9.03210    4.49280   -7.79990    0.13960
 8755.50000    7.87390    9.16430    9.64430    0.01860   64.77400  120.54460    9.02900    4.51120   -8.41310    0.13930
 8756.00000    8.14100   10.01690   10.41650    0.01670   60.88410  113.50610    9.01530    4.51190   -8.53090    0.13250
 8756.50000    9.28600   10.57050   10.47150    0.01790   59.88890  113.01820    8.98550    4.51260   -8.59410    0.12110
 8757.00000   12.78990   13.70720   12.37190    0.01820   59.61750  112.57990    8.95580    4.51330   -8.52230    0.10160
 8757.50000   13.41330   20.43100   14.74730    0.01500   59.34620  111.51420    8.92600    4.57180   -9.20450    0.07600
 8758.00000   23.21950   41.50300   25.69710    0.00990   59.03430  110.29540    8.90820    4.61570   -9.38020    0.05660
 8758.50000   23.43650   41.80660   24.82750    0.00760   58.64190  108.92410    8.90820    4.61170   -9.25840    0.05160
 8759.00000   14.61390   24.18010   18.53030    0.01020   58.17830  107.72110    8.90820    4.52640   -8.66600    0.07090
 8759.50000   10.70120   19.84330   16.23830    0.01680   57.77830  107.08210    8.91360    4.40640   -8.45050    0.08750
 8760.00000    9.99200   17.17320   14.36830    0.02260   57.33320  106.70150    8.94100    4.38030   -8.39930    0.09980
 8760.50000   11.25670   25.79030   18.05500    0.02760   57.08360  106.32890    8.96830    4.40070   -8.29760    0.09600
 8761.00000   38.72960   62.96310   27.21360    0.02760   56.32090  105.35320    8.94100    4.55120   -7.99420    0.07030
 8761.50000   74.62700  100.13600   36.37230    0.02460   55.79560  104.38610    8.85340    4.89410   -7.69080    0.04410
 8762.00000  107.64140  469.68330   45.06740    0.01570   55.38630  103.27520    8.85420    5.19400   -7.38740    0.02070
 8762.50000  111.81720  469.69010   47.29920    0.00570   54.53560  102.06080    8.86300    5.22980   -7.08400    0.00890
 8763.00000   86.50570  386.44630   46.17630    0.00230   53.02240  100.84630    8.86300    5.23140   -6.73240    0.00310
 8763.50000   71.37600  260.69370   47.90650    0.00440   51.03440   98.55380    8.86300    5.25030   -6.03260    0.00680
 8764.00000   56.24640  145.11600   51.76150    0.00640   50.56300   96.51640    8.86300    5.26920   -5.60510    0.00760
 8764.50000   41.11670   87.30980   44.45980    0.00600   49.74050   94.61930    8.86300    5.26900   -5.17760    0.00870
 8765.00000   34.40550   84.85750   50.79080    0.00370   49.42890   94.10850    8.86300    5.26020   -4.75010    0.00540
 8765.50000   44.90000   92.66990   48.89760    0.00150   49.32670   94.32830    8.86300    5.25140   -4.34340    0.00470
 8766.00000   36.08310   94.22250  139.48220    0.00240   49.59400   94.67920    8.86300    5.26050   -3.47730    0.00750
 8766.50000   65.05680   80.52430  209.40350    0.00540   50.38900   95.24630    8.86300    5.20620   -2.96730    0.01150
 8767.00000   47.59220   54.76560   84.45890    0.00400   50.93480   96.48380    8.86300    5.09170   -2.17620    0.01620
 8767.50000   25.76080   29.00690   24.26670   -0.00170   51.97890   98.99140    8.88350    4.87080   -1.38510    0.03020
 8768.00000   21.39540   12.50570   10.44260   -0.00060   53.68480  101.99980    8.91540    4.60540   -0.59400    0.05460
 8768.50000    6.29190   10.42070    7.16920    0.01040   58.77400  106.46540    8.97240    4.42390    0.56820    0.10170
 8769.00000    5.81820    8.75280    8.19850    0.02780   60.79780  110.08510    9.00660    4.33930    0.63010    0.13620
 8769.50000    6.83900    9.16420   14.35110    0.04470   61.76510  114.26470    9.00660    4.33930    1.34440    0.11930
 8770.00000    8.32490   10.19180   12.80470    0.04280   62.03340  115.87540    8.98610    4.33930    1.79950    0.12530
 8770.50000    9.44950   10.48720   12.68420    0.04040   62.25900  115.84550    8.96260    4.39390    1.79950    0.14000
 8771.00000   13.52890   17.82190   16.50630    0.02720   62.71730  115.81560    8.92450    4.51670    1.79950    0.11740
 8771.50000   20.02520   25.15670   21.84670    0.01790   63.33800  115.78570    8.90400    4.66690    1.20210    0.09920
 8772.00000   17.50700   28.72810   25.15110    0.00480   61.99320  114.81950    8.88350    4.70280    0.98350    0.09480
 8772.50000   18.21120   28.72930   30.40480    0.01030   61.29420  113.29200    8.88690    4.61220    0.57210    0.10100
 8773.00000   16.97370   25.27340   27.14060    0.02200   57.68600  112.25080    8.90400    4.53840    0.57130    0.09850
 8773.50000   20.80540   24.60070   23.80000    0.03300   59.94680  110.13950    8.90400    4.59640    0.57040    0.09100
 8774.00000   21.61270   27.83880   27.88990    0.03100   57.79360  108.47400    8.87380    4.67690    0.56960    0.07720
 8774.50000   25.89150   33.49420   36.44540    0.02600   56.42310  105.80180    8.84360    4.82920    0.56870    0.05360
 8775.00000   26.38970   39.30520   43.19080    0.02380   55.97120  104.74900    8.83150    4.93830    0.07300    0.04240
 8775.50000   26.64290   44.07490   49.40460    0.02420   55.25210  102.77680    8.83150    5.02140    0.06470    0.03830
 8776.00000   33.79340   50.83070   56.32840    0.02170   54.03790  101.26790    8.83150    5.10640    0.05640    0.02290
 8776.50000   41.37560  164.50210   73.94550    0.01660   52.83760   99.87400    8.83150    5.18060    0.56790    0.01590
