~Version ---------------------------------------------------
VERS.   2.0 : CWLS log ASCII Standard -VERSION 2.0
WRAP.    NO : One line per depth step
DLM . SPACE : Column Data Section Delimiter
~Well ------------------------------------------------------
STRT .FT                 65.0 : START DEPTH
STOP .FT               9444.0 : STOP DEPTH
STEP .FT                  0.5 : STEP
NULL .               -9999.25 : NULL VALUE
COMP .                        : COMPANY
WELL .                        : WELL
FLD  .                        : FIELD
LOC  .                        : LOCATION
PROV .                        : PROVINCE
CNTY .                        : COUNTY
STAT .                        : STATE
CTRY .                        : COUNTRY
SRVC .                        : SERVICE COMPANY
DATE .                        : DATE
UWI  .                        : UNIQUE WELL ID
API  .                        : API NUMBER
SLAT .WGS84    6.466453497505 : SURFACE LATITUDE
SLON .WGS84 3.614651016597719 : SURFACE LONGITUDE
DATUM.F                   nan : DEPTH DATUM ELEV
~Curve Information -----------------------------------------
DEPT   .FT    : 
AT10   .OHMM  : ARRAY INDUCTION TWO FOOT RESISTIVITY A10
AT30   .OHMM  : ARRAY INDUCTION TWO FOOT RESISTIVITY A30
AT90   .OHMM  : ARRAY INDUCTION TWO FOOT RESISTIVITY A90
DPHZ_LS.DEC   : HGRD STANDARD RESOLUTION DENSITY POROSITY
DTCO   .US/F  : DELTA-T COMPRESSIONAL
DTSM   .US/F  : DELTA-T SHEAR
HCALR  .IN    : HRCC CALIPER CALIBRATED FROM RESISTIVITY LOG
PEFZ   .B/E   : HRDD STANDARD RESOLUTION FORMATION PHOTOELECTRIC FACTOR
SPR    .MV    : SPONTANEOUS POTENTIAL FROM RESISTIVITY LOG
TNPH_LS.DEC   : THERMAL NEUTRON POROSITY [LIMESTONE]
~Params ----------------------------------------------------
~Other -----------------------------------------------------
~ASCII -----------------------------------------------------
# ...
 9338.00000   59.58340 2014.74430  564.65560    0.03850   51.07580   89.25860    8.72380    3.44570 -126.72990    0.01080
 9338.50000   59.72310 2012.94960  515.39290    0.03340   51.05780   89.29510    8.72250    3.51290 -124.69740    0.01140
 9339.00000   60.41270 2011.15500  501.54430    0.03760   51.16060   89.30590    8.72120    3.54090 -124.53820    0.01210
 9339.50000   60.68800 2010.43710  494.80980    0.03570   51.59080   89.36000    8.72000    3.53110 -123.90880    0.01270
 9340.00000   60.21990 2010.43710  486.40300    0.03130   51.93110   89.41410    8.71870    3.54220 -123.53120    0.01340
 9340.50000   60.39300 2010.43710  497.60510    0.02600   52.17250   89.46820    8.71740    3.56320 -122.99320    0.01300
 9341.00000   60.56610 2010.43710  514.81370    0.02270   51.84390   89.52230    8.71610    3.56780 -122.45520    0.01190
 9341.50000   60.73920 2010.43710  556.60010    0.03050   51.89180   89.57630    8.71490    3.57230 -121.49520    0.01090
 9342.00000   60.91230 2010.43730  730.64150    0.03400   51.58970   89.63040    8.71360    3.68650 -121.16200    0.01010
 9342.50000   61.08540 1879.03950  534.66350    0.03050   51.34990   89.68450    8.71230    3.89030 -120.56940    0.01010
 9343.00000   61.25840 1686.59520  486.38480    0.01850   50.91910   89.62790    8.71110    4.09400 -119.64490    0.01010
 9343.50000   60.64420 1607.05160  466.38990    0.01070   50.95500   89.23640    8.70980    4.17550 -119.64490    0.01010
 9344.00000   60.46170 1128.73560  352.56650    0.01120   51.13850   88.84490    8.70850    3.86710 -119.02660    0.01080
 9344.50000   60.27910 1272.18080  493.37880    0.01790   50.74950   88.45340    8.70730    3.49860 -118.22670    0.01160
 9345.00000   60.09650 1935.75870  455.19790    0.02310   50.80090   88.06190    8.70600    3.28710 -116.97210    0.01170
 9345.50000   59.91390 2010.43770  622.04660    0.02530   51.16060   88.06190    8.70470    3.31250 -115.94480    0.01080
 9346.00000   59.73130 1303.63830  465.71390    0.02850   51.19480   88.06190    8.70340    3.43900 -115.20480    0.00960
 9346.50000   59.54880  979.35110  352.55300    0.02690   51.36610   88.58600    8.70220    3.69450 -114.28010    0.00840
 9347.00000   56.53780  886.96050  275.85970    0.02360   51.87630   88.57970    8.70090    3.99300 -113.35550    0.00850
 9347.50000   56.39380  727.72270  223.76710    0.01610   51.86190   88.57350    8.69960    4.19190 -112.85860    0.01060
 9348.00000   56.24990  658.13700  213.49460    0.00960   52.16510   88.56730    8.69840    4.28690 -112.33910    0.01610
 9348.50000   54.31350  658.13410  200.09100    0.00650   52.18990   88.56110    8.69710    4.19900 -111.81960    0.02270
 9349.00000   56.35840  753.93070  183.49280    0.00910   52.34850   88.55490    8.69580    4.06530 -111.30020    0.02320
 9349.50000   57.21460  849.72830  183.49080    0.01390   52.18680   88.54860    8.69460    3.91900 -110.78070    0.02150
 9350.00000   60.46580  912.38480  180.57580    0.02190   51.95700   88.54240    8.69330    3.87870 -110.26120    0.01710
 9350.50000   62.14960  934.69640  177.42530    0.02690   51.98220   88.32210    8.69200    4.02800 -109.74170    0.01270
 9351.00000   64.92500  957.00810  208.21090    0.02350   52.16710   88.10190    8.69080    4.15290 -109.22220    0.00990
 9351.50000   69.33810  979.31980  246.87700    0.01670   51.95620   88.07260    8.68950    4.13050 -108.70280    0.00960
 9352.00000   72.86870  934.05540  302.00880    0.01660   51.80860   87.92740    8.68820    4.02440 -108.18330    0.00960
 9352.50000   82.58400  825.56650  327.74580    0.02120   51.77510   87.96360    8.68690    3.97290 -107.66380    0.00960
 9353.00000   85.81330  465.98330  249.21750    0.01840   51.77440   87.99980    8.68570    3.95890 -106.83760    0.01090
 9353.50000   73.66530  369.46500  170.27210    0.01540   51.87670   88.40010    8.68440    3.90410 -105.96370    0.01340
 9354.00000   70.12570  333.34440  134.25710    0.01660   51.96580   88.87200    8.68310    3.78070 -105.87610    0.01750
 9354.50000   61.24850  211.38110  153.27640    0.01750   51.70670   89.33090    8.68190    3.73010 -105.78850    0.02050
 9355.00000   42.69170  158.06440  103.86080    0.01750   51.83430   89.69790    8.68060    3.75370 -105.70090    0.02070
 9355.50000   32.21690  126.79600   82.85160    0.01590   52.27880   89.83410    8.67930    3.81420 -105.61330    0.02100
 9356.00000   27.38400  139.38070  116.48330    0.00970   52.10600   89.70430    8.67810    3.68860 -105.52560    0.02100
 9356.50000   27.52940  129.58630  193.40900    0.01430   51.87410   89.38110    8.67680    3.56290 -105.43800    0.02070
 9357.00000   30.58130  118.66360  270.33460    0.02600   51.95610   89.05790    8.67550    3.47780 -105.35040    0.01360
 9357.50000   36.97270  134.84500  347.26030    0.03140   51.99220   88.73460    8.67420    3.50420 -105.26280    0.01040
 9358.00000   50.67110  175.30100  922.21820    0.03510   52.06250   88.59680    8.67810    3.63510 -105.17520    0.00960
 9358.50000   79.56910  330.51340 1621.68410    0.03320   51.98410   88.45910    8.68330    3.77980 -105.08760    0.00960
 9359.00000  121.50380  529.33590 1410.75640    0.02830   51.97860   88.32120    8.68850    3.88800 -105.00000    0.00960
 9359.50000  173.01700  549.75660  660.53410    0.02720   51.97300   88.50370    8.69360    4.01210 -104.91230    0.01030
 9360.00000  220.32710  504.20550  460.53280    0.02040   52.02390   88.42370    8.69880    3.91210 -104.82470    0.01220
 9360.50000  262.90040  416.10420  380.20280    0.01540   51.97290   88.65970    8.70400    3.79950 -104.73710    0.01450
 9361.00000  204.38570  279.61030  391.15010    0.01500   51.86990   89.04520    8.70910    3.55710 -104.64950    0.01450
 9361.50000  287.17610  176.13830  547.62810    0.02040   51.86920   89.41310    8.71430    3.41260 -104.56190    0.01450
 9362.00000  276.70270  141.39330  775.17490    0.02830   52.13490   89.54950    8.71510    3.43510 -104.47430    0.01450
 9362.50000  320.52900  126.77450  965.29060    0.03510   52.27940   89.41150    8.71480    3.60830 -104.38670    0.01450
 9363.00000  336.05960  106.40140 1129.03240    0.03090   52.18280   89.06820    8.71440    3.81050 -104.32160    0.01280
 9363.50000  255.80040   92.16370 1027.07000    0.02400   51.86750   88.99880    8.71410    4.06670 -104.27150    0.01360
 9364.00000  262.74570   92.42390 1223.21150    0.01770   52.15220   88.99810    8.71380    4.13460 -104.22140    0.01610
 9364.50000  308.49240  112.17320 1377.28720    0.01390   52.16820   88.99720    8.71350    4.06740 -104.17140    0.01720
 9365.00000  433.89830  129.18910 1563.37650    0.00980   52.27710   88.99720    8.71310    3.84720 -104.12130    0.01660
 9365.50000  409.94140  132.28640 1726.07770    0.01000   52.36750   88.99720    8.71280    3.63740 -104.07130    0.01570
 9366.00000  425.17590  122.85470 1812.29930    0.01310   52.24190   88.99720    8.71250    3.50300 -104.02120    0.01560
 9366.50000  442.18130  119.63350 1949.64160    0.01870   52.17320   89.00370    8.71220    3.60060 -103.97110    0.01570
 9367.00000  326.63070  111.12600 2010.82740    0.01910   52.17320   89.05180    8.71190    3.75210 -103.92110    0.01680
 9367.50000  346.12040  113.92150 2010.27340    0.01750   52.17200   89.09990    8.71150    3.88080 -103.87100    0.01770
 9368.00000  402.54110  123.16050 2009.71940    0.01210   52.23830   89.12840    8.71120    3.87870 -103.82090    0.01830
 9368.50000  455.86510  132.89900 2009.16540    0.01340   52.35890   89.12770    8.71090    3.71720 -103.77090    0.01830
 9369.00000  444.88690  129.66190 2008.61140    0.01980   52.15410   88.92540    8.71060    3.58800 -103.72080    0.01660
 9369.50000  421.90170  118.11380 2008.05740    0.03060   51.96460   88.72300    8.71020    3.68420 -103.67080    0.01060
 9370.00000  374.13300  113.21310 2007.50340    0.02790   52.14920   88.52070    8.70990    3.82070 -103.62070    0.01060
 9370.50000  353.91640  112.82070 2006.94940    0.01960   52.15830   88.47300    8.70960    3.95720 -103.57060    0.01150
