~Version ---------------------------------------------------
VERS.   2.0 : CWLS log ASCII Standard -VERSION 2.0
WRAP.    NO : One line per depth step
DLM . SPACE : Column Data Section Delimiter
~Well ------------------------------------------------------
STRT .FT                 65.0 : START DEPTH
STOP .FT               9444.0 : STOP DEPTH
STEP .FT                  0.5 : STEP
NULL .               -9999.25 : NULL VALUE
COMP .                        : COMPANY
WELL .                        : WELL
FLD  .                        : FIELD
LOC  .                        : LOCATION
PROV .                        : PROVINCE
CNTY .                        : COUNTY
STAT .                        : STATE
CTRY .                        : COUNTRY
SRVC .                        : SERVICE COMPANY
DATE .                        : DATE
UWI  .                        : UNIQUE WELL ID
API  .                        : API NUMBER
SLAT .WGS84    6.466453497505 : SURFACE LATITUDE
SLON .WGS84 3.614651016597719 : SURFACE LONGITUDE
DATUM.F                   nan : DEPTH DATUM ELEV
~Curve Information -----------------------------------------
DEPT   .FT    : 
AT10   .OHMM  : ARRAY INDUCTION TWO FOOT RESISTIVITY A10
AT30   .OHMM  : ARRAY INDUCTION TWO FOOT RESISTIVITY A30
AT90   .OHMM  : ARRAY INDUCTION TWO FOOT RESISTIVITY A90
DPHZ_LS.DEC   : HGRD STANDARD RESOLUTION DENSITY POROSITY
DTCO   .US/F  : DELTA-T COMPRESSIONAL
DTSM   .US/F  : DELTA-T SHEAR
HCALR  .IN    : HRCC CALIPER CALIBRATED FROM RESISTIVITY LOG
PEFZ   .B/E   : HRDD STANDARD RESOLUTION FORMATION PHOTOELECTRIC FACTOR
SPR    .MV    : SPONTANEOUS POTENTIAL FROM RESISTIVITY LOG
TNPH_LS.DEC   : THERMAL NEUTRON POROSITY [LIMESTONE]
~Params ----------------------------------------------------
~Other -----------------------------------------------------
~ASCII -----------------------------------------------------
# ...
 9404.00000  348.80780  102.29370  967.78520    0.02460   52.87620   89.45210    8.69790    3.92460 -100.98380    0.01990
 9404.50000  275.28460   93.53800  982.67220    0.02520   52.88570   89.46380    8.69790    3.96900 -100.98160    0.01990
 9405.00000  291.37380  101.86990 1132.62850    0.02360   52.85930   89.47550    8.69790    3.97060 -100.97940    0.01980
 9405.50000  305.49700  119.80980 1340.25460    0.02280   52.85140   89.48720    8.69790    3.97010 -100.97720    0.01910
 9406.00000  369.18520  124.26530 1612.37050    0.02120   52.87690   89.49890    8.69790    3.96970 -100.97500    0.01880
 9406.50000  347.57950  120.78370 1818.39180    0.01980   52.85010   89.51060    8.69790    3.92490 -100.97270    0.01880
 9407.00000  305.48940  104.26810 1953.75710    0.01950   52.88090   89.52240    8.69790    3.75240 -100.97050    0.01880
 9407.50000  251.85400   93.07740 1992.21110    0.02070   52.85350   89.53410    8.69790    3.58000 -100.96830    0.01880
 9408.00000  221.39970   92.55060 1992.21110    0.02690   52.87040   89.54580    8.69790    3.46300 -100.96610    0.01990
 9408.50000  365.69270  107.89220 1992.21110    0.02910   -9999.25   -9999.25    8.69790    3.43040 -100.96390    0.02050
 9409.00000  433.64210  117.22720 1992.21110    0.02730   -9999.25   -9999.25    8.69790    3.49870 -100.96170    0.02020
 9409.50000  528.97260  119.77780 1992.21110    0.02410   -9999.25   -9999.25    8.70060    3.61010 -100.95950   -9999.25
 9410.00000  476.15550  112.91670 1992.21110    0.01900   -9999.25   -9999.25    8.70380    3.71150 -100.95730   -9999.25
 9410.50000  446.09300  108.63640 1992.21110    0.02510   -9999.25   -9999.25    8.70700    3.71690 -100.95510   -9999.25
 9411.00000  431.37760  101.64970 1992.21110    0.03100   -9999.25   -9999.25    8.71020    3.70940 -100.95290   -9999.25
 9411.50000  372.68010  101.26380 1992.21110    0.03730   -9999.25   -9999.25    8.71340    3.73280 -100.95060   -9999.25
 9412.00000  372.66640  106.49750 1992.21110    0.03650   -9999.25   -9999.25    8.71660    3.75620 -100.94840   -9999.25
 9412.50000  389.68660  115.22250 1992.21110    0.02920   -9999.25   -9999.25    8.71980    3.77490 -100.94620   -9999.25
 9413.00000  390.72660  122.79630 1992.21110    0.02410   -9999.25   -9999.25    8.72300    3.76960 -100.14210   -9999.25
 9413.50000  341.12990  120.07420 1992.21110    0.02810   -9999.25   -9999.25    8.72610    3.79830 -100.05640   -9999.25
 9414.00000  288.58360  112.12830 1992.21110    0.03350   -9999.25   -9999.25    8.72930    3.91450  -99.88890   -9999.25
 9414.50000  253.67090  104.50080 1992.21110    0.03660   -9999.25   -9999.25    8.73250    4.01530  -99.95600   -9999.25
 9415.00000  227.74840   98.98210 1992.21110    0.03510   -9999.25   -9999.25    8.73570    4.06640  -99.67290   -9999.25
 9415.50000  238.78830   99.92250 1992.21110    0.03180   -9999.25   -9999.25    8.73890    4.03700  -99.38970   -9999.25
 9416.00000  247.53030   99.92120 1992.21110    0.02760   -9999.25   -9999.25    8.74020    3.96350  -99.10660   -9999.25
 9416.50000  256.84610  100.50250 1992.21110    0.02060   -9999.25   -9999.25    8.74020    3.89000  -98.82350   -9999.25
 9417.00000  280.73580  101.22940 1992.21110    0.01790   -9999.25   -9999.25    8.74020    3.86170  -98.54040   -9999.25
 9417.50000  271.06800  101.95630 1992.21110    0.01500   -9999.25   -9999.25    8.74020    3.86170  -98.25730   -9999.25
 9418.00000  291.71850  102.68320 1992.21110    0.01460   -9999.25   -9999.25    8.74020    3.91940  -97.97420   -9999.25
 9418.50000  305.65220  102.78180 1992.21110    0.01170   -9999.25   -9999.25    8.74020    3.99150  -97.69100   -9999.25
 9419.00000  319.08560  102.46140 1992.21110    0.00830   -9999.25   -9999.25    8.74020    4.04340  -97.40790   -9999.25
 9419.50000  337.01650  102.26310 1992.21110    0.00770   -9999.25   -9999.25    8.74020    4.01820  -97.23810   -9999.25
 9420.00000  342.33960  103.59220 1992.21110    0.00850   -9999.25   -9999.25    8.74020    3.94080  -97.23810   -9999.25
 9420.50000  361.96020  103.78930 1992.21110    0.01310   -9999.25   -9999.25    8.74020    3.86350  -97.23810   -9999.25
 9421.00000  395.21800  109.95010 1992.21110    0.01970   -9999.25   -9999.25    8.74020    3.84800  -97.23810   -9999.25
 9421.50000  411.07730  116.12980 1992.21110    0.02630   -9999.25   -9999.25    8.74070    3.79840  -97.23810   -9999.25
 9422.00000  311.25310  105.75110 1992.21110    0.03410   -9999.25   -9999.25    8.74070    3.74250  -97.23160   -9999.25
 9422.50000  275.19830   96.33990 1992.21110   -9999.25   -9999.25   -9999.25   -9999.25   -9999.25  -97.23160   -9999.25
 9423.00000  227.01740   85.85680 1992.21000   -9999.25   -9999.25   -9999.25   -9999.25   -9999.25  -97.23160   -9999.25
 9423.50000  240.37700   96.49290 1988.73860   -9999.25   -9999.25   -9999.25   -9999.25   -9999.25  -97.22850   -9999.25
 9424.00000  265.06270  102.77900 1982.95300   -9999.25   -9999.25   -9999.25   -9999.25   -9999.25  -97.22850   -9999.25
 9424.50000  243.31290  102.29330 1977.16730   -9999.25   -9999.25   -9999.25   -9999.25   -9999.25  -97.22560   -9999.25
 9425.00000  247.73490  101.80770 1971.38170   -9999.25   -9999.25   -9999.25   -9999.25   -9999.25  -97.69580   -9999.25
 9425.50000  255.10620   99.15190 1965.59600   -9999.25   -9999.25   -9999.25   -9999.25   -9999.25  -98.16610   -9999.25
 9426.00000  262.45540   98.02080 1959.81040   -9999.25   -9999.25   -9999.25   -9999.25   -9999.25  -98.63630   -9999.25
 9426.50000  266.77490   98.01940 1954.02470   -9999.25   -9999.25   -9999.25   -9999.25   -9999.25  -99.10650   -9999.25
 9427.00000  270.01410   98.70610 1948.23910   -9999.25   -9999.25   -9999.25   -9999.25   -9999.25  -99.57680   -9999.25
 9427.50000  272.60520  100.42490 1942.45350   -9999.25   -9999.25   -9999.25   -9999.25   -9999.25 -100.04700   -9999.25
 9428.00000  277.79050  101.79950 1936.66780   -9999.25   -9999.25   -9999.25   -9999.25   -9999.25 -100.51720   -9999.25
 9428.50000  265.99210  101.79820 1930.88220   -9999.25   -9999.25   -9999.25   -9999.25   -9999.25 -100.98750   -9999.25
 9429.00000  259.96780   94.70620 1925.09650   -9999.25   -9999.25   -9999.25   -9999.25   -9999.25 -101.45770   -9999.25
 9429.50000  257.51490   91.72510 1919.31090   -9999.25   -9999.25   -9999.25   -9999.25   -9999.25 -101.92790   -9999.25
 9430.00000  259.96310   92.59650 1882.16430   -9999.25   -9999.25   -9999.25   -9999.25   -9999.25 -102.39820   -9999.25
 9430.50000  264.93130   96.33680 1629.81050   -9999.25   -9999.25   -9999.25   -9999.25   -9999.25 -102.86840   -9999.25
 9431.00000  264.92920   96.16880 1377.45680   -9999.25   -9999.25   -9999.25   -9999.25   -9999.25 -103.33860   -9999.25
 9431.50000  264.92820   92.88910 1194.68710   -9999.25   -9999.25   -9999.25   -9999.25   -9999.25 -103.80890   -9999.25
 9432.00000  256.61890   89.99790 1018.50630   -9999.25   -9999.25   -9999.25   -9999.25   -9999.25 -104.41470   -9999.25
 9432.50000  240.98410   92.59030  949.55630   -9999.25   -9999.25   -9999.25   -9999.25   -9999.25 -105.56260   -9999.25
 9433.00000  219.20690   95.25740  863.33450   -9999.25   -9999.25   -9999.25   -9999.25   -9999.25 -106.71060   -9999.25
 9433.50000  217.13860   97.22900  775.36130   -9999.25   -9999.25   -9999.25   -9999.25   -9999.25 -107.85860   -9999.25
 9434.00000  236.43440   99.20070  661.68110   -9999.25   -9999.25   -9999.25   -9999.25   -9999.25 -109.00660   -9999.25
 9434.50000  250.27890  101.17240  565.57050   -9999.25   -9999.25   -9999.25   -9999.25   -9999.25 -110.15460   -9999.25
 9435.00000  255.06260  102.74950  502.97170   -9999.25   -9999.25   -9999.25   -9999.25   -9999.25 -111.30260   -9999.25
 9435.50000   -9999.25   -9999.25   -9999.25   -9999.25   -9999.25   -9999.25   -9999.25   -9999.25 -112.45050   -9999.25
 9436.00000   -9999.25   -9999.25   -9999.25   -9999.25   -9999.25   -9999.25   -9999.25   -9999.25 -113.59850   -9999.25
 9436.50000   -9999.25   -9999.25   -9999.25   -9999.25   -9999.25   -9999.25   -9999.25   -9999.25 -114.74650   -9999.25
