~Version ---------------------------------------------------
VERS.   2.0 : CWLS log ASCII Standard -VERSION 2.0
WRAP.    NO : One line per depth step
DLM . SPACE : Column Data Section Delimiter
~Well ------------------------------------------------------
STRT .FT                 65.0 : START DEPTH
STOP .FT               9444.0 : STOP DEPTH
STEP .FT                  0.5 : STEP
NULL .               -9999.25 : NULL VALUE
COMP .                        : COMPANY
WELL .                        : WELL
FLD  .                        : FIELD
LOC  .                        : LOCATION
PROV .                        : PROVINCE
CNTY .                        : COUNTY
STAT .                        : STATE
CTRY .                        : COUNTRY
SRVC .                        : SERVICE COMPANY
DATE .                        : DATE
UWI  .                        : UNIQUE WELL ID
API  .                        : API NUMBER
SLAT .WGS84    6.466453497505 : SURFACE LATITUDE
SLON .WGS84 3.614651016597719 : SURFACE LONGITUDE
DATUM.F                   nan : DEPTH DATUM ELEV
~Curve Information -----------------------------------------
DEPT   .FT    : 
AT10   .OHMM  : ARRAY INDUCTION TWO FOOT RESISTIVITY A10
AT30   .OHMM  : ARRAY INDUCTION TWO FOOT RESISTIVITY A30
AT90   .OHMM  : ARRAY INDUCTION TWO FOOT RESISTIVITY A90
DPHZ_LS.DEC   : HGRD STANDARD RESOLUTION DENSITY POROSITY
DTCO   .US/F  : DELTA-T COMPRESSIONAL
DTSM   .US/F  : DELTA-T SHEAR
HCALR  .IN    : HRCC CALIPER CALIBRATED FROM RESISTIVITY LOG
PEFZ   .B/E   : HRDD STANDARD RESOLUTION FORMATION PHOTOELECTRIC FACTOR
SPR    .MV    : SPONTANEOUS POTENTIAL FROM RESISTIVITY LOG
TNPH_LS.DEC   : THERMAL NEUTRON POROSITY [LIMESTONE]
~Params ----------------------------------------------------
~Other -----------------------------------------------------
~ASCII -----------------------------------------------------
# ...
 8183.00000   -9999.25   -9999.25   -9999.25   -9999.25   44.32660  112.88080   -9999.25   -9999.25   -9999.25    0.10460
 8183.50000   -9999.25   -9999.25   -9999.25   -9999.25   44.84520  112.16360   -9999.25   -9999.25   -9999.25    0.10680
 8184.00000   -9999.25   -9999.25   -9999.25   -9999.25   45.49730  111.04550   -9999.25   -9999.25   -9999.25    0.11660
 8184.50000   -9999.25   -9999.25   -9999.25   -9999.25   47.25540  109.04650   -9999.25   -9999.25   -9999.25    0.11530
 8185.00000    0.47050    0.74440    0.90520    0.07970   48.09500  104.40280   -9999.25    8.08300   23.11910    0.11390
 8185.50000    0.57410    1.00420    0.67110    0.11840   48.63070  100.54300   10.87750    6.82490   21.88920    0.11490
 8186.00000    0.75880    1.43730    0.96910    0.13580   49.09000   96.83110   11.69840    5.56690   19.59310    0.14310
 8186.50000    0.94350    1.87030    2.38880    0.22210   47.73160   91.31930   12.55790    5.51580   17.37920    0.17550
 8187.00000    0.93250    1.97570    2.32210    0.29980   45.61120   86.63590   14.19120    5.64210   15.12430    0.24380
 8187.50000    0.87520    1.82200    2.13860    0.29930   46.02750   83.62150   15.90470    5.76840   14.09930    0.39200
 8188.00000    0.93520    1.42030    1.97690    0.29880   50.67800   79.37400   16.31450    5.89480   14.09930    0.51490
 8188.50000    1.15700    1.41430    1.74800    0.29820   55.32850   61.28760   13.77830    5.85390   14.09930    0.45980
 8189.00000    1.46270    2.40540    2.08460    0.24470   59.97900   71.47260   14.33500    5.39590   14.09930    0.34630
 8189.50000    2.80890    4.55700    3.76700    0.13540   64.62950   75.12640   12.12240    5.08640   14.10970    0.17790
 8190.00000    4.84030    6.33820    5.44950    0.11120   69.28000   77.06740   11.87960    5.07620   14.10970    0.09200
 8190.50000    4.96330    6.52130    5.66040    0.16620   73.93060   77.59270   11.96180    5.75870   14.10970    0.06360
 8191.00000    3.54560    5.78700    4.32580    0.23330   78.58110   73.83050   12.45300    6.12730   14.10970    0.12040
 8191.50000    2.12790    2.72500    2.65730    0.25120   83.23160   71.96030   12.96890    6.31500   14.10970    0.22390
 8192.00000    1.47460    2.02780    2.32380    0.24390   85.31860   71.64140   13.57530    6.29460   14.07210    0.29500
 8192.50000    1.56740    2.08580    2.61010    0.25840   79.49350   71.75490   12.81760    5.91890   13.82200    0.27870
 8193.00000    1.53820    2.15340    2.48350    0.24140   64.93080   71.58410   13.34220    5.44520   13.57180    0.32600
 8193.50000    1.47130    2.02310    2.30240    0.23530   69.76070   72.21200   13.24140    5.19050   13.32170    0.33860
 8194.00000    1.39260    1.85080    2.17530    0.23160   70.54290   74.11800   13.00890    4.98840   13.07160    0.33360
 8194.50000    1.20080    1.61920    1.73930    0.25560   71.30880   77.68450   13.91190    4.84900   12.82140    0.35850
 8195.00000    1.04430    1.38770    1.27990    0.27580   72.48400   80.84230   14.98940    4.71880   12.57130    0.38200
 8195.50000    0.93900    1.24980    1.23240    0.29310   74.68060   83.04990   16.06680    4.54640   12.32120    0.46620
 8196.00000    0.87890    1.14180    1.20940    0.29030   76.90280   84.44460   17.83110    4.34430   12.07100    0.52830
 8196.50000    0.83050    1.08660    1.14900    0.28040   82.04100   85.54560   18.66220    4.22770   11.82090    0.61150
 8197.00000    0.78840    1.03140    1.08620    0.27340   84.52270   91.70790   18.57680    4.09800   11.57080    0.60090
 8197.50000    0.74590    0.97620    1.02330    0.27490   88.30770   95.54210   19.72720    3.86300   11.32070    0.57990
 8198.00000    0.71940    0.92100    0.96040    0.27860   90.69310   96.48800   20.58430    3.72850   11.07050    0.61920
 8198.50000    0.70120    0.86570    0.89760    0.29070   92.25340   98.93540   21.17510    3.65380   10.84700    0.66260
 8199.00000    0.68320    0.82790    0.88500    0.29870   95.37470  101.30060   20.98550    3.76140   10.73010    0.69940
 8199.50000    0.68090    0.82790    0.88610    0.29570  100.43070  105.38440   20.99140    3.90990   10.61320    0.69940
 8200.00000    0.69380    0.83850    0.88850    0.27860  103.90400  106.92530   21.50370    4.05840   10.84970    0.69940
 8200.50000    0.70920    0.84390    0.89090    0.28860  106.37200  107.22330   21.31230    4.22840   10.82140    0.69940
 8201.00000    0.73280    0.84390    0.89330    0.29950  106.21280  109.81750   21.47100    4.60030   10.79320    0.69940
 8201.50000    0.73520    0.84400    0.91090    0.29990  107.63170  113.14970   21.14270    4.95920   10.76490    0.69940
 8202.00000    0.79800    0.88430    0.95540    0.29990  109.35290  117.69550   19.46010    5.24190   10.73670    0.69940
 8202.50000    0.86080    0.95140    1.04480    0.29990  111.75640  121.21670   18.11260    5.03730   10.70840    0.61640
 8203.00000    0.91110    1.00120    1.09080    0.29990  113.80030  124.47710   16.78220    4.57530   10.68010    0.47660
 8203.50000    0.91980    0.98530    1.05590    0.23380  121.50870  127.17790   16.38210    4.31220   10.65190    0.39480
 8204.00000    0.91990    0.96410    1.02100    0.19170  128.57510  127.14260   11.06360    4.16950   10.62360    0.39720
 8204.50000    0.94650    1.07230    1.17050    0.18730  126.90800  125.33260   11.15340    4.08570   10.61040    0.42110
 8205.00000    1.11660    1.22190    1.42270    0.19180  126.50590  121.02200   11.24330    4.02810   10.60710    0.43680
 8205.50000    1.28670    1.47690    1.75240    0.20160  128.25640  120.22130   11.36570    4.00890   10.60390    0.42110
 8206.00000    1.43630    1.53420    1.54210    0.20800  122.28620  119.81050   11.39990    4.00590   10.60060    0.40150
 8206.50000    1.19980    1.42220    1.33170    0.20170  118.61290  111.93330   11.27010    4.00710   10.59740    0.38680
 8207.00000    1.48470    1.68060    1.58290    0.17600  114.52670  111.28620   11.05470    4.05050   10.59410    0.36830
 8207.50000    1.76950    2.19100    2.00160    0.15140  108.61790  110.59040   10.59990    4.10450   10.59090    0.35640
 8208.00000    1.83220    2.46440    3.00840    0.14030  106.36480  105.94600   10.42790    4.16520   10.58760    0.31970
 8208.50000    1.83810    2.13090    2.53520    0.13240  105.00350  101.14580   10.38660    4.25310   10.58440    0.30030
 8209.00000    1.49560    1.71400    1.96660    0.12280  104.00450   95.95910   10.40470    4.43790   10.58110    0.28570
 8209.50000    1.30720    1.43640    1.61020    0.11450  102.14700  101.25530   10.38520    4.56760   10.57790    0.29370
 8210.00000    2.41610    2.35270    2.62020    0.10410  101.16560  103.35230   10.29930    4.56210   10.57460    0.29820
 8210.50000    4.65290    3.26910    3.61490    0.08160  100.43750  102.28970   10.11330    4.60450   10.57140    0.30770
 8211.00000    4.82160    4.89370    4.81820    0.06390   99.83760  100.87070    9.67010    4.72650   10.56810    0.30020
 8211.50000    4.81050    6.99060    5.62480    0.05340   99.28390   95.70300    9.58130    4.91840   10.56480    0.15240
 8212.00000    4.59080    6.78050    5.16550    0.05270   97.99750   85.20320    9.69080    5.07980   10.56160    0.11590
 8212.50000    4.59530    6.29970    6.92920    0.05550   96.70420   82.55630    9.88110    5.07990   10.55830    0.11260
 8213.00000    5.31470    6.79620    7.12950    0.05600   93.37030   83.37950   10.05350    5.01410   10.55510    0.12550
 8213.50000    5.74730    7.45080    8.90620    0.04970   83.80750   77.74650    9.72530    4.94840   10.55180    0.14180
 8214.00000    7.54710    8.06100   10.81820    0.02470   77.58690   71.04750    9.63980    4.89590   10.54860    0.14940
 8214.50000    7.20140    7.91030    9.47510    0.01320   72.70890   68.78570    9.61140    4.89590   10.54530    0.14170
 8215.00000    5.11160    6.46330    6.67840    0.03000   70.36140   67.00000    9.67990    4.91650   10.54210    0.13130
 8215.50000    4.13640    4.65430    4.39930    0.04800   70.20440   67.05070    9.79400    4.93700   10.59650    0.12000
