~Version ---------------------------------------------------
VERS.   2.0 : CWLS log ASCII Standard -VERSION 2.0
WRAP.    NO : One line per depth step
DLM . SPACE : Column Data Section Delimiter
~Well ------------------------------------------------------
STRT .FT                 65.0 : START DEPTH
STOP .FT               9444.0 : STOP DEPTH
STEP .FT                  0.5 : STEP
NULL .               -9999.25 : NULL VALUE
COMP .                        : COMPANY
WELL .                        : WELL
FLD  .                        : FIELD
LOC  .                        : LOCATION
PROV .                        : PROVINCE
CNTY .                        : COUNTY
STAT .                        : STATE
CTRY .                        : COUNTRY
SRVC .                        : SERVICE COMPANY
DATE .                        : DATE
UWI  .                        : UNIQUE WELL ID
API  .                        : API NUMBER
SLAT .WGS84    6.466453497505 : SURFACE LATITUDE
SLON .WGS84 3.614651016597719 : SURFACE LONGITUDE
DATUM.F                   nan : DEPTH DATUM ELEV
~Curve Information -----------------------------------------
DEPT   .FT    : 
AT10   .OHMM  : ARRAY INDUCTION TWO FOOT RESISTIVITY A10
AT30   .OHMM  : ARRAY INDUCTION TWO FOOT RESISTIVITY A30
AT90   .OHMM  : ARRAY INDUCTION TWO FOOT RESISTIVITY A90
DPHZ_LS.DEC   : HGRD STANDARD RESOLUTION DENSITY POROSITY
DTCO   .US/F  : DELTA-T COMPRESSIONAL
DTSM   .US/F  : DELTA-T SHEAR
HCALR  .IN    : HRCC CALIPER CALIBRATED FROM RESISTIVITY LOG
PEFZ   .B/E   : HRDD STANDARD RESOLUTION FORMATION PHOTOELECTRIC FACTOR
SPR    .MV    : SPONTANEOUS POTENTIAL FROM RESISTIVITY LOG
TNPH_LS.DEC   : THERMAL NEUTRON POROSITY [LIMESTONE]
~Params ----------------------------------------------------
~Other -----------------------------------------------------
~ASCII -----------------------------------------------------
# ...
 8348.00000    6.31670    7.56740    7.29970    0.05000   70.47090  126.75410    8.93360    4.65270   15.81910    0.11150
 8348.50000    5.78160    6.36620    6.06220    0.04600   72.78830  130.28240    8.99240    4.63890   16.03740    0.14000
 8349.00000    5.46170    6.41700    5.89320    0.04340   74.04710  135.59180    9.05120    4.49860   16.25570    0.16520
 8349.50000    4.66840    5.90400    5.35690    0.04720   71.84690  140.20080    9.08000    4.33590   16.47390    0.17900
 8350.00000    4.15300    4.87700    4.55530    0.05970   72.93330  141.20270    9.04780    4.21830   17.16790    0.18670
 8350.50000    4.46800    4.97540    4.68740    0.06210   74.02130  143.60740    9.01550    4.10050   17.50260    0.17460
 8351.00000    4.95150    5.46430    5.17460    0.05950   75.56290  147.05000    8.98980    4.04960   16.99450    0.16580
 8351.50000    5.21570    5.95320    5.51910    0.05410   76.02940  148.85170    8.98990    4.00850   17.00060    0.15490
 8352.00000    4.92820    5.71030    5.18740    0.05380   76.46450  150.09690    8.99290    4.01010   17.00680    0.15710
 8352.50000    4.19580    5.05090    4.77240    0.05660   76.71940  149.74550    9.00670    4.00710   17.15280    0.16580
 8353.00000    4.05960    4.56820    4.39880    0.06190   74.84760  148.44440    9.02050    4.00910   16.54070    0.17510
 8353.50000    4.07930    5.07070    4.62650    0.07060   73.10950  145.27250    9.02860    4.01110   16.56110    0.18100
 8354.00000    4.07990    5.21750    4.92990    0.07170   70.77410  142.15580    9.01360    4.21280   16.25440    0.17770
 8354.50000    4.19820    5.21830    4.93050    0.06600   68.23130  138.25690    8.99850    4.48090   15.72930    0.16750
 8355.00000    6.46920    9.85700    7.10890    0.04630   66.70120  135.79740    8.98350    4.77410   15.56360    0.13960
 8355.50000    8.74020   14.49570    9.77300    0.03260   65.81980  132.86420    8.96840    5.03870   15.39790    0.10740
 8356.00000   11.01120   19.13430   14.40220    0.02690   63.49220  129.96020    8.95340    5.14290   15.23220    0.08130
 8356.50000   11.58020   23.77300   26.89160    0.02380   59.57010  124.72790    8.91860    5.12260   15.81620    0.06450
 8357.00000   11.07710   23.58850   24.52020    0.00860   60.51210  121.87280    8.98630    5.03700   14.99210    0.06910
 8357.50000   11.58040   20.82640   23.19040   -0.00650   60.33220  119.67880    9.00700    4.94260   14.59470    0.07200
 8358.00000   11.48760   17.64290   22.19650   -0.00590   60.16270  118.58950    8.95400    4.86720   14.75230    0.06850
 8358.50000    9.91310   13.22090   16.48470    0.00640   60.75870  118.95550    8.90100    4.77180   14.91000    0.06760
 8359.00000    8.33870   11.40540   11.70210    0.01850   60.86150  119.75480    8.86930    4.68570   14.97920    0.07580
 8359.50000    7.56490    9.85930   10.63660    0.02230   61.04640  120.97650    8.89900    4.62920   15.84560    0.08480
 8360.00000    7.49480    9.22810    9.93180    0.02310   61.34480  122.53510    8.92880    4.58630   15.56260    0.09060
 8360.50000    7.51970    8.55590    9.22700    0.02270   61.40100  123.12640    8.92760    4.59640   15.15490    0.08640
 8361.00000    7.64030    8.00810    8.63960    0.02240   61.72810  123.95280    8.91880    4.66820   15.64280    0.08470
 8361.50000    7.71420    8.13180    8.64010    0.02330   61.73320  124.89800    8.91000    4.73530   16.13060    0.08190
 8362.00000    7.71530    8.16380    8.59780    0.02270   61.78030  125.78160    8.90120    4.69450   16.61850    0.07870
 8362.50000    7.04460    7.91310    8.37830    0.02210   61.72810  126.23620    8.92850    4.64350   17.10630    0.08110
 8363.00000    6.44640    7.69250    8.15870    0.02370   62.18300  126.67830    8.98000    4.66120   16.30330    0.08990
 8363.50000    7.02130    7.58110    7.93920    0.02640   62.60630  127.12040    8.96530    4.66570   16.50050    0.09900
 8364.00000    7.08910    7.46970    7.93920    0.02970   63.11390  127.43410    8.95060    4.63300   17.01840    0.10060
 8364.50000    6.96400    7.35820    7.93920    0.03190   63.56360  127.89270    8.93590    4.59360   17.12200    0.10050
 8365.00000    6.83880    7.24680    7.93920    0.03580   63.49220  128.57590    8.92120    4.55620   17.12200    0.10460
 8365.50000    6.75790    7.19140    7.93920    0.04060   64.01820  128.50320    8.92230    4.56970   17.44360    0.10630
 8366.00000    6.72710    7.09080    7.93920    0.04060   64.39950  128.49930    8.94710    4.58180   17.17340    0.10730
 8366.50000    6.69630    7.09140    7.93920    0.04130   64.36310  128.89780    8.97190    4.59490   17.18630    0.10780
 8367.00000    6.66550    7.09140    7.93920    0.04340   64.32670  128.64990    9.00310    4.59820   17.37300    0.10990
 8367.50000    6.64120    7.09140    7.83380    0.04560   64.29030  128.52810    9.01010    4.59530   17.55970    0.11370
 8368.00000    6.64210    7.09140    7.73460    0.04380   64.25390  128.59570    9.01040    4.59410   17.49420    0.11090
 8368.50000    6.79930    7.11880    7.69970    0.04010   64.14110  128.35860    8.97710    4.59290   17.26060    0.10760
 8369.00000    6.94560    7.23360    7.95240    0.03730   64.13520  128.12160    8.98540    4.59160   17.16720    0.10810
 8369.50000    6.93470    7.37230    8.02890    0.03360   64.82820  127.88450    8.99200    4.52590   16.43630    0.11210
 8370.00000    6.77330    7.37240    8.02890    0.03240   64.82820  128.00500    8.99620    4.47480   16.26700    0.11360
 8370.50000    6.52250    7.30500    8.03170    0.02810   64.82820  127.78540    9.01120    4.43390   16.29810    0.11210
 8371.00000    6.46090    6.83740    8.03290    0.02160   64.77680  127.52710    9.01120    4.47220   16.57310    0.11060
 8371.50000    6.56160    6.83850    7.89840    0.01720   64.51990  127.43570    8.99620    4.51740   16.26900    0.11220
 8372.00000    6.66240    6.91560    7.73660    0.01950   64.62260  127.32780    8.98710    4.49940   16.21690    0.11320
 8372.50000    6.76310    7.01190    7.73780    0.02670   64.72540  127.13340    8.99120    4.45880   15.97220    0.11450
 8373.00000    6.84390    7.10830    7.73900    0.02980   64.85380  127.06550    8.99120    4.42640   15.36430    0.11590
 8373.50000    6.88730    7.20460    7.74010    0.03000   64.91810  127.11860    8.99120    4.42810   15.22200    0.11830
 8374.00000    6.85010    7.31260    7.77810    0.02990   64.89930  127.36350    8.99040    4.42980   15.07960    0.11760
 8374.50000    6.81290    7.31400    7.81600    0.02970   64.85980  127.35380    8.98870    4.43150   14.93730    0.11620
 8375.00000    6.67260    7.24610    7.89160    0.02960   64.82820  127.34410    8.98700    4.43000   14.79490    0.12060
 8375.50000    6.17120    6.96100    7.48130    0.02970   64.82820  127.40190    8.98540    4.42380   14.25820    0.12410
 8376.00000    6.19670    6.84750    7.31770    0.03160   64.82820  127.72940    8.98370    4.42270   14.23430    0.12690
 8376.50000    6.29120    6.84860    7.31820    0.03230   64.95150  127.82450    8.98200    4.41730   14.21050    0.12490
 8377.00000    6.35210    6.84880    7.31990    0.03150   65.10560  128.06690    8.98040    4.40810   14.18670    0.12210
 8377.50000    6.23380    6.85080    7.32110    0.02630   65.37000  128.35230    8.97870    4.39450   13.63260    0.12190
 8378.00000    6.41450    6.68630    7.15120    0.02350   65.27660  128.70230    8.97700    4.35370   13.98310    0.12190
 8378.50000    6.17910    6.43510    6.85340    0.02370   65.39340  129.21540    8.97540    4.32110   13.59010    0.12360
 8379.00000    5.89190    6.17560    6.63110    0.02750   65.65030  129.64710    8.97370    4.32130   14.18810    0.13010
 8379.50000    5.96880    6.25600    6.63060    0.02470   65.90720  129.95670    8.97200    4.32140   14.15610    0.13010
 8380.00000    6.04560    6.38950    6.70660    0.02420   66.00990  130.13080    8.97530    4.32140   14.09780    0.12670
 8380.50000    6.12240    6.41700    6.78260    0.02270   66.07840  130.31490    8.97970    4.32140   14.03950    0.12460
