~Version ---------------------------------------------------
VERS.   2.0 : CWLS log ASCII Standard -VERSION 2.0
WRAP.    NO : One line per depth step
DLM . SPACE : Column Data Section Delimiter
~Well ------------------------------------------------------
STRT .FT                 65.0 : START DEPTH
STOP .FT               9444.0 : STOP DEPTH
STEP .FT                  0.5 : STEP
NULL .               -9999.25 : NULL VALUE
COMP .                        : COMPANY
WELL .                        : WELL
FLD  .                        : FIELD
LOC  .                        : LOCATION
PROV .                        : PROVINCE
CNTY .                        : COUNTY
STAT .                        : STATE
CTRY .                        : COUNTRY
SRVC .                        : SERVICE COMPANY
DATE .                        : DATE
UWI  .                        : UNIQUE WELL ID
API  .                        : API NUMBER
SLAT .WGS84    6.466453497505 : SURFACE LATITUDE
SLON .WGS84 3.614651016597719 : SURFACE LONGITUDE
DATUM.F                   nan : DEPTH DATUM ELEV
~Curve Information -----------------------------------------
DEPT   .FT    : 
AT10   .OHMM  : ARRAY INDUCTION TWO FOOT RESISTIVITY A10
AT30   .OHMM  : ARRAY INDUCTION TWO FOOT RESISTIVITY A30
AT90   .OHMM  : ARRAY INDUCTION TWO FOOT RESISTIVITY A90
DPHZ_LS.DEC   : HGRD STANDARD RESOLUTION DENSITY POROSITY
DTCO   .US/F  : DELTA-T COMPRESSIONAL
DTSM   .US/F  : DELTA-T SHEAR
HCALR  .IN    : HRCC CALIPER CALIBRATED FROM RESISTIVITY LOG
PEFZ   .B/E   : HRDD STANDARD RESOLUTION FORMATION PHOTOELECTRIC FACTOR
SPR    .MV    : SPONTANEOUS POTENTIAL FROM RESISTIVITY LOG
TNPH_LS.DEC   : THERMAL NEUTRON POROSITY [LIMESTONE]
~Params ----------------------------------------------------
~Other -----------------------------------------------------
~ASCII -----------------------------------------------------
# ...
 9074.00000   10.06900   11.04990   11.46910    0.04230   66.91030  115.03820    8.84210    3.35960  -12.83250    0.12300
 9074.50000   10.35910   10.96350   11.06130    0.03840   65.26550  111.80330    8.82160    3.66290  -13.16840    0.12030
 9075.00000   11.82390   35.98290   19.37400    0.02370   63.29540  109.64420    8.82080    3.89500  -12.83310    0.11550
 9075.50000   19.81780   77.16410   38.81800    0.00760   61.66780  107.07410    8.83120    3.99070  -11.23620    0.10600
 9076.00000   29.52840  118.34530   58.26210    0.00300   59.40780  104.04650    8.77640    3.88940  -13.09330    0.08210
 9076.50000   39.92020  159.52650   73.81820    0.01080   57.16590  101.68220    8.75460    3.79900  -14.95040    0.05760
 9077.00000   42.37330  218.69280   64.67970    0.02130   55.43300   97.98100    8.75250    3.94440  -16.06470    0.03900
 9077.50000   45.20610  275.60780   81.67320    0.02190   54.46370   95.66580    8.74990    4.20530  -16.59990    0.03050
 9078.00000   45.24000  474.36210  104.75270    0.01760   53.40820   93.20560    8.74730    4.39570  -17.35970    0.02420
 9078.50000   45.25650  370.59100  116.15930    0.01320   52.86140   91.62510    8.74460    4.45730  -18.21280    0.01800
 9079.00000   46.64220  307.25310  112.91910    0.01370   52.20990   90.79930    8.74360    4.31320  -19.08260    0.01670
 9079.50000   46.82400  293.14420  117.01660    0.01630   52.10660   90.04120    8.74490    4.14210  -20.56750    0.01790
 9080.00000   47.72370  306.09460  120.64140    0.01510   51.88260   90.04030    8.74660    4.01620  -21.53380    0.01910
 9080.50000   49.36190  301.32700  125.33910    0.01420   51.77940   89.76520    8.74830    4.04280  -22.82630    0.02020
 9081.00000   51.24060  296.95950  130.11470    0.01680   51.67030   89.76430    8.75000    4.06940  -25.42400    0.02100
 9081.50000   54.25930  440.65680  160.14910    0.01950   51.37670   89.93450    8.75160    4.18070  -28.02160    0.02180
 9082.00000   58.42310  736.95950  206.06930    0.01810   51.33340   90.10470    8.75330    4.41100  -30.61930    0.02100
 9082.50000   61.75470 1033.26220  251.98960    0.01590   50.94530   90.27500    8.75500    4.62110  -33.21700    0.01740
 9083.00000   61.75720 1621.60200  389.04740    0.01270   50.55720   90.44520    8.75660    4.74390  -35.81460    0.01390
 9083.50000   62.16510 1684.74880  439.85810    0.00950   50.40170   90.65950    8.75830    4.81780  -38.41230    0.01040
 9084.00000   62.67470 1451.09780  509.18700    0.00850   50.40970   90.85420    8.76000    4.88520  -41.01000    0.00790
 9084.50000   62.86250 1372.99780  620.30190    0.00700   50.53770   91.04890    8.76000    4.88520  -43.60760    0.00710
 9085.00000   63.05040 1356.60890  741.83140    0.00750   50.66570   91.24370    8.76000    4.83060  -46.20530    0.00680
 9085.50000   63.23820 1393.95030  771.97800    0.01000   50.77450   91.39930    8.76000    4.67270  -48.74790    0.00680
 9086.00000   65.62810 1451.36570  718.62160    0.01300   50.85460   91.53520    8.76000    4.49160  -51.07000    0.00740
 9086.50000   72.48080 1535.51410  656.35640    0.01470   50.93470   91.52790    8.76000    4.39300  -53.39220    0.00900
 9087.00000   73.16810 1602.83400  593.05550    0.01640   51.01480   91.51900    8.76000    4.41360  -55.71430    0.00960
 9087.50000   67.72000 1602.83740  517.94070    0.01820   51.01480   91.51010    8.76000    4.53390  -58.03650    0.00960
 9088.00000   62.96220 1500.34840  418.16470    0.01990   51.01480   91.28160    8.76000    4.67370  -60.35870    0.00960
 9088.50000   61.95920 1398.22610  367.69570    0.01680   51.09890   90.96250    8.76000    4.69420  -62.68080    0.00960
 9089.00000   60.78410 1352.37860  350.75110    0.01210   51.52650   90.70710    8.76000    4.66690  -65.00300    0.01010
 9089.50000   59.31400 1302.27100  287.22370    0.00740   51.90110   90.56900    8.76000    4.50650  -66.11430    0.01060
 9090.00000   51.90170  968.87350  221.89370    0.00560   52.24650   90.10210    8.76000    4.24830  -66.41830    0.01120
 9090.50000   49.63940  552.12430  163.49040    0.01460   52.53820   89.96410    8.76000    3.94010  -66.72230    0.01340
 9091.00000   46.42550  216.67100  139.09770    0.02520   52.96840   89.88090    8.76000    3.74680  -67.02640    0.01610
 9091.50000   49.13370  238.22020  160.27290    0.03370   53.18880   89.87980    8.76000    3.72540  -67.33040    0.01880
 9092.00000   47.97860  345.94540  193.31930    0.03320   53.38800   89.87920    8.76000    3.74680  -67.64200    0.02050
 9092.50000   48.45860  404.00990  198.03770    0.02810   53.42960   89.87920    8.76000    3.86230  -67.98410    0.02050
 9093.00000   48.93860  419.56210  199.12700    0.02990   53.42960   89.87920    8.76000    3.98620  -68.32610    0.01990
 9093.50000   49.41860  490.05470  212.48510    0.03450   53.26680   90.01270    8.76000    4.04350  -68.24530    0.01990
 9094.00000   50.05450  595.95530  236.24840    0.03540   52.78460   90.14220    8.76000    4.08970  -68.05880    0.01990
 9094.50000   51.11290  838.13950  291.89110    0.02960   52.50880   90.30430    8.76000    4.18710  -67.07200    0.02050
 9095.00000   51.69380 1401.89280  347.53440    0.02500   52.38210   90.46640    8.76000    4.33340  -66.42700    0.02050
 9095.50000   52.19430 1954.28260  319.23760    0.02280   51.96710   90.62850    8.76000    4.44530  -65.91480    0.01890
 9096.00000   52.26460 1972.81580  333.83270    0.02600   51.73790   90.69270    8.76000    4.55320  -65.31640    0.01630
 9096.50000   52.33490 1978.57240  354.17730    0.02690   51.46890   90.69160    8.76000    4.65320  -65.31650    0.01370
 9097.00000   52.96500 1985.76800  437.77330    0.02490   51.32840   90.62010    8.76000    4.65320  -63.72460    0.01120
 9097.50000   55.12730 2010.40980  470.11440    0.02230   51.16350   90.50160    8.76000    4.62140  -62.82940    0.01010
 9098.00000   56.79160 1991.52460  483.62470    0.01980   51.20220   90.38310    8.76000    4.54180  -61.93430    0.00960
 9098.50000   58.83030 1855.17690  529.59630    0.01720   51.24500   90.26470    8.76000    4.46210  -60.79810    0.00990
 9099.00000   59.62940 1632.42060  559.83200    0.01580   51.23730   90.14620    8.76000    4.38250  -60.28620    0.01040
 9099.50000   59.58540 1221.56990  516.67710    0.01840   51.57240   90.02770    8.76000    4.30290  -59.47370    0.01170
 9100.00000   58.30730  927.23570  391.48740    0.02270   52.33480   89.90920    8.76000    4.25740  -57.71350    0.01230
 9100.50000   54.96790  820.18360  261.45750    0.02400   52.36250   90.13540    8.76000    4.24380  -57.31330    0.01450
 9101.00000   50.79520  473.01150  187.09220    0.02070   53.15220   90.27170    8.76000    4.16190  -56.14860    0.01750
 9101.50000   47.00580  244.26430  149.90880    0.02030   53.58970   90.72750    8.76000    3.87320  -54.23520    0.02110
 9102.00000   42.52140  181.59970  115.36450    0.02720   54.30090   91.12630    8.76000    3.58450  -53.25020    0.02470
 9102.50000   40.68690  131.46840   81.27450    0.03460   54.65240   91.36530    8.76000    3.31120  -52.53030    0.02650
 9103.00000   39.92000  123.06800   79.00830    0.03700   54.85740   91.63840    8.76000    3.18610  -50.86700    0.02720
 9103.50000   41.33970  124.86110   89.32390    0.03740   54.89360   91.63760    8.76000    3.16560  -49.73240    0.02780
 9104.00000   43.81010  162.55730  100.98590    0.03750   54.58720   91.63690    8.76000    3.28850  -48.59780    0.03140
 9104.50000   45.46470  216.11930  135.06780    0.04090   54.13540   91.70340    8.76000    3.48980  -47.46320    0.03680
 9105.00000   49.41890  319.54420  205.55930    0.04490   53.67250   91.69650    8.76000    3.82750  -46.19640    0.04070
 9105.50000   52.87230  764.94670  293.63700    0.04610   52.91530   91.50840    8.76000    4.16520  -45.36370    0.03310
 9106.00000   55.39910 1438.33410  452.06000    0.03120   52.56520   91.56290    8.76000    4.43910  -43.66450    0.02560
 9106.50000   54.53810 1334.08570  450.60800    0.01620   52.69620   91.90670    8.76000    4.64660  -41.92250    0.01810
