~Version ---------------------------------------------------
VERS.   2.0 : CWLS log ASCII Standard -VERSION 2.0
WRAP.    NO : One line per depth step
DLM . SPACE : Column Data Section Delimiter
~Well ------------------------------------------------------
STRT .FT                 65.0 : START DEPTH
STOP .FT               9444.0 : STOP DEPTH
STEP .FT                  0.5 : STEP
NULL .               -9999.25 : NULL VALUE
COMP .                        : COMPANY
WELL .                        : WELL
FLD  .                        : FIELD
LOC  .                        : LOCATION
PROV .                        : PROVINCE
CNTY .                        : COUNTY
STAT .                        : STATE
CTRY .                        : COUNTRY
SRVC .                        : SERVICE COMPANY
DATE .                        : DATE
UWI  .                        : UNIQUE WELL ID
API  .                        : API NUMBER
SLAT .WGS84    6.466453497505 : SURFACE LATITUDE
SLON .WGS84 3.614651016597719 : SURFACE LONGITUDE
DATUM.F                   nan : DEPTH DATUM ELEV
~Curve Information -----------------------------------------
DEPT   .FT    : 
AT10   .OHMM  : ARRAY INDUCTION TWO FOOT RESISTIVITY A10
AT30   .OHMM  : ARRAY INDUCTION TWO FOOT RESISTIVITY A30
AT90   .OHMM  : ARRAY INDUCTION TWO FOOT RESISTIVITY A90
DPHZ_LS.DEC   : HGRD STANDARD RESOLUTION DENSITY POROSITY
DTCO   .US/F  : DELTA-T COMPRESSIONAL
DTSM   .US/F  : DELTA-T SHEAR
HCALR  .IN    : HRCC CALIPER CALIBRATED FROM RESISTIVITY LOG
PEFZ   .B/E   : HRDD STANDARD RESOLUTION FORMATION PHOTOELECTRIC FACTOR
SPR    .MV    : SPONTANEOUS POTENTIAL FROM RESISTIVITY LOG
TNPH_LS.DEC   : THERMAL NEUTRON POROSITY [LIMESTONE]
~Params ----------------------------------------------------
~Other -----------------------------------------------------
~ASCII -----------------------------------------------------
# ...
 8513.00000    5.74590    6.67810    7.24980    0.03620   66.49040  128.66320    9.10400    4.49640   15.27570    0.11550
 8513.50000    6.55390    7.43810    8.27980    0.03630   66.20530  127.31420    9.08240    4.42120   15.22750    0.10920
 8514.00000    7.53660    8.43860    9.30980    0.02870   65.40930  125.43610    9.06510    4.41800   15.06030    0.09880
 8514.50000    8.51940    9.43910   10.33980    0.01850   64.11390  123.55800    9.04350    4.46380   14.22790    0.09110
 8515.00000    9.50210   10.18330   11.36980    0.01170   63.22370  121.67990    9.02840    4.50960   14.10130    0.08230
 8515.50000   10.22090   11.73970   12.54570    0.00840   62.05660  119.93470    9.02520    4.54960   13.97470    0.07540
 8516.00000   10.35160   11.96550   12.78710    0.01440   61.45040  118.67410    9.02110    4.57810   13.84810    0.07360
 8516.50000   10.28740   11.74220   12.05840    0.02380   61.28600  117.94550    9.01700    4.59200   13.30970    0.07540
 8517.00000    8.84220   10.36290   10.84270    0.03500   61.37100  117.45930    9.01290    4.59290   12.49660    0.07880
 8517.50000    7.96730    9.09430    9.62710    0.04200   61.74370  117.12050    9.00880    4.55990   11.92930    0.08300
 8518.00000    7.96840    8.84030    9.38800    0.05020   61.70220  116.93220    9.00470    4.54510   11.57380    0.08660
 8518.50000    7.96860    8.75790    9.35890    0.05430   61.40350  116.74170    9.00410    4.55320   11.25030    0.09030
 8519.00000    7.97010    8.84230    9.36050    0.05030   60.83960  115.65420    8.99650    4.51600   10.92690    0.08780
 8519.50000    8.32570    9.88860   10.41660    0.03910   60.56730  114.34250    8.98880    4.48480   10.60340    0.07870
 8520.00000   10.44580   11.92340   14.59960    0.02650   59.24050  112.78920    8.97400    4.55130   10.57800    0.06800
 8520.50000   14.31790   19.63510   23.07730    0.01340   58.27220  111.56360    8.95720    4.63530   10.47860    0.05320
 8521.00000   24.85300   35.49140   31.55500    0.00370   57.56050  110.56300    8.94600    4.70730   10.37920    0.04160
 8521.50000   23.47340   41.83630   29.43640    0.00020   57.19930  108.89910    8.94400    4.66420   10.34040    0.04000
 8522.00000   16.30110   24.69840   20.27790    0.00490   56.99000  106.79990    8.95790    4.57070   10.30160    0.04520
 8522.50000   15.04700   19.42670   17.93140    0.00880   55.92610  106.27300    8.98550    4.47730    9.76500    0.05250
 8523.00000   15.04870   18.18220   16.64260    0.01120   55.87090  105.37540    8.97700    4.47950    9.22850    0.05730
 8523.50000   14.77110   17.01750   15.92690    0.01150   55.86030  104.62930    8.96250    4.51440    8.69200    0.05960
 8524.00000   13.95390   19.05600   17.72930    0.01000   56.10690  104.53420    8.94810    4.55820    8.15540    0.05910
 8524.50000   14.49470   20.37800   19.07230    0.00840   56.25210  104.89470    8.93370    4.56230    7.61890    0.05860
 8525.00000   14.92840   20.77010   19.81210    0.00640   56.72140  104.94440    8.92520    4.54610    7.08240    0.05820
 8525.50000   15.51040   21.98740   20.47270    0.00700   56.70990  105.54960    8.91810    4.53520    6.54580    0.05750
 8526.00000   15.80120   23.72150   21.87690    0.00820   56.59330  105.58610    8.91110    4.52420    6.54580    0.05750
 8526.50000   15.11720   25.21820   23.28110    0.01160   56.50210  105.50090    8.90410    4.55460    7.38120    0.05660
 8527.00000   14.93260   26.08450   22.83180    0.01300   56.60300  104.66770    8.88900    4.59090    8.49650    0.05580
 8527.50000   15.74750   26.08720   20.58790    0.01420   56.02360  104.81880    8.87180    4.63880    8.19620    0.05090
 8528.00000   17.81100   28.14430   24.88580    0.00990   55.86070  104.53990    8.86210    4.64500    7.89600    0.04420
 8528.50000   18.26290   31.62510   26.36340    0.00420   55.50550  104.26110    8.84770    4.64680    7.59580    0.03950
 8529.00000   18.26290   34.83770   28.78750    0.00010   54.96090  103.98220    8.83330    4.61530    7.39020    0.03970
 8529.50000   18.13870   37.99760   30.09110   -0.00020   54.43710  103.48310    8.82480    4.61940    7.32670    0.03990
 8530.00000   19.14710   40.74180   31.25220    0.00360   54.05510  102.84970    8.82500    4.69010    7.26320    0.04010
 8530.50000   20.35430   44.37340   35.00070    0.00740   53.58450  102.80010    8.82210    4.74780    7.19970    0.03830
 8531.00000   22.32760   51.45200   39.79660    0.00830   53.14100  102.35710    8.81440    4.75860    7.13620    0.03500
 8531.50000   21.06880   61.83240   46.33160    0.00640   52.86810  101.27630    8.80680    4.76930    7.07270    0.03310
 8532.00000   21.03930   59.94750   56.77810    0.00090   52.70440  100.79510    8.78490    4.76960    7.25670    0.03200
 8532.50000   21.00970   56.29450   69.29990    0.00060   52.53150  100.55490    8.78750    4.76290    7.60560    0.03400
 8533.00000   20.89110   52.64150   72.42850   -0.00360   52.31430   99.81700    8.79910    4.74470    7.98100    0.03800
 8533.50000   20.50330   51.18320   76.92860   -0.00620   52.06820   99.30200    8.81080    4.72160    8.46190    0.03970
 8534.00000   21.41600   53.16650   68.75030   -0.01180   52.31300   99.62480    8.82240    4.66870    8.94280    0.04080
 8534.50000   22.00490   52.97200   59.57930   -0.01580   52.91510  100.44880    8.84770    4.68220    9.42370    0.03830
 8535.00000   20.18890   52.17990   41.29510   -0.01740   53.69640  101.17910    8.84790    4.84440    9.90460    0.03580
 8535.50000   18.01090   43.58940   30.04020   -0.01740   53.85320  102.54670    8.84790    4.97930   10.38550    0.03330
 8536.00000   13.95020   30.46680   23.23530   -0.01250   55.30780  103.93280    8.84790    4.94750   11.24830    0.04090
 8536.50000   11.36710   18.51490   15.67400   -0.00260   56.13820  105.31890    8.84790    4.86800   12.11110    0.04890
 8537.00000   10.84580   15.38010   14.66980    0.00920   56.50220  106.69190    8.84790    4.76570   13.23000    0.05520
 8537.50000   10.90550   15.20080   14.66980    0.01770   56.90220  108.28810    8.84790    4.69650   14.51960    0.05790
 8538.00000   10.94200   14.95250   13.93260    0.01760   57.83650  110.65450    8.84790    4.65800   15.80920    0.06340
 8538.50000   10.58720   14.53510   13.22250    0.01750   58.90710  111.70900    8.84790    4.64040   16.58300    0.06420
 8539.00000   10.27120   14.39980   13.22420    0.01970   59.19340  112.44370    8.84790    4.63210   16.58300    0.06510
 8539.50000   10.19200   14.02550   13.14270    0.01920   58.90600  113.33570    8.84790    4.63240   16.68750    0.06590
 8540.00000   10.07380   13.43950   12.49830    0.01700   59.15440  114.48910    8.84790    4.64460   17.12660    0.06650
 8540.50000   10.06980   13.10240   12.26300    0.01590   59.14650  115.10890    8.84790    4.65630   17.56580    0.06620
 8541.00000   10.20870   13.46550   12.73800    0.01690   59.13470  114.89140    8.84790    4.71650   18.05760    0.06420
 8541.50000   10.21820   13.74110   12.86060    0.02160   59.08020  114.89760    8.84790    4.77630   17.41230    0.06200
 8542.00000   10.14130   13.74280   12.86160    0.01980   58.63830  115.12850    8.85130    4.83600   18.08380    0.06170
 8542.50000   10.19580   13.74280   12.86320    0.01680   59.74900  115.63390    8.85160    4.89570   18.69670    0.06070
 8543.00000   10.44760   13.36120   12.86500    0.01010   60.31480  116.49600    8.87600    4.92990   18.11250    0.05970
 8543.50000    9.91480   12.62390   11.48170    0.00860   60.57180  117.50110    8.90040    4.85590   18.71140    0.06160
 8544.00000    8.22700   10.12660    9.21700    0.01420   61.20290  118.24730    8.92480    4.66710   18.23400    0.07630
 8544.50000    6.53920    7.62930    6.95230    0.02110   61.70330  119.82090    8.94540    4.50990   17.63710    0.09170
 8545.00000    5.75450    6.56830    7.01920    0.02900   62.45180  121.66440    8.96350    4.39400   18.80580    0.11300
 8545.50000    6.37130    6.84530    7.46630    0.03300   62.92670  122.37460    8.98160    4.41660   18.99420    0.11290
