~Version ---------------------------------------------------
VERS.   2.0 : CWLS log ASCII Standard -VERSION 2.0
WRAP.    NO : One line per depth step
DLM . SPACE : Column Data Section Delimiter
~Well ------------------------------------------------------
STRT .FT                 65.0 : START DEPTH
STOP .FT               9444.0 : STOP DEPTH
STEP .FT                  0.5 : STEP
NULL .               -9999.25 : NULL VALUE
COMP .                        : COMPANY
WELL .                        : WELL
FLD  .                        : FIELD
LOC  .                        : LOCATION
PROV .                        : PROVINCE
CNTY .                        : COUNTY
STAT .                        : STATE
CTRY .                        : COUNTRY
SRVC .                        : SERVICE COMPANY
DATE .                        : DATE
UWI  .                        : UNIQUE WELL ID
API  .                        : API NUMBER
SLAT .WGS84    6.466453497505 : SURFACE LATITUDE
SLON .WGS84 3.614651016597719 : SURFACE LONGITUDE
DATUM.F                   nan : DEPTH DATUM ELEV
~Curve Information -----------------------------------------
DEPT   .FT    : 
AT10   .OHMM  : ARRAY INDUCTION TWO FOOT RESISTIVITY A10
AT30   .OHMM  : ARRAY INDUCTION TWO FOOT RESISTIVITY A30
AT90   .OHMM  : ARRAY INDUCTION TWO FOOT RESISTIVITY A90
DPHZ_LS.DEC   : HGRD STANDARD RESOLUTION DENSITY POROSITY
DTCO   .US/F  : DELTA-T COMPRESSIONAL
DTSM   .US/F  : DELTA-T SHEAR
HCALR  .IN    : HRCC CALIPER CALIBRATED FROM RESISTIVITY LOG
PEFZ   .B/E   : HRDD STANDARD RESOLUTION FORMATION PHOTOELECTRIC FACTOR
SPR    .MV    : SPONTANEOUS POTENTIAL FROM RESISTIVITY LOG
TNPH_LS.DEC   : THERMAL NEUTRON POROSITY [LIMESTONE]
~Params ----------------------------------------------------
~Other -----------------------------------------------------
~ASCII -----------------------------------------------------
# ...
 9008.00000    2.45220    2.53000    2.63270    0.08510   94.21090  205.31960   10.04610    4.21150    9.35380    0.35140
 9008.50000    2.41930    2.51650    2.63280    0.08890   94.60590  201.34670   10.23220    4.32150    9.21610    0.35840
 9009.00000    2.41950    2.50300    2.63280    0.08010   94.91390  202.69680   10.13500    4.42470    9.07840    0.36420
 9009.50000    2.41970    2.48960    2.60850    0.07030   95.32480  203.28420    9.82720    4.51750    8.94070    0.36180
 9010.00000    2.36710    2.47610    2.60130    0.06280   95.63280  204.35300    9.88190    4.56610    8.72680    0.36310
 9010.50000    2.33020    2.46540    2.58920    0.06190   96.04360  205.09780    9.93660    4.59660    7.12360    0.36010
 9011.00000    2.33040    2.43920    2.52420    0.07810   96.35160  204.62040    9.99140    4.63420    7.06300    0.35020
 9011.50000    2.28690    2.39680    2.48870    0.09980   96.76240  204.14300   10.04610    4.67420    7.00250    0.34760
 9012.00000    2.28710    2.39690    2.48880    0.11040   96.86510  203.25040    9.81630    4.67520    6.70300    0.35580
 9012.50000    2.26570    2.37460    2.46570    0.09260   96.86510  202.05940    9.66300    4.65610    6.15150    0.36630
 9013.00000    2.26590    2.37470    2.46590    0.07010   97.40760  199.58170    9.85540    4.39870    6.81870    0.36020
 9013.50000    2.44950    2.59520    2.74860    0.06350   98.15060  195.60270    9.97080    4.19870    6.98970    0.35650
 9014.00000    2.73800    2.86950    3.00790    0.06540   98.24550  190.73740    9.95030    3.94010    8.37820    0.34530
 9014.50000    2.59200    2.80000    3.03670    0.07270   98.19960  186.64540    9.88160    3.75180   10.07120    0.33230
 9015.00000    2.50710    2.58640    3.09490    0.07450   96.05840  184.33160    9.87100    3.69700   10.82030    0.32140
 9015.50000    2.84550    3.08180    3.80100    0.07950   94.81270  178.21960    9.69590    3.69570    8.56300    0.31840
 9016.00000    3.43560    3.90740    4.50700    0.07170   94.91030  171.36770    9.57550    3.69450    6.20300    0.30650
 9016.50000    4.11290    4.39280    4.82760    0.06580   94.77310  163.39450    9.43320    3.55750    5.95090    0.26400
 9017.00000    4.77580    4.93690    6.48900    0.05930   92.71750  145.58670    9.04740    3.42060    5.61900    0.22330
 9017.50000    6.57600    9.84120    9.25800    0.05230   72.01630  129.46910    8.95840    3.33960    5.80400    0.17640
 9018.00000   12.65560   15.81470   20.07860    0.03920   55.71780  120.10780    8.89860    3.33210    5.82170    0.13670
 9018.50000   18.73520   21.78810   32.91210    0.03100   57.03090  112.73210    8.86070    3.41510    5.83750    0.10740
 9019.00000   19.81900   28.65690   37.43140    0.03020   56.97940  109.80110    8.85090    3.51770    5.85330    0.07510
 9019.50000   19.72710   31.69860   40.52490    0.02890   59.54210  107.59330    8.84120    3.56930    5.86910    0.05820
 9020.00000   22.35120   32.61210   36.52400    0.02910   61.76320  101.99060    8.83140    3.57040    7.53670    0.04980
 9020.50000   20.92090   32.92330   35.84130    0.03060   60.08730   99.07090    8.82160    3.57140    7.07030    0.04750
 9021.00000   20.14550   29.11710   33.86640    0.03340   59.70610   99.36810    8.82340    3.50700    6.60390    0.05200
 9021.50000   18.67920   26.24260   30.81280    0.03900   60.06810  100.19950    8.82560    3.41210    6.13750    0.05790
 9022.00000   17.01960   25.18420   22.87990    0.04580   60.70980  100.29890    8.82790    3.32600    5.67110    0.06240
 9022.50000   17.33410   24.10440   20.52230    0.05070   61.67990  102.51120    8.83010    3.28380    5.27930    0.06710
 9023.00000   18.68360   27.25780   20.52350    0.04970   62.76410  104.93120    8.83230    3.21340    4.93730    0.07070
 9023.50000   16.17270   25.25990   18.34180    0.04570   63.72270  106.51100    8.83460    3.14740    4.59520    0.07210
 9024.00000   11.69400   17.81830   14.32050    0.04520   63.95050  106.97530    8.83680    3.09260    4.25320    0.07800
 9024.50000   10.49680   11.86510   10.99910    0.04290   64.11160  107.46630    8.83900    3.10210    3.91110    0.08870
 9025.00000   11.36470   13.88040   12.66450    0.03330   64.00570  107.99940    8.84120    3.15600    3.29550    0.11070
 9025.50000   11.98400   15.53560   14.74600    0.02270   63.89990  108.30670    8.82050    3.26850    2.61140    0.12040
 9026.00000   14.28050   15.79870   15.31490    0.01990   63.72020  108.22350    8.81860    3.36770    1.92740    0.11160
 9026.50000   16.86580   17.78300   20.33830    0.02950   63.65120  107.67390    8.81670    3.45830    1.24330    0.08990
 9027.00000   19.45120   21.32620   26.61740    0.03710   63.58220  107.01290    8.81480    3.53070    0.70200    0.07710
 9027.50000   19.24960   34.86610   29.26800    0.04130   63.37610  106.35190    8.81290    3.50000    0.25590    0.06960
 9028.00000   15.94740   28.75600   24.67390    0.04010   63.23860  105.47490    8.81100    3.42270   -0.19030    0.07180
 9028.50000   14.20080   21.11780   19.10370    0.04150   62.96400  104.25680    8.80910    3.26780   -0.63640    0.07720
 9029.00000   13.46650   19.59090   17.82110    0.04380   62.75800  103.46980    8.80720    3.11100   -1.08250    0.08360
 9029.50000   14.43830   21.53400   19.40440    0.04610   62.48350  102.58980    8.80530    2.99650   -1.94390    0.08300
 9030.00000   16.41710   23.19870   22.37020    0.04630   62.14040  100.98360    8.80340    2.93190   -2.34690    0.07390
 9030.50000   18.47520   25.05240   29.57370    0.04540   61.86590  100.61260    8.80150    2.95670   -2.51910    0.06470
 9031.00000   21.71630   26.51510   34.54330    0.04290   61.79680  100.25030    8.79960    3.03640   -3.08520    0.05740
 9031.50000   25.31680   39.06720   39.06090    0.04170   61.62510   99.81740    8.79770    3.11620   -3.16240    0.05390
 9032.00000   22.24850   37.32550   44.16950    0.04690   60.88910   99.38450    8.79580    3.12900   -3.65320    0.05270
 9032.50000   18.81790   31.95840   37.24950    0.05150   60.06240   98.49700    8.79390    3.10480   -4.94770    0.05220
 9033.00000   18.29980   33.21000   28.59870    0.05530   59.23580   97.49580    8.79200    3.08510   -5.28070    0.05160
 9033.50000   21.15900   58.92290   35.10330    0.06460   58.50580   96.79420    8.79010    3.11580   -5.61370    0.04740
 9034.00000   27.42700   84.63580   41.34880    0.05370   58.16280   96.01900    8.78820    3.22880   -5.94670    0.04010
 9034.50000   32.76260  110.34880   49.70980    0.04000   57.80990   95.54570    8.78400    3.37130   -6.70160    0.02640
 9035.00000   36.57960  137.35410   65.70850    0.03110   57.41800   95.26170    8.76670    3.44730   -7.32590    0.01720
 9035.50000   32.91670  120.41930   66.96460    0.02770   57.11080   94.52570    8.74940    3.43790   -8.06000    0.01720
 9036.00000   32.78230   85.55050   62.86570    0.02900   56.79430   94.20470    8.73210    3.41960   -8.57640    0.01980
 9036.50000   32.24610   74.82410   51.72150    0.03140   56.47860   94.09100    8.72420    3.40140   -8.61460    0.02310
 9037.00000   30.34750   65.69810   44.92530    0.03260   56.34120   93.97740    8.73020    3.36700   -8.65280    0.02640
 9037.50000   28.81620   52.88990   44.18970    0.03140   56.34120   93.81140    8.73620    3.32290   -8.67570    0.02980
 9038.00000   27.68180   51.41350   43.16430    0.03060   56.34000   93.51110    8.74220    3.23740   -8.64230    0.03220
 9038.50000   28.33180   53.90310   42.15400    0.03040   56.25690   93.80630    8.74820    3.21880   -8.60890    0.03470
 9039.00000   29.18130   57.05020   51.40930    0.03030   56.24470   93.68690    8.75420    3.29880   -8.16480    0.03480
 9039.50000   32.39240   55.45770   49.03870    0.02870   55.94990   93.89140    8.76020    3.40790   -7.61800    0.03170
 9040.00000   28.40000   52.40260   50.92990    0.02440   56.06050   93.83540    8.76620    3.43680   -7.07120    0.02760
 9040.50000   25.21680   49.03910   45.90330    0.02360   56.05170   94.00430    8.77220    3.40920   -6.21330    0.02650
