~Version ---------------------------------------------------
VERS.   2.0 : CWLS log ASCII Standard -VERSION 2.0
WRAP.    NO : One line per depth step
DLM . SPACE : Column Data Section Delimiter
~Well ------------------------------------------------------
STRT .F                  177.0 : START DEPTH
STOP .F                 8248.0 : STOP DEPTH
STEP .F                    0.5 : STEP
NULL .                -9999.25 : NULL VALUE
COMP .                         : COMPANY
WELL .                         : WELL
FLD  .                         : FIELD
LOC  .                         : LOCATION
PROV .                         : PROVINCE
CNTY .                         : COUNTY
STAT .                         : STATE
CTRY .                         : COUNTRY
SRVC .                         : SERVICE COMPANY
DATE .                         : DATE
UWI  .                         : UNIQUE WELL ID
API  .                         : API NUMBER
SLAT .WGS84 2.9279247839448033 : SURFACE LATITUDE
SLON .WGS84  6.651475515573011 : SURFACE LONGITUDE
DATUM.F                2996.89 : DEPTH DATUM ELEV
~Curve Information -----------------------------------------
DEPT.F     : 
AT10.OHMM  : 10-IN. RESISTIVITY, 2-FT RESOLUTION
AT30.OHMM  : 30-IN. RESISTIVITY, 2-FT RESOLUTION
AT90.OHMM  : 90-IN. RESISTIVITY, 2-FT RESOLUTION
SPR .MV    : SPONTANEOUS POTENTIAL FROM RES.
GRD .GAPI  : GAMMA RAY FROM DENSITY LOG
HCAL.IN    : HILT CALIPER FROM DENSITY LOG
PEFZ.B/E   : HILT PHOTOELECTRIC FACTOR
HDRA.G/C3  : DELTA RHO HIP TOOL
DPHZ.DEC   : DENSITY POROSITY LIMESTONE
TNPH.DEC   : THERMAL NEUTRON POROSITY LIMESTONE
RHOZ.G/C3  : HILT BULK DENSITY
DTCO.US/F  : COMPRESSIONAL-WAVE INTERVAL TRANSIT TIME ACAUSTIC SLOWNESS
DTSM.US/F  : SHEAR-WAVE INTERVAL TRANSIT TIME DELTA-T
~Params ----------------------------------------------------
~Other -----------------------------------------------------
~ASCII -----------------------------------------------------
# ...
 4233.00000   -9999.25   -9999.25   -9999.25   -9999.25   24.24080   -9999.25   -9999.25   -9999.25   -9999.25    0.22200   -9999.25   -9999.25   -9999.25
 4233.50000   -9999.25   -9999.25   -9999.25   -9999.25   24.34660   -9999.25   -9999.25   -9999.25   -9999.25    0.22250   -9999.25   -9999.25   -9999.25
 4234.00000   -9999.25   -9999.25   -9999.25   -9999.25   26.22670   -9999.25   -9999.25   -9999.25   -9999.25    0.21370   -9999.25   -9999.25   -9999.25
 4234.50000   -9999.25   -9999.25   -9999.25   -9999.25   29.42120   -9999.25   -9999.25   -9999.25   -9999.25    0.20710   -9999.25   -9999.25   -9999.25
 4235.00000   -9999.25   -9999.25   -9999.25   -9999.25   31.06820   -9999.25   -9999.25   -9999.25   -9999.25    0.20210   -9999.25   -9999.25   -9999.25
 4235.50000   -9999.25   -9999.25   -9999.25   -9999.25   30.48930   -9999.25   -9999.25   -9999.25   -9999.25    0.20020   -9999.25   -9999.25   -9999.25
 4236.00000   -9999.25   -9999.25   -9999.25   -9999.25   29.18770   -9999.25   -9999.25   -9999.25   -9999.25    0.19990   -9999.25   -9999.25   -9999.25
 4236.50000   -9999.25   -9999.25   -9999.25   -9999.25   28.80210   -9999.25   -9999.25   -9999.25   -9999.25    0.20390   -9999.25   -9999.25   -9999.25
 4237.00000   -9999.25   -9999.25   -9999.25   -9999.25   30.69570   -9999.25   -9999.25   -9999.25   -9999.25    0.21580   -9999.25   -9999.25   -9999.25
 4237.50000   -9999.25   -9999.25   -9999.25   -9999.25   32.51890   -9999.25   -9999.25   -9999.25   -9999.25    0.22260   -9999.25   -9999.25   -9999.25
 4238.00000   -9999.25   -9999.25   -9999.25   -9999.25   33.96600   -9999.25   -9999.25   -9999.25   -9999.25    0.21890   -9999.25   -9999.25   -9999.25
 4238.50000   -9999.25   -9999.25   -9999.25   -9999.25   34.80250   -9999.25   -9999.25   -9999.25   -9999.25    0.21350   -9999.25   -9999.25   -9999.25
 4239.00000   -9999.25   -9999.25   -9999.25   -9999.25   34.29940   -9999.25   -9999.25   -9999.25   -9999.25    0.21380   -9999.25   -9999.25   -9999.25
 4239.50000   -9999.25   -9999.25   -9999.25   -9999.25   29.65120   -9999.25   -9999.25   -9999.25   -9999.25    0.22000   -9999.25   -9999.25   -9999.25
 4240.00000   -9999.25   -9999.25   -9999.25   -9999.25   24.54550   -9999.25   -9999.25   -9999.25   -9999.25    0.22230   -9999.25   -9999.25   -9999.25
 4240.50000   -9999.25   -9999.25   -9999.25   -9999.25   19.71620   -9999.25   -9999.25   -9999.25   -9999.25    0.21940   -9999.25   -9999.25   -9999.25
 4241.00000   -9999.25   -9999.25   -9999.25   -9999.25   16.54980   -9999.25   -9999.25   -9999.25   -9999.25    0.21190   -9999.25   -9999.25   -9999.25
 4241.50000   -9999.25   -9999.25   -9999.25   -9999.25   20.58790   -9999.25   -9999.25   -9999.25   -9999.25    0.19830   -9999.25   -9999.25   -9999.25
 4242.00000   -9999.25   -9999.25   -9999.25   -9999.25   22.46360   -9999.25   -9999.25   -9999.25   -9999.25    0.18270   -9999.25   -9999.25   -9999.25
 4242.50000   -9999.25   -9999.25   -9999.25   -9999.25   22.35980   -9999.25   -9999.25   -9999.25   -9999.25    0.16130   -9999.25   -9999.25   -9999.25
 4243.00000   -9999.25   57.00250   26.30780   -0.74320   22.01340    9.06990    4.63230    0.18190   -0.01900    0.14950    2.87920   57.73940  111.94450
 4243.50000   -9999.25   56.98670   25.95450   -1.95490   23.94100    9.04340    4.01810    0.15690   -0.02020    0.14440    2.78210   57.10670  110.38410
 4244.00000   -9999.25   56.97080   25.94730   -1.95790   27.93260    8.94830    3.83690    0.14330   -0.03530    0.13550    2.75530   57.46750  108.65670
 4244.50000   -9999.25   56.95500   25.94010   -2.56520   33.53980    9.08000    3.68580    0.09480   -0.03660    0.11240    2.75370   57.73830  108.05970
 4245.00000   -9999.25   56.93910   25.93290   -2.56820   38.38640    9.16110    3.86710    0.02510   -0.01840    0.08120    2.76020   57.91950  108.05970
 4245.50000   -9999.25   56.92330   25.92570   -2.57120   38.84290    9.16110    4.13900    0.03110   -0.01710    0.05910    2.78210   57.11400  108.05970
 4246.00000   -9999.25   56.90740   25.91850   -2.57420   32.06110    9.19150    4.35050    0.02960   -0.05770    0.03150    2.94240   55.68080  108.05970
 4246.50000   -9999.25   57.69130   25.91130   -2.57730   21.70330    9.19150    4.59210    0.01440   -0.14470    0.02080    2.97720   54.69600  108.05970
 4247.00000   -9999.25   56.61330   25.90410   -2.58030   16.23120    9.19150    4.89430   -0.00070   -0.15550    0.02050    2.96660   54.06740  107.46270
 4247.50000   -9999.25   52.31910   26.26560   -2.58330   13.26140    9.19150    5.07550   -0.00530   -0.14870    0.02110    2.94700   53.80260  106.26870
 4248.00000   -9999.25   53.27130   26.62340   -2.58630   12.94510    9.22190    5.04530   -0.00680   -0.13530    0.01990    2.93050   54.49700  105.61640
 4248.50000   -9999.25   55.01880   26.99140   -2.58940   12.94770    9.25230    4.98490    0.00080   -0.12230    0.01780    2.92330   55.25670  103.10100
 4249.00000   -9999.25   58.42680   28.52100   -2.59240   12.95000    9.25230    4.98490    0.00380   -0.12620    0.01090    2.93890   54.13970  101.49250
 4249.50000 1880.10490   63.48650   30.21510   -3.19960   12.80370    9.28270    5.16620    0.00530   -0.13640    0.00330    2.95290   51.92620  102.68660
 4250.00000   91.45040   58.65210   31.85240   -3.20270    9.46970    9.29790    5.22660   -0.00530   -0.14500   -0.00240    2.95990   52.01790  102.48720
 4250.50000   49.12380   32.53790   31.84180   -3.20570    5.98390    9.38920    5.28700   -0.02050   -0.14710   -0.00540    2.96100   52.05440  100.66130
 4251.00000   55.82630   38.05350   45.05360   -3.81290    4.61950    9.48110    5.07550   -0.02500   -0.14550   -0.00720    2.95350   52.56670   99.75690
 4251.50000  105.68180   36.88410   35.07610   -3.81600    6.33030    9.54150    5.07550   -0.02650   -0.14130   -0.00240    2.93750   53.99140   98.50750
 4252.00000   79.60970   50.74590   28.07760   -5.02750   10.10920    9.55620    5.04530   -0.01750   -0.12950    0.01150    2.91880   55.36840   98.59520
 4252.50000   51.19230   31.17450   39.72540   -5.03050   10.85980    9.55620    4.98490   -0.01440   -0.11810    0.01390    2.90060   56.69090  106.26870
 4253.00000   59.90000   55.13970   55.42980   -5.63770   10.69500    9.58660    4.95470   -0.01440   -0.10620    0.01390    2.88290   57.49990  106.86570
 4253.50000   68.57470   56.67300   55.41440   -6.84920   11.32520    9.57040    4.89430   -0.01440   -0.10050    0.01540    2.87020   57.86030  107.46270
 4254.00000   56.97660   39.37260   44.35790   -7.45650   15.63760    9.49310    4.68280   -0.00690   -0.09100    0.02740    2.85290   60.01460  107.46270
 4254.50000   19.37310   13.89450   17.00440   -8.06370   23.77200    9.48160    4.47130    0.00270   -0.03540    0.06310    2.81590   62.34810  110.44780
 4255.00000   12.01010   14.15110   14.59070   -9.27520   28.79550    9.52580    3.95770    0.01430   -0.02100    0.07400    2.77770   63.24680  115.22390
 4255.50000   12.62020   15.24530   15.42010   -9.88250   31.61590    9.54270    3.38370    0.03200   -0.02480    0.06390    2.76120   62.53100  119.40300
 4256.00000   14.38790   33.29830   22.43170   -9.88550   30.22340    9.60370    3.23260    0.03900   -0.02160    0.03850    2.87620   57.33100  117.54710
 4256.50000   59.60560   50.61890   49.50340  -11.09700   23.92170    9.66460    3.47430    0.02330   -0.02700    0.02130    2.87930   54.96120  114.35780
 4257.00000   46.59790   35.21730   23.05080  -12.30840   19.02270    9.77330    3.89730   -0.00690   -0.08610    0.01660    2.88000   54.48010  110.13780
 4257.50000   24.77000   24.53990   25.75320  -12.31150   21.10980    9.89510    4.22960   -0.02510   -0.09040    0.01830    2.87610   54.28700  106.90640
 4258.00000   49.02140   47.83890   47.66780  -12.91870   31.04730    9.95140    4.22960   -0.02210   -0.03970    0.03200    2.85600   54.51840  100.54480
 4258.50000   36.67880   19.35940   19.22620  -12.92170   37.59750    9.98180    3.98790   -0.00690   -0.00950    0.04490    2.72940   55.17540   99.10450
