~Version ---------------------------------------------------
VERS.   2.0 : CWLS log ASCII Standard -VERSION 2.0
WRAP.    NO : One line per depth step
DLM . SPACE : Column Data Section Delimiter
~Well ------------------------------------------------------
STRT .F                  177.0 : START DEPTH
STOP .F                 8248.0 : STOP DEPTH
STEP .F                    0.5 : STEP
NULL .                -9999.25 : NULL VALUE
COMP .                         : COMPANY
WELL .                         : WELL
FLD  .                         : FIELD
LOC  .                         : LOCATION
PROV .                         : PROVINCE
CNTY .                         : COUNTY
STAT .                         : STATE
CTRY .                         : COUNTRY
SRVC .                         : SERVICE COMPANY
DATE .                         : DATE
UWI  .                         : UNIQUE WELL ID
API  .                         : API NUMBER
SLAT .WGS84 2.9279247839448033 : SURFACE LATITUDE
SLON .WGS84  6.651475515573011 : SURFACE LONGITUDE
DATUM.F                2996.89 : DEPTH DATUM ELEV
~Curve Information -----------------------------------------
DEPT.F     : 
AT10.OHMM  : 10-IN. RESISTIVITY, 2-FT RESOLUTION
AT30.OHMM  : 30-IN. RESISTIVITY, 2-FT RESOLUTION
AT90.OHMM  : 90-IN. RESISTIVITY, 2-FT RESOLUTION
SPR .MV    : SPONTANEOUS POTENTIAL FROM RES.
GRD .GAPI  : GAMMA RAY FROM DENSITY LOG
HCAL.IN    : HILT CALIPER FROM DENSITY LOG
PEFZ.B/E   : HILT PHOTOELECTRIC FACTOR
HDRA.G/C3  : DELTA RHO HIP TOOL
DPHZ.DEC   : DENSITY POROSITY LIMESTONE
TNPH.DEC   : THERMAL NEUTRON POROSITY LIMESTONE
RHOZ.G/C3  : HILT BULK DENSITY
DTCO.US/F  : COMPRESSIONAL-WAVE INTERVAL TRANSIT TIME ACAUSTIC SLOWNESS
DTSM.US/F  : SHEAR-WAVE INTERVAL TRANSIT TIME DELTA-T
~Params ----------------------------------------------------
~Other -----------------------------------------------------
~ASCII -----------------------------------------------------
# ...
 5559.00000  180.88280  268.51200  235.92400   -8.65810   47.55330    8.34590    4.38150    0.01480    0.04040    0.05760    2.64140   57.56230  103.18620
 5559.50000  210.67860  287.70570  268.85300   -8.66720   45.53860    8.34620    4.16960    0.01480    0.04280    0.05090    2.65110   57.20260  101.38410
 5560.00000  232.09970  312.58390  315.22570   -8.07230   30.70150    8.34650    4.25460    0.01330    0.03540    0.04190    2.66290   55.58740  100.17980
 5560.50000  245.24580  287.46610  300.54590   -8.08280   26.45330    8.34680    4.44840    0.01340    0.03030    0.03640    2.67380   54.24120   98.97320
 5561.00000  255.56140  303.76530  293.76560   -8.09190   28.89050    8.34720    4.52130    0.01340    0.02970    0.03220    2.68350   53.61260   97.47460
 5561.50000  241.58790  264.25630  281.68260   -8.10090   30.26610    8.34750    4.56410    0.01340    0.02770    0.02920    2.68680   52.88350   96.56400
 5562.00000  228.38310  233.10190  239.43090   -8.10990   31.04690    8.34780    4.61230    0.01340    0.02090    0.02730    2.68860   52.07170   95.72540
 5562.50000  241.31860  229.79030  222.03790   -8.11900   26.55750    8.34810    4.67300    0.01500    0.01830    0.02610    2.69170   51.63680   95.74970
 5563.00000  251.46390  282.91000  268.86670   -8.12800   25.01550    8.37880    4.68580    0.01650    0.01650    0.02490    2.69660   51.63590   96.96400
 5563.50000  201.16710  202.61470  285.09500   -8.13710   24.69830    8.37910    4.66840    0.01750    0.01830    0.02490    2.70380   51.73760   99.37250
 5564.00000  127.03370  157.72220  152.19250   -8.14610   28.60300    8.37940    4.60810    0.01650    0.01830    0.02610    2.70550   51.81350   99.98980
 5564.50000  206.61280  173.75770  193.46590   -8.15510   29.73640    8.37970    4.50020    0.01660    0.01530    0.02850    2.69800   51.90230   98.21910
 5565.00000  276.56890  306.98950  306.80180   -7.56170   27.24120    8.38000    4.36210    0.01660    0.01040    0.03150    2.68280   51.90130   97.04480
 5565.50000  268.82940  252.62600  278.84340   -7.57080   25.21650    8.38030    4.27550    0.01860    0.00500    0.03210    2.66580   51.99020   95.87170
 5566.00000  137.78580  153.14490  163.12540   -7.57980   22.93180    8.38060    4.24550    0.02620    0.00250    0.03150    2.64880   52.28460   96.51350
 5566.50000   94.58460   92.83820   97.74300   -7.58890   28.32140    8.38090    4.23230    0.03380    0.00670    0.03390    2.63750   52.82190   97.75960
 5567.00000   83.40610   84.20030   78.88160   -7.59790   33.47860    8.38120    4.21560    0.03130    0.01520    0.05150    2.63540   54.24560   99.60390
 5567.50000   81.07200   81.85900   79.84720   -7.60690   37.38790    8.35110    4.15530    0.02530    0.03810    0.05990    2.64160   55.47670  100.73130
 5568.00000  104.08550  106.54070   98.71990   -7.61600   39.57450    8.35140    4.04810    0.02230    0.04660    0.06650    2.65150   56.00590  101.34930
 5568.50000  184.02730  140.60420  143.16250   -7.02260   41.31480    8.35170    3.97400    0.02280    0.04170    0.05870    2.66600   56.20000  100.77000
 5569.00000  271.53410  201.68800  225.80560   -7.03160   42.15050    8.35200    3.97670    0.02740    0.03330    0.04780    2.68060   56.02450  100.19340
 5569.50000  334.36180  361.32060  364.76730   -7.04070   40.47470    8.32190    4.17690    0.03040    0.02780    0.03630    2.69060   54.71230   99.12700
 5570.00000  368.35850  376.56630  608.78890   -7.65210   37.31180    8.32220    4.38690    0.02590    0.02480    0.02640    2.69310   52.95050   97.57200
 5570.50000  378.55570  336.79440  701.11520   -7.66110   31.72320    8.32250    4.49200    0.01990    0.01930    0.01980    2.68620   52.18830   96.36710
 5571.00000  320.15730  281.02990  453.05010   -8.27260   27.40150    8.32290    4.53670    0.01690    0.01080    0.01880    2.66200   51.83740   95.50450
 5571.50000  256.12070  251.36570  323.10260   -8.88400   25.27350    8.32320    4.52100    0.01840    0.00960    0.01910    2.64160   51.79980   97.91720
 5572.00000  131.27210  224.83270  225.91710   -9.49550   24.89290    8.32350    4.46060    0.01990    0.00960    0.02130    2.63680   52.15770   99.13160
 5572.50000  136.79090  215.56540  214.13220   -9.50450   29.69140    8.32380    4.41590    0.01540    0.01740    0.02810    2.64840   52.87430   99.15200
 5573.00000  204.66410  212.50290  211.08490  -10.11600   32.72040    8.32410    4.38580    0.00630    0.04160    0.03590    2.66990   53.50120   97.97830
 5573.50000  150.61530  218.39880  233.48210  -10.12500   33.59040    8.32430    4.38590    0.00030    0.04880    0.04690    2.68720   54.03850   97.40160
 5574.00000  182.90230  261.51740  278.23110  -10.13400   33.05540    8.32460    4.40140   -0.00570    0.04700    0.04830    2.69600   54.14760   96.22790
 5574.50000  621.86910  369.95510  495.70640   -9.54070   31.63660    8.32490    4.43180   -0.00720    0.03670    0.03590    2.69740   53.58830   95.65070
 5575.00000  685.09860  662.76840 1153.46880   -9.54970   28.31760    8.35560    4.49240   -0.01020    0.02640    0.02660    2.68720   53.22860   95.07460
 5575.50000  457.38760  494.86190  655.09370   -9.55870   24.86980    8.35590    4.55310   -0.01020    0.01550    0.01970    2.66820   52.59990   94.46730
 5576.00000  284.84200  412.92550  438.73330   -9.56780   24.07260    8.35620    4.56850   -0.00410    0.01310    0.01690    2.65240   51.97130   93.92130
 5576.50000  283.99950  385.05670  422.43240   -9.57680   26.44380    8.35650    4.52350    0.00200    0.01970    0.01920    2.64650   52.06010   95.83000
 5577.00000  300.80790  448.44450  475.25010   -9.58580   28.70110    8.33970    4.43280    0.00650    0.03060    0.02940    2.64540   53.04570   97.07730
 5577.50000  284.36610  476.11000  520.19400   -9.59490   30.03420    8.32670    4.38710    0.00810    0.03780    0.03150    2.65060   53.94170   97.72630
 5578.00000  288.18940  363.78850  413.26460   -9.60390   30.50150    8.32710    4.38730    0.00810    0.04140    0.02940    2.65910   54.12020   98.18510
 5578.50000  254.12970  287.14670  344.64970   -9.61300   30.45530    8.32740    4.47690    0.00660    0.03060    0.02640    2.66900   53.39400   98.80300
 5579.00000  230.41850  275.38980  310.25390   -9.62200   23.64560    8.29730    4.55340    0.00660    0.02030    0.02300    2.67200   52.93270   98.22690
 5579.50000  354.47550  528.69120  682.16440   -9.63100   19.58640    8.29760    4.59980    0.00660    0.01420    0.02000    2.67420   52.48460   97.36360
 5580.00000  387.32560 1118.95530  936.67460   -9.64010   19.14890    8.29790    4.60000    0.00820    0.01300    0.01920    2.67460   52.11970   97.07460
 5580.50000  334.91370 1922.76390 1949.67320   -9.64910   21.89590    8.26780    4.56980    0.00970    0.01780    0.02240    2.67330   51.96320   97.09550
 5581.00000  348.99370 1198.44140 1272.58570  -10.26050   23.27520    8.26810    4.57000    0.00970    0.02810    0.02470    2.67050   51.94510   96.52310
 5581.50000  448.06070  907.34410 1023.64430  -10.26960   21.91880    8.26840    4.57020    0.01130    0.02200    0.02300    2.66950   51.96150   96.54340
 5582.00000  429.50470  834.43400  968.53700  -10.27860   20.10660    8.26870    4.57030    0.01130    0.02140    0.02110    2.66820   52.34350   95.96680
 5582.50000  448.94570  658.63820  664.60600  -10.28770   20.11800    8.25360    4.57050    0.00980    0.02260    0.02150    2.66790   52.85660   95.98710
 5583.00000  368.14460  404.85960  423.18770  -10.29670   21.04130    8.23890    4.52680    0.00830    0.02440    0.02370    2.66920   52.88370   96.00750
 5583.50000  315.72660  342.55100  330.16660  -10.30570   21.50870    8.23920    4.46640    0.00830    0.02440    0.02410    2.67200   53.09550   96.02780
 5584.00000  282.31290  302.16610  286.90410  -10.31480   24.25570    8.25450    4.41940    0.00840    0.02310    0.02290    2.67400   53.42530   96.04820
 5584.50000  252.43530  314.89400  302.37580  -10.32380   28.37050    8.27020    4.38920    0.00840    0.02250    0.02320    2.67500   53.69630   97.27110
