~Version ---------------------------------------------------
VERS.   2.0 : CWLS log ASCII Standard -VERSION 2.0
WRAP.    NO : One line per depth step
DLM . SPACE : Column Data Section Delimiter
~Well ------------------------------------------------------
STRT .F                  177.0 : START DEPTH
STOP .F                 8248.0 : STOP DEPTH
STEP .F                    0.5 : STEP
NULL .                -9999.25 : NULL VALUE
COMP .                         : COMPANY
WELL .                         : WELL
FLD  .                         : FIELD
LOC  .                         : LOCATION
PROV .                         : PROVINCE
CNTY .                         : COUNTY
STAT .                         : STATE
CTRY .                         : COUNTRY
SRVC .                         : SERVICE COMPANY
DATE .                         : DATE
UWI  .                         : UNIQUE WELL ID
API  .                         : API NUMBER
SLAT .WGS84 2.9279247839448033 : SURFACE LATITUDE
SLON .WGS84  6.651475515573011 : SURFACE LONGITUDE
DATUM.F                2996.89 : DEPTH DATUM ELEV
~Curve Information -----------------------------------------
DEPT.F     : 
AT10.OHMM  : 10-IN. RESISTIVITY, 2-FT RESOLUTION
AT30.OHMM  : 30-IN. RESISTIVITY, 2-FT RESOLUTION
AT90.OHMM  : 90-IN. RESISTIVITY, 2-FT RESOLUTION
SPR .MV    : SPONTANEOUS POTENTIAL FROM RES.
GRD .GAPI  : GAMMA RAY FROM DENSITY LOG
HCAL.IN    : HILT CALIPER FROM DENSITY LOG
PEFZ.B/E   : HILT PHOTOELECTRIC FACTOR
HDRA.G/C3  : DELTA RHO HIP TOOL
DPHZ.DEC   : DENSITY POROSITY LIMESTONE
TNPH.DEC   : THERMAL NEUTRON POROSITY LIMESTONE
RHOZ.G/C3  : HILT BULK DENSITY
DTCO.US/F  : COMPRESSIONAL-WAVE INTERVAL TRANSIT TIME ACAUSTIC SLOWNESS
DTSM.US/F  : SHEAR-WAVE INTERVAL TRANSIT TIME DELTA-T
~Params ----------------------------------------------------
~Other -----------------------------------------------------
~ASCII -----------------------------------------------------
# ...
 6885.00000   37.35040   53.92200   31.49860   15.60610   38.91000    8.46210    3.62230    0.01570    0.08180    0.10570    2.55580   61.95210  103.85080
 6885.50000   28.26620   29.24990   29.37780   15.59090   40.52630    8.25120    3.65170    0.01560    0.07830    0.10390    2.57070   62.22920  104.79980
 6886.00000   22.30320   27.65730   19.91560   16.18430   42.24250    8.32000    3.68090    0.02160    0.08700    0.10450    2.57420   62.68420  108.07580
 6886.50000   20.79570   21.83050   18.31880   16.16670   43.88260    8.41030    3.64970    0.03520    0.09710    0.11240    2.51130   63.05380  110.48440
 6887.00000   20.05250   20.76100   18.06150   16.15150   42.49140    8.53090    3.58840    0.06520    0.12290    0.12450    2.40640   63.30670  112.29590
 6887.50000   25.71170   21.50120   19.62310   16.74460   36.28970    8.62880    3.52710    0.09530    0.14440    0.12210    2.32030   62.64220  107.54030
 6888.00000   60.21830   37.16180   28.12130   16.72730   31.52780    8.83640    3.49600    0.14500    0.16180    0.11250    2.26360   61.90880  102.78470
 6888.50000   77.59100   66.29210   39.47290   16.71210   24.85980    9.01740    3.40440    0.19470    0.20040    0.10160    2.21770   60.38410  100.41490
 6889.00000   65.43520   57.53270   43.62520   16.69700   22.92790    9.16480    3.34310    0.20000    0.32790    0.09140    2.19450   59.19030  101.63170
 6889.50000  103.04020   70.67030   48.49090   16.68180   26.60940    9.27910    3.25150    0.19910    0.32060    0.08660    2.17100   58.59520  105.83130
 6890.00000   86.39780   70.74480   48.53650   16.66670   35.03240    9.17880    3.19020    0.19910    0.24010    0.08360    2.17990   59.67710  105.85180
 6890.50000   65.77630   50.77800   42.24150   16.78570   37.95760    8.96970    3.09870    0.20000    0.16990    0.08600    2.26040   59.90180  109.45440
 6891.00000   73.48970   45.11530   37.29630   17.24400   38.85410    8.84850    3.00710    0.20000    0.11050    0.09030    2.42500   60.44040  113.05690
 6891.50000   44.76430   30.77480   34.80040   17.22730   39.24600    8.73240    2.94580    0.20000    0.10680    0.09390    2.51370   61.06870  113.67450
 6892.00000   37.65590   37.72690   32.02320   17.21210   37.77550    9.02660    2.91470    0.20000    0.13360    0.09210    2.48870   60.35160  112.43740
 6892.50000   48.03560   50.67840   31.01860   17.09110   35.45320    9.59830    3.03460    0.20000    0.13310    0.08370    2.47720   59.36550  110.73040
 6893.00000   66.64230   79.06360   53.74160   16.57580   33.76410   10.13820    3.21500    0.20000    0.13040    0.07650    2.48090   58.55880  109.99860
 6893.50000  114.17060  107.71120   81.73240   16.46880   34.66400   10.33730    3.39530    0.16880    0.13220    0.07290    2.48720   58.20050  108.38330
 6894.00000   81.05550   66.12630  100.92440   15.93940   35.14540   10.23870    3.57570    0.02110    0.13030    0.07170    2.49850   59.45650  108.40600
 6894.50000   79.15050   58.87790   17.23570   15.92420   35.55490   10.09090    3.72580    0.01810    0.12270    0.07590    2.50460   60.36320  107.82730
 6895.00000  100.68860   77.72920   24.39010   15.90910   35.06080    9.77400    3.66450    0.02610    0.11170    0.08740    2.51050   60.91510  107.85070
 6895.50000  102.46570   98.50500   47.65310   15.89390   34.62730    9.11850    3.63340    0.05970    0.10500    0.10310    2.51320   61.45650  106.88930
 6896.00000   32.51620   66.22530   52.34710   15.87880   34.16360    8.97210    3.63250    0.08680    0.11060    0.11160    2.51150   61.61070  104.85870
 6896.50000   15.52770   38.73670   29.45220   15.91310   33.65760    8.94150    3.63160    0.10480    0.11830    0.11160    2.50460   60.55540  101.10840
 6897.00000   28.64340   32.83440   26.44970   16.45510   33.23650    8.91000    3.57030    0.11680    0.12440    0.10920    2.49630   59.91230   99.57610
 6897.50000   64.49470   64.82970   62.48310   17.04590   34.65120    8.81740    3.44850    0.11730    0.10600    0.09420    2.49980   59.39230   99.00000
 6898.00000   42.84710   32.69920   24.94950   17.03070   37.33210    8.48190    3.35700    0.11730    0.06050    0.08390    2.53780   58.85610   99.02090
 6898.50000   18.22410   28.93910   41.36340   17.64240   40.06260    8.12160    3.26540    0.10920    0.06310    0.08150    2.61200   59.50030  100.56530
 6899.00000   14.53620   36.63260   44.12720   18.22620   43.66070    8.06120    3.25480    0.07700    0.07150    0.09000    2.61040   60.50590  101.45070
 6899.50000   63.71770   28.50720   40.58910   19.41620   44.10000    8.09140    3.35420    0.03030    0.08260    0.09670    2.55560   60.80680  100.87460
 6900.00000  207.03970   39.78500   40.01610   20.00000   38.18180    8.15150    3.40190    0.03180    0.11340    0.09470    2.50760   56.50250   99.46370
 6900.50000  281.13460   75.35960   51.87140   19.99700   36.82280    8.30330    3.45570    0.04490    0.13150    0.09080    2.47830   56.14480   98.75760
 6901.00000   54.47020   52.49730   53.54090   19.99390   31.43810    8.48550    3.50950    0.06140    0.13530    0.08520    2.46670   56.41540   97.96740
 6901.50000   50.03860   45.68530   43.75460   19.99090   26.07830    8.48580    3.56330    0.09200    0.12430    0.07350    2.51060   57.13420   97.99360
 6902.00000  104.78650   42.03050   38.01760   19.98790   24.86050    8.48610    3.62600    0.20000    0.07640    0.06710    2.59220   58.66020   98.01990
 6902.50000  175.36020   86.56620   40.74700   19.98480   23.95470    8.48640    3.56570    0.20000    0.03690    0.06430    2.64730   59.73780   98.04620
 6903.00000  332.61150   91.48730   61.49020   19.98180   23.50280    8.48670    3.47530    0.20000   -0.00190    0.06270    2.67650   59.74740   98.66950
 6903.50000  251.85580   67.23710   47.05080   19.97880   23.76660    8.48700    3.41500    0.20000   -0.00290    0.06170    2.69640   59.73550   98.69570
 6904.00000   50.15410   51.70100   39.06920   20.58180   27.37730    8.48730    3.47560    0.20000    0.02610    0.06250    2.70570   60.63860   98.75580
 6904.50000   48.11050   47.58600   44.05960   21.18480   35.20730    8.57850    3.50590    0.12540    0.05930    0.06390    2.61940   61.18800  101.22310
 6905.00000   48.11720   46.93180   58.38680   21.78790   42.27270    8.66980    3.41540    0.03160    0.08590    0.06890    2.56160   61.81900  102.42730
 6905.50000   60.12260   49.09560   66.20610   22.39090   41.58780    8.51850    3.35520    0.00550    0.09380    0.09120    2.52590   61.98780  102.98000
 6906.00000  118.89700   70.57300   68.40480   22.99390   39.31550    8.70070    3.34520    0.00550    0.09920    0.11350    2.49430   61.41040  100.49700
 6906.50000  196.22490  163.78480   71.67070   23.59700   36.59890    8.79190    3.38570    0.01250    0.11370    0.10110    2.46670   59.61520   99.75040
 6907.00000  150.66450  150.52120   78.83250   24.20000   31.61880    8.77400    3.44620    0.01960    0.19410    0.08480    2.42660   58.08250   98.28270
 6907.50000  252.13690  269.98990  101.54100   24.80300   26.63600    8.67810    3.47660    0.01660    0.20980    0.07490    2.38210   57.10230   97.71190
 6908.00000  115.69870   94.38750   55.77930   25.40610   28.34400    8.54500    3.50700    0.00010    0.23700    0.08230    2.34230   57.75080  103.11140
 6908.50000   57.71310   52.21130   36.72150   26.61520   32.01800    8.43710    3.50710   -0.00900    0.23520    0.09840    2.31430   59.16070  102.03040
 6909.00000   46.20170   41.93180   33.83830   27.21820   33.73360    8.30380    3.29580   -0.00740    0.18630    0.10930    2.30780   59.64510  100.49730
 6909.50000   48.17760   42.02240   40.23410   29.03330   33.35510    8.24820    3.14490    0.00160    0.13680    0.11490    2.38130   59.79480   98.42090
 6910.00000   61.04150   51.96420   58.05770   29.63640   30.63580    8.26570    3.17530    0.01220    0.11400    0.11050    2.43610   59.37430   97.85070
 6910.50000  109.51210   78.98670   89.13510   30.84550   28.37320    8.34340    3.38690    0.02280    0.10540    0.09300    2.47660   58.36550   98.47970
