~Version ---------------------------------------------------
VERS.   2.0 : CWLS log ASCII Standard -VERSION 2.0
WRAP.    NO : One line per depth step
DLM . SPACE : Column Data Section Delimiter
~Well ------------------------------------------------------
STRT .F                  177.0 : START DEPTH
STOP .F                 8248.0 : STOP DEPTH
STEP .F                    0.5 : STEP
NULL .                -9999.25 : NULL VALUE
COMP .                         : COMPANY
WELL .                         : WELL
FLD  .                         : FIELD
LOC  .                         : LOCATION
PROV .                         : PROVINCE
CNTY .                         : COUNTY
STAT .                         : STATE
CTRY .                         : COUNTRY
SRVC .                         : SERVICE COMPANY
DATE .                         : DATE
UWI  .                         : UNIQUE WELL ID
API  .                         : API NUMBER
SLAT .WGS84 2.9279247839448033 : SURFACE LATITUDE
SLON .WGS84  6.651475515573011 : SURFACE LONGITUDE
DATUM.F                2996.89 : DEPTH DATUM ELEV
~Curve Information -----------------------------------------
DEPT.F     : 
AT10.OHMM  : 10-IN. RESISTIVITY, 2-FT RESOLUTION
AT30.OHMM  : 30-IN. RESISTIVITY, 2-FT RESOLUTION
AT90.OHMM  : 90-IN. RESISTIVITY, 2-FT RESOLUTION
SPR .MV    : SPONTANEOUS POTENTIAL FROM RES.
GRD .GAPI  : GAMMA RAY FROM DENSITY LOG
HCAL.IN    : HILT CALIPER FROM DENSITY LOG
PEFZ.B/E   : HILT PHOTOELECTRIC FACTOR
HDRA.G/C3  : DELTA RHO HIP TOOL
DPHZ.DEC   : DENSITY POROSITY LIMESTONE
TNPH.DEC   : THERMAL NEUTRON POROSITY LIMESTONE
RHOZ.G/C3  : HILT BULK DENSITY
DTCO.US/F  : COMPRESSIONAL-WAVE INTERVAL TRANSIT TIME ACAUSTIC SLOWNESS
DTSM.US/F  : SHEAR-WAVE INTERVAL TRANSIT TIME DELTA-T
~Params ----------------------------------------------------
~Other -----------------------------------------------------
~ASCII -----------------------------------------------------
# ...
 7405.00000   96.44700   59.65090   55.14330   -5.60610   53.20470    7.99550    4.50450    0.00220    0.06790    0.10600    2.59080   65.96550  114.51720
 7405.50000  124.92170   60.36300   57.97600   -5.62120   49.11610    7.99500    4.46130    0.00670    0.07050    0.10270    2.58970   65.18690  112.69610
 7406.00000  117.60220   56.67660   56.56470   -5.63640   52.30020    7.99450    4.44270    0.01040    0.07050    0.10760    2.58970   64.58490  112.30930
 7406.50000   93.97740   52.53220   52.94650   -5.65150   54.57520    7.99410    4.41180    0.01120    0.07050    0.12190    2.58010   65.75170  114.07020
 7407.00000   69.72420   50.08440   50.24610   -5.66670   55.94110    7.99360    4.38080    0.01110    0.07290    0.13210    2.57080   66.47010  115.02640
 7407.50000   71.25410   50.42460   49.01790   -5.68180   54.57970    7.96290    4.35000    0.00730    0.08200    0.14040    2.56450   66.82970  115.31460
 7408.00000   87.18010   52.18710   50.53740   -5.40630   53.67290    7.96240    4.31900    0.00430    0.08640    0.14020    2.56220   66.92030  114.72240
 7408.50000   90.82760   53.61990   51.93540   -5.10610   52.31160    7.96200    4.27460   -0.00030    0.08560    0.13800    2.56080   67.01080  114.13130
 7409.00000   96.28880   52.50340   52.63720   -5.12120   52.31390    7.96150    4.22700   -0.00330    0.08510    0.13460    2.56180   67.19110  114.73500
 7409.50000  101.05190   50.71850   51.87830   -4.53030   55.49800    7.96110    4.21240   -0.00200    0.08670    0.13310    2.56380   67.37130  115.33780
 7410.00000   77.22420   51.32450   49.61620   -4.54550   59.13660    7.93030    4.18130    0.00410    0.08660    0.13340    2.56530   68.20810  115.94060
 7410.50000   81.64680   53.53050   54.04670   -3.95450   60.50260    7.92980    4.15020    0.00710    0.08450    0.13790    2.56530   69.63040  117.73740
 7411.00000   95.76870   52.53290   54.63740   -3.36360   62.77760    7.92940    4.11900    0.00850    0.08460    0.14810    2.56520   69.88520  120.14580
 7411.50000  100.88240   42.50620   53.46710   -3.37880   65.05260    7.92890    4.07240    0.00840    0.08700    0.15960    2.56520   70.00960  121.38180
 7412.00000   51.06110   30.28720   44.01820   -2.78490   67.32760    7.92850    4.02660    0.00690    0.09120    0.16700    2.56160   70.84510  121.93430
 7412.50000   34.91730   26.59430   26.84130   -2.80300   67.78440    7.92800    4.01050    0.00460    0.09640    0.17480    2.55270   71.70770  121.94030
 7413.00000   45.07280   30.31820   26.52360   -2.81820   67.78670    7.92760    3.97970    0.00300    0.10120    0.17260    2.53880   71.59030  121.94630
 7413.50000   49.53690   36.39070   34.81180   -2.83330   66.87990    7.92710    3.94880    0.00300    0.10030    0.16690    2.53030   70.93290  121.15700
 7414.00000   48.14200   35.23510   35.46800   -3.05440   65.06400    7.92670    3.93230    0.00220    0.09970    0.15720    2.52930   69.56990  119.93290
 7414.50000   43.67000   31.91250   32.56050   -4.07580   62.79360    7.92620    4.07930   -0.00080    0.09860    0.14880    2.53220   68.32240  119.30460
 7415.00000   44.26330   35.58120   33.85270   -4.28270   55.52310    7.92580    4.23060    0.00060    0.09410    0.14060    2.54060   67.73090  118.07930
 7415.50000   56.05060   39.11810   38.71470   -4.89690   50.98000    7.92530    4.30600    0.00580    0.08580    0.13430    2.55350   66.93380  116.85450
 7416.00000   68.07540   40.96040   41.25690   -5.33330   51.43680    7.92480    4.33790    0.01260    0.08290    0.13390    2.56340   65.94810  115.41600
 7416.50000   70.94710   42.05970   41.11420   -5.34850   52.80270    7.92440    4.27680    0.01400    0.08500    0.13470    2.56050   65.41090  113.63070
 7417.00000   71.91180   36.58910   38.13580   -5.36360   53.71410    7.92390    4.20240    0.00800    0.09120    0.14440    2.56290   64.60460  111.84550
 7417.50000   53.66910   35.57160   32.46730   -5.37880   53.71590    7.92350    4.13750    0.00260    0.07860    0.15720    2.56980   64.78480  111.25370
 7418.00000   43.54190   33.63480   30.67070   -5.39390   53.71820    7.95340    4.10630    0.00190    0.07540    0.16170    2.57560   65.77230  112.45410
 7418.50000   41.16760   30.50530   28.28530   -5.40910   56.83170    7.95290    4.07520    0.00930    0.07340    0.15540    2.57800   65.95250  113.65390
 7419.00000   39.46810   29.65700   27.53500   -5.42420   61.09760    7.95240    4.03160    0.01680    0.07160    0.15200    2.58420   66.13280  114.26270
 7419.50000   42.88620   29.64450   28.78300   -5.43940   62.81590    7.95200    3.94030    0.01970    0.07000    0.15460    2.58880   67.13600  114.94620
 7420.00000   45.95650   31.32530   32.20410   -5.45450   61.87820    7.95150    3.87920    0.01850    0.06930    0.15570    2.58760   68.66400  117.33320
 7420.50000   52.06500   38.56660   36.93470   -5.46970   57.52210    7.95110    3.80620    0.01540    0.07540    0.15200    2.57770   69.22720  119.16730
 7421.00000   68.73990   40.75330   40.04740   -5.48480   54.40920    7.95060    3.75690    0.01240    0.08930    0.14910    2.56200   69.76960  119.65370
 7421.50000   75.73960   40.17420   40.53320   -5.50000   54.86960    7.95020    3.73760    0.00930    0.09960    0.15240    2.54820   70.19290  120.25670
 7422.00000   67.73330   37.46270   37.78260   -5.51520   55.33300    7.94970    3.81950    0.00830    0.10540    0.16000    2.53360   70.26360  120.26270
 7422.50000   68.65340   41.27150   37.27040   -5.53030   53.97740    7.94920    3.88690    0.00770    0.11690    0.15990    2.51890   69.66810  119.67160
 7423.00000  143.45690   54.46680   53.51370   -5.54550   52.62130    7.94880    3.91620    0.00470    0.11460    0.15110    2.50710   69.12170  118.78030
 7423.50000  153.72710   59.17640   57.26980   -5.56060   52.37950    7.94830    3.90440    0.00010    0.10900    0.13150    2.51820   68.24190  117.89250
 7424.00000  147.38100   57.53080   58.03390   -5.57580   52.38180    7.94790    3.83290   -0.00250    0.10560    0.11900    2.54110   66.96320  116.70560
 7424.50000  149.39050   52.90780   56.40000   -6.19700   52.38410    7.97770    3.75190   -0.00050    0.10240    0.12440    2.56510   65.95210  115.51730
 7425.00000  113.05060   50.02700   49.78680   -6.21210   51.81860    7.97730    3.73110    0.00250    0.09740    0.12440    2.59190   65.02250  114.32910
 7425.50000  139.22760   52.13420   47.74090   -6.22730   46.28400    8.00710    3.73020    0.01150    0.08920    0.11960    2.63290   63.18490  112.54380
 7426.00000  178.77400   76.89000   49.06680   -6.27890   40.40890    8.00670    3.72930    0.02090    0.07520    0.10640    2.67990   61.30240  110.75860
 7426.50000  147.07190  110.29370   92.84220   -6.86360   32.10420    8.03650    3.81730    0.02840    0.04480    0.09370    2.71240   59.33020  108.97330
 7427.00000  173.72200  121.50690  109.61840   -6.87880   23.59050    8.03610    4.03640    0.03240    0.02410    0.07740    2.73290   58.16510  105.39700
 7427.50000  183.58690  145.49580  117.44990   -6.89390   24.08680    8.03560    4.35790    0.03290    0.00420    0.07980    2.73720   57.71760  102.98010
 7428.00000  173.57620  119.73020  142.57350   -6.90910   27.88990    8.03510    4.79200    0.02180   -0.01850    0.08590    2.71410   59.15340  101.75600
 7428.50000  124.24900   70.59290  132.97420   -6.31820   34.07370    8.00440    4.81250    0.00470   -0.00820    0.09250    2.65790   62.92110  102.64850
 7429.00000  153.01880   56.50000   78.46950   -6.33340   41.75850    8.00390    4.71720    0.01510    0.02950    0.11310    2.61450   65.16410  106.45400
 7429.50000  155.50350   45.22050   53.19550   -5.74260   48.11590    8.00350    4.34640    0.02920    0.04520    0.12330    2.59220   66.52330  109.37410
 7430.00000  105.01180   42.16840   43.79120   -5.75780   51.77310    8.00300    4.08250    0.02660    0.06570    0.12940    2.58680   66.98660  111.02460
 7430.50000   84.01930   40.99580   40.84270   -4.56090   52.41100    8.00260    3.87220    0.02210    0.06570    0.12880    2.57930   67.43620  112.85870
