~Version ---------------------------------------------------
VERS.   2.0 : CWLS log ASCII Standard -VERSION 2.0
WRAP.    NO : One line per depth step
DLM . SPACE : Column Data Section Delimiter
~Well ------------------------------------------------------
STRT .F                  177.0 : START DEPTH
STOP .F                 8248.0 : STOP DEPTH
STEP .F                    0.5 : STEP
NULL .                -9999.25 : NULL VALUE
COMP .                         : COMPANY
WELL .                         : WELL
FLD  .                         : FIELD
LOC  .                         : LOCATION
PROV .                         : PROVINCE
CNTY .                         : COUNTY
STAT .                         : STATE
CTRY .                         : COUNTRY
SRVC .                         : SERVICE COMPANY
DATE .                         : DATE
UWI  .                         : UNIQUE WELL ID
API  .                         : API NUMBER
SLAT .WGS84 2.9279247839448033 : SURFACE LATITUDE
SLON .WGS84  6.651475515573011 : SURFACE LONGITUDE
DATUM.F                2996.89 : DEPTH DATUM ELEV
~Curve Information -----------------------------------------
DEPT.F     : 
AT10.OHMM  : 10-IN. RESISTIVITY, 2-FT RESOLUTION
AT30.OHMM  : 30-IN. RESISTIVITY, 2-FT RESOLUTION
AT90.OHMM  : 90-IN. RESISTIVITY, 2-FT RESOLUTION
SPR .MV    : SPONTANEOUS POTENTIAL FROM RES.
GRD .GAPI  : GAMMA RAY FROM DENSITY LOG
HCAL.IN    : HILT CALIPER FROM DENSITY LOG
PEFZ.B/E   : HILT PHOTOELECTRIC FACTOR
HDRA.G/C3  : DELTA RHO HIP TOOL
DPHZ.DEC   : DENSITY POROSITY LIMESTONE
TNPH.DEC   : THERMAL NEUTRON POROSITY LIMESTONE
RHOZ.G/C3  : HILT BULK DENSITY
DTCO.US/F  : COMPRESSIONAL-WAVE INTERVAL TRANSIT TIME ACAUSTIC SLOWNESS
DTSM.US/F  : SHEAR-WAVE INTERVAL TRANSIT TIME DELTA-T
~Params ----------------------------------------------------
~Other -----------------------------------------------------
~ASCII -----------------------------------------------------
# ...
 8211.00000   45.01590   41.96810   44.57540   -6.80010   53.23240    7.80480    3.73620    0.00200    0.04520    0.03100    2.61130   57.06080   98.83820
 8211.50000  103.84070   48.79840   45.19250   -8.01830   58.39720    7.80410    3.79620    0.00200    0.02590    0.02620    2.63600   56.15350   99.44980
 8212.00000  144.22350   51.92180   42.74670   -8.63050   64.30580    7.80350    3.82600    0.00350    0.02710    0.02560    2.65540   57.39190  100.65840
 8212.50000   88.62490   38.72440   34.71200   -9.24270   72.48210    7.83330    3.70470    0.00800    0.02390    0.02920    2.66840   59.03500  103.06110
 8213.00000   32.54700   28.77420   28.98050   -9.85480   76.87780    7.83260    3.46250    0.01850    0.02480    0.04850    2.66840   60.71750  107.25480
 8213.50000   22.66790   25.17430   23.86210  -10.46700   78.88940    7.83200    3.22040    0.01850    0.03690    0.10400    2.66650   62.06280  110.85140
 8214.00000   16.69090   19.81560   12.26000  -10.47310   79.73640    7.83140    3.03870    0.01390    0.04630    0.11250    2.65570   63.04930  112.65710
 8214.50000   12.81380   11.00830    7.86430  -10.47920   79.02940    7.83080    2.91740    0.00940    0.05490    0.11370    2.63790   63.76680  113.26870
 8215.00000    7.55210    7.61610    7.43880   -9.27320   80.58270    7.83030    2.82630    0.00630    0.06620    0.11430    2.62110   64.03590  113.28360
 8215.50000    6.85130    7.08780    6.93940   -8.67330   84.61710    7.82970    2.76540    0.00630    0.07300    0.11550    2.60890   64.30490  113.29850
 8216.00000    6.30260    6.70300    6.12410   -7.46730   86.63660    7.82910    2.73470    0.01230    0.07880    0.11550    2.59110   64.84300  112.63730
 8216.50000    5.87910    6.33910    5.79280   -6.86670   87.04320    7.84550    2.67390    0.01830    0.08430    0.11610    2.57880   65.56050  111.53600
 8217.00000    5.63870    6.84780    5.87290   -5.05530   87.05000    7.85820    2.64320    0.02280    0.08580    0.11730    2.57350   64.57400  111.55220
 8217.50000    7.65790    8.67450    7.43360   -3.84920   87.51140    7.85760    2.67290    0.02320    0.08090    0.11850    2.57000   63.76250  111.72960
 8218.00000    9.97510   10.98630    9.15170   -2.03720   88.22210    7.85700    2.79330    0.01820    0.06830    0.12210    2.57870   63.40810  113.15340
 8218.50000   12.99330   13.16160   12.24470   -1.43720   88.88860    7.85640    2.91370    0.01360    0.06380    0.13600    2.58720   64.33360  114.20150
 8219.00000   16.92480   16.43650   14.86700    0.37480   88.89550    7.85580    3.12480    0.01510    0.06170    0.14630    2.59630   65.80040  114.59700
 8219.50000   21.74120   23.76460   25.18130    0.36870   -9999.25    7.85520    3.18470    0.01810    0.07780    0.14080    2.60250   66.40720  114.61190
 8220.00000   28.31960   28.71680   27.06360    1.57470   -9999.25    7.85450    3.18630    0.01510    0.08920    0.13480    2.59930   66.66080  114.62690
 8220.50000   31.65380   29.93790   28.99510    2.17470   -9999.25    7.85390    3.09320    0.01350    0.09250    0.13420    2.57870   66.81610  116.16190
 8221.00000   35.87620   32.07690   31.62750    2.16860   -9999.25    7.85330    2.94170    0.01650    0.08720    0.13840    2.56380   67.26490  118.83880
 8221.50000   41.23150   35.60680   34.53240    2.16250   -9999.25    7.85270    2.85060    0.01650    0.08400    0.14750    2.55780   68.83160  119.45040
 8222.00000   40.10000   37.38240   37.22460    2.76360   -9999.25    7.85210    2.81990    0.01790    0.09130    0.16320    2.55770   69.80270  119.46500
 8222.50000   29.94030   37.14710   36.99120    2.75760   -9999.25    7.85150    2.97050    0.01940    0.10930    0.17650    2.55750   70.54030  118.88260
 8223.00000   34.89170   35.36970   35.09510    3.70050   -9999.25    7.85090    3.12110    0.02390    0.10730    0.18370    2.55140   70.15430  118.89720
 8223.50000   44.20190   41.27940   44.54490    3.95760   -9999.25    7.85030    3.21130    0.02840    0.08580    0.18850    2.54430   69.05830  117.71770
 8224.00000   49.40590   46.04070   45.03660    4.88170   -9999.25    7.84970    3.21090    0.03590    0.07610    0.19220    2.54110   68.43050  116.53830
 8224.50000   46.73150   44.47630   43.58790    5.15760   -9999.25    7.84910    3.18020    0.03890    0.07380    0.19090    2.54940   67.71300  115.35890
 8225.00000   37.92940   41.76450   40.67110    5.15150   -9999.25    7.84850    3.17970    0.04490    0.07260    0.19030    2.57690   67.53360  114.17910
 8225.50000   31.65380   37.63040   37.04810    5.14550   -9999.25    7.83820    3.36060    0.05090    0.06330    0.18970    2.60150   66.99550  111.20180
 8226.00000   30.35980   33.44270   31.56730    5.13940   -9999.25    7.81700    3.69240    0.05690    0.04890    0.18970    2.63270   65.73990  107.64140
 8226.50000   30.78510   30.75230   28.87300    5.73940   -9999.25    7.81640    3.99410    0.05380    0.04050   -9999.25    2.64930   62.87000  107.82860
 8227.00000   42.39490   34.46780   40.98470    5.73330   -9999.25    7.81580    4.11450    0.04930    0.03890   -9999.25    2.64690   62.51120  110.91360
 8227.50000   64.71490   52.13240   62.52490    5.72730   -9999.25    7.81520    4.17440    0.04470    0.04410   -9999.25    2.64100   64.93270  115.89670
 8228.00000  114.92300   65.94310   63.04880    5.72120   -9999.25    7.81450    4.14380    0.04020    0.05080   -9999.25    2.61210   66.11300  119.04480
 8228.50000   64.26310   53.89600   55.44170    6.32240   -9999.25    7.81390    3.90160    0.03260    0.05610   -9999.25    2.59740   66.83980  118.89320
 8229.00000   48.64690   40.80840   46.88380    6.92230   -9999.25    7.81330    3.53860    0.02810    0.05990   -9999.25    2.57850   67.30120  117.87820
 8229.50000   47.02840   37.02760   43.13380    7.52230   -9999.25    7.80630    3.23610    0.02050    0.06850   -9999.25    2.56140   67.74600  117.29580
 8230.00000   54.84230   35.30100   40.23800    7.51520   -9999.25    7.78180    3.14500    0.01750    0.07720   -9999.25    2.54900   68.20300  117.31340
 8230.50000   94.67660   35.29610   38.59260    7.50910   -9999.25    7.78120    3.05390    0.01590    0.09970   -9999.25    2.53030   68.59550  118.47940
 8231.00000  135.86800   35.55840   38.05560    7.50300   -9999.25    7.75030    2.99300    0.01290    0.10300   -9999.25    2.53330   69.05720  119.73130
 8231.50000  149.16570   38.16790   38.05030    7.49700   -9999.25    7.71940    3.02280    0.00980    0.09910   -9999.25    2.54440   71.10310  120.34330
 8232.00000  114.75820   40.03840   40.21560    7.49090   -9999.25    7.68850    3.11300    0.00980    0.09670   -9999.25    2.55720   72.13310  119.76410
 8232.50000  104.95990   37.69220   41.91850    7.48490   -9999.25    7.65360    3.23340    0.00980    0.09300   -9999.25    2.56050   72.33400  118.58470
 8233.00000  113.40370   34.51970   41.91270    7.47880   -9999.25    7.58910    3.35380    0.01130    0.08770   -9999.25    2.53780   71.36000  117.40520
 8233.50000  131.61270   34.62880   41.32960    7.47270   -9999.25    7.50160    3.47410    0.01120    0.08730   -9999.25    2.50010   69.45510  118.61390
 8234.00000   98.92860   38.47110   41.90200    8.07330   -9999.25    7.44080    3.56430    0.01720    0.09350   -9999.25    2.47820   69.58030  119.69010
 8234.50000   50.17910   41.73150   41.89520    8.06670   -9999.25    7.38240    3.50340    0.03070    0.10520   -9999.25    2.47850   -9999.25   -9999.25
 8235.00000  127.88550   44.11470   42.47440    8.06060   -9999.25    7.38380    3.32170    0.03820    0.13130   -9999.25    2.48750   -9999.25   -9999.25
 8235.50000   96.47890   43.45900   44.27300    8.14620   -9999.25    7.41150    3.14000    0.04270    0.12980   -9999.25    2.50600   -9999.25   -9999.25
 8236.00000   66.93680   39.93570   46.79240    8.65500   -9999.25    7.41090    3.07910    0.04720    0.11550   -9999.25    2.51000   -9999.25   -9999.25
 8236.50000   28.04140   48.33090   48.77380    8.64850   -9999.25    7.41030    3.04850    0.04870    0.11150   -9999.25    2.51340   -9999.25   -9999.25
