~Version ---------------------------------------------------
VERS.   2.0 : CWLS log ASCII Standard -VERSION 2.0
WRAP.    NO : One line per depth step
DLM . SPACE : Column Data Section Delimiter
~Well ------------------------------------------------------
STRT .F                  177.0 : START DEPTH
STOP .F                 8248.0 : STOP DEPTH
STEP .F                    0.5 : STEP
NULL .                -9999.25 : NULL VALUE
COMP .                         : COMPANY
WELL .                         : WELL
FLD  .                         : FIELD
LOC  .                         : LOCATION
PROV .                         : PROVINCE
CNTY .                         : COUNTY
STAT .                         : STATE
CTRY .                         : COUNTRY
SRVC .                         : SERVICE COMPANY
DATE .                         : DATE
UWI  .                         : UNIQUE WELL ID
API  .                         : API NUMBER
SLAT .WGS84 2.9279247839448033 : SURFACE LATITUDE
SLON .WGS84  6.651475515573011 : SURFACE LONGITUDE
DATUM.F                2996.89 : DEPTH DATUM ELEV
~Curve Information -----------------------------------------
DEPT.F     : 
AT10.OHMM  : 10-IN. RESISTIVITY, 2-FT RESOLUTION
AT30.OHMM  : 30-IN. RESISTIVITY, 2-FT RESOLUTION
AT90.OHMM  : 90-IN. RESISTIVITY, 2-FT RESOLUTION
SPR .MV    : SPONTANEOUS POTENTIAL FROM RES.
GRD .GAPI  : GAMMA RAY FROM DENSITY LOG
HCAL.IN    : HILT CALIPER FROM DENSITY LOG
PEFZ.B/E   : HILT PHOTOELECTRIC FACTOR
HDRA.G/C3  : DELTA RHO HIP TOOL
DPHZ.DEC   : DENSITY POROSITY LIMESTONE
TNPH.DEC   : THERMAL NEUTRON POROSITY LIMESTONE
RHOZ.G/C3  : HILT BULK DENSITY
DTCO.US/F  : COMPRESSIONAL-WAVE INTERVAL TRANSIT TIME ACAUSTIC SLOWNESS
DTSM.US/F  : SHEAR-WAVE INTERVAL TRANSIT TIME DELTA-T
~Params ----------------------------------------------------
~Other -----------------------------------------------------
~ASCII -----------------------------------------------------
# ...
 4493.00000   84.84210  127.19130   70.51570  -19.81870   25.48610    8.90550    3.36190    0.02300   -0.04640    0.06840    2.83920   54.62510   98.54920
 4493.50000  135.86340  132.91640  133.57830  -19.81870   25.02930    8.93530    3.60300    0.02000   -0.04130    0.05150    2.85930   54.53500   98.54630
 4494.00000   92.32020   97.79000  104.00010  -19.81870   21.84520    8.98240    3.75340    0.01240   -0.04950    0.04670    2.86620   54.22960   98.54330
 4494.50000   36.66630   50.87910   52.64020  -19.81870   17.75200    8.98210    3.75960    0.00330   -0.07510    0.04310    2.86720   53.03570   99.73450
 4495.00000  185.13630  193.60190  191.56350  -19.90910   15.47700    8.98180    3.72200   -0.00890   -0.09000    0.04250    2.86690   51.12840   98.93370
 4495.50000  189.81790  172.57500  178.67190  -19.91820   14.11110    9.01190    3.78180   -0.02860   -0.08820    0.04130    2.86300   49.15190   97.80810
 4496.00000   59.89760   36.37200   73.42470  -20.53330   12.29060    8.98120    3.90200   -0.03620   -0.07720    0.03460    2.85430   48.79280   96.74070
 4496.50000   45.18970   23.33070   21.24360  -21.14850   12.16860    8.98090    3.90140   -0.03770   -0.07410    0.03280    2.84190   49.15110   99.72280
 4497.00000   62.50510   34.77170   32.33730  -21.15760   15.92240    8.98050    3.90080   -0.02710   -0.06140    0.04980    2.81670   49.33000   98.90270
 4497.50000   71.57090   32.45030   34.49320  -20.55910   18.19290    8.98020    3.87000   -0.02110   -0.06080    0.06010    2.79140   49.15020   97.92540
 4498.00000   44.33500   20.02640   23.81180  -20.56970   21.82690    8.97990    3.77880   -0.01350   -0.05530    0.06670    2.77240   47.35600   97.32540
 4498.50000   18.52450   18.66420   18.53980  -20.57880   30.46100    8.97960    3.56670    0.00010   -0.03240    0.08790    2.75890   45.83090   97.32240
 4499.00000   19.87510   22.65520   20.71470  -20.58790   38.64050    8.97930    3.47540    0.04100    0.00030    0.10060    2.73300   49.14890   97.91640
 4499.50000   25.54760   27.34810   32.75540  -20.59700   39.54770    8.98940    3.32380    0.03640   -0.00330    0.11330    2.71710   50.04530   99.10690
 4500.00000   36.66630   38.68800   26.22270  -19.99850   39.54510    9.01530    3.29840    0.02270   -0.00470    0.11330    2.71260   50.94170   99.97860
 4500.50000   36.65870   37.09330   37.09580  -19.20100   42.03950    9.05220    3.31370    0.02270    0.00090    0.10600    2.71620   51.69620  100.82790
 4501.00000   31.44270   25.83750   36.06430  -18.19850   44.09180    9.07080    3.26350    0.02780   -0.00390    0.09820    2.71940   51.97220  101.76220
 4501.50000   19.84870   17.74900   24.77420  -17.40140   47.27990    9.07160    3.08250    0.03030   -0.00570    0.09210    2.71940   52.29520  102.99300
 4502.00000   18.25290   17.98970   18.75660  -17.00450   54.55490    9.10250    3.08280    0.03030   -0.00590    0.09460    2.71620   53.10840  105.06210
 4502.50000   19.29510   19.81870   19.54660  -17.01510   57.73900    9.13350    3.11330    0.02730   -0.00210    0.10060    2.70870   56.32980  105.05920
 4503.00000   21.26750   23.73150   20.94380  -17.02420   60.01400    9.16380    3.17410    0.01980    0.00300    0.10100    2.70270   57.31770  104.45930
 4503.50000   24.78510   29.62620   25.07880  -17.03330   53.65270    9.19540    3.23480    0.01020   -0.00150    0.09340    2.70510   57.58800  103.26240
 4504.00000   33.20320   39.09830   38.56150  -17.24440   39.56400    9.22550    3.38610    0.00460   -0.03900    0.08250    2.72540   57.49970  101.46840
 4504.50000   60.43660   57.66410   53.79820  -17.86000   35.92990    9.22600    3.56770    0.00690   -0.05710    0.05110    2.79070   56.69380   97.28640
 4505.00000  131.85290  130.82220  104.75610  -18.87880   28.65950    9.19600    3.77950    0.01070   -0.06260    0.04740    2.83690   50.05830   93.10450
 4505.50000  167.06030  134.06150  112.24410  -19.09030   27.29770    9.16610    3.71940    0.01000   -0.07410    0.04860    2.85640   48.26590   91.87850
 4506.00000  149.40690  121.94180  109.12280  -19.70470   27.75490    9.13620    3.68940    0.00920   -0.08490    0.05110    2.85870   48.67690   91.30750
 4506.50000  133.61900  121.23220  110.60310  -20.32020   25.02990    9.13530    3.68980    0.01150   -0.08860    0.05350    2.86000   49.89200   91.19730
 4507.00000  135.46550  124.58700  120.16690  -21.33940   20.03220    9.07490    3.81090    0.01750   -0.07770    0.05410    2.85890   51.32810   90.70450
 4507.50000  149.31300  134.96640  116.82530  -22.15660   15.94360    9.01590    3.90180    0.02510   -0.07410    0.05350    2.84760   51.94840   90.70150
 4508.00000  287.35860  141.04120  107.43750  -22.77210   12.30950    9.01480    3.93240    0.03270   -0.07230    0.05170    2.83780   51.67390   90.69850
 4508.50000  364.52970  139.83480   72.78560  -23.79090   10.49360    8.95440    3.87220    0.03880   -0.07530    0.04860    2.84000   50.05870   90.43310
 4509.00000  220.42710  124.85330   72.75520  -24.40610    8.67770    8.92610    3.78190    0.03950   -0.08190    0.04800    2.84940   48.78510   89.49370
 4509.50000   58.65260   74.54190   72.72470  -24.41510    7.77080    8.95900    3.66140    0.03800   -0.08370    0.05050    2.85590   47.86310   87.96210
 4510.00000   23.37770   35.22470   33.39200  -24.42420    8.68220    8.98780    3.54080    0.02590   -0.08190    0.05890    2.82800   47.47110   86.50690
 4510.50000   17.20200   23.41120   20.52580  -24.43330   11.86630    9.01870    3.57130    0.00850   -0.06020    0.07440    2.79560   47.38250   88.29510
 4511.00000   15.17140   17.94340   18.61600  -24.44240   12.77770    9.01910    3.57160    0.00390   -0.02700    0.09280    2.78310   47.65310   90.68030
 4511.50000   14.95830   18.15780   19.67150  -24.45150   13.68900    9.01960    3.57190    0.00170   -0.00520    0.11120    2.75100   48.82030   94.85650
 4512.00000   18.17660   23.88630   24.21880  -24.46060   14.14580    9.02010    3.57220    0.00390    0.01350    0.12230    2.71620   51.87090  100.82370
 4512.50000   67.33730   36.47900   45.23390  -24.46970   14.14810    9.02050    3.57250    0.01080    0.02020    0.12600    2.69320   53.48660  100.82080
 4513.00000   76.31810   61.24980   83.31870  -24.27720   13.69550    8.99060    3.48220    0.01920    0.00990    0.11780    2.70640   53.84670  100.76010
 4513.50000  220.01180  122.42560  155.61600  -23.88030   12.33450    8.93020    3.42210    0.02830   -0.01790    0.10230    2.76130   53.38060   95.87990
 4514.00000  311.63120  160.07180  159.93960  -23.89090    8.70040    8.89750    3.54320    0.02980   -0.05780    0.07800    2.82360   52.07830   92.27080
 4514.50000  249.30260  153.27090  143.05140  -23.90000    7.33860    8.83700    3.57370    0.02060   -0.06260    0.06720    2.82800   51.09870   90.65970
 4515.00000  114.22350  120.25000  106.81040  -23.90910    8.25040    8.77660    3.51360    0.01770   -0.06870    0.06180    2.83050   50.56040   90.05970
 4515.50000  109.05740   86.06380   78.65060  -24.52420   10.07080    8.71620    3.42330    0.02370   -0.06990    0.05970    2.83120   49.98020   90.05670
 4516.00000  127.63950   94.88650   81.96340  -24.53330   12.34580    8.65890    3.39340    0.02820   -0.06750    0.05890    2.83020   48.99000   90.05370
 4516.50000  232.33020   99.53770   83.07520  -24.54240   13.25720    8.65610    3.39370    0.02800   -0.06200    0.06010    2.82360   47.82290   90.05070
 4517.00000  185.86250  106.66050   91.52130  -24.55150   13.25950    8.62950    3.39400    0.01940   -0.06020    0.05940    2.81150   47.53580   89.12630
 4517.50000  188.43090  132.41060  114.25410  -24.56060   12.80720    8.62990    3.39430    0.01690   -0.05960    0.05490    2.80540   47.40130   88.25320
 4518.00000  388.80860  196.46520  199.07520  -24.56970   10.53670    8.66080    3.42480    0.01340   -0.06080    0.05030    2.80640   47.40290   87.05620
 4518.50000  216.51330  209.12430  210.37340  -24.57880    7.35720    8.66120    3.42510    0.00890   -0.06140    0.04560    2.81250   47.04550   86.45630
