~Version ---------------------------------------------------
VERS.   2.0 : CWLS log ASCII Standard -VERSION 2.0
WRAP.    NO : One line per depth step
DLM . SPACE : Column Data Section Delimiter
~Well ------------------------------------------------------
STRT .F                  177.0 : START DEPTH
STOP .F                 8248.0 : STOP DEPTH
STEP .F                    0.5 : STEP
NULL .                -9999.25 : NULL VALUE
COMP .                         : COMPANY
WELL .                         : WELL
FLD  .                         : FIELD
LOC  .                         : LOCATION
PROV .                         : PROVINCE
CNTY .                         : COUNTY
STAT .                         : STATE
CTRY .                         : COUNTRY
SRVC .                         : SERVICE COMPANY
DATE .                         : DATE
UWI  .                         : UNIQUE WELL ID
API  .                         : API NUMBER
SLAT .WGS84 2.9279247839448033 : SURFACE LATITUDE
SLON .WGS84  6.651475515573011 : SURFACE LONGITUDE
DATUM.F                2996.89 : DEPTH DATUM ELEV
~Curve Information -----------------------------------------
DEPT.F     : 
AT10.OHMM  : 10-IN. RESISTIVITY, 2-FT RESOLUTION
AT30.OHMM  : 30-IN. RESISTIVITY, 2-FT RESOLUTION
AT90.OHMM  : 90-IN. RESISTIVITY, 2-FT RESOLUTION
SPR .MV    : SPONTANEOUS POTENTIAL FROM RES.
GRD .GAPI  : GAMMA RAY FROM DENSITY LOG
HCAL.IN    : HILT CALIPER FROM DENSITY LOG
PEFZ.B/E   : HILT PHOTOELECTRIC FACTOR
HDRA.G/C3  : DELTA RHO HIP TOOL
DPHZ.DEC   : DENSITY POROSITY LIMESTONE
TNPH.DEC   : THERMAL NEUTRON POROSITY LIMESTONE
RHOZ.G/C3  : HILT BULK DENSITY
DTCO.US/F  : COMPRESSIONAL-WAVE INTERVAL TRANSIT TIME ACAUSTIC SLOWNESS
DTSM.US/F  : SHEAR-WAVE INTERVAL TRANSIT TIME DELTA-T
~Params ----------------------------------------------------
~Other -----------------------------------------------------
~ASCII -----------------------------------------------------
# ...
 5819.00000   44.70220   42.64210   41.34650   -0.01780   71.87610    8.72400    3.76970    0.02470    0.06730    0.15460    2.59830   67.15940  116.64480
 5819.50000   47.25720   45.70930   43.76930   -0.00870   75.60580    8.71330    3.85520    0.02390    0.06420    0.15580    2.59060   66.69150  118.25230
 5820.00000   47.25460   46.34870   48.91850    0.00030   83.49930    8.69300    3.85450    0.02240    0.07930    0.16250    2.56880   67.60540  121.43400
 5820.50000   52.83920   55.52250   54.67340    0.00930   90.40600    8.69270    3.85390    0.02090    0.08900    0.16910    2.56040   69.67450  122.03690
 5821.00000   60.19730   63.79710   61.72910    0.01840   93.11370    8.69240    3.85490    0.01940    0.09750    0.17520    2.54850   70.51000  122.04270
 5821.50000   76.90880   68.38590   67.78330    0.02740   94.70200    8.69210    3.91480    0.02020    0.10650    0.17760    2.53700   70.90300  121.45160
 5822.00000  115.85660   58.69510   62.71150    0.03650   93.14650    8.69180    3.94430    0.02160    0.11130    0.17280    2.52950   69.82590  119.06940
 5822.50000  126.26080   53.88930   52.34670    0.04550   87.05630    8.72190    4.00300    0.02320    0.09990    0.15590    2.56730   66.86540  117.28420
 5823.00000   69.56670   33.20790   54.57370    0.05460   80.90750    8.72160    4.00240    0.02390    0.09080    0.14440    2.58490   65.51920  115.49900
 5823.50000   42.90750   29.71500   41.10570    0.06360   76.33370    8.72130    4.03280    0.02390    0.08170    0.12810    2.59820   64.53180  114.31080
 5824.00000   45.17240   39.78070   30.81440    0.07270   70.74260    8.75140    4.06220    0.02240    0.07450    0.11720    2.60450   64.08250  113.12260
 5824.50000   56.11640   43.23860   38.55850    0.08170   64.13760    8.75110    4.09170    0.02080    0.06360    0.11180    2.60700   63.81260  111.93440
 5825.00000   52.95610   42.64210   44.25570    0.09070   62.12010    8.75080    4.12120    0.01930    0.05880    0.10630    2.61120   63.81930  110.74630
 5825.50000   29.04710   27.33860   36.40080    0.09980   63.04570    8.75050    4.09030    0.01700    0.05750    0.10390    2.61220   63.91400  110.15510
 5826.00000   20.53060   19.58760   22.07750    0.10880   72.12850    8.75020    3.99880    0.01020    0.05690    0.10390    2.61200   64.22790  111.49790
 5826.50000   22.50070   22.19620   20.27250    0.11790   79.40790    8.74980    3.75580    0.00940    0.05630    0.10880    2.60310   64.66790  115.08840
 5827.00000   40.39960   28.90080   23.06900    0.72930   83.15220    8.71910    3.45210    0.01250    0.05940    0.12510    2.57910   65.15930  116.83640
 5827.50000   74.80380   44.45680   35.74630    0.73840   84.92780    8.71250    3.39090    0.01470    0.08050    0.13660    2.55220   65.62590  117.34330
 5828.00000  108.30370   87.81400   72.91940    0.74740   79.62680    8.68810    3.39030    0.01390    0.09260    0.12630    2.55420   66.04730  117.34930
 5828.50000  120.77450  114.95440  100.91510    0.75650   60.30170    8.65740    3.87450    0.01100    0.07930    0.10820    2.57670   66.03650  117.35520
 5829.00000   86.91630   81.92150  112.44270    0.76550   54.85850    8.62670    4.14670    0.00790    0.06240    0.09970    2.60400   65.68770  116.76320
 5829.50000   65.67470   57.08670   62.23010    0.77450   55.81510    8.62640    4.32790    0.00710    0.05330    0.09670    2.60970   65.77660  115.95790
 5830.00000   61.46720   47.65450   45.07820    0.18070   66.42720    8.59570    4.44850    0.01020    0.05330    0.10820    2.59460   65.77570  114.74600
 5830.50000   60.61370   43.84350   43.57640    0.19020   70.61510    8.60020    4.32660    0.01700    0.06540    0.13010    2.59360   65.68510  114.39400
 5831.00000   51.25470   45.07870   45.72540    0.19930   71.84780    8.62560    3.99270    0.02000    0.07320    0.13970    2.59640   65.32550  113.51700
 5831.50000   39.50250   38.69070   46.70760    0.20830   70.44920    8.62950    3.87090    0.02230    0.07320    0.14210    2.60610   64.51750  112.30450
 5832.00000   43.50650   36.59940   39.14390    0.21730   66.81130    8.65530    3.84000    0.02300    0.06960    0.13180    2.62440   63.60520  110.16150
 5832.50000   64.55340   41.47360   39.45900    0.22640   57.73840    8.65500    3.83940    0.02460    0.05690    0.12520    2.64610   62.75400  109.04590
 5833.00000   82.09160   51.08220   44.24970    0.23540   52.16150    8.65470    3.83880    0.02600    0.04840    0.12280    2.64860   61.95620  109.05180
 5833.50000   80.72660   52.52140   49.98520    0.24450   49.74940    8.65440    3.83810    0.02600    0.03940    0.12220    2.63640   61.55430  110.84870
 5834.00000   62.53250   51.79680   52.17910    0.25350   54.38290    8.65410    3.86790    0.02300    0.03270    0.12160    2.60680   63.66140  114.43660
 5834.50000   63.48480   55.52250   53.73800    0.26260   67.62210    8.62340    3.89760    0.02140    0.03150    0.12040    2.55670   65.23450  115.03950
 5835.00000   97.74620   65.59450   69.94340    0.27160   71.07790    8.62060    3.89690    0.02070    0.04180    0.12340    2.55920   66.37690  115.04540
 5835.50000  148.92260   92.83180   87.19170    0.28070   72.65430    8.59240    3.92660    0.02070    0.08530    0.13310    2.56820   66.84220  114.45420
 5836.00000  172.45830   99.84280   95.22590    0.28970   69.43320    8.59010    4.04720    0.02070    0.08770    0.13970    2.57210   66.55680  112.07200
 5836.50000  131.54850   89.04240   96.26250    0.29870   60.85240    8.56140    4.22840    0.01760    0.07980    0.13310    2.56940   66.45080  109.68980
 5837.00000   94.25790   70.31260   87.65860    0.30780   55.72970    8.56110    4.34900    0.01150    0.07680    0.12280    2.56580   66.48070  109.69560
 5837.50000   86.85260   46.34870   50.58250    0.31680   59.33370    8.56080    4.34840   -0.00440    0.08100    0.11980    2.56340   66.47970  111.49250
 5838.00000   64.55990   36.59940   39.00100    0.32590   73.63610    8.56050    4.28720   -0.01040    0.08410    0.11980    2.56190   66.49140  113.91150
 5838.50000   41.23920   33.67240   34.49840    0.33490   79.09690    8.59060    4.10480    0.00170    0.08280    0.12340    2.56500   65.85020  114.48930
 5839.00000   41.42630   30.97960   32.89980    0.34400   80.00660    8.59030    3.74050    0.01000    0.08280    0.14040    2.57560   64.86280  113.15880
 5839.50000   52.37800   35.10540   35.07890    0.35300   80.42320    8.59000    3.46720    0.01540    0.08470    0.14220    2.59610   64.57490  111.32610
 5840.00000   77.09780   51.79680   41.75490    0.36200   74.73000    8.58970    3.43630    0.01610    0.08530    0.13490    2.60450   63.43200  109.49300
 5840.50000  101.80140   62.04890   52.97970    0.37110   59.25650    8.58940    3.70840    0.01610    0.07200    0.12100    2.61030   61.39680  107.80240
 5841.00000  113.19820   72.29350   69.64590   -0.22230   52.95760    8.55870    4.01080    0.01550    0.06350    0.10110    2.61450   60.27800  106.59050
 5841.50000  114.02810   78.57750   81.32690   -0.21320   48.51740    8.55840    4.19210    0.01050    0.05750    0.08600    2.61840   59.74510  105.37910
 5842.00000  136.46620   84.22950   79.08070   -0.20420   52.20260    8.52770    4.31270    0.00490    0.05320    0.08060    2.62330   59.38670  104.97810
 5842.50000  161.57100   99.50900   92.67280   -0.19510   54.45790    8.49700    4.31920    0.00240    0.05080    0.08120    2.62330   60.09010  104.98510
 5843.00000  141.26350   85.40780  103.02120   -0.18610   56.27510    8.49660    4.22050    0.00440    0.04900    0.08960    2.61980   61.10440  105.85090
 5843.50000   55.11220   32.74970   35.74590   -0.78010   58.55700    8.49630    3.97750    0.00740    0.04840    0.09630    2.60800   62.25360  107.67170
 5844.00000   40.17650   32.35810   29.80080   -0.77040   70.86930    8.49600    3.64360    0.01040    0.04840    0.10110    2.58870   63.59810  110.99690
 5844.50000   54.95680   42.05380   35.39070   -1.36450   81.35790    8.46530    3.52170    0.01140    0.06890    0.11870    2.56880   64.40440  112.17310
