~Version ---------------------------------------------------
VERS.   2.0 : CWLS log ASCII Standard -VERSION 2.0
WRAP.    NO : One line per depth step
DLM . SPACE : Column Data Section Delimiter
~Well ------------------------------------------------------
STRT .F                  177.0 : START DEPTH
STOP .F                 8248.0 : STOP DEPTH
STEP .F                    0.5 : STEP
NULL .                -9999.25 : NULL VALUE
COMP .                         : COMPANY
WELL .                         : WELL
FLD  .                         : FIELD
LOC  .                         : LOCATION
PROV .                         : PROVINCE
CNTY .                         : COUNTY
STAT .                         : STATE
CTRY .                         : COUNTRY
SRVC .                         : SERVICE COMPANY
DATE .                         : DATE
UWI  .                         : UNIQUE WELL ID
API  .                         : API NUMBER
SLAT .WGS84 2.9279247839448033 : SURFACE LATITUDE
SLON .WGS84  6.651475515573011 : SURFACE LONGITUDE
DATUM.F                2996.89 : DEPTH DATUM ELEV
~Curve Information -----------------------------------------
DEPT.F     : 
AT10.OHMM  : 10-IN. RESISTIVITY, 2-FT RESOLUTION
AT30.OHMM  : 30-IN. RESISTIVITY, 2-FT RESOLUTION
AT90.OHMM  : 90-IN. RESISTIVITY, 2-FT RESOLUTION
SPR .MV    : SPONTANEOUS POTENTIAL FROM RES.
GRD .GAPI  : GAMMA RAY FROM DENSITY LOG
HCAL.IN    : HILT CALIPER FROM DENSITY LOG
PEFZ.B/E   : HILT PHOTOELECTRIC FACTOR
HDRA.G/C3  : DELTA RHO HIP TOOL
DPHZ.DEC   : DENSITY POROSITY LIMESTONE
TNPH.DEC   : THERMAL NEUTRON POROSITY LIMESTONE
RHOZ.G/C3  : HILT BULK DENSITY
DTCO.US/F  : COMPRESSIONAL-WAVE INTERVAL TRANSIT TIME ACAUSTIC SLOWNESS
DTSM.US/F  : SHEAR-WAVE INTERVAL TRANSIT TIME DELTA-T
~Params ----------------------------------------------------
~Other -----------------------------------------------------
~ASCII -----------------------------------------------------
# ...
 6365.00000  379.99270   92.92680   81.76560   64.12700   28.89030   10.49850    3.09210    0.20000    0.26820    0.08380    1.73250   58.29170  104.76610
 6365.50000  519.02570  132.56190  106.33900   64.72040   29.77650   11.07600    2.88050    0.20000    0.29210    0.07880    1.68130   58.11360  102.35100
 6366.00000  194.41150  153.91310  134.85510   64.71090   27.93270   11.44070    2.78970    0.20000    0.37040    0.06980    1.64440   58.02510   99.93650
 6366.50000   46.83940  136.58330  151.94530   64.76990   24.76790   11.47110    2.85000    0.20000    0.48120    0.06390    1.64090   58.11620   99.10300
 6367.00000   19.42830   63.60940  150.75960   65.29570   22.95140   11.37990    2.84980    0.20000    0.59190    0.06060    1.66470   57.93820  102.09680
 6367.50000   48.27210   84.07710  112.85780   65.28610   25.69150   11.47110    2.84970    0.20000    0.62940    0.05850    1.70930   57.84980  103.29950
 6368.00000  169.76360  182.01890   76.27460   65.88000   31.62320   11.59270    2.57760    0.20000    0.61820    0.05980    1.75490   58.04460  105.09930
 6368.50000  137.08560  198.14060   62.45570   65.87050   35.27520   11.56230    2.54360    0.20000    0.56000    0.06500    1.81230   58.64200  105.70500
 6369.00000   68.48270  160.39160   41.01200   65.92380   37.10350   10.01220    2.60750    0.20000    0.54170    0.07510    1.87840   59.81600  106.31070
 6369.50000   24.21630   72.49010   24.15800   66.45530   38.47580    9.03950    2.63760    0.20000    0.53270    0.08750    1.94080   60.52050  106.31940
 6370.00000   17.39730   52.88750   18.55480   66.44580   39.39230    8.82670    2.63750    0.20000    0.52620    0.09990    2.00330   61.02240  105.69170
 6370.50000   19.03460   63.99410   26.45900   66.43670   39.39680    8.67480    2.60710    0.20000    0.50760    0.10840    2.06980   60.80970  104.54570
 6371.00000   37.31990   81.54670   41.99390   66.42770   39.40140    8.64440    2.57670    0.20000    0.48140    0.09870    2.23550   59.92580  103.24970
 6371.50000   62.26120   84.05040   64.34120   66.41870   32.56710    8.64440    2.57230    0.19480    0.40910    0.08420    2.37270   58.94220  102.17500
 6372.00000   56.35590   66.83770   90.28200   66.40960   30.74800    8.64440    2.84830    0.14780    0.31160    0.07880    2.50120   58.48140  101.40430
 6372.50000  102.99450   83.14250  154.14090   66.40060   30.29640    8.58360    2.96900    0.20000    0.28200    0.07380    2.62420   58.22200  100.99840
 6373.00000  109.15280  123.88310   93.67260   66.39160   30.75710    8.58360    2.99910    0.20000    0.24950    0.07140    2.65680   58.22350  101.00900
 6373.50000   37.65670   61.08970   54.21680   65.78010   32.58540    8.55320    2.99890    0.20000    0.20900    0.07700    2.60580   58.22480  101.90500
 6374.00000   17.65180   52.38190   54.10820   65.77110   35.32560    8.49240    3.02900    0.20000    0.15170    0.09190    2.52300   59.03330  104.39510
 6374.50000   22.34070   61.54170   61.66610   65.71040   38.06570    8.49240    3.02880    0.20000    0.04410    0.10730    2.37650   60.64900  105.21660
 6375.00000   64.42650   70.55720   65.61760   65.10000   39.43810    8.70520    3.05890    0.12450    0.03380    0.10670    2.18510   61.27810  104.62690
 6375.50000   29.20330   48.67280   48.34630   64.53920   40.35450    8.88750    3.08900    0.05830    0.06160    0.10350    2.13480   61.01030  105.83100
 6376.00000   17.18760   42.46170   35.94230   64.48190   42.18280    8.85710    3.11900    0.05120    0.18430    0.12900    2.12390   61.47450  107.63080
 6376.50000   27.56420   53.02830   31.22510   63.91870   44.46700    8.67480    3.14910    0.17100    0.29850    0.13550    2.17610   62.60210  107.63950
 6377.00000   41.19210   82.79760   48.73060   63.90960   46.29530    8.55320    3.17920    0.20000    0.34560    0.13750    2.27780   63.95740  107.05110
 6377.50000   85.46500  112.96930  111.38030   63.90060   46.29990    8.52280    3.11860    0.20000    0.31830    0.13480    2.38790   64.78240  107.05980
 6378.00000   19.35210  110.85140   78.03110   63.93620   46.30450    8.49240    2.84650    0.20000    0.28570    0.13080    2.41470   63.88660  107.06870
 6378.50000   28.06080   67.62310   39.26720   64.48530   45.85260    8.49240    2.66510    0.20000    0.23180    0.12890    2.42860   62.89760  107.67460
 6379.00000   35.32290   69.29260   37.43280   65.12070   45.40120    8.52280    2.63470    0.20000    0.17780    0.13030    2.36180   62.50760  107.68360
 6379.50000   31.58300   83.53270   33.93680   66.31530   45.40640    8.61400    2.75540    0.20000    0.15820    0.13150    2.27550   62.71500  107.81630
 6380.00000   35.02740  139.77020   32.82510   66.86780   44.95500    9.22190    2.84590    0.20000    0.15660    0.12910    2.23950   63.73680  108.29850
 6380.50000   45.21320  289.24440   44.17300   66.89840   44.95960    9.61700    2.90620    0.20000    0.20100    0.12010    2.22860   65.41870  108.30750
 6381.00000   75.28190  261.71960   79.39800   67.49060   44.96420    9.58660    2.93620    0.20000    0.22620    0.11420    2.23910   64.07470  107.71770
 6381.50000  102.28290  138.79190  106.44600   68.08280   44.96880    9.10030    2.96630    0.20000    0.25450    0.10700    2.29430   62.28220  107.72840
 6382.00000   87.14000  111.58080   58.00700   68.63880   44.97330    8.70520    2.96610    0.20000    0.27650    0.10100    2.36680   61.74540  107.73730
 6382.50000   77.36310   61.14830   36.94200   68.62950   44.52130    8.52280    2.99620    0.20000    0.28650    0.08900    2.41620   61.02930  107.74630
 6383.00000  196.16560   31.39730   29.83590   68.62050   44.07070    8.37080    3.05650    0.20000    0.21340    0.08440    2.41620   60.94080  107.15980
 6383.50000  225.61450   30.05750   29.47320   68.57740   43.61930    8.34040    3.06310    0.20000    0.17960    0.08490    2.31810   60.94220  107.16850
 6384.00000   52.11960   30.23180   28.83630   67.96710   43.16800    8.37080    3.02600    0.20000    0.20010    0.08730    2.20710   61.03570  106.57910
 6384.50000   36.42530   28.49540   24.91140   67.38860   42.71660    8.37080    3.02580    0.20000    0.27040    0.09060    2.14340   61.33530  106.58890
 6385.00000   60.41700   21.70530   23.12500   67.37950   42.26530    8.37080    3.05590    0.20000    0.30080    0.09390    2.16640   62.07660  109.58270
 6385.50000   51.50940   28.31680   20.90120   67.37050   42.26990    8.40120    3.05570    0.20000    0.34520    0.09690    2.22100   62.79810  112.57640
 6386.00000   21.36430   50.99490   26.85080   67.96410   42.27440    8.40120    3.05560    0.20000    0.31790    0.09930    2.22710   63.32980  112.58510
 6386.50000    9.29850   49.41650   34.78950   67.35240   42.27810    8.49240    2.99500    0.20000    0.29140    0.10110    2.21020   63.67080  109.52610
 6387.00000   13.91320   26.12200   36.18290   66.74100   41.82680    8.64440    2.96460    0.20000    0.28660    0.10200    2.18450   63.82130  106.44220
 6387.50000   10.86340   29.62530   29.09900   66.70610   42.09740    8.76600    3.08530    0.20000    0.30070    0.10390    2.17540   62.99670  103.45730
 6388.00000   10.99160   42.89950   15.68210   66.09580   42.29180    8.85710    3.02480    0.20000    0.31130    0.10570    2.17260   61.42760  101.73890
 6388.50000   13.30050   41.10440   13.06240   65.50920   43.00910    9.14930    2.96420    0.20000    0.32160    0.10630    2.19050   60.35070  100.68830
 6389.00000   62.07170   49.91620   15.44400   66.10260   43.66870    9.54760    3.02450    0.20000    0.29520    0.10420    2.23420   59.34280  101.31830
 6389.50000   84.69670  119.69040   23.67030   65.49110   44.37710   10.50630    3.17540    0.20000    0.28170    0.10030    2.28650   59.79260  103.58180
 6390.00000   81.09600  136.43100   33.82850   66.08450   44.83220   11.25740    3.29610    0.20000    0.30130    0.09780    2.31930   61.85670  104.89550
 6390.50000   76.71910  186.99920   46.20480   66.67790   45.05020   11.49130    3.41670    0.20000    0.30580    0.09750    2.31930   63.20330  104.90450
