~Version ---------------------------------------------------
VERS.   2.0 : CWLS log ASCII Standard -VERSION 2.0
WRAP.    NO : One line per depth step
DLM . SPACE : Column Data Section Delimiter
~Well ------------------------------------------------------
STRT .F                  177.0 : START DEPTH
STOP .F                 8248.0 : STOP DEPTH
STEP .F                    0.5 : STEP
NULL .                -9999.25 : NULL VALUE
COMP .                         : COMPANY
WELL .                         : WELL
FLD  .                         : FIELD
LOC  .                         : LOCATION
PROV .                         : PROVINCE
CNTY .                         : COUNTY
STAT .                         : STATE
CTRY .                         : COUNTRY
SRVC .                         : SERVICE COMPANY
DATE .                         : DATE
UWI  .                         : UNIQUE WELL ID
API  .                         : API NUMBER
SLAT .WGS84 2.9279247839448033 : SURFACE LATITUDE
SLON .WGS84  6.651475515573011 : SURFACE LONGITUDE
DATUM.F                2996.89 : DEPTH DATUM ELEV
~Curve Information -----------------------------------------
DEPT.F     : 
AT10.OHMM  : 10-IN. RESISTIVITY, 2-FT RESOLUTION
AT30.OHMM  : 30-IN. RESISTIVITY, 2-FT RESOLUTION
AT90.OHMM  : 90-IN. RESISTIVITY, 2-FT RESOLUTION
SPR .MV    : SPONTANEOUS POTENTIAL FROM RES.
GRD .GAPI  : GAMMA RAY FROM DENSITY LOG
HCAL.IN    : HILT CALIPER FROM DENSITY LOG
PEFZ.B/E   : HILT PHOTOELECTRIC FACTOR
HDRA.G/C3  : DELTA RHO HIP TOOL
DPHZ.DEC   : DENSITY POROSITY LIMESTONE
TNPH.DEC   : THERMAL NEUTRON POROSITY LIMESTONE
RHOZ.G/C3  : HILT BULK DENSITY
DTCO.US/F  : COMPRESSIONAL-WAVE INTERVAL TRANSIT TIME ACAUSTIC SLOWNESS
DTSM.US/F  : SHEAR-WAVE INTERVAL TRANSIT TIME DELTA-T
~Params ----------------------------------------------------
~Other -----------------------------------------------------
~ASCII -----------------------------------------------------
# ...
 5039.00000   64.91970  149.33120  184.59880  -30.22360   21.18610    9.32490    3.46250   -0.00560    0.00520    0.14700    2.70320   50.58750   94.31480
 5039.50000   73.59350  149.18250  147.21480  -30.21750   17.54740    9.32510    3.43220    0.00240    0.01580    0.15630    2.69230   50.50980   93.95220
 5040.00000  237.22480  197.10300  153.73180  -30.21150   13.90880    9.32520    3.46220    0.00650    0.02860    0.15910    2.66690   50.61880   93.37310
 5040.50000  254.34150  246.12940  184.89040  -30.80970   11.63380    9.32540    3.46210    0.01000    0.02690    0.15290    2.65410   50.78150   93.98810
 5041.00000  280.39960  260.15720  179.81160  -30.80360   11.17700    9.32550    3.55260    0.01100    0.01870    0.15250    2.64870   50.39900   94.00600
 5041.50000  402.82340  274.98440  186.05580  -30.79760   12.08380    9.32570    3.58260    0.00900    0.01700    0.15810    2.64840   50.21740   94.02720
 5042.00000  503.42840  303.02600  220.12610  -30.79150   14.80880    9.32580    3.58250    0.00090    0.03580    0.16350    2.65460   50.15760   93.44760
 5042.50000  489.59260  362.95330  328.58710  -30.78550   17.07920    9.29560    3.58230   -0.00720    0.03750    0.16400    2.67030   50.15920   93.46510
 5043.00000  496.46230  566.04650  389.62110  -30.77950   20.71330    9.29430    3.43110   -0.01330    0.02200    0.14570    2.68520   50.28970   92.88550
 5043.50000  555.00610  606.68130  535.94340  -30.77340   22.07470    9.26550    3.29300   -0.01830    0.00360    0.11880    2.69530   50.43090   92.90300
 5044.00000  517.65520  573.80500  593.59430  -30.76740   22.52730    9.23530    3.21930   -0.02040   -0.01310    0.10510    2.70430   50.43230   92.32240
 5044.50000  317.86320   85.53780  396.38460  -30.76130   19.34280    9.20500    3.21920   -0.02340   -0.02590    0.08510    2.72140   49.82390   91.74330
 5045.00000   95.16630   91.67760   89.72540  -30.75530   17.52240    9.14440    3.24920   -0.01880   -0.02470    0.08110    2.74570   48.64150   90.56730
 5045.50000  444.09390  428.43610  156.09910  -30.74920   16.61100    9.14450    3.24910   -0.01740   -0.03090    0.08060    2.76060   49.00160   89.98780
 5046.00000  370.51530  324.46060  425.17950  -30.74320   16.60870    9.14470    3.24890   -0.01990   -0.03870    0.08060    2.77080   49.36160   90.00600
 5046.50000  221.26000  281.49620  337.42660  -30.73720   16.60650    9.14480    3.24880   -0.01790   -0.04110    0.08000    2.77690   49.45270   90.02390
 5047.00000  132.93500  112.85560  226.11500  -30.73110   15.24060    9.14500    3.24860   -0.00780   -0.03380    0.08010    2.77650   49.36430   89.92810
 5047.50000  414.20720  190.47890  130.51520  -30.72510   13.42010    9.14470    3.24850   -0.00320   -0.02840    0.08120    2.76320   49.18620   89.46060
 5048.00000  421.81920  407.94890  419.19690  -30.71900   10.23600    9.11490    3.24830   -0.00070   -0.03390    0.08180    2.76210   49.09780   89.30590
 5048.50000  375.71410  362.48990  406.84580  -30.71310    8.41550    9.11500    3.30860    0.00180   -0.04350    0.08310    2.78400   49.18890   88.89850
 5049.00000  169.79530  164.00120  325.42210  -31.31120    7.50420    9.11520    3.30850    0.00380   -0.05740    0.09120    2.81270   49.10040   88.91940
 5049.50000  174.59370  120.25110   90.92370  -32.51360    7.04740    9.11550    3.30830    0.00380   -0.06040    0.09680    2.81620   49.19150   89.53430
 5050.00000  165.12880  110.95530  120.03570  -32.50760    6.59050    9.14590    3.36860    0.00380   -0.04830    0.10440    2.76950   49.64130   89.55220
 5050.50000   91.11610   90.91310  118.37150  -33.10570    7.95190    9.17640    3.36840    0.00170   -0.02360    0.11360    2.74680   49.82560   90.16720
 5051.00000  102.81910  107.06470   94.77330  -33.09970    8.40450    9.20700    3.36830   -0.00530   -0.01210    0.11750    2.73370   50.00270   90.78560
 5051.50000  224.36460  206.19530  139.82500  -33.09360    8.85640    9.20710    3.42860   -0.01240   -0.00420    0.11910    2.72290   50.11520   91.99700
 5052.00000  212.20160  190.89100  218.08020  -33.08750    9.76320    9.20730    3.42880   -0.01390    0.00240    0.12530    2.70980   50.39270   92.61150
 5052.50000   93.26400  157.27360  174.60440  -33.08150   11.12460    9.20740    3.45850   -0.01700    0.00660    0.13530    2.69810   50.65240   92.62900
 5053.00000   97.24520  165.93520  158.41370  -33.07540   13.39510    9.20760    3.48850   -0.01390    0.00780    0.14690    2.68650   51.26050   93.24350
 5053.50000  240.55340  220.87220  167.45380  -33.06930   15.21100    9.20780    3.48840   -0.00690    0.01690    0.16440    2.67260   51.90390   93.85790
 5054.00000  215.17910  190.68200  206.23510  -32.45910   13.84500    9.20790    3.48740    0.00020    0.02840    0.20700    2.66260   52.48980   94.47240
 5054.50000  133.23200  243.18520  197.80290  -31.84880   11.11550    9.20810    3.45790    0.00220    0.03020    0.18520    2.66030   52.61300   95.08690
 5055.00000  300.63150  323.65310  195.06050  -31.23850    8.38590    9.20820    3.45770   -0.00180    0.02720    0.17330    2.66330   52.48880   95.10450
 5055.50000  289.26930  150.28560  174.53140  -31.23240    7.92910    9.20840    3.45760   -0.00640    0.02170    0.15120    2.67410   52.30730   95.12240
 5056.00000  240.45400  136.34280  132.18420  -30.62210    8.38180    9.20850    3.48760   -0.00130    0.01930    0.13600    2.69090   52.12560   95.14030
 5056.50000  230.70510  238.08010  151.87320  -30.61600    7.47000    9.17830    3.55050    0.00170   -0.00490    0.12470    2.71190   51.99060   94.55970
 5057.00000  228.87290  308.43380  283.75540  -30.61000    7.92230    9.17840    3.63840   -0.00190   -0.01640    0.10780    2.73520   51.99190   94.57910
 5057.50000  222.22920  219.71910  261.04460  -30.60390    9.73820    9.17860    3.60650   -0.00290   -0.02540    0.10670    2.74800   51.81420   94.59700
 5058.00000   98.60970  123.15780  153.96550  -30.59790   13.82680    9.17870    3.54580    0.00920   -0.02540    0.10900    2.75300   51.54640   94.61490
 5058.50000  124.35720  104.92310   98.39780  -30.59180   15.18820    9.20930    3.51540    0.01930   -0.02720    0.11440    2.73740   51.45790   94.63280
 5059.00000  234.26970  121.68840  113.40520  -31.19000   17.61290    9.20940    3.48490    0.02180   -0.02660    0.12130    2.70980   51.54910   94.65080
 5059.50000  255.54590  125.68410  124.97840  -31.78810   21.11030    9.20960    3.42420    0.01470   -0.01640    0.13320    2.69160   51.72980   94.66870
 5060.00000  138.83210  120.60020  125.20500  -32.38670   24.72720    9.20970    3.39580    0.00060    0.00660    0.13760    2.68590   52.00010   94.68660
 5060.50000   73.73380   98.95440   88.29680  -32.38020   24.72490    9.20990    3.52070   -0.00450    0.01440    0.13430    2.68190   52.27050   94.70450
 5061.00000  116.47900   71.79310   68.75710  -32.37420   22.44990    9.21000    3.66960   -0.00700   -0.00010    0.13220    2.69830   52.36150   94.72560
 5061.50000  127.71430   65.59870   65.03610  -32.97230   21.95860    9.21020    3.72760   -0.00340   -0.00790    0.13910    2.72290   52.36280   94.74300
 5062.00000   78.90360   62.60010   62.37700  -32.36210   21.99090    9.21030    3.72510    0.00360   -0.01760    0.15050    2.73370   52.27440   94.76050
 5062.50000   86.63730   59.22080   59.82670  -32.35600   22.89760    9.21050    3.59380    0.00760   -0.01640    0.16010    2.74490   52.27580   94.77790
 5063.00000  104.26180   56.59030   55.80830  -32.34990   23.80450    9.21060    3.35940    0.01220   -0.00670    0.16120    2.72950   52.18740   94.79540
 5063.50000   88.57660   67.78980   54.27530  -32.34390   24.25670    9.24120    3.27390    0.01920    0.00660    0.15890    2.70550   52.18880   95.40990
 5064.00000   73.03910   72.01470   55.03070  -32.33780   25.61810    9.24130    3.27370    0.02530    0.01500    0.15260    2.68400   52.29050   95.42730
 5064.50000   96.93920   68.72570   64.11200  -32.33170   26.97940    9.24150    3.30380    0.02880    0.02410    0.15150    2.67430   52.37090   95.44480
