~Version ---------------------------------------------------
VERS.   2.0 : CWLS log ASCII Standard -VERSION 2.0
WRAP.    NO : One line per depth step
DLM . SPACE : Column Data Section Delimiter
~Well ------------------------------------------------------
STRT .F                  177.0 : START DEPTH
STOP .F                 8248.0 : STOP DEPTH
STEP .F                    0.5 : STEP
NULL .                -9999.25 : NULL VALUE
COMP .                         : COMPANY
WELL .                         : WELL
FLD  .                         : FIELD
LOC  .                         : LOCATION
PROV .                         : PROVINCE
CNTY .                         : COUNTY
STAT .                         : STATE
CTRY .                         : COUNTRY
SRVC .                         : SERVICE COMPANY
DATE .                         : DATE
UWI  .                         : UNIQUE WELL ID
API  .                         : API NUMBER
SLAT .WGS84 2.9279247839448033 : SURFACE LATITUDE
SLON .WGS84  6.651475515573011 : SURFACE LONGITUDE
DATUM.F                2996.89 : DEPTH DATUM ELEV
~Curve Information -----------------------------------------
DEPT.F     : 
AT10.OHMM  : 10-IN. RESISTIVITY, 2-FT RESOLUTION
AT30.OHMM  : 30-IN. RESISTIVITY, 2-FT RESOLUTION
AT90.OHMM  : 90-IN. RESISTIVITY, 2-FT RESOLUTION
SPR .MV    : SPONTANEOUS POTENTIAL FROM RES.
GRD .GAPI  : GAMMA RAY FROM DENSITY LOG
HCAL.IN    : HILT CALIPER FROM DENSITY LOG
PEFZ.B/E   : HILT PHOTOELECTRIC FACTOR
HDRA.G/C3  : DELTA RHO HIP TOOL
DPHZ.DEC   : DENSITY POROSITY LIMESTONE
TNPH.DEC   : THERMAL NEUTRON POROSITY LIMESTONE
RHOZ.G/C3  : HILT BULK DENSITY
DTCO.US/F  : COMPRESSIONAL-WAVE INTERVAL TRANSIT TIME ACAUSTIC SLOWNESS
DTSM.US/F  : SHEAR-WAVE INTERVAL TRANSIT TIME DELTA-T
~Params ----------------------------------------------------
~Other -----------------------------------------------------
~ASCII -----------------------------------------------------
# ...
 4753.00000   50.80780   74.68800  100.64210  -34.58290   24.06340    9.47930    3.30910   -0.00690   -0.00660    0.10940    2.73380   54.64450  101.13390
 4753.50000   48.04340   80.03230  117.20970  -34.58900   24.05880    9.43470    3.27900   -0.00920   -0.01690    0.10640    2.74440   54.54920  101.53430
 4754.00000   37.90260   80.00450  107.79130  -34.59500   24.05430    9.43470    3.24900   -0.00700   -0.02050    0.10520    2.74960   54.45380  101.26940
 4754.50000   41.19900   78.87330   93.77150  -34.60110   22.23160    9.45120    3.15850    0.00290   -0.02170    0.10510    2.74850   53.88870   99.45070
 4755.00000   83.83370   77.75810   96.37320  -34.60720   20.86340    9.46500    3.15860    0.01040   -0.01390    0.10940    2.74460   52.86570   97.89100
 4755.50000   95.01470   64.88790   83.83850  -34.61320   19.94980    9.46500    3.18900    0.01720   -0.01210    0.11480    2.73490   52.10490   96.78320
 4756.00000   77.07760   37.73270   44.85070  -34.61930   17.21800    9.48210    3.24960    0.01950   -0.00960    0.13540    2.72220   52.06820   96.19100
 4756.50000   37.86290   24.18270   27.95500  -34.62540   16.75900    9.49540    3.31010    0.01120   -0.00420    0.15050    2.69950   52.06870   96.79480
 4757.00000   24.23690   19.08930   18.41970  -34.02420   18.57260    9.52580    3.28010    0.00130    0.01210    0.16740    2.66720   52.15880   97.39760
 4757.50000   21.08010   15.27950   15.58490  -33.42420   22.20450    9.54330    3.25000   -0.00100    0.02540    0.17770    2.63170   52.33860   99.19450
 4758.00000   20.21280   11.89490   12.82500  -32.82540   24.47270    9.55620    3.15950    0.00130    0.04720    0.19040    2.60580   53.05650  100.39430
 4758.50000   17.09690    9.38950   10.40830  -32.83150   24.01360    9.55620    3.06910    0.01420    0.05440    0.19580    2.59880   55.92690  101.59410
 4759.00000   14.26130    7.41190    8.68500  -32.83760   23.10000    9.55620    2.97860    0.01790    0.06590    0.20070    2.59310   57.48090  103.98810
 4759.50000   13.29870    6.01560    7.55540  -32.23640   24.00450    9.58660    2.94850    0.01560    0.07380    0.20370    2.58900   58.38470  105.27920
 4760.00000    9.12710    5.09050    6.21740  -31.87900   25.36360    9.64740    3.00910    0.01180    0.07500    0.20550    2.58370   58.72650  107.06420
 4760.50000    7.61330    5.70720    4.97620  -31.64240   25.81370    9.64740    3.16030    0.01990    0.07500    0.21090    2.57090   58.82270  108.89600
 4761.00000    6.80880    6.35320    5.25830  -31.64850   25.80910    9.64740    3.16830    0.02090    0.07800    0.22000    2.55560   58.97850  109.98210
 4761.50000    6.43830    5.59070    6.29650  -31.65450   25.79300    9.64740    3.13040    0.01730    0.08220    0.22850    2.53740   59.14140  110.76610
 4762.00000    5.52220    4.74230    5.25400  -31.66060   23.93640    9.64740    3.03990    0.01020    0.09430    0.22860    2.52170   59.60250  111.18810
 4762.50000    4.67100    4.77930    4.63450  -31.66670   22.14030    9.61700    2.97960    0.00620    0.10880    0.22300    2.51190   60.02240  111.19400
 4763.00000    4.93770    5.17610    4.82980  -31.67270   21.70010    9.61700    2.94950    0.00410    0.11430    0.21640    2.53610   60.59470  111.20000
 4763.50000    5.51880    6.42530    5.62480  -31.32960   24.04820    9.61700    3.01010    0.01320    0.10520    0.20610    2.55590   60.68480  111.20600
 4764.00000    6.80020   11.39840    8.29580  -31.07880   27.23640    9.58660    3.04050    0.01780    0.08290    0.18500    2.62530   59.96780  111.21190
 4764.50000   13.27090   16.31710   14.05850  -31.08480   30.98540    9.55620    3.16150    0.01670    0.06940    0.17710    2.69460   58.80230  108.83090
 4765.00000   17.05050   21.16650   18.55330  -31.09090   35.43320    9.49540    3.25230    0.01160    0.04820    0.16990    2.71220   57.90590  106.44860
 4765.50000   23.81660   30.56750   34.17430  -30.49090   37.13200    9.43470    3.40350    0.00100    0.02300    0.16810    2.71760   56.74040  104.66340
 4766.00000   41.57640   44.18800   75.40670  -30.49700   35.21820    9.43470    3.61510   -0.00200    0.00020    0.16930    2.72080   55.74700  102.87820
 4766.50000   78.90810   57.83080   70.31750  -30.16510   33.03180    9.43470    3.73610    0.00710   -0.00230    0.16570    2.71440   55.11130  102.28660
 4767.00000   66.74420   62.22540   64.66710  -29.90300   33.18740    9.43470    3.64560    0.01260    0.00270    0.15780    2.70460   54.84420  101.69550
 4767.50000   48.43280   61.18570   43.81000  -29.57530   36.31860    9.43470    3.40410    0.00850    0.00940    0.14270    2.69910   54.65910  101.70150
 4768.00000   32.32640   39.50170   25.83040  -28.70300   38.07880    9.43470    3.28340    0.00100    0.00980    0.12880    2.69640   54.73240  101.70750
 4768.50000   21.87890   19.57730   19.82990  -28.38010   38.92300    9.43470    3.25330   -0.00210    0.00410    0.11790    2.70300   55.07140  101.71340
 4769.00000   20.97880   20.19130   34.55140  -28.10910   37.41880    9.43470    3.37430   -0.00210   -0.00650    0.11610    2.71980   55.21880  101.81050
 4769.50000   21.86980   32.23470   29.64280  -27.50910   36.04200    9.43470    3.40470   -0.00210   -0.00850    0.11730    2.73920   55.12960  102.32180
 4770.00000   23.11850   27.50580   30.04500  -27.51520   34.06060    9.43470    3.40480    0.00040   -0.01420    0.11920    2.75270   54.89980  101.73060
 4770.50000   25.83920   29.15060   34.50820  -27.52120   29.41700    9.43470    3.28420    0.00950   -0.02220    0.11670    2.75540   54.32340  101.73730
 4771.00000   64.80130   40.27780   48.14360  -28.13330   25.38370    9.43470    3.22390    0.01550   -0.03020    0.10770    2.75760   53.78570  101.51670
 4771.50000  116.31960   95.02070  129.03670  -28.13940   21.72790    9.46500    3.25420    0.01750   -0.02940    0.09020    2.75920   52.70990  100.03390
 4772.00000  131.83320  106.49380  107.67150  -28.14550   19.52730    9.46500    3.37520    0.01750   -0.01920    0.08770    2.76040   51.81350   98.18030
 4772.50000  137.43210  114.45910  127.15050  -28.46460   17.78800    9.46500    3.40560    0.01750   -0.02730    0.08770    2.76160   51.36550   95.73110
 4773.00000  139.33350  133.92980  138.15490  -29.07490   15.85980    9.52580    3.37550    0.01340   -0.03070    0.09260    2.76290   51.36390   94.60410
 4773.50000  128.12950  133.82790  123.56340  -29.37580   14.78640    9.55620    3.37570    0.01140   -0.02710    0.10410    2.76290   51.54990   94.60990
 4774.00000   87.93660  113.32200   67.02680  -29.38180   15.90300    9.58660    3.37580    0.01090   -0.01770    0.11180    2.76030   51.73570   95.21280
 4774.50000   53.98560   66.21560   46.04390  -29.38790   16.59600    9.64740    3.37600    0.01950   -0.00240    0.12100    2.75010   51.81570   95.81560
 4775.00000   42.59050   39.01590   36.34350  -29.39390   15.22730    9.67780    3.28550    0.02600    0.01100    0.12950    2.72960   51.83860   97.01540
 4775.50000   35.52660   29.32650   23.94700  -29.40000   16.13240    9.67780    3.25550    0.03050    0.02250    0.14090    2.69930   52.08130   97.61820
 4776.00000   26.50830   17.14730   17.88020  -29.40610   16.37020    9.70820    3.37640    0.02600    0.02310    0.15240    2.68880   52.67370   99.41510
 4776.50000   17.44810   16.16530   16.90670  -29.41210   18.97480    9.73860    3.43700    0.01330    0.02900    0.15790    2.67170   53.25250  101.21670
 4777.00000   17.68920   17.19330   18.62560  -29.41820   19.42900    9.76900    3.43720    0.01180    0.05070    0.16510    2.64140   53.52200  102.44790
 4777.50000   20.04840   19.02380   22.93120  -30.03030   19.75070    9.79940    3.40710    0.00880    0.06490    0.17060    2.60520   54.95740  103.68150
 4778.00000   25.75820   25.56750   29.84530  -30.64240   19.15450    9.86020    3.40730    0.00220    0.07090    0.17240    2.59030   55.76500  104.21490
 4778.50000   47.54310   34.90360   39.93850  -30.64850   18.83180    9.92100    3.40740   -0.00190    0.05160    0.16570    2.59990   55.76550  103.34820
