~Version ---------------------------------------------------
VERS.   2.0 : CWLS log ASCII Standard -VERSION 2.0
WRAP.    NO : One line per depth step
DLM . SPACE : Column Data Section Delimiter
~Well ------------------------------------------------------
STRT .F                  177.0 : START DEPTH
STOP .F                 8248.0 : STOP DEPTH
STEP .F                    0.5 : STEP
NULL .                -9999.25 : NULL VALUE
COMP .                         : COMPANY
WELL .                         : WELL
FLD  .                         : FIELD
LOC  .                         : LOCATION
PROV .                         : PROVINCE
CNTY .                         : COUNTY
STAT .                         : STATE
CTRY .                         : COUNTRY
SRVC .                         : SERVICE COMPANY
DATE .                         : DATE
UWI  .                         : UNIQUE WELL ID
API  .                         : API NUMBER
SLAT .WGS84 2.9279247839448033 : SURFACE LATITUDE
SLON .WGS84  6.651475515573011 : SURFACE LONGITUDE
DATUM.F                2996.89 : DEPTH DATUM ELEV
~Curve Information -----------------------------------------
DEPT.F     : 
AT10.OHMM  : 10-IN. RESISTIVITY, 2-FT RESOLUTION
AT30.OHMM  : 30-IN. RESISTIVITY, 2-FT RESOLUTION
AT90.OHMM  : 90-IN. RESISTIVITY, 2-FT RESOLUTION
SPR .MV    : SPONTANEOUS POTENTIAL FROM RES.
GRD .GAPI  : GAMMA RAY FROM DENSITY LOG
HCAL.IN    : HILT CALIPER FROM DENSITY LOG
PEFZ.B/E   : HILT PHOTOELECTRIC FACTOR
HDRA.G/C3  : DELTA RHO HIP TOOL
DPHZ.DEC   : DENSITY POROSITY LIMESTONE
TNPH.DEC   : THERMAL NEUTRON POROSITY LIMESTONE
RHOZ.G/C3  : HILT BULK DENSITY
DTCO.US/F  : COMPRESSIONAL-WAVE INTERVAL TRANSIT TIME ACAUSTIC SLOWNESS
DTSM.US/F  : SHEAR-WAVE INTERVAL TRANSIT TIME DELTA-T
~Params ----------------------------------------------------
~Other -----------------------------------------------------
~ASCII -----------------------------------------------------
# ...
 7951.00000    8.98040    7.14690    7.11100  -20.04860   74.53690    8.51390    3.20140    0.01740    0.04350    0.11600    2.61000   63.95480  111.97290
 7951.50000    7.92070    5.71970    6.27430  -20.07280   81.07690    8.54360    3.11030    0.01440    0.04590    0.12290    2.56080   65.00480  113.18150
 7952.00000    4.73200    4.39070    5.61330  -20.09710   91.28880    8.57330    2.97400    0.01130    0.05740    0.13600    2.54510   67.51210  116.18100
 7952.50000    4.41250    4.63930    4.43260  -20.12140  100.17250    8.57270    2.82200    0.00830    0.09970    0.15090    2.53360   69.19710  119.18060
 7953.00000    5.21240    5.18210    4.74930  -20.14570  105.21330    8.57210    2.71610    0.00670    0.10460    0.15770    2.52720   69.90920  120.38920
 7953.50000    5.50880    5.03760    5.30480  -20.17000  106.39550    8.57140    2.68460    0.00470    0.10400    0.15650    2.52240   70.28210  121.59770
 7954.00000    3.73010    4.14520    4.74600  -20.19430  103.57260    8.57080    2.69870    0.00320    0.10940    0.15270    2.51680   70.46760  122.80620
 7954.50000    3.15550    3.31750    3.59500  -20.21850   91.36030    8.57020    2.71360    0.00460    0.11430    0.14850    2.53230   70.24070  122.20950
 7955.00000    3.06780    3.21670    3.12830  -20.24280   82.79400    8.56960    2.75780    0.00460    0.11310    0.14250    2.54680   69.79400  120.94630
 7955.50000    3.15330    3.37770    3.04160  -20.26710   78.02980    8.56900    2.89250    0.00690    0.10370    0.13580    2.55580   68.89890  119.26760
 7956.00000    4.40170    4.06790    4.06870  -20.29140   78.38140    8.56840    2.93780    0.01360    0.09100    0.13160    2.55910   67.55540  118.68510
 7956.50000    4.52440    4.32150    4.35940  -20.92170   82.21310    8.56780    2.95290    0.02110    0.08450    0.12920    2.54840   67.10870  118.70150
 7957.00000    4.52280    4.50240    4.48050  -20.95010   85.39080    8.59750    2.93790    0.02400    0.09680    0.12870    2.52490   68.36610  118.71640
 7957.50000    4.77990    4.79480    5.00460  -20.97030   91.55830    8.59690    2.89280    0.02100    0.10710    0.13420    2.50780   69.35440  118.95480
 7958.00000    5.41560    5.29120    5.28820  -20.99460   92.34550    8.59630    2.78570    0.01490    0.11430    0.14940    2.49940   70.34270  120.79560
 7958.50000    5.80390    5.47660    5.58800  -21.01890   91.70670    8.59570    2.71050    0.00880    0.12340    0.15890    2.49390   71.15160  122.04000
 7959.00000    3.87550    3.80560    3.68450  -21.04310   90.16350    8.62540    2.64770    0.00580    0.12710    0.15900    2.50440   71.69790  122.35820
 7959.50000    2.93320    2.91060    2.90950  -21.06740   88.17090    8.62480    2.61690    0.00880    0.12650    0.15590    2.52160   71.96230  121.18190
 7960.00000    2.89160    2.81160    2.79000  -21.69780   84.81890    8.59380    2.61630    0.00800    0.12280    0.15170    2.53790   69.92450  118.80840
 7960.50000    2.85070    2.79430    2.78900  -21.72210   82.00910    8.59320    2.61570    0.00570    0.11800    0.14500    2.55230   68.22350  117.62890
 7961.00000    3.41460    3.67540    3.11520  -22.35240   79.38900    8.59260    2.65930    0.00330    0.10470    0.13680    2.56840   67.62150  117.64340
 7961.50000    5.18160    4.69040    4.40490  -22.37670   75.77000    8.59200    2.80750    0.00790    0.08420    0.12940    2.57690   67.07660  118.85190
 7962.00000    5.95300    5.55090    5.65230  -21.79390   73.74460    8.56110    3.03190    0.01240    0.07640    0.12650    2.57790   66.85890  118.86640
 7962.50000    4.38180    4.63230    4.71800  -21.21310   75.00000    8.56050    3.05260    0.01310    0.07520    0.12620    2.57490   67.51110  119.47790
 7963.00000    4.08590    4.16810    4.27990  -21.23740   78.11250    8.55990    3.00800    0.01370    0.07760    0.12870    2.55950   68.48790  119.50330
 7963.50000    3.91750    4.05080    4.16140  -21.26170   83.67850    8.55930    2.84270    0.01230    0.08480    0.14020    2.52630   69.36570  120.10450
 7964.00000    3.90610    3.99300    4.10260  -20.67990   89.94510    8.55880    2.68840    0.00770    0.09930    0.14780    2.51630   70.10220  120.71640
 7964.50000    4.19680    4.04690    4.04470  -20.09810   97.17370    8.55820    2.62750    0.00470    0.11020    0.15300    2.52810   69.76680  120.13290
 7965.00000    4.62450    4.09810    4.21510  -19.51640  101.20440    8.55760    2.63750    0.00610    0.11080    0.15720    2.54260   68.48460  119.99940
 7965.50000    4.88740    4.50970    4.45410  -18.93330   99.04310    8.55700    2.77420    0.00980    0.10900    0.15450    2.55440   67.85860  118.96790
 7966.00000    5.16530    5.14420    4.70650  -18.35280   92.40040    8.55640    2.87770    0.01430    0.09270    0.14450    2.56000   67.50160  117.19140
 7966.50000    5.30920    5.33260    4.97330  -17.77100   88.02760    8.55580    2.91060    0.01810    0.08730    0.13310    2.55850   67.32380  116.86540
 7967.00000    5.09040    5.07170    5.25520  -17.79530   89.69290    8.55520    2.89660    0.01880    0.08610    0.12950    2.53510   67.86380  118.39750
 7967.50000    4.30620    4.45600    4.63690  -17.21210   97.70420    8.55450    2.83560    0.01800    0.09030    0.13080    2.51950   68.76250  119.35350
 7968.00000    4.12870    4.26360    4.32470  -17.23780  103.16590    8.55390    2.78790    0.01490    0.10430    0.14150    2.51720   69.48170  120.24170
 7968.50000    5.15630    5.02900    5.10610  -16.65600  105.62200    8.52300    2.74380    0.01410    0.11090    0.14640    2.52110   70.11130  120.85320
 7969.00000    5.60330    5.40760    5.54730  -16.68030  102.96380    8.50680    2.66590    0.01410    0.11030    0.14600    2.53190   70.38210  121.46470
 7969.50000    4.54630    5.01540    4.82720  -16.70460   98.39820    8.47610    2.66530    0.01330    0.10550    0.14480    2.53990   70.37920  120.28520
 7970.00000    4.48190    4.57440    4.50210  -16.72890   96.99930    8.46060    2.72110    0.01200    0.10130    0.14360    2.53470   70.10760  119.70150
 7970.50000    4.80310    5.01310    4.69180  -16.75320   98.31690    8.42970    2.81100    0.01800    0.09700    0.14320    2.52170   69.84920  119.12020
 7971.00000    5.67390    5.75330    5.61700  -16.77750  102.08160    8.41440    2.88790    0.02200    0.09630    0.14400    2.51580   69.97600  119.73170
 7971.50000    6.16570    6.07790    6.10230  -16.19570  106.55550    8.38380    2.90450    0.02290    0.10310    0.14830    2.51340   70.45680  120.34810
 7972.00000    6.42620    6.33230    6.35940  -16.22000  111.23600    8.36730    2.86080    0.01940    0.11100    0.15920    2.51190   71.03640  121.55220
 7972.50000    6.79160    7.02460    7.10330  -16.24430  109.95470    8.35280    2.79990    0.01630    0.11520    0.16690    2.52800   71.83190  121.49270
 7973.00000    7.58860    8.16190    8.15730  -16.26850  106.99010    8.33580    2.73890    0.01730    0.11280    0.16740    2.56580   72.27980  120.27900
 7973.50000    7.86940    8.57880    8.26350  -15.68680  101.40390    8.30480    2.69060    0.02180    0.10500    0.16510    2.61930   71.59750  118.34580
 7974.00000    6.69080    8.29270    6.71290  -15.71100   94.96170    8.29110    2.67250    0.02270    0.09830    0.16180    2.64340   69.87950  114.44560
 7974.50000    6.06780    6.92560    6.17470  -15.12730   83.26900    8.26050    2.74490    0.02270    0.08990    0.15380    2.65730   66.92060  114.46270
 7975.00000   11.66450    5.99360    6.43480  -14.54750   77.72860    8.24240    2.96820    0.02270    0.07780    0.14130    2.66060   66.42010  113.98030
 7975.50000   14.77180    8.57750   11.51850  -14.57180   73.41310    8.21150    3.25210    0.02410    0.05790    0.12540    2.65070   66.81830  112.70150
 7976.00000   17.94210   16.05530   17.45690  -14.59610   74.19970    8.18060    3.51060    0.02260    0.03430    0.11650    2.62400   66.01280  114.22880
 7976.50000   10.57100   10.64410   14.98140  -14.01430   77.35360    8.18000    3.60580    0.02110    0.03290    0.11560    2.58770   65.56620  116.91340
