~Version ---------------------------------------------------
VERS.   2.0 : CWLS log ASCII Standard -VERSION 2.0
WRAP.    NO : One line per depth step
DLM . SPACE : Column Data Section Delimiter
~Well ------------------------------------------------------
STRT .F                  177.0 : START DEPTH
STOP .F                 8248.0 : STOP DEPTH
STEP .F                    0.5 : STEP
NULL .                -9999.25 : NULL VALUE
COMP .                         : COMPANY
WELL .                         : WELL
FLD  .                         : FIELD
LOC  .                         : LOCATION
PROV .                         : PROVINCE
CNTY .                         : COUNTY
STAT .                         : STATE
CTRY .                         : COUNTRY
SRVC .                         : SERVICE COMPANY
DATE .                         : DATE
UWI  .                         : UNIQUE WELL ID
API  .                         : API NUMBER
SLAT .WGS84 2.9279247839448033 : SURFACE LATITUDE
SLON .WGS84  6.651475515573011 : SURFACE LONGITUDE
DATUM.F                2996.89 : DEPTH DATUM ELEV
~Curve Information -----------------------------------------
DEPT.F     : 
AT10.OHMM  : 10-IN. RESISTIVITY, 2-FT RESOLUTION
AT30.OHMM  : 30-IN. RESISTIVITY, 2-FT RESOLUTION
AT90.OHMM  : 90-IN. RESISTIVITY, 2-FT RESOLUTION
SPR .MV    : SPONTANEOUS POTENTIAL FROM RES.
GRD .GAPI  : GAMMA RAY FROM DENSITY LOG
HCAL.IN    : HILT CALIPER FROM DENSITY LOG
PEFZ.B/E   : HILT PHOTOELECTRIC FACTOR
HDRA.G/C3  : DELTA RHO HIP TOOL
DPHZ.DEC   : DENSITY POROSITY LIMESTONE
TNPH.DEC   : THERMAL NEUTRON POROSITY LIMESTONE
RHOZ.G/C3  : HILT BULK DENSITY
DTCO.US/F  : COMPRESSIONAL-WAVE INTERVAL TRANSIT TIME ACAUSTIC SLOWNESS
DTSM.US/F  : SHEAR-WAVE INTERVAL TRANSIT TIME DELTA-T
~Params ----------------------------------------------------
~Other -----------------------------------------------------
~ASCII -----------------------------------------------------
# ...
 6079.00000 1566.02420  324.22970  638.06600   31.91570   21.95920    9.14840    4.45860    0.19180    0.02510    0.03870    2.72800   51.81530   94.33250
 6079.50000  948.88890  144.00660  207.54910   31.92170   25.61580    9.05750    4.49320    0.19940   -0.00760    0.03860    2.65540   51.90760   95.25490
 6080.00000  242.66650  122.45100  142.45290   31.92770   27.81210    8.99700    4.55390    0.19940   -0.01430    0.04110    2.61990   52.11400   96.19880
 6080.50000  543.75410  143.91150  132.84760   32.53610   29.82070    8.93650    4.58040    0.19940    0.01280    0.04840    2.59070   53.03660   96.48360
 6081.00000 1120.83450  216.28540  190.82280   32.46580   28.59550    8.90640    4.52020    0.19940    0.04630    0.04660    2.61400   53.74850   96.49060
 6081.50000  988.78160  307.91980  245.18600   31.94540   23.68130    8.87630    4.48660    0.19940    0.07480    0.04050    2.69030   53.17060   96.49640
 6082.00000  688.55740  347.41530  262.84050   31.95180   20.05360    8.84620    4.46040    0.19950    0.06830    0.03630    2.70970   51.92930   96.50220
 6082.50000  659.26640  296.34960  266.49530   31.95780   15.97360    8.81610    4.55490    0.19950    0.01500    0.03450    2.69620   51.24810   95.91050
 6083.00000  521.16270  248.91590  245.08330   31.96390   16.97970    8.78610    4.61550    0.19950    0.00140    0.03380    2.64670   50.79520   95.31980
 6083.50000  624.39970  363.62480  255.50980   31.96990   24.46580    8.78640    4.64590    0.19950    0.00320    0.04110    2.60660   50.46310   94.72840
 6084.00000  249.23590  210.11430  248.45290   32.03940   28.97270    8.78660    4.60620    0.19950    0.01610    0.04600    2.60070   50.28280   95.92850
 6084.50000  191.31390  127.68960  150.42900   32.58430   30.96650    8.78690    4.48280    0.13740    0.03210    0.05160    2.63400   50.39660   96.53970
 6085.00000  216.80370  147.49540  128.20680   32.59040   29.94000    8.81760    4.36560    0.11220    0.05400    0.05350    2.56620   50.76560   98.32840
 6085.50000  311.24760  301.19360  219.07820   32.59640   19.02550    8.88330    4.27830    0.14500    0.06320    0.05120    2.52260   50.90780   98.93130
 6086.00000 1233.76600  536.86560  377.17650   32.60240   14.77250    9.03500    4.32030    0.19430    0.03960    0.04460    2.48550   50.58870   98.13210
 6086.50000 1979.75020  631.75490  458.35730   32.60840   13.65340    9.09210    4.46590    0.20000    0.03230    0.03820    2.43200   50.36810   96.42000
 6087.00000 1979.47450  649.14580  498.25560   33.21690   14.12770    9.12280    4.52390    0.20000    0.06430    0.03680    2.33730   50.06510   94.60350
 6087.50000 1979.19890  475.29680  471.17890   33.27230   15.04560    9.12310    4.45870    0.20000    0.20080    0.03850    2.33140   49.43990   93.58110
 6088.00000 1397.56370  323.26710  310.15730   33.87950   16.64420    9.12340    4.30820    0.20000    0.23100    0.04200    2.48140   48.90440   93.58810
 6088.50000  383.15770  148.05360  195.80510   34.43980   18.01490    9.09330    4.21810    0.20000    0.20510    0.04680    2.60120   48.72740   93.85720
 6089.00000  255.91190  106.29980  104.58000   34.44580   19.62330    9.07790    4.09990    0.20000    0.10290    0.05110    2.62330   49.53750   94.49130
 6089.50000  117.39820   74.64680   76.95850   35.05420   20.54080    9.06350    4.04200    0.20000    0.04420    0.05440    2.67300   50.79570   95.12610
 6090.00000   86.43120   60.34870   59.87840   35.06020   21.45910    9.06380    4.14490    0.20000    0.05060    0.05820    2.70850   51.69520   96.59820
 6090.50000  131.18340   83.25420   60.71010   35.66870   22.58670    9.06410    4.40700    0.20000    0.04730    0.06310    2.72010   52.50510   97.20100
 6091.00000  159.37150   84.22950   75.86180   35.67470   23.29480    9.03400    4.46770    0.20000    0.00550    0.06600    2.71900   53.04580   98.40080
 6091.50000  102.09320   53.04970   81.32420   35.68070   24.00910    9.00400    4.52660    0.20000   -0.00880    0.06520    2.70460   53.22780   99.00370
 6092.00000   44.92010   19.14740   44.04490   35.68670   24.67460    8.97390    4.52850    0.20000    0.02020    0.05910    2.65930   53.32270   99.00950
 6092.50000   36.34800   16.35120   46.56300   35.69280   25.13700    8.97420    4.55740    0.20000    0.03850    0.05220    2.63030   53.69930   99.01530
 6093.00000  123.99590  367.75780   67.82180   35.09620   25.21000    8.97450    4.58790    0.18070    0.04260    0.04450    2.62740   54.43970   97.23010
 6093.50000   81.67290   86.38390  202.49410   35.10240   24.11830    9.00520    4.61970    0.08520    0.04440    0.03700    2.63350   54.58370   95.44490
 6094.00000  102.02210   95.88660   81.26750   35.10840   22.12170    9.03590    4.68030    0.00840    0.04500    0.02970    2.63980   53.21340   94.25660
 6094.50000  127.44140  129.56660  110.40470   35.11450   20.04560    9.03620    4.74210   -0.00720    0.04710    0.02590    2.64700   52.06590   94.26270
 6095.00000   42.45300   47.60450   77.91860   35.12050   19.51370    9.03650    4.83180   -0.00570    0.04500    0.02400    2.64580   51.26750   94.26870
 6095.50000  107.81570   54.66950   45.88030   34.52400   19.97870    9.03680    4.89150    0.00290    0.03830    0.02770    2.63990   50.74530   94.27460
 6096.00000  387.71510  353.72730  107.32550   35.13250   19.98780    9.04930    4.89100    0.00700    0.03670    0.03330    2.62890   50.35100   94.28060
 6096.50000  657.74800  433.89030  139.83620   35.13860   18.67620    9.06770    4.79940    0.01050    0.03810    0.03480    2.61430   50.43370   94.28660
 6097.00000  319.00660  180.83790  154.14130   35.15630   16.01800    9.03760    4.64960    0.01050    0.05060    0.02710    2.59980   51.13050   94.29250
 6097.50000  256.23560  328.86680   88.26750   35.76240   14.37700    9.03800    4.52970    0.00700    0.06650    0.02370    2.59010   51.64000   94.29850
 6098.00000  167.05830  328.43430   54.95300   36.36970   14.88140    9.03830    4.40880    0.00250    0.07520    0.02330    2.58310   51.87330   93.70750
 6098.50000  113.21090  248.76280   42.75680   36.97570   16.87030    9.03860    4.28850    0.00100    0.07300    0.02510    2.58090   52.00990   94.01550
 6099.00000  159.12350  150.95870   42.55880   37.57830   18.37670    9.03890    4.16810    0.01560    0.06590    0.02810    2.58830   52.06510   94.31640
 6099.50000  451.34600  142.79910   80.02000   37.58550   19.29500    9.04960    4.04770    0.02020    0.06230    0.03150    2.61110   52.10540   94.32350
 6100.00000 1207.60380  242.09520  154.01230   38.19280   19.60330    9.07740    3.98790    0.05200    0.04870    0.03290    2.62810   52.07150   94.22210
 6100.50000 1661.80820  290.01310  230.66760   38.68970   16.01700    9.12270    4.25990    0.10250    0.01690    0.02140    2.64600   51.82640   93.90110
 6101.00000 1891.31870  347.41530  284.24800   39.18650   12.94380    9.16050    4.53180    0.20000   -0.01500    0.01560    2.71660   51.19600   93.16340
 6101.50000 1750.83800  367.26680  304.71510   39.68340   13.67780    9.16020    4.59090    0.20000   -0.04690    0.02150    2.79970   50.82970   93.77610
 6102.00000 1280.09280  282.06630  313.28260   40.18030   18.23710    9.12950    4.54970    0.20000   -0.06920    0.02940    2.81030   50.50030   94.51610
 6102.50000  827.00460  190.82780  272.49670   40.67720   20.06080    9.12920    4.52950    0.20000   -0.06800    0.03540    2.81610   51.27530   95.00000
 6103.00000  274.54770  127.50530  156.04260   41.18670   20.97260    9.12890    4.58060    0.20000   -0.05770    0.03660    2.81900   52.58860   95.01490
 6103.50000  332.01150   87.59540   99.89330   40.58120   20.97260    9.12860    4.74210    0.20000   -0.04320    0.03610    2.75090   52.99210   95.02990
 6104.00000  903.41930  154.77130  160.40760   40.57820   20.06080    9.12830    4.87130    0.20000   -0.01880    0.03180    2.64050   53.45160   95.89660
 6104.50000 1544.92760  265.97060  261.19480   41.17760   16.41340    9.12800    4.93140    0.20000    0.02030    0.02880    2.55940   54.08430   97.13730
