~Version ---------------------------------------------------
VERS.   2.0 : CWLS log ASCII Standard -VERSION 2.0
WRAP.    NO : One line per depth step
DLM . SPACE : Column Data Section Delimiter
~Well ------------------------------------------------------
STRT .F                  177.0 : START DEPTH
STOP .F                 8248.0 : STOP DEPTH
STEP .F                    0.5 : STEP
NULL .                -9999.25 : NULL VALUE
COMP .                         : COMPANY
WELL .                         : WELL
FLD  .                         : FIELD
LOC  .                         : LOCATION
PROV .                         : PROVINCE
CNTY .                         : COUNTY
STAT .                         : STATE
CTRY .                         : COUNTRY
SRVC .                         : SERVICE COMPANY
DATE .                         : DATE
UWI  .                         : UNIQUE WELL ID
API  .                         : API NUMBER
SLAT .WGS84 2.9279247839448033 : SURFACE LATITUDE
SLON .WGS84  6.651475515573011 : SURFACE LONGITUDE
DATUM.F                2996.89 : DEPTH DATUM ELEV
~Curve Information -----------------------------------------
DEPT.F     : 
AT10.OHMM  : 10-IN. RESISTIVITY, 2-FT RESOLUTION
AT30.OHMM  : 30-IN. RESISTIVITY, 2-FT RESOLUTION
AT90.OHMM  : 90-IN. RESISTIVITY, 2-FT RESOLUTION
SPR .MV    : SPONTANEOUS POTENTIAL FROM RES.
GRD .GAPI  : GAMMA RAY FROM DENSITY LOG
HCAL.IN    : HILT CALIPER FROM DENSITY LOG
PEFZ.B/E   : HILT PHOTOELECTRIC FACTOR
HDRA.G/C3  : DELTA RHO HIP TOOL
DPHZ.DEC   : DENSITY POROSITY LIMESTONE
TNPH.DEC   : THERMAL NEUTRON POROSITY LIMESTONE
RHOZ.G/C3  : HILT BULK DENSITY
DTCO.US/F  : COMPRESSIONAL-WAVE INTERVAL TRANSIT TIME ACAUSTIC SLOWNESS
DTSM.US/F  : SHEAR-WAVE INTERVAL TRANSIT TIME DELTA-T
~Params ----------------------------------------------------
~Other -----------------------------------------------------
~ASCII -----------------------------------------------------
# ...
 7145.00000  110.02940   82.03390   86.47160  -12.66700   34.59020    7.98940    4.58460    0.00620    0.05750    0.09390    2.64440   60.96860  108.15300
 7145.50000  110.02180   80.89090   83.96100  -12.67310   30.45380    7.98890    4.52340    0.00610    0.04610    0.08980    2.64830   60.88070  107.57650
 7146.00000  116.31010   71.37410   79.26540  -12.07310   31.51790    7.98850    4.46220    0.00610    0.03820    0.08690    2.64900   60.88270  107.59700
 7146.50000  104.05160   64.75120   72.14240  -12.68520   32.95390    7.98800    4.55210    0.00600    0.03810    0.08600    2.64100   60.88450  107.61760
 7147.00000   89.27980   64.74210   69.20270  -12.08480   34.38730    7.98760    4.70240    0.00150    0.04430    0.08790    2.62120   60.88620  108.83210
 7147.50000   88.04020   64.73310   68.28310  -12.09130   37.10290    7.98710    4.91310   -0.00760    0.05340    0.09190    2.61250   60.97770  110.64370
 7148.00000   95.69830   67.47850   68.30250  -12.09740   40.27120    8.01700    4.97280   -0.01070    0.05760    0.09610    2.60860   61.15880  110.66420
 7148.50000   97.03340   73.33380   69.26520  -11.49740   42.91080    8.01650    4.85120   -0.00620    0.05830    0.09720    2.60300   61.33990  110.68470
 7149.00000  116.26150   77.51330   71.19700  -11.50350   43.65530    8.01610    4.72960   -0.00470    0.06250    0.09510    2.59880   61.43700  110.70520
 7149.50000  117.88350   80.80070   75.22490  -12.11560   42.27920    8.01560    4.69860   -0.00480    0.06680    0.09420    2.59930   61.71270  110.72570
 7150.00000  111.49320   84.22760   76.27030  -12.12170   37.12030    8.01520    4.69780   -0.00780    0.05950    0.09370    2.61260   62.09290  110.14920
 7150.50000  105.45060   84.61740   73.15650  -12.12780   36.80980    8.01470    4.69710   -0.01090    0.05170    0.09520    2.62390   62.17840  110.17010
 7151.00000   99.73550   84.20410   70.16980  -12.13390   37.70980    8.04450    4.69630   -0.01390    0.04810    0.09730    2.62890   62.06640  110.19100
 7151.50000  102.54250   81.88540   67.30510  -12.13990   36.64500    8.04410    4.69550   -0.01400    0.04690    0.09820    2.62650   62.33720  110.27740
 7152.00000  101.11870   79.63050   66.37330  -12.14600   34.89080    8.04360    4.69480   -0.01100    0.04990    0.09860    2.61760   62.52560  110.82980
 7152.50000   94.31690   75.31580   66.36870  -12.15210   34.50070    8.04320    4.66380   -0.00660    0.06380    0.09590    2.59700   62.80580  111.44780
 7153.00000   80.92710   74.26640   67.29110  -11.55150   37.11880    8.04270    4.57240   -0.00360    0.06990    0.09470    2.59630   63.16270  111.46870
 7153.50000   79.80340   73.23160   68.22620  -10.95210   40.53270    8.04230    4.51120    0.00090    0.06510    0.09410    2.59850   63.45550  112.23970
 7154.00000   95.61830   75.28430   69.17430  -10.95820   42.27000    8.04180    4.45010    0.00230    0.06310    0.09570    2.59650   63.80330  113.30150
 7154.50000   94.29060   76.32890   70.13560   -9.75220   42.19090    8.04130    4.44930    0.00080    0.07060    0.10170    2.58920   64.10560  113.32240
 7155.00000   87.94820   75.68740   69.16470   -9.75820   41.27270    8.04090    4.44850   -0.00680    0.07900    0.10810    2.58070   64.23320  113.94030
 7155.50000   84.34700   72.41920   68.20720   -9.15760   41.78570    8.01010    4.44780   -0.00830    0.07910    0.11260    2.57690   64.01960  114.20210
 7156.00000   78.67340   65.82900   67.26290   -8.55830   42.61890    8.00970    4.44700   -0.00240    0.07910    0.11660    2.57380   63.96770  114.57910
 7156.50000   70.38160   71.16750   63.62810   -8.56430   42.08890    8.00920    4.44630    0.00660    0.08330    0.11980    2.57470   64.14980  115.48190
 7157.00000   54.78580   59.83500   59.36060   -8.57040   40.71620    8.00880    4.41530    0.01260    0.08150    0.12440    2.58790   64.60910  115.81490
 7157.50000   49.01160   59.15920   56.07610   -8.57650   39.40910    8.00830    4.38430    0.02760    0.07190    0.12640    2.60000   64.96000  115.83580
 7158.00000   68.43590   65.17320   62.73850   -8.58260   39.85520    8.00780    4.38360    0.03060    0.06220    0.12070    2.60470   65.05140  115.85670
 7158.50000   75.43200   69.82880   66.31330   -8.58860   39.39090    8.00740    4.35260    0.02900    0.06100    0.11900    2.60280   65.05320  115.88150
 7159.00000   74.38360   74.24800   69.12650   -8.59470   39.38180    8.00690    4.35180    0.02150    0.06590    0.12390    2.59210   65.05490  116.49900
 7159.50000   64.71780   73.03570   64.48990   -8.60080   39.94960    8.00650    4.32090    0.01390    0.07680    0.13170    2.56800   64.96680  116.51950
 7160.00000   56.15700   66.65400   54.59750   -8.60690   44.39200    8.03630    4.25970    0.01080    0.08470    0.13230    2.57030   64.34090  116.54010
 7160.50000   56.46340   52.33520   55.35620   -8.61290   49.35510    8.03590    4.22870    0.00930    0.08230    0.12810    2.57550   63.89420  116.56060
 7161.00000   68.65730   52.78250   60.15630   -8.61900   47.46790    8.00510    4.19780    0.00170    0.07860    0.12630    2.57970   64.34440  116.58110
 7161.50000   79.71560   57.72800   60.28150   -8.62510   46.09670    8.00460    4.19700   -0.00590    0.07320    0.12650    2.58150   65.33670  117.19860
 7162.00000   62.00730   53.67420   48.84940   -8.02510   45.23690    8.03450    4.16600   -0.01040    0.07140    0.12820    2.58140   65.61020  117.81620
 7162.50000   47.63260   43.69570   43.11340   -8.03120   48.75000    8.00370    4.16530   -0.00140    0.07330    0.13280    2.58020   65.81820  119.03070
 7163.00000   42.52430   41.04240   41.35320   -7.43120   53.73490    8.00330    4.10410    0.00610    0.07870    0.13940    2.57270   66.49340  119.05120
 7163.50000   42.02200   40.74830   40.78070   -7.43730   58.72580    7.97250    4.04290    0.01050    0.08900    0.14660    2.57010   67.39500  119.66870
 7164.00000   42.01910   42.15570   40.77790   -7.44340   61.10960    7.97210    4.01210    0.01200    0.08360    0.15230    2.57380   67.90320  120.88360
 7164.50000   43.99270   44.57140   43.10140   -7.44940   57.19340    7.97160    4.01130    0.01040    0.08000    0.14560    2.57370   68.21350  120.90450
 7165.00000   50.54820   45.81650   45.55720   -7.45550   53.15370    7.97110    4.01060    0.00890    0.08850    0.13540    2.56780   68.30460  120.98470
 7165.50000   58.42400   47.09570   46.83550   -7.46160   50.01560    7.97070    4.02720    0.00730    0.09090    0.13360    2.56170   67.87000  121.54330
 7166.00000   65.81160   46.20750   46.83220   -7.46770   47.43690    7.97020    4.06950    0.00580    0.08850    0.13500    2.55970   67.41420  121.56420
 7166.50000   50.06470   43.44520   44.92030   -7.47370   50.45760    7.96980    4.08560    0.01030    0.08610    0.13610    2.56210   67.09610  121.58510
 7167.00000   44.68300   41.02780   43.68820   -7.47980   55.29700    7.96930    4.11480    0.01170    0.08610    0.13610    2.56450   66.87750  121.00640
 7167.50000   43.18370   39.58780   40.75800   -7.48590   57.96290    7.96890    4.14400    0.01020    0.08670    0.13420    2.56450   66.78920  121.02980
 7168.00000   56.22800   41.69010   39.64010   -7.49200   58.76410    7.96840    4.17320    0.00860    0.08740    0.13310    2.56450   66.79130  120.26260
 7168.50000   68.95230   45.64960   41.89870   -7.49800   58.15860    7.96790    4.20240    0.00400    0.08500    0.13390    2.56500   66.70340  119.66400
 7169.00000   65.90060   48.62630   48.80180   -8.11020   54.82680    7.96750    4.24620   -0.00800    0.08080    0.13250    2.56830   66.34640  118.70040
 7169.50000   61.92900   51.38820   54.52530   -8.72230   48.36780    7.96700    4.24550    0.00250    0.07230    0.12470    2.57950   65.54090  117.27500
 7170.00000   64.96320   54.00290   56.83870   -9.33440   41.81870    7.96670    4.22960    0.01290    0.06810    0.11970    2.59460   65.09430  115.80160
 7170.50000   71.22980   57.07460   57.62810   -9.94660   39.35610    7.96620    4.18350    0.01740    0.06150    0.11720    2.61200   64.46820  113.69020
