~Version ---------------------------------------------------
VERS.   2.0 : CWLS log ASCII Standard -VERSION 2.0
WRAP.    NO : One line per depth step
DLM . SPACE : Column Data Section Delimiter
~Well ------------------------------------------------------
STRT .F                  177.0 : START DEPTH
STOP .F                 8248.0 : STOP DEPTH
STEP .F                    0.5 : STEP
NULL .                -9999.25 : NULL VALUE
COMP .                         : COMPANY
WELL .                         : WELL
FLD  .                         : FIELD
LOC  .                         : LOCATION
PROV .                         : PROVINCE
CNTY .                         : COUNTY
STAT .                         : STATE
CTRY .                         : COUNTRY
SRVC .                         : SERVICE COMPANY
DATE .                         : DATE
UWI  .                         : UNIQUE WELL ID
API  .                         : API NUMBER
SLAT .WGS84 2.9279247839448033 : SURFACE LATITUDE
SLON .WGS84  6.651475515573011 : SURFACE LONGITUDE
DATUM.F                2996.89 : DEPTH DATUM ELEV
~Curve Information -----------------------------------------
DEPT.F     : 
AT10.OHMM  : 10-IN. RESISTIVITY, 2-FT RESOLUTION
AT30.OHMM  : 30-IN. RESISTIVITY, 2-FT RESOLUTION
AT90.OHMM  : 90-IN. RESISTIVITY, 2-FT RESOLUTION
SPR .MV    : SPONTANEOUS POTENTIAL FROM RES.
GRD .GAPI  : GAMMA RAY FROM DENSITY LOG
HCAL.IN    : HILT CALIPER FROM DENSITY LOG
PEFZ.B/E   : HILT PHOTOELECTRIC FACTOR
HDRA.G/C3  : DELTA RHO HIP TOOL
DPHZ.DEC   : DENSITY POROSITY LIMESTONE
TNPH.DEC   : THERMAL NEUTRON POROSITY LIMESTONE
RHOZ.G/C3  : HILT BULK DENSITY
DTCO.US/F  : COMPRESSIONAL-WAVE INTERVAL TRANSIT TIME ACAUSTIC SLOWNESS
DTSM.US/F  : SHEAR-WAVE INTERVAL TRANSIT TIME DELTA-T
~Params ----------------------------------------------------
~Other -----------------------------------------------------
~ASCII -----------------------------------------------------
# ...
 6625.00000  137.07390   83.77680  104.58160   15.10000   45.02280    8.33280    4.34290    0.01210    0.02390    0.07780    2.68000   58.48230  105.92000
 6625.50000  200.97050  114.74380  114.94370   14.70880   36.35730    8.33270    4.39500    0.01060    0.01600    0.06100    2.68310   57.22140  105.38990
 6626.00000  277.96840   74.39360   75.89660   14.72290   35.65640    8.36290    4.42430    0.00900    0.01420    0.05470    2.67960   56.18980  104.38210
 6626.50000  254.81550   65.83580   62.26190   14.73490   40.85490    8.36280    4.42330    0.00600    0.03230    0.05380    2.66990   55.53840  101.24580
 6627.00000  127.16760   74.08240   74.62610   14.74700   49.28050    8.38010    4.41500    0.00440    0.03290    0.06290    2.65850   55.33250  101.76260
 6627.50000   85.66390   72.94350   73.28990   14.75900   61.77480    8.41030    4.38390    0.00440    0.03230    0.07050    2.65420   57.02490  105.84950
 6628.00000   66.82830   62.29020   68.09570   15.37350   67.96880    8.42310    4.29970    0.00890    0.03230    0.07590    2.64020   59.17870  108.09070
 6628.50000   86.03750   69.59600   66.75430   15.58670   69.14970    8.45330    4.26140    0.04520    0.04020    0.07830    2.59220   61.06340  108.23230
 6629.00000  188.29590   85.11620   81.95500   16.00000   66.45660    8.48360    4.23750    0.07700    0.04980    0.07890    2.53180   61.87190  106.42980
 6629.50000  277.34730   97.13080   90.87440   16.61450   62.56950    8.50070    4.28090    0.09820    0.05230    0.07920    2.49680   60.88660  105.82210
 6630.00000  172.66880   95.23140   89.44570   17.22890   58.92240    8.53090    4.35660    0.13000    0.05890    0.07800    2.53310   59.90140  105.21430
 6630.50000  140.26570   98.44920  101.11730   17.84340   54.00260    8.57430    4.38590    0.15880    0.11930    0.07490    2.56050   59.09550  105.57350
 6631.00000  187.86230  117.97230  120.72090   17.85540   37.84630    8.60460    4.35470    0.19330    0.12840    0.07010    2.59500   58.45970  106.78500
 6631.50000   68.97740   99.45530   74.67580   17.86750   33.30780    8.62150    4.31670    0.20000    0.10480    0.06500    2.64830   58.19120  107.99650
 6632.00000   42.39490   45.91260   43.94770   17.87950   37.93850    8.63470    4.22520    0.20000    0.05230    0.07050    2.73950   58.11290  108.61110
 6632.50000  159.20280   87.31640  115.35820   17.89160   43.48440    8.63450    4.17070    0.20000   -0.03190    0.07720    2.75270   58.48810  108.03150
 6633.00000  234.70180  178.37650  182.04670   17.90360   45.80080    8.66470    4.25040    0.20000   -0.03230    0.07550    2.75640   59.24460  106.25800
 6633.50000  141.96790  152.84020  131.43170   17.91570   39.52210    8.66460    4.38710    0.20000   -0.02590    0.06380    2.76610   59.37240  105.67840
 6634.00000   91.12560   33.36480   60.49560   17.92770   30.70060    8.68120    4.47020    0.20000   -0.02080    0.05330    2.78300   58.64240  107.48700
 6634.50000  112.75550   68.71390   47.11870   18.54220   26.28650    8.69470    4.49950    0.20000   -0.03970    0.05090    2.79940   58.27380  108.69850
 6635.00000  198.61350   44.67310   49.13010   18.55420   36.60070    8.71130    4.44860    0.20000   -0.04970    0.05390    2.80420   58.03130  106.89550
 6635.50000  170.47700   63.04410   60.29410   18.56630   43.61110    8.72480    4.21270    0.20000   -0.05600    0.06600    2.76380   58.19230  106.28660
 6636.00000   79.75400   66.84500   54.31850   18.57830   46.20680    8.75500    4.06090    0.20000   -0.04690    0.07690    2.68220   58.95600  105.76590
 6636.50000   45.30600   31.94990   30.92280   18.59040   47.11000    8.77140    3.93920    0.20000    0.02250    0.08530    2.59810   59.69650  110.08100
 6637.00000   18.92940   18.79380   22.19480   18.60240   53.11560    8.78510    3.81750    0.20000    0.05170    0.09620    2.57640   60.43630  111.17610
 6637.50000   15.35420   15.76550   15.67220   18.61450   61.64690    8.81530    3.68960    0.19010    0.07700    0.10830    2.55470   61.44670  111.96450
 6638.00000   50.56950   28.10770   26.99950   18.62650   67.97860    8.79880    3.53780    0.14620    0.08950    0.12470    2.53290   62.60710  113.00300
 6638.50000   60.87150   31.58120   31.89720   18.63860   68.48160    8.72150    3.36190    0.07600    0.10020    0.13490    2.51370   63.60160  113.02090
 6639.00000   36.47860   24.32590   27.20590   18.65060   54.47700    8.61620    3.31310    0.03810    0.10260    0.12280    2.48680   64.41010  111.32420
 6639.50000   28.31960   23.92350   23.47590   18.66270   39.20540    8.57160    3.41490    0.03750    0.10650    0.10630    2.43140   64.32170  108.29970
 6640.00000   71.63110   45.35740   46.71500   18.67470   35.74450    8.57140    3.55890    0.04610    0.12050    0.09700    2.39640   62.70870  106.18920
 6640.50000  128.82300   64.69560   64.19190   18.68670   35.00970    8.61780    3.64860    0.04150    0.16670    0.09260    2.36590   61.54400  105.23340
 6641.00000  177.69310   68.77610   69.60390   18.69880   38.27570    8.74100    3.70220    0.04300    0.22330    0.09200    2.32250   60.82790  104.15520
 6641.50000  133.45040   53.31320   58.37300   18.71080   40.54420    8.92140    3.69530    0.05510    0.25890    0.09260    2.28420   61.00850  105.96700
 6642.00000  128.74470   37.06040   42.46550   19.32530   43.26820    9.01240    3.60480    0.08690    0.23410    0.09750    2.30740   61.84230  108.96960
 6642.50000   74.49350   27.84250   33.02810   19.33740   45.53500    8.99470    3.18710    0.13080    0.21780    0.12470    2.32760   63.22560  108.98700
 6643.00000   30.70720   24.95370   26.24420   19.34940   47.63080    8.74860    2.96200    0.14130    0.20880    0.13980    2.34100   64.41650  109.60150
 6643.50000   37.57510   37.31030   37.74640   19.36140   48.64640    8.63120    2.81000    0.14130    0.19490    0.14030    2.35070   65.17920  109.02200
 6644.00000   87.33310   55.05730   55.17610   19.37350   47.16390    8.64680    2.68840    0.13670    0.18340    0.12410    2.36020   65.52460  107.24850
 6644.50000  149.56760   59.88480   59.71290   19.38550   40.34030    8.70740    2.60260    0.11550    0.17190    0.10170    2.37380   64.89460  104.28090
 6645.00000  208.44200   53.58970   56.47580   19.39760   29.96010    8.79840    2.74230    0.08360    0.15620    0.07700    2.48170   62.47040  102.49670
 6645.50000  373.25630   67.92930   73.29650   19.40960   23.79020    8.85900    3.20230    0.07600    0.14110    0.05830    2.54160   60.55190  101.33080
 6646.00000  432.88990  102.54360  112.05070   19.42170   19.85190    8.88840    3.49790    0.09720    0.12060    0.05220    2.57020   59.44260  100.08730
 6646.50000  211.41010  120.58360  128.49820   19.43370   18.05820    8.72000    3.67800    0.15930    0.10000    0.05400    2.58430   58.71310   99.57470
 6647.00000   89.09270   77.20860   96.65360   19.44580   23.28580    8.58420    3.85300    0.20000    0.08370    0.06490    2.59310   58.53720  100.19100
 6647.50000   52.23340   39.85330   42.10420   19.45780   27.95730    8.56910    3.87170    0.20000    0.07760    0.07640    2.59540   59.05180  101.40300
 6648.00000   77.35810   41.27520   37.64830   19.67110   31.11880    8.58440    3.68820    0.20000    0.08790    0.08610    2.56050   59.32210  100.04420
 6648.50000  117.17510   44.06910   40.45730   20.08430   32.16450    8.59920    3.37080    0.20000    0.14110    0.10000    2.51310   59.59250   99.64470
 6649.00000  134.53170   53.90120   46.48230   20.29760   30.32310    8.59910    3.19400    0.20000    0.17920    0.09640    2.47130   59.68350   99.66570
 6649.50000  120.35460   83.90180   66.80600   20.71080   26.82460    8.59890    3.07230    0.20000    0.15020    0.08250    2.43420   59.41570  100.28060
 6650.00000  123.75730   93.76760   98.60970   20.72290   21.65650    8.56840    3.02120    0.20000    0.14350    0.06980    2.42970   59.41700  100.29850
 6650.50000  207.07880  156.13940  158.36840   20.93610   17.85120    8.55310    3.11590    0.20000    0.14170    0.06310    2.45550   60.14130   98.23650
