~Version ---------------------------------------------------
VERS.   2.0 : CWLS log ASCII Standard -VERSION 2.0
WRAP.    NO : One line per depth step
DLM . SPACE : Column Data Section Delimiter
~Well ------------------------------------------------------
STRT .F                  177.0 : START DEPTH
STOP .F                 8248.0 : STOP DEPTH
STEP .F                    0.5 : STEP
NULL .                -9999.25 : NULL VALUE
COMP .                         : COMPANY
WELL .                         : WELL
FLD  .                         : FIELD
LOC  .                         : LOCATION
PROV .                         : PROVINCE
CNTY .                         : COUNTY
STAT .                         : STATE
CTRY .                         : COUNTRY
SRVC .                         : SERVICE COMPANY
DATE .                         : DATE
UWI  .                         : UNIQUE WELL ID
API  .                         : API NUMBER
SLAT .WGS84 2.9279247839448033 : SURFACE LATITUDE
SLON .WGS84  6.651475515573011 : SURFACE LONGITUDE
DATUM.F                2996.89 : DEPTH DATUM ELEV
~Curve Information -----------------------------------------
DEPT.F     : 
AT10.OHMM  : 10-IN. RESISTIVITY, 2-FT RESOLUTION
AT30.OHMM  : 30-IN. RESISTIVITY, 2-FT RESOLUTION
AT90.OHMM  : 90-IN. RESISTIVITY, 2-FT RESOLUTION
SPR .MV    : SPONTANEOUS POTENTIAL FROM RES.
GRD .GAPI  : GAMMA RAY FROM DENSITY LOG
HCAL.IN    : HILT CALIPER FROM DENSITY LOG
PEFZ.B/E   : HILT PHOTOELECTRIC FACTOR
HDRA.G/C3  : DELTA RHO HIP TOOL
DPHZ.DEC   : DENSITY POROSITY LIMESTONE
TNPH.DEC   : THERMAL NEUTRON POROSITY LIMESTONE
RHOZ.G/C3  : HILT BULK DENSITY
DTCO.US/F  : COMPRESSIONAL-WAVE INTERVAL TRANSIT TIME ACAUSTIC SLOWNESS
DTSM.US/F  : SHEAR-WAVE INTERVAL TRANSIT TIME DELTA-T
~Params ----------------------------------------------------
~Other -----------------------------------------------------
~ASCII -----------------------------------------------------
# ...
 5299.00000    5.78130    4.17360    3.00360  -32.50200   17.27690    9.67750    3.17150    0.02020    0.13990    0.22270    2.47320   66.72470  127.14700
 5299.50000    6.11020    4.27010    3.04560  -31.90080   17.72950    9.63710    3.05110    0.02170    0.14050    0.21600    2.47200   67.62240  127.15560
 5300.00000    6.64060    4.43040    3.21860  -31.90380   17.63510    9.59940    2.99090    0.02020    0.13630    0.19750    2.47450   68.25110  125.37310
 5300.50000    7.73850    4.49000    3.35490  -31.90680   17.35700    9.58600    2.91580    0.00790    0.12130    0.17940    2.48650   67.63410  123.91880
 5301.00000    7.95440    4.48780    3.35420  -31.90990   16.20910    9.58540    2.84060    0.01100    0.10640    0.17760    2.51360   66.39460  122.39440
 5301.50000    6.91430    4.30260    3.26160  -31.92140   13.01430    9.61520    2.77760    0.02620    0.09520    0.17900    2.54110   65.19840  120.60630
 5302.00000    6.09520    4.01190    3.21590  -31.92750   13.15560    9.64500    2.74680    0.02260    0.10490    0.18480    2.54460   64.59150  120.60920
 5302.50000    6.14340    3.79320    2.99950  -31.93350   14.32140    9.70520    2.80590    0.00180    0.11700    0.18990    2.52810   64.76150  121.80620
 5303.00000    5.80740    3.39250    2.50340  -31.93960   17.65980    9.76530    2.99710    0.00080    0.12490    0.20480    2.51620   65.39960  123.00320
 5303.50000    4.92920    3.25250    2.40070  -31.94560   19.32550    9.79510    3.04720    0.00830    0.12310    0.21090    2.50790   65.90190  125.39420
 5304.00000    4.98010    3.43660    2.46780  -31.95170   20.85560    9.79450    3.04650    0.01490    0.12250    0.21570    2.49860   66.46340  127.78510
 5304.50000    5.52700    3.53180    2.57230  -31.95770   19.52480    9.79390    3.04590    0.01830    0.13100    0.21940    2.48130   68.80990  129.57910
 5305.00000    5.86840    3.53000    2.46680  -31.96370   16.20420    9.79330    3.04530    0.01830    0.13820    0.21700    2.45370   69.61920  128.98510
 5305.50000    5.07810    3.20130    2.29720  -31.96980   12.83620    9.79270    3.07500    0.01580    0.15210    0.21260    2.44010   69.17300  128.95730
 5306.00000    4.37520    3.24450    2.42760  -31.97580   12.19190    9.79210    3.10460    0.00060    0.16360    0.21570    2.43450   69.12010  128.34180
 5306.50000    4.55470    3.62410    2.53010  -31.98190   14.52780    9.79150    3.09450   -0.00150    0.15940    0.22040    2.43920   69.62590  127.79980
 5307.00000    4.94690    3.72460    2.56460  -32.09000   15.94390    9.79090    3.07320    0.01110    0.14790    0.22230    2.44640   70.07650  127.20570
 5307.50000    5.23260    3.52140    2.42510  -32.59820   15.22350    9.79030    3.10280    0.02120    0.14680    0.22170    2.45360   70.25810  127.32290
 5308.00000    5.00710    3.50180    2.35780  -32.60420   13.98180    9.78970    3.07190    0.01960    0.14740    0.21970    2.45560   70.35000  128.54130
 5308.50000    4.73900    3.71900    2.45730  -32.61030   16.17060    9.78900    2.99250    0.01650    0.14560    0.22060    2.45660   70.44190  129.60300
 5309.00000    5.03580    3.87530    2.59680  -32.61630   19.13390    9.78840    2.91960    0.01950    0.15040    0.22530    2.45130   70.71310  130.20300
 5309.50000    5.31980    4.03830    2.60990  -32.62240   23.08940    9.75740    2.91900    0.02200    0.16130    0.22830    2.43470   70.98440  130.20600
 5310.00000    5.40990    4.03630    2.55920  -32.62840   24.41000    9.69600    2.95770    0.02150    0.16860    0.23160    2.42030   71.34540  128.57810
 5310.50000    5.18510    4.03430    2.55830  -32.63440   20.16460    9.66500    2.98730    0.01640    0.16500    0.22070    2.45970   71.44060  126.98640
 5311.00000    5.40590    3.97670    2.55740  -32.64050   16.43200    9.63400    3.02580    0.01180    0.14320    0.20610    2.48620   70.54260  125.77470
 5311.50000    5.89980    3.75990    2.55650  -32.64650   15.06510    9.66380    3.09800    0.00770    0.12870    0.20550    2.49440   69.00450  124.56350
 5312.00000    5.95330    3.75810    2.52040  -32.65260   13.81210    9.78480    3.12760    0.00360    0.12390    0.20690    2.49910   67.54900  122.75470
 5312.50000    5.55980    3.75630    2.48470  -32.65860   13.46590    9.87540    3.12690    0.00660    0.12210    0.20520    2.50340   66.49850  122.13980
 5313.00000    5.29850    3.96890    2.28520  -32.64590   13.45910    9.96590    3.12630    0.00810    0.11850    0.19750    2.50340   66.24650  121.96110
 5313.50000    5.45140    4.13580    2.48300  -32.06640   13.90760    9.96530    3.08680    0.00760    0.12220    0.20310    2.49580   66.58200  124.85730
 5314.00000    6.00380    4.02050    2.55220  -32.07250   16.04510    9.96470    2.99560    0.00350    0.14390    0.21320    2.47740   68.58620  126.05420
 5314.50000    6.36790    3.96310    2.55120  -32.07860   18.54650    9.99450    2.94330    0.00240    0.16210    0.21770    2.44930   69.24940  126.05720
 5315.00000    6.06700    3.79950    2.55030  -32.68890   19.34170    9.99390    2.98130    0.00340    0.15850    0.20970    2.43220   69.68470  125.46310
 5315.50000    5.81790    3.69360    2.51420  -32.69500   19.12500    9.99330    3.04960    0.00590    0.15300    0.20660    2.44220   69.95860  125.46600
 5316.00000    5.67190    3.59060    2.44450  -32.09670   16.64260    9.99270    3.13110    0.01340    0.14820    0.20620    2.45080   70.11660  125.46900
 5316.50000    5.30160    3.49050    2.40990  -32.10290   13.86590    9.99210    3.15240    0.01950    0.15310    0.21680    2.45370   70.11880  125.47190
 5317.00000    4.65260    3.39320    2.37580  -32.10900   13.85910   10.02190    3.14330    0.02240    0.15370    0.22570    2.44900   70.12110  126.07190
 5317.50000    4.47900    3.39190    2.30990  -32.11500   14.70020   10.02130    3.04380    0.02440    0.15370    0.22860    2.42910   70.19190  127.86580
 5318.00000    4.48490    3.48580    2.37420  -32.12110   18.22820   10.02060    2.92250    0.02440    0.16100    0.22350    2.41910   70.75960  129.65980
 5318.50000    4.53760    3.53280    2.50900  -32.12720   20.75250   10.05050    2.87790    0.02590    0.17850    0.22260    2.40690   71.63220  129.66280
 5319.00000    4.60530    3.55860    2.54330  -32.13330   21.10520   10.04980    2.87730    0.02630    0.18210    0.22230    2.39760   72.18800  129.06870
 5319.50000    4.82150    3.78830    2.57780  -32.13930   17.46210   10.04920    2.92320    0.02930    0.16520    0.21430    2.39430   72.55380  127.85980
 5320.00000    5.44250    4.26770    2.67190  -30.93700   20.36290   10.07900    3.00500    0.03110    0.14230    0.20710    2.49410   72.09000  127.28350
 5320.50000    5.67000    4.96620    3.04650  -30.94300   22.89520   10.23040    3.09500    0.03330    0.12300    0.20510    2.54360   69.38020  127.28660
 5321.00000    5.99310    5.27260    3.93650  -30.34490   27.16210   10.26020    3.12460    0.03550    0.09040    0.21150    2.56960   68.36480  127.20780
 5321.50000    7.30470    5.27000    4.18640  -30.35100   27.43470   10.25960    3.21450    0.03470    0.08070    0.21100    2.57000   67.63050  125.39940
 5322.00000    9.60740    5.02120    3.83890  -30.35700   23.56630   10.13740    3.24410    0.02250    0.08050    0.20620    2.56370   67.09460  123.59000
 5322.50000    8.35190    4.56080    3.56340  -30.36310   16.17820   10.07600    3.29620    0.01800    0.10070    0.20110    2.52430   66.73800  121.78060
 5323.00000    7.36250    4.07690    3.43950  -30.36920   14.23180    9.98420    3.25750    0.01790    0.12000    0.19860    2.49780   67.45770  121.33090
 5323.50000    6.76780    3.80330    3.20680  -30.37530   14.22500    9.98360    3.18120    0.01710    0.13700    0.20120    2.47780   67.99800  121.52030
 5324.00000    5.80190    3.41000    2.81210  -30.38140   14.67330    9.98300    2.95390    0.00950    0.14790    0.20340    2.46810   68.19960  122.53130
 5324.50000    4.90490    3.12430    2.60460  -30.38740   14.66590   10.01280    2.77240    0.00570    0.14550    0.20060    2.46360   67.82310  122.53430
