~Version ---------------------------------------------------
VERS.   2.0 : CWLS log ASCII Standard -VERSION 2.0
WRAP.    NO : One line per depth step
DLM . SPACE : Column Data Section Delimiter
~Well ------------------------------------------------------
STRT .F                  177.0 : START DEPTH
STOP .F                 8248.0 : STOP DEPTH
STEP .F                    0.5 : STEP
NULL .                -9999.25 : NULL VALUE
COMP .                         : COMPANY
WELL .                         : WELL
FLD  .                         : FIELD
LOC  .                         : LOCATION
PROV .                         : PROVINCE
CNTY .                         : COUNTY
STAT .                         : STATE
CTRY .                         : COUNTRY
SRVC .                         : SERVICE COMPANY
DATE .                         : DATE
UWI  .                         : UNIQUE WELL ID
API  .                         : API NUMBER
SLAT .WGS84 2.9279247839448033 : SURFACE LATITUDE
SLON .WGS84  6.651475515573011 : SURFACE LONGITUDE
DATUM.F                2996.89 : DEPTH DATUM ELEV
~Curve Information -----------------------------------------
DEPT.F     : 
AT10.OHMM  : 10-IN. RESISTIVITY, 2-FT RESOLUTION
AT30.OHMM  : 30-IN. RESISTIVITY, 2-FT RESOLUTION
AT90.OHMM  : 90-IN. RESISTIVITY, 2-FT RESOLUTION
SPR .MV    : SPONTANEOUS POTENTIAL FROM RES.
GRD .GAPI  : GAMMA RAY FROM DENSITY LOG
HCAL.IN    : HILT CALIPER FROM DENSITY LOG
PEFZ.B/E   : HILT PHOTOELECTRIC FACTOR
HDRA.G/C3  : DELTA RHO HIP TOOL
DPHZ.DEC   : DENSITY POROSITY LIMESTONE
TNPH.DEC   : THERMAL NEUTRON POROSITY LIMESTONE
RHOZ.G/C3  : HILT BULK DENSITY
DTCO.US/F  : COMPRESSIONAL-WAVE INTERVAL TRANSIT TIME ACAUSTIC SLOWNESS
DTSM.US/F  : SHEAR-WAVE INTERVAL TRANSIT TIME DELTA-T
~Params ----------------------------------------------------
~Other -----------------------------------------------------
~ASCII -----------------------------------------------------
# ...
 7691.00000   48.11020   36.61230   35.22640   -7.60700   82.11050    8.33870    3.31510    0.02950    0.08910    0.17610    2.50680   74.09610  123.50690
 7691.50000   53.77070   41.81660   40.71880   -8.22830   93.02870    8.33840    3.13420    0.03250    0.10800    0.17960    2.45800   76.95260  128.47600
 7692.00000   37.44680   30.91420   38.48440   -8.24350  103.49230    8.33810    2.98850    0.03540    0.12920    0.19190    2.42910   79.29330  131.98830
 7692.50000   23.33170   20.29660   26.73480   -8.25880  113.04690    8.33780    2.86790    0.03790    0.15380    0.21490    2.42140   81.06300  134.21460
 7693.00000   22.06720   18.57430   17.71400   -7.66670  113.51050    8.33750    2.78160    0.03790    0.16900    0.22830    2.41090   81.78130  134.80170
 7693.50000   21.16360   17.94360   16.40410   -7.68320  112.15600    8.30690    2.72490    0.03530    0.16420    0.23290    2.41420   81.96160  133.01930
 7694.00000   20.29700   17.21740   15.95480   -7.69840  108.52870    8.30660    2.78850    0.02930    0.16000    0.22660    2.42030   79.81000  130.04290
 7694.50000   18.15780   16.39910   15.61670   -7.71370  103.08330    8.27600    2.84820    0.02320    0.15260    0.20070    2.43170   78.28620  127.06640
 7695.00000   17.17370   15.93630   15.39840   -7.12120   99.45600    8.27570    2.90790    0.02420    0.14090    0.19360    2.44800   77.83860  125.28400
 7695.50000   17.65710   15.39940   14.88350   -7.13810   99.46510    8.24510    2.93460    0.02610    0.13450    0.19130    2.46230   77.66010  125.29260
 7696.00000   17.90330   15.06860   14.47600   -6.54550  101.74690    8.24480    2.93410    0.02260    0.13180    0.19130    2.47240   77.93010  125.33300
 7696.50000   17.65460   14.56650   14.15990   -5.95650  106.30150    8.21420    2.93370    0.01800    0.13080    0.19200    2.47920   78.02060  127.77600
 7697.00000   19.45910   14.53110   15.89280   -5.97170  111.76510    8.21390    2.90120    0.01400    0.13340    0.19380    2.48140   78.11520  130.21900
 7697.50000   23.64200   16.77040   19.49500   -5.38090  115.41060    8.18330    2.87240    0.00790    0.13580    0.19620    2.47780   78.31620  132.66210
 7698.00000   29.53460   27.59920   24.76130   -4.79010  120.87420    8.15270    2.87430    0.00240    0.13910    0.20060    2.46370   78.89330  134.12420
 7698.50000   52.24380   33.46830   29.21390   -4.19920  124.97420    8.15240    2.99320    0.00130    0.15270    0.23140    2.41540   79.79570  134.89850
 7699.00000   70.94710   39.57320   38.82810   -4.21450  126.80150    8.15210    3.05230    0.00430    0.16470    0.25290    2.40170   80.44160  134.00350
 7699.50000   93.70230   49.44160   54.75720   -3.62120  127.71970    8.12150    3.05180    0.01130    0.18640    0.24810    2.39530   81.20290  133.12710
 7700.00000  105.87730   70.15080   85.81740   -3.94090  126.36360    8.12300    3.08160    0.01520    0.17290    0.23670    2.38960   81.70390  133.13580
 7700.50000  126.16660   81.88170   78.76930   -4.86360  125.45230    8.12790    3.05090    0.01770    0.16890    0.23220    2.39250   80.89890  132.54630
 7701.00000  130.75240   75.26910   73.62400   -4.87880  121.35910    8.13280    3.02020    0.01620    0.17070    0.22760    2.40710   79.91410  131.95900
 7701.50000  116.91150   58.59710   51.07610   -4.89390  118.62950    8.13770    2.98960    0.01310    0.17620    0.23370    2.41520   79.72300  131.96760
 7702.00000  106.01810   51.69630   53.24050   -4.90900  116.35450    8.14260    2.92870    0.00860    0.18280    0.25660    2.41740   80.09690  131.97620
 7702.50000  130.56680   65.52010   70.65050   -4.31810  117.71590    8.14770    2.92820    0.00850    0.18520    0.26750    2.41200   80.54710  132.58210
 7703.00000  134.19490   77.26790   74.54890   -3.72710  119.98630    8.14690    2.89760    0.01450    0.18950    0.26630    2.39990   80.73150  132.59100
 7703.50000  137.92410   64.45930   61.34970   -3.74240  118.62040    8.14620    2.86690    0.01900    0.18830    0.25300    2.38650   80.81960  132.60000
 7704.00000  123.34440   61.79640   57.23780   -3.75760  113.16360    8.14540    2.86640    0.02340    0.18470    0.23730    2.38640   80.53800  132.60890
 7704.50000  119.90940   62.70390   67.82410   -3.77270  112.67310    8.14470    2.83580    0.02340    0.18530    0.23310    2.38750   80.28500  132.61790
 7705.00000  123.24140   75.10660   80.26320   -3.78790  115.88630    8.14390    2.86560    0.02030    0.19250    0.23610    2.38710   80.72210  132.62690
 7705.50000  172.02450   85.02280   90.37040   -3.80300  118.61130    8.14310    2.92550    0.01280    0.19740    0.24220    2.38340   81.30620  132.63580
 7706.00000  162.64460   91.04570   91.60090   -3.81820  120.42720    8.14240    2.92500    0.00970    0.20280    0.24940    2.37560   81.54580  132.64650
 7706.50000  137.57850   84.67790   79.26720   -3.83330  119.97030    8.14160    2.92460    0.00970    0.20040    0.25120    2.36370   81.19500  132.65520
 7707.00000  135.57780   70.74480   73.25890   -3.84850  119.51350    8.14080    2.89390    0.01260    0.19500    0.24700    2.36590   80.96400  132.66380
 7707.50000  147.36670   66.02870   67.37990   -3.86360  119.96590    8.14010    2.89350    0.01560    0.18900    0.24340    2.37650   80.83440  132.07540
 7708.00000  128.17250   65.08610   64.02790   -3.87880  120.41820    8.13930    2.89300    0.01550    0.18290    0.24220    2.38540   80.47740  131.48660
 7708.50000  114.62390   63.27230   62.01160   -3.92830  119.96120    8.13850    2.92280    0.01550    0.18470    0.24830    2.38630   79.13390  130.30160
 7709.00000  105.39980   70.67540   67.23190   -4.51520  118.59530    8.10750    3.01290    0.01290    0.19260    0.26400    2.37420   78.23880  129.11620
 7709.50000  199.80400   63.92480   72.18330   -4.56940  115.86570    8.10670    3.19380    0.00990    0.19620    0.26400    2.40590   78.41990  129.12540
 7710.00000  240.13110   55.72880   64.41660   -5.15150  105.86340    8.10600    3.31420    0.00530    0.18480    0.24890    2.44320   79.04940  129.73140
 7710.50000  162.03430   59.79480   53.90510   -5.77270   98.13390    8.10520    3.37420    0.00880    0.15640    0.23140    2.47990   79.40990  128.97740
 7711.00000  115.98730   56.31140   61.05150   -6.39390   94.94980    8.10440    3.31320    0.01070    0.13710    0.21690    2.50870   78.41210  127.74750
 7711.50000  108.14770   49.74170   52.26510   -6.40910   97.67480    8.07340    3.28260    0.01070    0.11290    0.21090    2.51640   77.29000  125.91940
 7712.00000  196.63220   45.17900   44.84900   -7.03030  102.21800    8.04230    3.19150    0.00710    0.12020    0.20850    2.47040   76.07050  125.58810
 7712.50000  261.91440   55.85570   62.94240   -7.65150  104.48840    8.04150    3.07020    0.00460    0.14130    0.20850    2.42350   76.60750  126.19400
 7713.00000  173.34500  130.14690   96.03240   -8.27270  103.57700    8.01050    2.97910    0.00550    0.17880    0.20790    2.41600   77.58390  126.80150
 7713.50000  148.68410  137.07630   88.36330   -8.34240  102.21110    8.00970    2.94840    0.00750    0.17820    0.20010    2.44830   77.80630  126.81010
 7714.00000  109.43410   60.10330   51.42270   -8.90910  104.48160    8.00890    3.03860    0.00750    0.16430    0.18920    2.45580   77.46850  126.81870
 7714.50000  201.75870   50.90400   44.80240   -8.92420  108.57020    7.97790    3.15900    0.00990    0.14920    0.18990    2.45350   77.10050  126.22980
 7715.00000  477.82970   46.25440   42.22180   -8.93940  111.29520    7.97730    3.18880    0.01290    0.15650    0.19590    2.44670   76.95820  127.43300
 7715.50000 1072.81050   44.40490   44.60190   -8.95450  113.11110    7.97650    3.18830    0.02040    0.16010    0.22250    2.43650   77.05820  128.63580
 7716.00000  361.46350   58.64060   53.08540   -8.96970  113.56360    7.97580    3.06700    0.03040    0.15890    0.23330    2.42670   77.72590  129.24130
 7716.50000  231.48860   59.38890   50.41000   -8.98490  111.28830    7.97500    2.94570    0.03530    0.16010    0.25440    2.42550   77.78080  128.53650
