~Version ---------------------------------------------------
VERS.   2.0 : CWLS log ASCII Standard -VERSION 2.0
WRAP.    NO : One line per depth step
DLM . SPACE : Column Data Section Delimiter
~Well ------------------------------------------------------
STRT .FT                 102.0 : START DEPTH
STOP .FT                5015.0 : STOP DEPTH
STEP .FT                   0.5 : STEP
NULL .                -9999.25 : NULL VALUE
COMP .                         : COMPANY
WELL .                         : WELL
FLD  .                         : FIELD
LOC  .                         : LOCATION
PROV .                         : PROVINCE
CNTY .                         : COUNTY
STAT .                         : STATE
CTRY .                         : COUNTRY
SRVC .                         : SERVICE COMPANY
DATE .                         : DATE
UWI  .                         : UNIQUE WELL ID
API  .                         : API NUMBER
SLAT .WGS84 3.0314498471068987 : SURFACE LATITUDE
SLON .WGS84  8.782247756437002 : SURFACE LONGITUDE
DATUM.F                    nan : DEPTH DATUM ELEV
~Curve Information -----------------------------------------
DEPT   .FT    : 
DPHZ_LS.DEC   : HGRD STANDARD RESOLUTION DENSITY POROSITY
DTCO   .US/F  : DELTA-T COMPRESSIONAL
DTSM   .US/F  : DELTA-T SHEAR
HCALD  .IN    : HRCC CALIPER CALIBRATED FROM DENSITY LOG
HDRA   .G/C3  : HRDD SPINE AND RIBS DENSITY CORRECTION
HSGRD  .GAPI  : HNGS STANDARD GAMMA RAY FROM DENSITY LOG
PEFZ   .B/E   : HRDD STANDARD RESOLUTION FORMATION PHOTOELECTRIC FACTOR
RHOZ   .G/C3  : HRDD STANDARD RESOLUTION FORMATION DENSITY
RLA3   .OHMM  : APPARENT RESISTIVITY FROM COMPUTED FOCUSING MODE 3
RLA5   .OHMM  : APPARENT RESISTIVITY FROM COMPUTED FOCUSING MODE 5
RXOZ   .OHMM  : INVADED FORMATION RESISTIVITY FILTERED AT 18 INCHES
TNPH_LS.DEC   : THERMAL NEUTRON POROSITY [LIMESTONE]
~Params ----------------------------------------------------
~Other -----------------------------------------------------
~ASCII -----------------------------------------------------
# ...
 4974.00000   -0.04710   -9999.25   -9999.25    7.81580    0.00810   -9999.25    3.09450    2.78520 2232.27230 10210.56160  192.62880    0.02550
 4974.50000   -0.04870   -9999.25   -9999.25    7.80960    0.00760   -9999.25    3.12420    2.78600 1895.17480 6691.26860  219.81560    0.02600
 4975.00000   -0.04880   -9999.25   -9999.25    7.81560    0.00470   -9999.25    3.12300    2.79140 1281.65890 3171.97560  272.28870    0.02640
 4975.50000   -0.05130   -9999.25   -9999.25    7.82160    0.00180   -9999.25    3.22090    2.79480   -9999.25   -9999.25  366.46770    0.02610
 4976.00000   -0.05620   -9999.25   -9999.25    7.82040    0.00020   -9999.25    3.32050    2.80090   -9999.25   -9999.25  434.71020    0.02520
 4976.50000   -0.06300   -9999.25   -9999.25    7.81740    0.00030   -9999.25    3.42240    2.81100   -9999.25   -9999.25  349.53010    0.02360
 4977.00000   -0.07050   -9999.25   -9999.25    7.81440    0.00050   -9999.25    3.47040    2.82100   -9999.25   -9999.25  296.65180    0.02260
 4977.50000   -0.07710   -9999.25   -9999.25    7.83110    0.00220   -9999.25    3.50190    2.83590   -9999.25   -9999.25  237.83210    0.02270
 4978.00000   -0.08200   -9999.25   -9999.25    7.83380    0.00470   -9999.25    3.52910    2.84820   -9999.25   -9999.25  253.96540    0.02360
 4978.50000   -0.08270   -9999.25   -9999.25    7.83300    0.00670   -9999.25    3.50070    2.84240   -9999.25   -9999.25  244.63340    0.02480
 4979.00000   -0.07540   -9999.25   -9999.25    7.83230    0.00660   -9999.25    3.37960    2.82900   -9999.25   -9999.25  165.36540    0.02880
 4979.50000   -0.06690   -9999.25   -9999.25    7.83150    0.00650   -9999.25    3.24090    2.81560   -9999.25   -9999.25  117.19170    0.03350
 4980.00000   -0.05490   -9999.25   -9999.25    7.83070    0.00630   -9999.25    3.22040    2.80220   -9999.25   -9999.25  123.59780    0.03710
 4980.50000   -0.04690   -9999.25   -9999.25    7.77810    0.00620   -9999.25    3.22420    2.78880   -9999.25   -9999.25  161.00420    0.03710
 4981.00000   -0.04090   -9999.25   -9999.25    7.79400    0.00540   -9999.25    3.22040    2.78160   -9999.25   -9999.25  187.85430    0.03480
 4981.50000   -0.04070   -9999.25   -9999.25    7.78930    0.00200   -9999.25    3.19540    2.77600   -9999.25   -9999.25  212.59600    0.03240
 4982.00000   -0.04030   -9999.25   -9999.25    7.79260    0.00060   -9999.25    3.13080    2.77500   -9999.25   -9999.25  363.70400    0.03000
 4982.50000   -0.03900   -9999.25   -9999.25    7.81400    0.00050   -9999.25    3.10680    2.77320   -9999.25   -9999.25  398.27400    0.02820
 4983.00000   -0.03860   -9999.25   -9999.25    7.81540    0.00040   -9999.25    3.13810    2.76680   -9999.25   -9999.25  275.45410    0.02660
 4983.50000   -0.03870   -9999.25   -9999.25    7.81680   -0.00110   -9999.25    3.18450    2.75310   -9999.25   -9999.25  204.12000    0.02510
 4984.00000   -0.02520   -9999.25   -9999.25    7.81820   -0.00490   -9999.25    3.21160    2.73930   -9999.25   -9999.25  226.06600    0.02360
 4984.50000   -0.01330   -9999.25   -9999.25    7.81960   -0.00690   -9999.25    3.19940    2.72830   -9999.25   -9999.25  277.61740    0.02300
 4985.00000   -0.01570   -9999.25   -9999.25    7.82100   -0.00600   -9999.25    3.18790    2.72830   -9999.25   -9999.25  329.16880    0.02360
 4985.50000   -0.02500   -9999.25   -9999.25    7.81370   -0.00290   -9999.25    3.18360    2.74040   -9999.25   -9999.25  377.22810    0.02500
 4986.00000   -0.03100   -9999.25   -9999.25    7.82080   -0.00050   -9999.25    3.20800    2.75880   -9999.25   -9999.25  328.87250    0.02490
 4986.50000   -0.03000   -9999.25   -9999.25    7.82800   -0.00290   -9999.25    3.19980    2.75990   -9999.25   -9999.25  262.12100    0.02370
 4987.00000   -0.02970   -9999.25   -9999.25    7.83520   -0.00460   -9999.25    3.19930    2.76040   -9999.25   -9999.25  206.93230    0.02270
 4987.50000   -0.03260   -9999.25   -9999.25    7.83160   -0.00460   -9999.25    3.25080    2.76100   -9999.25   -9999.25  159.35550    0.02480
 4988.00000   -0.03370   -9999.25   -9999.25    7.81190   -0.00360   -9999.25    3.30150    2.76090   -9999.25   -9999.25  173.08550    0.02780
 4988.50000   -0.03040   -9999.25   -9999.25    7.82330   -0.00350   -9999.25    3.30970    2.76090   -9999.25   -9999.25  249.85490    0.03070
 4989.00000   -0.03340   -9999.25   -9999.25    7.84830   -0.00330   -9999.25    3.27670    2.76080   -9999.25   -9999.25  317.83450    0.03320
 4989.50000   -0.03110   -9999.25   -9999.25    7.87710   -0.00210   -9999.25    3.22480    2.76080   -9999.25   -9999.25  242.20120    0.03350
 4990.00000   -0.03170   -9999.25   -9999.25    7.89270    0.00030   -9999.25    3.18000    2.76390   -9999.25   -9999.25  210.14080    0.03340
 4990.50000   -0.03490   -9999.25   -9999.25    7.84890    0.00110   -9999.25    3.13120    2.77160   -9999.25   -9999.25  189.59930    0.03330
 4991.00000   -0.04190   -9999.25   -9999.25    7.80770    0.00070   -9999.25    3.07630    2.77920   -9999.25   -9999.25  204.29700    0.03350
 4991.50000   -0.04600   -9999.25   -9999.25    7.80000    0.00040   -9999.25    3.10370    2.78400   -9999.25   -9999.25  195.61910    0.03400
 4992.00000   -0.03950   -9999.25   -9999.25    7.80200    0.00000   -9999.25    3.20060    2.77700   -9999.25   -9999.25  219.28010    0.03400
 4992.50000   -0.03310   -9999.25   -9999.25    7.80410   -0.00040   -9999.25    3.28020    2.76260   -9999.25   -9999.25  224.77550    0.03370
 4993.00000   -0.02780   -9999.25   -9999.25    7.80610   -0.00060   -9999.25    3.24420    2.74820   -9999.25   -9999.25  196.74260    0.03350
 4993.50000   -0.03220   -9999.25   -9999.25    7.80820   -0.00060   -9999.25    3.13710    2.74820   -9999.25   -9999.25  178.99100    0.03370
 4994.00000   -0.03660   -9999.25   -9999.25    7.81860   -0.00060   -9999.25    3.04720    2.76910   -9999.25   -9999.25  175.58210    0.03440
 4994.50000   -0.03530   -9999.25   -9999.25    7.83170   -0.00060   -9999.25    2.98940    2.76830   -9999.25   -9999.25  209.47530    0.03470
 4995.00000   -0.03170   -9999.25   -9999.25    7.83630   -0.00070   -9999.25    3.01460    2.76070   -9999.25   -9999.25  211.58850    0.03500
 4995.50000   -0.02760   -9999.25   -9999.25    7.85190   -0.00040   -9999.25    2.99620    2.75060   -9999.25   -9999.25  232.97070    0.03540
 4996.00000   -0.01890   -9999.25   -9999.25    7.86400    0.00020   -9999.25    2.97220    2.73470   -9999.25   -9999.25  261.29860    0.03660
 4996.50000   -0.00540   -9999.25   -9999.25    7.87090    0.00070   -9999.25    2.86330    2.71290   -9999.25   -9999.25  254.97160    0.03780
 4997.00000    0.00960   -9999.25   -9999.25    7.87790    0.00120   -9999.25    2.74180    2.69110   -9999.25   -9999.25  215.43020    0.03900
 4997.50000    0.01170   -9999.25   -9999.25    7.88480    0.00380   -9999.25    2.67250    2.68720   -9999.25   -9999.25  135.19710   -9999.25
 4998.00000   -0.00170   -9999.25   -9999.25    7.87100    0.00520   -9999.25    2.67560    2.73920   -9999.25   -9999.25   85.59730   -9999.25
 4998.50000   -0.01940   -9999.25   -9999.25    7.82530    0.00550   -9999.25    2.82930    2.76560   -9999.25   -9999.25   89.81000   -9999.25
 4999.00000   -0.03360   -9999.25   -9999.25    7.85990    0.00130   -9999.25    2.94870    2.76510   -9999.25   -9999.25  143.34270   -9999.25
 4999.50000   -0.03010   -9999.25   -9999.25    7.89450    0.00020   -9999.25    3.02540    2.74740   -9999.25   -9999.25  228.12140   -9999.25
 5000.00000   -0.01810   -9999.25   -9999.25    7.90250   -0.00080   -9999.25    2.96160    2.72980   -9999.25   -9999.25  190.25490   -9999.25
 5000.50000   -0.00930   -9999.25   -9999.25    7.88750   -0.00070   -9999.25    2.84550    2.71430   -9999.25   -9999.25  170.32060   -9999.25
 5001.00000   -0.00320   -9999.25   -9999.25    7.88550    0.00000   -9999.25    2.83610    2.71860   -9999.25   -9999.25  148.54040   -9999.25
 5001.50000   -0.00800   -9999.25   -9999.25    7.88110    0.00100   -9999.25    2.90260    2.73260   -9999.25   -9999.25  161.72190   -9999.25
