~Version ---------------------------------------------------
VERS.   2.0 : CWLS log ASCII Standard -VERSION 2.0
WRAP.    NO : One line per depth step
DLM . SPACE : Column Data Section Delimiter
~Well ------------------------------------------------------
STRT .FT                 102.0 : START DEPTH
STOP .FT                5015.0 : STOP DEPTH
STEP .FT                   0.5 : STEP
NULL .                -9999.25 : NULL VALUE
COMP .                         : COMPANY
WELL .                         : WELL
FLD  .                         : FIELD
LOC  .                         : LOCATION
PROV .                         : PROVINCE
CNTY .                         : COUNTY
STAT .                         : STATE
CTRY .                         : COUNTRY
SRVC .                         : SERVICE COMPANY
DATE .                         : DATE
UWI  .                         : UNIQUE WELL ID
API  .                         : API NUMBER
SLAT .WGS84 3.0314498471068987 : SURFACE LATITUDE
SLON .WGS84  8.782247756437002 : SURFACE LONGITUDE
DATUM.F                    nan : DEPTH DATUM ELEV
~Curve Information -----------------------------------------
DEPT   .FT    : 
DPHZ_LS.DEC   : HGRD STANDARD RESOLUTION DENSITY POROSITY
DTCO   .US/F  : DELTA-T COMPRESSIONAL
DTSM   .US/F  : DELTA-T SHEAR
HCALD  .IN    : HRCC CALIPER CALIBRATED FROM DENSITY LOG
HDRA   .G/C3  : HRDD SPINE AND RIBS DENSITY CORRECTION
HSGRD  .GAPI  : HNGS STANDARD GAMMA RAY FROM DENSITY LOG
PEFZ   .B/E   : HRDD STANDARD RESOLUTION FORMATION PHOTOELECTRIC FACTOR
RHOZ   .G/C3  : HRDD STANDARD RESOLUTION FORMATION DENSITY
RLA3   .OHMM  : APPARENT RESISTIVITY FROM COMPUTED FOCUSING MODE 3
RLA5   .OHMM  : APPARENT RESISTIVITY FROM COMPUTED FOCUSING MODE 5
RXOZ   .OHMM  : INVADED FORMATION RESISTIVITY FILTERED AT 18 INCHES
TNPH_LS.DEC   : THERMAL NEUTRON POROSITY [LIMESTONE]
~Params ----------------------------------------------------
~Other -----------------------------------------------------
~ASCII -----------------------------------------------------
# ...
 2370.00000   -0.07550   -9999.25   -9999.25    7.89360   -0.00300   23.42880    3.33890    2.83930   99.87680  165.03890   89.48180    0.02630
 2370.50000   -0.08290   -9999.25   -9999.25    7.89070   -0.00170   20.67220    3.31440    2.84740  286.39680  447.00030   92.69520    0.02950
 2371.00000   -0.09130   -9999.25   -9999.25    7.88790    0.00040   17.32190    3.26700    2.85560  472.91690  728.96180  201.06350    0.02720
 2371.50000   -0.09840   -9999.25   -9999.25    7.88670    0.00070   15.00400    3.23710    2.86370  507.34890 1010.92320  356.09230    0.02460
 2372.00000   -0.09870   -9999.25   -9999.25    7.88790    0.00150   14.95940    3.23660    2.87060  533.05820  902.33060  340.29840    0.02170
 2372.50000   -0.09910   -9999.25   -9999.25    7.88920    0.00150   16.04410    3.23600    2.86770  461.02280  662.49030  357.89050    0.02000
 2373.00000   -0.09620   -9999.25   -9999.25    7.89050    0.00140   17.80450    3.27470    2.85310  379.32070  588.01060  331.62780    0.01990
 2373.50000   -0.08970   -9999.25   -9999.25    7.89180    0.00040   19.09200    3.31340    2.83970  342.94620  497.78000  310.88490    0.01930
 2374.00000   -0.08230   -9999.25   -9999.25    7.89310   -0.00270   21.00420    3.34720    2.83810  279.97210  413.18210  270.03000    0.01940
 2374.50000   -0.07760   -9999.25   -9999.25    7.89440   -0.00580   23.88890    3.40300    2.84400  216.99800  293.88780  236.38010    0.01930
 2375.00000   -0.08350   -9999.25   -9999.25    7.89560   -0.00410   26.58010    3.35920    2.84720  178.08730  249.58990  215.10380    0.02020
 2375.50000   -0.08210   -9999.25   -9999.25    7.89690   -0.00270   28.07770    3.29000    2.84310  282.90590  454.07400  218.38130    0.02070
 2376.00000   -0.07300   -9999.25   -9999.25    7.89820   -0.00200   28.42300    3.29290    2.82500  360.67520  521.66450  254.59160    0.02620
 2376.50000   -0.05550   -9999.25   -9999.25    7.89950   -0.00450   27.58050    3.35590    2.80700  342.94620  402.90100  259.20640    0.03610
 2377.00000   -0.04330   -9999.25   -9999.25    7.90080   -0.00440   26.83660    3.40550    2.78890  291.26190  322.39950  200.20750    0.04380
 2377.50000   -0.03550   -9999.25   -9999.25    7.90210   -0.00230   25.46460    3.38960    2.76330  245.99930  279.56520  163.02040    0.05410
 2378.00000   -0.02670   -9999.25   -9999.25    7.90330   -0.00170   23.04850    3.38080    2.74900  189.63700  229.96000  155.00710    0.06530
 2378.50000   -0.01630   -9999.25   -9999.25    7.90460   -0.00180   19.69310    3.35720    2.73460  108.51760  162.86560   63.51420    0.07710
 2379.00000   -0.00800   -9999.25   -9999.25    7.90590   -0.00190   17.32340    3.33350    2.72270   69.55610   74.44390   44.85580    0.08330
 2379.50000   -0.00960   -9999.25   -9999.25    7.90720   -0.00200   19.18210    3.30910    2.72680   64.16950   68.58890   34.96120    0.08480
 2380.00000   -0.02290   -9999.25   -9999.25    7.90850   -0.00210   25.99650    3.30090    2.74720   68.73660  105.54210   54.05250    0.07980
 2380.50000   -0.03570   -9999.25   -9999.25    7.90980   -0.00270   33.85170    3.30430    2.76770   76.54390  112.09640   39.34120    0.07220
 2381.00000   -0.04780   -9999.25   -9999.25    7.91100   -0.00230   38.82660    3.34520    2.78810   76.53720   82.84530   55.78290    0.06140
 2381.50000   -0.06310   -9999.25   -9999.25    7.91230   -0.00260   35.63830    3.40360    2.80860  136.00900  557.25440   74.98860    0.05000
 2382.00000   -0.07290   -9999.25   -9999.25    7.91360   -0.00300   30.65960    3.40680    2.82420  381.65110  697.83760  156.17730    0.03730
 2382.50000   -0.07980   -9999.25   -9999.25    7.91490   -0.00330   26.92080    3.40990    2.83660  363.33550  451.98520  315.44380    0.02480
 2383.00000   -0.08170   -9999.25   -9999.25    7.91620   -0.00330   27.19800    3.41300    2.84190  345.01600  495.91540  306.02660    0.02420
 2383.50000   -0.07860   -9999.25   -9999.25    7.91740   -0.00330   27.47430    3.42880    2.83820  231.44180  401.33920  169.65360    0.02560
 2384.00000   -0.07560   -9999.25   -9999.25    7.91870   -0.00370   25.00860    3.42420    2.83330  176.00930  295.75990  168.79080    0.02730
 2384.50000   -0.07440   -9999.25   -9999.25    7.92000   -0.00550   19.94450    3.39890    2.82850  285.54280  555.43130  179.83330    0.02900
 2385.00000   -0.07070   -9999.25   -9999.25    7.92130   -0.00630   15.88780    3.37360    2.82360  255.37640  449.33990  195.92070    0.03060
 2385.50000   -0.06670   -9999.25   -9999.25    7.92260   -0.00640   13.52260    3.36760    2.81960  219.91100  272.53700  196.31860    0.03230
 2386.00000   -0.06940   -9999.25   -9999.25    7.94520   -0.00670   13.38170    3.36380    2.82230  212.99530  241.69320  170.45740    0.03300
 2386.50000   -0.07660   -9999.25   -9999.25    7.94540   -0.00640   13.98050    3.34990    2.83190  231.17940  262.31490  181.03210    0.03120
 2387.00000   -0.07880   -9999.25   -9999.25    7.94560   -0.00590   14.57920    3.32290    2.84000  242.32140  275.86980  194.25190    0.02890
 2387.50000   -0.07960   -9999.25   -9999.25    7.94570   -0.00620   17.16220    3.31220    2.83800  287.26490  367.61280  207.47160    0.02660
 2388.00000   -0.07640   -9999.25   -9999.25    7.94590   -0.00730   21.03190    3.31820    2.82750  274.85170  405.18100  207.31360    0.02620
 2388.50000   -0.06920   -9999.25   -9999.25    7.94610   -0.00840   28.77120    3.34940    2.81700  199.27540  282.57450  165.87400    0.03070
 2389.00000   -0.06320   -9999.25   -9999.25    7.94630   -0.00870   36.51060    3.37190    2.80750  116.80990  158.29210   51.38340    0.03590
 2389.50000   -0.06070   -9999.25   -9999.25    7.94640   -0.00880   42.73650    3.38240    2.81450   97.94270   82.21420   51.70410    0.04100
 2390.00000   -0.07350   -9999.25   -9999.25    7.94660   -0.00660   44.49120    3.35370    2.83240  307.05590  451.04530  102.36670    0.04120
 2390.50000   -0.08570   -9999.25   -9999.25    7.94680   -0.00280   41.79050    3.29970    2.85020  516.16900  659.66510  164.46180    0.03150
 2391.00000   -0.09310   -9999.25   -9999.25    7.94700   -0.00010   40.09400    3.26740    2.86110  609.12010  775.49020  413.89130    0.02320
 2391.50000   -0.08780   -9999.25   -9999.25    7.94710   -0.00180   40.90850    3.29010    2.85660  690.15740  790.29610  430.93300    0.01860
 2392.00000   -0.08140   -9999.25   -9999.25    7.94730   -0.00430   42.00460    3.37430    2.83860  754.85460  877.03790  566.36480    0.01810
 2392.50000   -0.07670   -9999.25   -9999.25    7.94750   -0.00490   36.70370    3.40740    2.83760  855.62610 1098.69520  777.45040    0.01990
 2393.00000   -0.07960   -9999.25   -9999.25    7.94770   -0.00280   27.54640    3.42850    2.83700  916.08910 1330.05620 1171.42340    0.02280
 2393.50000   -0.08230   -9999.25   -9999.25    7.94780   -0.00190   20.53970    3.40060    2.83760  850.72420 1316.90910 1171.42340    0.02570
 2394.00000   -0.08170   -9999.25   -9999.25    7.94800   -0.00120   16.57360    3.38490    2.83970  698.56810 1190.55330 1120.85020    0.02800
 2394.50000   -0.08220   -9999.25   -9999.25    7.94820   -0.00200   14.50680    3.38490    2.84660  722.25040 1160.37600 1072.46050    0.02820
 2395.00000   -0.07960   -9999.25   -9999.25    7.94840   -0.00320   14.03840    3.42960    2.85230  792.43650 1106.60440 1019.71740    0.02670
 2395.50000   -0.08720   -9999.25   -9999.25    7.94850   -0.00090   14.69950    3.46670    2.85260  758.23210 1153.61510  988.09460    0.02280
 2396.00000   -0.08720   -9999.25   -9999.25    7.94870   -0.00030   16.13560    3.49640    2.84620  774.41760 1276.05050  957.41440    0.01890
 2396.50000   -0.08480   -9999.25   -9999.25    7.94890   -0.00320   17.64480    3.50140    2.84130  735.19140 1111.70450  898.92640    0.01510
 2397.00000   -0.08170   -9999.25   -9999.25    7.94910   -0.00610   19.29420    3.48990    2.84510  651.76910  857.75640  762.51160    0.01120
 2397.50000   -0.08590   -9999.25   -9999.25    7.94920    0.00040   22.40070    3.43310    2.84980  643.59900  670.16910  598.31180    0.01020
