~Version ---------------------------------------------------
VERS.   2.0 : CWLS log ASCII Standard -VERSION 2.0
WRAP.    NO : One line per depth step
DLM . SPACE : Column Data Section Delimiter
~Well ------------------------------------------------------
STRT .FT                 102.0 : START DEPTH
STOP .FT                5015.0 : STOP DEPTH
STEP .FT                   0.5 : STEP
NULL .                -9999.25 : NULL VALUE
COMP .                         : COMPANY
WELL .                         : WELL
FLD  .                         : FIELD
LOC  .                         : LOCATION
PROV .                         : PROVINCE
CNTY .                         : COUNTY
STAT .                         : STATE
CTRY .                         : COUNTRY
SRVC .                         : SERVICE COMPANY
DATE .                         : DATE
UWI  .                         : UNIQUE WELL ID
API  .                         : API NUMBER
SLAT .WGS84 3.0314498471068987 : SURFACE LATITUDE
SLON .WGS84  8.782247756437002 : SURFACE LONGITUDE
DATUM.F                    nan : DEPTH DATUM ELEV
~Curve Information -----------------------------------------
DEPT   .FT    : 
DPHZ_LS.DEC   : HGRD STANDARD RESOLUTION DENSITY POROSITY
DTCO   .US/F  : DELTA-T COMPRESSIONAL
DTSM   .US/F  : DELTA-T SHEAR
HCALD  .IN    : HRCC CALIPER CALIBRATED FROM DENSITY LOG
HDRA   .G/C3  : HRDD SPINE AND RIBS DENSITY CORRECTION
HSGRD  .GAPI  : HNGS STANDARD GAMMA RAY FROM DENSITY LOG
PEFZ   .B/E   : HRDD STANDARD RESOLUTION FORMATION PHOTOELECTRIC FACTOR
RHOZ   .G/C3  : HRDD STANDARD RESOLUTION FORMATION DENSITY
RLA3   .OHMM  : APPARENT RESISTIVITY FROM COMPUTED FOCUSING MODE 3
RLA5   .OHMM  : APPARENT RESISTIVITY FROM COMPUTED FOCUSING MODE 5
RXOZ   .OHMM  : INVADED FORMATION RESISTIVITY FILTERED AT 18 INCHES
TNPH_LS.DEC   : THERMAL NEUTRON POROSITY [LIMESTONE]
~Params ----------------------------------------------------
~Other -----------------------------------------------------
~ASCII -----------------------------------------------------
# ...
 1978.00000   -9999.25   -9999.25   -9999.25    8.01990   -9999.25   20.57500   -9999.25    2.83210  218.09550  272.91290  186.94230    0.03360
 1978.50000   -9999.25   -9999.25   -9999.25    8.01950   -9999.25   19.14740   -9999.25    2.85420  234.20350  257.71380  188.25020    0.02630
 1979.00000   -9999.25   -9999.25   -9999.25    8.01910   -9999.25   18.47210   -9999.25    2.87630  362.32110  451.21040  215.75980    0.02050
 1979.50000   -9999.25   -9999.25   -9999.25    8.01870   -9999.25   17.68990   -9999.25    2.89480  490.43880  644.70710  261.59010    0.02030
 1980.00000   -0.11750   -9999.25   -9999.25    8.01830   -0.00200   20.01860    4.05410    2.89480  574.31640  765.44100  264.92830    0.02070
 1980.50000   -0.10960   -9999.25   -9999.25    8.01790   -0.00150   24.50390    4.07590    2.86750  374.22410  727.31100  243.46940    0.02570
 1981.00000   -0.10020   -9999.25   -9999.25    8.01750   -0.00110   28.98910    4.09780    2.85020   40.89470   22.26780   99.48600    0.03030
 1981.50000   -0.09290   -9999.25   -9999.25    8.01710   -0.00060   30.10260    4.16040    2.84980   33.82620  134.38540   43.56540    0.03400
 1982.00000   -0.10820   -9999.25   -9999.25    8.01670   -0.00020   23.06670    4.25420    2.88040  196.21260  283.83640   51.14690    0.02970
 1982.50000   -0.12180   -9999.25   -9999.25    8.01630    0.00060   18.39640    4.36110    2.91090   39.42310   31.63470   58.06720    0.02290
 1983.00000   -0.12470   -9999.25   -9999.25    8.01590    0.00130   17.14560    4.30090    2.91170  138.46990  165.07910   63.14650    0.01850
 1983.50000   -0.11080   -9999.25   -9999.25    8.01550    0.00210   19.04640    4.12840    2.90070  239.62420  429.55710   61.53690    0.01840
 1984.00000   -0.10270   -9999.25   -9999.25    8.01510    0.00260   22.08860    3.95580    2.88280  241.00020  330.88020  100.89980    0.01920
 1984.50000   -0.08570   -9999.25   -9999.25    8.01470    0.00260   25.13080    3.83060    2.86500  150.43470  207.71110  144.86600    0.02430
 1985.00000   -0.07910   -9999.25   -9999.25    8.01430    0.00000   27.58620    3.81700    2.84710  133.92310  109.50730  137.58610    0.02930
 1985.50000   -0.07550   -9999.25   -9999.25    8.01390   -0.00310   29.25010    3.82340    2.82930  176.22240  202.14700  130.46020    0.03060
 1986.00000   -0.06850   -9999.25   -9999.25    8.01350   -0.00160   30.98710    3.81770    2.81230  178.02920  222.29050  126.81100    0.03170
 1986.50000   -0.05610   -9999.25   -9999.25    8.01310   -0.00300   33.82510    3.75030    2.79650  133.96920  174.27350   86.13860    0.03620
 1987.00000   -0.04040   -9999.25   -9999.25    8.01270   -0.00390   36.53570    3.60030    2.77060   89.90920  126.25650   57.93850    0.04220
 1987.50000   -0.02460   -9999.25   -9999.25    8.01230   -0.00530   39.05540    3.48760    2.74480   62.66240   78.23940   49.54960    0.04950
 1988.00000   -0.01330   -9999.25   -9999.25    8.01190   -0.00320   40.70110    3.39970    2.73360   60.51990   56.32960   44.99440    0.05670
 1988.50000   -0.01860   -9999.25   -9999.25    8.01150    0.00140   39.29290    3.31180    2.73360   60.48430   52.06740   44.17440    0.05740
 1989.00000   -0.02640   -9999.25   -9999.25    8.01110    0.01430   37.51810    3.24550    2.75370   63.26590   52.28180   45.61480    0.05590
 1989.50000   -0.02400   -9999.25   -9999.25    8.01350    0.02080   38.34280    3.28030    2.75370   67.93570   71.85920   51.60940    0.05450
 1990.00000   -0.01260   -9999.25   -9999.25    8.02390    0.00830   42.21640    3.36060    2.73160   66.05330   80.66530   48.02950    0.05660
 1990.50000   -0.00300   -9999.25   -9999.25    8.03410   -0.00330   46.83310    3.44090    2.71590   47.36030   62.43750   35.51960    0.06480
 1991.00000   -0.01150   -9999.25   -9999.25    8.04430   -0.00350   44.60660    3.52120    2.71590   28.66730   39.65670   25.43110    0.07290
 1991.50000   -0.04040   -9999.25   -9999.25    8.04630   -0.00350   36.28890    3.60330    2.75570   87.50890  350.33350   28.60940    0.07070
 1992.00000   -0.07510   -9999.25   -9999.25    8.04630   -0.00250   24.49100    3.76210    2.82140  419.77290 1147.86070  123.77780    0.05660
 1992.50000   -0.09880   -9999.25   -9999.25    8.04630   -0.00280   14.23430    3.89050    2.88710  909.35540 1315.40530  279.67580    0.02240
 1993.00000   -0.11210   -9999.25   -9999.25    8.04630   -0.00310   10.22500    3.94830    2.89030  870.61290 1111.80330  598.76460    0.01350
 1993.50000   -0.10600   -9999.25   -9999.25    8.04630   -0.00290   10.15490    3.96550    2.86140  677.66330  857.34800  549.56060    0.00830
 1994.00000   -0.09280   -9999.25   -9999.25    8.04630   -0.00310   11.57130    3.97100    2.86060  484.71360  602.89270  487.55940    0.00950
 1994.50000   -0.09750   -9999.25   -9999.25    8.04630   -0.00020   12.16340    3.94080    2.86870  362.00600  645.22230  460.37550    0.01090
 1995.00000   -0.11360   -9999.25   -9999.25    8.04630    0.00080   11.89500    3.92490    2.88800  553.10880 1318.22520  500.34190    0.00950
 1995.50000   -0.11770   -9999.25   -9999.25    8.04630   -0.00020   11.36780    3.97450    2.89990 1036.66610 1991.22810  617.88290    0.00730
 1996.00000   -0.11960   -9999.25   -9999.25    8.04630   -0.00220   13.33900    4.02410    2.89950 1036.46060 2126.29990  664.81360    0.00680
 1996.50000   -0.10270   -9999.25   -9999.25    8.04630   -0.00420   17.52240    4.08250    2.88150  638.71760 2021.75500  489.98470    0.01110
 1997.00000   -0.09520   -9999.25   -9999.25    8.04630   -0.00590   20.63010    4.03760    2.86050  240.97460  444.08870  292.16530    0.01540
 1997.50000   -0.09070   -9999.25   -9999.25    8.04630   -0.00750   24.15920    4.08770    2.85560  208.86570  378.94030  289.77390    0.01820
 1998.00000   -0.09620   -9999.25   -9999.25    8.04630   -0.00580   25.66080    4.09740    2.87340  466.25810  762.17400  299.97310    0.01880
 1998.50000   -0.10100   -9999.25   -9999.25    8.04630   -0.00410   23.45750    4.13350    2.87460  537.60190  624.29800  297.95870    0.01700
 1999.00000   -0.10270   -9999.25   -9999.25    8.04630   -0.00310   22.32140    4.07610    2.86100  375.48230  258.04890  274.62780    0.01640
 1999.50000   -0.10270   -9999.25   -9999.25    8.04630   -0.00340   21.42580    3.96630    2.85490  172.86860  180.17050  256.03560    0.01750
 2000.00000   -0.08920   -9999.25   -9999.25    8.04630   -0.00560   20.48940    3.92430    2.85980  559.75750  585.49940  275.58770    0.01900
 2000.50000   -0.09460   -9999.25   -9999.25    8.04630   -0.00560   19.81870    3.83210    2.87300  328.71500  572.43940  287.49770    0.01880
 2001.00000   -0.10160   -9999.25   -9999.25    8.04630   -0.00160   19.17850    3.72220    2.87990  310.63380  344.82580  244.70190    0.01820
 2001.50000   -0.10720   -9999.25   -9999.25    8.04630    0.00080   18.62390    3.59070    2.88250  250.75350  323.80630  238.63970    0.01840
 2002.00000   -0.10340   -9999.25   -9999.25    8.04630    0.00090   19.94870    3.58950    2.85950  214.95610  244.05410  182.05820    0.01970
 2002.50000   -0.08600   -9999.25   -9999.25    8.04630    0.00080   23.35710    3.64150    2.83100  177.34360  208.92610  163.53830    0.02270
 2003.00000   -0.06640   -9999.25   -9999.25    8.04630   -0.00060   29.12650    3.64200    2.80250  132.37730  157.92280  109.61510    0.02420
 2003.50000   -0.04890   -9999.25   -9999.25    8.06770   -0.00190   33.59080    3.66220    2.78530  105.02450  122.73480   90.92930    0.02170
 2004.00000   -0.05580   -9999.25   -9999.25    8.08750   -0.00100   32.45910    3.87000    2.80310   89.24400  160.30430   70.82870    0.01550
 2004.50000   -0.07970   -9999.25   -9999.25    8.10730   -0.00150   28.53010    4.05430    2.84360  184.32650  424.18930  105.40600    0.00940
 2005.00000   -0.09880   -9999.25   -9999.25    8.12710    0.00130   25.49760    4.34780    2.88420  375.72980  586.26170  166.39360    0.00570
 2005.50000   -0.10910   -9999.25   -9999.25    8.14690    0.00130   24.45970    4.48040    2.88390  378.15620  418.48300  251.23800    0.00470
