~Version ---------------------------------------------------
VERS.   2.0 : CWLS log ASCII Standard -VERSION 2.0
WRAP.    NO : One line per depth step
DLM . SPACE : Column Data Section Delimiter
~Well ------------------------------------------------------
STRT .FT                 102.0 : START DEPTH
STOP .FT                5015.0 : STOP DEPTH
STEP .FT                   0.5 : STEP
NULL .                -9999.25 : NULL VALUE
COMP .                         : COMPANY
WELL .                         : WELL
FLD  .                         : FIELD
LOC  .                         : LOCATION
PROV .                         : PROVINCE
CNTY .                         : COUNTY
STAT .                         : STATE
CTRY .                         : COUNTRY
SRVC .                         : SERVICE COMPANY
DATE .                         : DATE
UWI  .                         : UNIQUE WELL ID
API  .                         : API NUMBER
SLAT .WGS84 3.0314498471068987 : SURFACE LATITUDE
SLON .WGS84  8.782247756437002 : SURFACE LONGITUDE
DATUM.F                    nan : DEPTH DATUM ELEV
~Curve Information -----------------------------------------
DEPT   .FT    : 
DPHZ_LS.DEC   : HGRD STANDARD RESOLUTION DENSITY POROSITY
DTCO   .US/F  : DELTA-T COMPRESSIONAL
DTSM   .US/F  : DELTA-T SHEAR
HCALD  .IN    : HRCC CALIPER CALIBRATED FROM DENSITY LOG
HDRA   .G/C3  : HRDD SPINE AND RIBS DENSITY CORRECTION
HSGRD  .GAPI  : HNGS STANDARD GAMMA RAY FROM DENSITY LOG
PEFZ   .B/E   : HRDD STANDARD RESOLUTION FORMATION PHOTOELECTRIC FACTOR
RHOZ   .G/C3  : HRDD STANDARD RESOLUTION FORMATION DENSITY
RLA3   .OHMM  : APPARENT RESISTIVITY FROM COMPUTED FOCUSING MODE 3
RLA5   .OHMM  : APPARENT RESISTIVITY FROM COMPUTED FOCUSING MODE 5
RXOZ   .OHMM  : INVADED FORMATION RESISTIVITY FILTERED AT 18 INCHES
TNPH_LS.DEC   : THERMAL NEUTRON POROSITY [LIMESTONE]
~Params ----------------------------------------------------
~Other -----------------------------------------------------
~ASCII -----------------------------------------------------
# ...
 2986.00000   -0.01020   49.60050   88.37890    8.02310   -0.00230    8.52280    3.43120    2.72510   89.75410  120.34470   54.70130    0.08970
 2986.50000   -0.01170   49.82410   88.74220    8.01560   -0.00360    8.90090    3.40890    2.73370   79.87750  108.14160   57.64910    0.08970
 2987.00000   -0.02450   49.73460   89.10540    8.00810   -0.00090   10.25290    3.35930    2.74230   64.86350   86.96190   43.91740    0.08430
 2987.50000   -0.02860   49.56740   89.46870    8.00050    0.00120   12.16550    3.32540    2.75090   58.48830   70.01810   35.82640    0.07840
 2988.00000   -0.02760   49.47630   89.51120    7.99300    0.00140   13.37870    3.27120    2.75830   56.67540   83.71530   24.42940    0.07770
 2988.50000   -0.02530   49.51190   89.07260    7.98540    0.00140   12.43830    3.32390    2.76100   44.05460   50.14810   33.89480    0.07860
 2989.00000   -0.03060   49.61730   88.63400    7.97790    0.00050   10.68390    3.40740    2.76150   53.19840   52.07920   31.11280    0.07870
 2989.50000   -0.03290   49.59440   88.19550    7.97040   -0.00140    9.19470    3.51020    2.75220   56.31950   67.27730   49.20950    0.07460
 2990.00000   -0.02940   49.33050   87.75690    7.96280   -0.00340    8.66090    3.54930    2.74050   72.90910   82.47540   29.48830    0.06990
 2990.50000   -0.02070   49.26530   87.73390    7.95530   -0.00550    8.60840    3.53990    2.73370   72.89630   82.11410   28.12300    0.06770
 2991.00000   -0.01530   49.47010   88.04730    7.94780   -0.00670    8.47530    3.51850    2.74510   75.22250   88.91940   30.18210    0.06780
 2991.50000   -0.02350   49.42850   88.34620    7.94020   -0.00750    8.46070    3.49720    2.75920   84.23220  147.55950   32.81580    0.06590
 2992.00000   -0.03690   49.17580   88.49860    7.93570   -0.00290    9.33950    3.47590    2.77320  129.01380  241.52220   36.34130    0.05920
 2992.50000   -0.04750   49.22310   88.15180    7.93510   -0.00180   10.57060    3.42910    2.78850  169.43710  297.89990  103.33850    0.05250
 2993.00000   -0.04990   49.49370   87.98120    7.93440    0.00030   13.12860    3.34190    2.79220   98.47530  197.97400   54.37840    0.05120
 2993.50000   -0.04430   49.66640   88.07820    7.93370    0.00090   15.07240    3.25110    2.78420   55.71800   73.08570   51.68410    0.05160
 2994.00000   -0.04030   49.24750   88.17530    7.93300    0.00000   15.29250    3.26390    2.77700  119.00270  249.84740   29.53210    0.05180
 2994.50000   -0.03890   48.85620   87.96940    7.93230   -0.00160   14.09070    3.33150    2.77170  218.75800  545.22370   46.71110    0.04970
 2995.00000   -0.03650   49.09960   87.95980    7.93170   -0.00330   13.03510    3.38570    2.77060  302.34000  534.99020   48.87940    0.04750
 2995.50000   -0.03600   49.42030   88.67930    7.93100   -0.00280   13.99320    3.39920    2.77060  254.90400  389.11730   63.09370    0.04920
 2996.00000   -0.03980   49.93730   89.76600    7.93030   -0.00300   15.50380    3.37920    2.77650  131.57220  210.99450   58.57310    0.05460
 2996.50000   -0.03790   50.73930   90.11160    7.92960   -0.00360   17.01440    3.34880    2.77650   80.64960  128.17720   64.44900    0.05750
 2997.00000   -0.02020   51.28440   90.11230    7.92890   -0.00380   17.16960    3.31850    2.73040   54.56210   79.12630   32.33650    0.05840
 2997.50000    0.00550   51.34050   90.11290    7.92830   -0.00290   15.89830    3.27050    2.69350   31.65130   51.28340   16.96460    0.05750
 2998.00000    0.00950   51.10600   90.01130    7.92760    0.00260   14.41040    3.15180    2.69350   46.71400   73.90260   13.02600    0.05610
 2998.50000   -0.00890   50.82300   90.11680    7.92690    0.00300   12.70080    3.04690    2.73040   50.45770   59.38660   16.34300    0.05280
 2999.00000   -0.02730   50.39910   90.37740    7.92620    0.00710   11.60620    3.06930    2.77650   55.76980   68.92820   21.34150    0.04910
 2999.50000   -0.04200   50.17030   90.31340    7.92550    0.00860   11.26960    3.11660    2.77700   60.15550   68.57260   17.97460    0.04530
 3000.00000   -0.02520   51.28080   90.48960    7.92490    0.00820   10.42470    3.12320    2.75670   59.01890   68.47030   20.48690    0.04300
 3000.50000   -0.01380   52.39130   90.66590    7.92420    0.00780    8.67530    3.14310    2.73640   62.85580   79.05780    9.05000    0.04560
 3001.00000   -0.00480   53.37230   90.84220    7.92350    0.00480    7.63010    3.09950    2.71600   74.51950   88.19720    8.73610    0.04920
 3001.50000    0.00030   53.47010   90.68970    7.92280    0.00080    6.74620    3.11000    2.69570   66.92290   92.67350   10.74360    0.05390
 3002.00000    0.00870   53.04660   90.43820    7.92210   -0.00360    6.50720    3.14080    2.68700   46.75250   59.23000   18.70900    0.05930
 3002.50000    0.01420   52.46950   90.55210    7.92140   -0.00810    6.26820    3.18370    2.71000   40.17560  117.94730   16.08210    0.06470
 3003.00000   -0.00740   51.69540   90.46340    7.92080   -0.00480    6.19430    3.22510    2.74910  155.00420  262.86540   24.53450    0.06940
 3003.50000   -0.03800   51.12850   90.37470    7.92010   -0.00010    6.08710    3.28920    2.78820  246.86720  330.27280   76.61160    0.06820
 3004.00000   -0.06930   50.66130   90.28590    7.91940    0.00420    6.79410    3.33520    2.81970  189.06960  272.40930  150.18960    0.06200
 3004.50000   -0.06540   50.45870   90.27880    7.91870    0.00050    7.97150    3.30580    2.81330  141.09830  211.63150  105.76440    0.05580
 3005.00000   -0.04730   50.63270   90.32610    7.91800    0.00100    9.52940    3.21050    2.78410   57.64410  129.35020   50.23300    0.05220
 3005.50000   -0.03130   51.00150   89.87510    7.91740   -0.00150   11.05270    3.12430    2.75490   24.26250   41.09000   16.03270    0.05470
 3006.00000   -0.02510   51.09980   89.90390    7.91670   -0.00410   11.39100    3.10630    2.74880   46.33740   49.79180   15.68170    0.05870
 3006.50000   -0.03490   50.62060   90.10680    7.91600   -0.00490   10.30480    3.22500    2.76020   71.75350   79.50180   35.94690    0.05890
 3007.00000   -0.04120   50.37780   90.26140    7.91530   -0.00080    9.06820    3.26950    2.77540   75.30740   87.83540   70.48520    0.05690
 3007.50000   -0.04880   50.78680   90.34350    7.91460   -0.00020    7.99270    3.27600    2.79090   68.11420   90.92960   57.90680    0.05500
 3008.00000   -0.05210   51.19580   90.42570    7.91400   -0.00140    6.86370    3.28250    2.79700   54.43440   80.65230   47.08400    0.05460
 3008.50000   -0.04550   51.30750   90.27160    7.91330   -0.00010    6.51290    3.25350    2.78100   50.41090   63.52330   33.04720    0.05550
 3009.00000   -0.03390   51.14980   90.11750    7.91260    0.00030    6.51390    3.20150    2.77080   35.55230   58.49130   16.74430    0.05670
 3009.50000   -0.02170   50.80050   89.93360    7.91190    0.00020    5.82640    3.15600    2.76050   24.88190   35.54400   22.45890    0.05630
 3010.00000   -0.02000   50.16810   90.08900    7.91120    0.00090    5.39230    3.08640    2.75020   40.13170   75.41090   22.33220    0.05500
 3010.50000   -0.01920   49.81410   90.28350    7.91060    0.00130    4.95830    3.07230    2.74000   41.41140   66.85320   18.95940    0.05380
 3011.00000   -0.01680   50.51080   89.95930    7.90990    0.00050    5.06470    3.03970    2.73570   30.73430   44.59940   17.96930    0.05230
 3011.50000   -0.01400   51.20750   89.15100    7.90920   -0.00160    5.70580    3.02510    2.74710   47.03370   61.50210   18.10690    0.05140
 3012.00000   -0.02250   51.37590   88.34260    7.90850   -0.00310    5.33860    3.05130    2.76330   47.93170   88.45140   31.42590    0.05090
 3012.50000   -0.03530   50.71770   88.45080    7.90780   -0.00300    4.87990    3.11000    2.77950   75.94230  159.86890   40.47290    0.04980
 3013.00000   -0.04810   50.27230   88.62080    7.90710   -0.00290    4.42110    3.46940    2.79580   75.94230  112.66850   60.89450    0.04610
 3013.50000   -0.05760   49.98320   88.11600    7.90360   -0.00190    4.31360    3.58000    2.80900   82.71300  304.10590   65.64890    0.04360
