~Version ---------------------------------------------------
VERS.   2.0 : CWLS log ASCII Standard -VERSION 2.0
WRAP.    NO : One line per depth step
DLM . SPACE : Column Data Section Delimiter
~Well ------------------------------------------------------
STRT .FT                 102.0 : START DEPTH
STOP .FT                5015.0 : STOP DEPTH
STEP .FT                   0.5 : STEP
NULL .                -9999.25 : NULL VALUE
COMP .                         : COMPANY
WELL .                         : WELL
FLD  .                         : FIELD
LOC  .                         : LOCATION
PROV .                         : PROVINCE
CNTY .                         : COUNTY
STAT .                         : STATE
CTRY .                         : COUNTRY
SRVC .                         : SERVICE COMPANY
DATE .                         : DATE
UWI  .                         : UNIQUE WELL ID
API  .                         : API NUMBER
SLAT .WGS84 3.0314498471068987 : SURFACE LATITUDE
SLON .WGS84  8.782247756437002 : SURFACE LONGITUDE
DATUM.F                    nan : DEPTH DATUM ELEV
~Curve Information -----------------------------------------
DEPT   .FT    : 
DPHZ_LS.DEC   : HGRD STANDARD RESOLUTION DENSITY POROSITY
DTCO   .US/F  : DELTA-T COMPRESSIONAL
DTSM   .US/F  : DELTA-T SHEAR
HCALD  .IN    : HRCC CALIPER CALIBRATED FROM DENSITY LOG
HDRA   .G/C3  : HRDD SPINE AND RIBS DENSITY CORRECTION
HSGRD  .GAPI  : HNGS STANDARD GAMMA RAY FROM DENSITY LOG
PEFZ   .B/E   : HRDD STANDARD RESOLUTION FORMATION PHOTOELECTRIC FACTOR
RHOZ   .G/C3  : HRDD STANDARD RESOLUTION FORMATION DENSITY
RLA3   .OHMM  : APPARENT RESISTIVITY FROM COMPUTED FOCUSING MODE 3
RLA5   .OHMM  : APPARENT RESISTIVITY FROM COMPUTED FOCUSING MODE 5
RXOZ   .OHMM  : INVADED FORMATION RESISTIVITY FILTERED AT 18 INCHES
TNPH_LS.DEC   : THERMAL NEUTRON POROSITY [LIMESTONE]
~Params ----------------------------------------------------
~Other -----------------------------------------------------
~ASCII -----------------------------------------------------
# ...
 2790.00000   -0.03460   -9999.25   -9999.25    8.03630   -0.00190   33.48650    3.67580    2.78000  145.47550  221.33840   89.51840    0.08540
 2790.50000   -0.04500   -9999.25   -9999.25    8.03630   -0.00150   33.41220    3.64160    2.79400  173.25600  239.31420  110.90420    0.07880
 2791.00000   -0.05210   -9999.25   -9999.25    8.03630    0.00110   32.08540    3.59550    2.79950  171.80600  190.72420   98.26090    0.07730
 2791.50000   -0.05140   -9999.25   -9999.25    8.03630    0.00160   29.38330    3.57960    2.78360  141.47540  166.46970   66.69010    0.07790
 2792.00000   -0.04220   -9999.25   -9999.25    8.03630    0.00150   27.05930    3.57330    2.75700   77.12830  114.67690   56.42250    0.08440
 2792.50000   -0.02490   -9999.25   -9999.25    8.03630   -0.00150   24.65140    3.61290    2.73040   56.64660   62.88410   47.05460    0.09310
 2793.00000   -0.01250   -9999.25   -9999.25    8.03630   -0.00460   23.09380    3.65250    2.73040   62.94370   70.03780   57.57220    0.09850
 2793.50000   -0.01290   -9999.25   -9999.25    8.03630   -0.00400   22.71120    3.66360    2.73440   73.43890   91.61910   63.15330    0.10130
 2794.00000   -0.02070   -9999.25   -9999.25    8.03630   -0.00190   23.28860    3.62190    2.74430   93.86630  106.78760   80.71600    0.09980
 2794.50000   -0.02910   -9999.25   -9999.25    8.03630    0.00260   23.86820    3.60510    2.76180  138.81280  253.29410   90.89460    0.09590
 2795.00000   -0.03490   -9999.25   -9999.25    8.03630    0.00730   24.56050    3.63480    2.76630  174.65430  228.80220   98.60310    0.09210
 2795.50000   -0.03480   -9999.25   -9999.25    8.03630    0.00790   26.41890    3.69490    2.76690  150.18690  174.61160   92.95880    0.09040
 2796.00000   -0.03020   -9999.25   -9999.25    8.03630    0.00170   29.28920    3.77850    2.76100  169.79720  254.88500   97.84650    0.08800
 2796.50000   -0.03790   -9999.25   -9999.25    8.03630   -0.00410   30.94280    3.83620    2.77400  191.24070  251.19230  118.49820    0.08350
 2797.00000   -0.04830   -9999.25   -9999.25    8.03630   -0.00250   30.75360    3.82470    2.78700  146.10210  184.81590  110.97290    0.07690
 2797.50000   -0.05540   -9999.25   -9999.25    8.03630   -0.00290   29.80960    3.80760    2.79880  112.61620  146.06030   92.02560    0.06980
 2798.00000   -0.05850   -9999.25   -9999.25    8.03630    0.00030   30.04070    3.74530    2.80570  156.56820  242.34990   90.64380    0.06230
 2798.50000   -0.06270   -9999.25   -9999.25    8.03630    0.00030   29.82820    3.66020    2.81260  222.47890  259.79360  157.85930    0.05720
 2799.00000   -0.06630   -9999.25   -9999.25    8.04280    0.00080   28.03100    3.58650    2.81940  247.64580  315.70870  171.98950    0.05470
 2799.50000   -0.06880   -9999.25   -9999.25    8.04280    0.00110   25.83750    3.56820    2.82000  249.60690  314.55940  223.56270    0.05390
 2800.00000   -0.06800   -9999.25   -9999.25    8.04280    0.00100   23.17880    3.55400    2.81320  193.24070  226.60730  136.14050    0.05480
 2800.50000   -0.06490   -9999.25   -9999.25    8.04280    0.00100   20.68090    3.53150    2.80760  125.23430  138.65520   96.78550    0.05870
 2801.00000   -0.05940   -9999.25   -9999.25    8.04280    0.00100   18.18310    3.57290    2.80380   99.28360  110.96550   79.50400    0.06280
 2801.50000   -0.05400   -9999.25   -9999.25    8.04280    0.00080   17.36270    3.64620    2.79810  122.96640  123.45080   87.05900    0.06380
 2802.00000   -0.05190   -9999.25   -9999.25    8.04280    0.00040   17.36270    3.67230    2.78970  206.11490  246.85630   58.44980    0.06400
 2802.50000   -0.04790   -9999.25   -9999.25    8.04280   -0.00010   17.68350    3.67210    2.77530  225.77620  266.38550   63.48180    0.06420
 2803.00000   -0.03900   -9999.25   -9999.25    8.04280   -0.00110   18.21820    3.65680    2.76090  153.48620  197.30010   56.70770    0.06560
 2803.50000   -0.02820   -9999.25   -9999.25    8.04280   -0.00040   19.96470    3.64450    2.75910   65.48580   98.63740   26.71560    0.06720
 2804.00000   -0.03540   -9999.25   -9999.25    8.04280   -0.00210   22.69730    3.65160    2.78470   63.85490   78.40950   26.53950    0.06620
 2804.50000   -0.05690   -9999.25   -9999.25    8.04280    0.00020   24.58020    3.65860    2.81030  291.57540  927.54340   31.43250    0.06110
 2805.00000   -0.07590   -9999.25   -9999.25    8.04280    0.00100   26.08890    3.70800    2.83580  666.30780 1449.37100  172.86030    0.05240
 2805.50000   -0.09540   -9999.25   -9999.25    8.04280    0.00330   26.39160    3.73960    2.86140  616.49730 1060.21340  407.41810    0.04200
 2806.00000   -0.08810   -9999.25   -9999.25    8.04280    0.00550   25.03350    3.68350    2.85990  425.88150  671.05590  403.33160    0.03740
 2806.50000   -0.07630   -9999.25   -9999.25    8.04280    0.00330   23.25630    3.61150    2.83250  359.22520  534.91380  343.21940    0.03960
 2807.00000   -0.06000   -9999.25   -9999.25    8.04280    0.00100   21.86690    3.54750    2.81190  333.05750  442.09560  324.69650    0.04230
 2807.50000   -0.04560   -9999.25   -9999.25    8.04280   -0.00160   21.82100    3.51220    2.79130  283.76440  356.00250  253.57600    0.04690
 2808.00000   -0.04010   -9999.25   -9999.25    8.04280    0.00080   22.28380    3.51020    2.77170  191.45030  228.81880  172.78000    0.05210
 2808.50000   -0.03650   -9999.25   -9999.25    8.04280   -0.00390   22.65570    3.48540    2.75560  131.84040  176.82820  105.44990    0.05560
 2809.00000   -0.02750   -9999.25   -9999.25    8.04280   -0.00490   21.84650    3.44590    2.73950  146.75420  213.64220   99.25740    0.05910
 2809.50000   -0.01370   -9999.25   -9999.25    8.04280   -0.00630   19.38920    3.38410    2.72350  114.13040  160.21490   89.28270    0.06270
 2810.00000   -0.00500   -9999.25   -9999.25    8.04280   -0.00600   16.93190    3.32230    2.71970   70.18780  106.78760   28.99580    0.06590
 2810.50000   -0.00660   -9999.25   -9999.25    8.04280   -0.00520   15.91190    3.26050    2.72590   76.36370  117.37850   27.98980    0.06900
 2811.00000   -0.01040   -9999.25   -9999.25    8.04280   -0.00430   17.46470    3.31390    2.73370   70.69240   94.69510   29.96060    0.07220
 2811.50000   -0.01500   -9999.25   -9999.25    8.04280   -0.00420   18.91570    3.39080    2.74140   58.30060   68.17870   48.25600    0.07490
 2812.00000   -0.01910   -9999.25   -9999.25    8.04280   -0.00360   21.39030    3.42680    2.74920   48.08290   52.38410   40.92630    0.07760
 2812.50000   -0.02350   -9999.25   -9999.25    8.04280   -0.00150   21.78890    3.39870    2.75140   45.71820   49.48950   34.16850    0.08030
 2813.00000   -0.02170   -9999.25   -9999.25    8.04280    0.00060   22.18310    3.35630    2.74650   47.65940   53.32380   31.53870    0.08170
 2813.50000   -0.01720   -9999.25   -9999.25    8.04280    0.00100   24.31840    3.28580    2.73500   52.51250   60.55000   32.07290    0.08030
 2814.00000   -0.01380   -9999.25   -9999.25    8.04280    0.00040   26.53040    3.13720    2.72090   57.36560   61.70600   35.70500    0.07830
 2814.50000   -0.00190   -9999.25   -9999.25    8.04820    0.00200   29.23600    3.02360    2.70310   55.93700   60.16980   37.48830    0.07820
 2815.00000    0.01140   -9999.25   -9999.25    8.04990    0.00110   32.04720    2.97640    2.68530   44.48060   51.17530   33.16990    0.08160
 2815.50000    0.03000   -9999.25   -9999.25    8.05150    0.00030   33.89230    2.94010    2.66750   33.02420   40.51390   25.17700    0.08690
 2816.00000    0.03740   -9999.25   -9999.25    8.05310   -0.00040   34.86950    2.92800    2.65330   30.53970   34.33260   22.97370    0.09230
 2816.50000    0.03310   -9999.25   -9999.25    8.05480    0.00040   35.56900    2.88100    2.65970   34.72840   38.41110   23.96900    0.09610
 2817.00000    0.02290   -9999.25   -9999.25    8.05640    0.00040   35.34760    2.91170    2.68880   37.84080   42.27230   26.88320    0.09890
 2817.50000    0.00740   -9999.25   -9999.25    8.05800    0.00050   34.61900    2.99660    2.71800   36.43560   42.40610   28.88760    0.10000
