~Version ---------------------------------------------------
VERS.   2.0 : CWLS log ASCII Standard -VERSION 2.0
WRAP.    NO : One line per depth step
DLM . SPACE : Column Data Section Delimiter
~Well ------------------------------------------------------
STRT .FT                 102.0 : START DEPTH
STOP .FT                5015.0 : STOP DEPTH
STEP .FT                   0.5 : STEP
NULL .                -9999.25 : NULL VALUE
COMP .                         : COMPANY
WELL .                         : WELL
FLD  .                         : FIELD
LOC  .                         : LOCATION
PROV .                         : PROVINCE
CNTY .                         : COUNTY
STAT .                         : STATE
CTRY .                         : COUNTRY
SRVC .                         : SERVICE COMPANY
DATE .                         : DATE
UWI  .                         : UNIQUE WELL ID
API  .                         : API NUMBER
SLAT .WGS84 3.0314498471068987 : SURFACE LATITUDE
SLON .WGS84  8.782247756437002 : SURFACE LONGITUDE
DATUM.F                    nan : DEPTH DATUM ELEV
~Curve Information -----------------------------------------
DEPT   .FT    : 
DPHZ_LS.DEC   : HGRD STANDARD RESOLUTION DENSITY POROSITY
DTCO   .US/F  : DELTA-T COMPRESSIONAL
DTSM   .US/F  : DELTA-T SHEAR
HCALD  .IN    : HRCC CALIPER CALIBRATED FROM DENSITY LOG
HDRA   .G/C3  : HRDD SPINE AND RIBS DENSITY CORRECTION
HSGRD  .GAPI  : HNGS STANDARD GAMMA RAY FROM DENSITY LOG
PEFZ   .B/E   : HRDD STANDARD RESOLUTION FORMATION PHOTOELECTRIC FACTOR
RHOZ   .G/C3  : HRDD STANDARD RESOLUTION FORMATION DENSITY
RLA3   .OHMM  : APPARENT RESISTIVITY FROM COMPUTED FOCUSING MODE 3
RLA5   .OHMM  : APPARENT RESISTIVITY FROM COMPUTED FOCUSING MODE 5
RXOZ   .OHMM  : INVADED FORMATION RESISTIVITY FILTERED AT 18 INCHES
TNPH_LS.DEC   : THERMAL NEUTRON POROSITY [LIMESTONE]
~Params ----------------------------------------------------
~Other -----------------------------------------------------
~ASCII -----------------------------------------------------
# ...
 3574.00000   -0.07830   46.04850  165.43410    8.05920   -0.00350   15.55300    3.60870    2.83580 1730.99230 6280.88410  819.88470    0.03330
 3574.50000   -0.07210   46.07940  175.12360    8.05830   -0.00470   15.57280    3.57280    2.82690 1602.13380 3947.59060  910.31970    0.03030
 3575.00000   -0.06630   46.12510  175.59360    8.05730   -0.00520   17.42860    3.51210    2.81540 1660.08240 4243.75020  982.64460    0.02890
 3575.50000   -0.06780   46.25050  173.95710    8.05640   -0.00560   21.78580    3.45410    2.81750 1721.74870 4375.41980  836.26490    0.02790
 3576.00000   -0.07410   46.21980  159.34460    8.05550   -0.00100   25.02410    3.45820    2.82710 1566.11080 3690.73290  483.02310    0.02690
 3576.50000   -0.08010   46.20420  136.47630    8.05450    0.00190   27.36460    3.50210    2.83680 1354.49970 3152.69690  284.43910    0.02560
 3577.00000   -0.08220   46.11170  109.75970    8.05360    0.00300   28.08330    3.54600    2.84450 1409.97570 3901.18290  222.45540    0.02150
 3577.50000   -0.08000   45.97470   87.68880    8.05270    0.00100   26.51060    3.60740    2.84170 1645.93640 4718.78620  247.67740    0.01850
 3578.00000   -0.07680   45.90410   84.20100    8.05170   -0.00110   24.53590    3.69480    2.83150 1655.94400 4793.59860  345.43610    0.01660
 3578.50000   -0.07470   45.73630   82.80840    8.05080   -0.00310   22.64890    3.74810    2.82970 1687.18550 6354.32890  443.19480    0.01470
 3579.00000   -0.08060   45.61430   83.84720    8.04990   -0.00420   20.67060    3.75020    2.83860 1721.34800 7403.98530  533.01240    0.01390
 3579.50000   -0.09110   45.55240   82.11190    8.04890   -0.00150   20.67060    3.70390    2.85010 1755.51040 7151.54540  532.89870    0.01420
 3580.00000   -0.09950   45.54350   80.97640    8.04800    0.00170   21.09820    3.68050    2.86240 1915.01220 11327.80740  813.67170    0.01470
 3580.50000   -0.10500   45.53470   79.84090    8.04710    0.00440   21.03000    3.65510    2.87520 1933.76730 10824.75580  803.72830    0.01510
 3581.00000   -0.10940   45.57300   80.91690    8.04610    0.00230   20.32020    3.61060    2.88780 1978.26150 10050.42370  857.14970    0.01540
 3581.50000   -0.11360   45.65130   81.53770    8.04520    0.00100   19.93120    3.57480    2.89130 1987.34830 14304.05010  865.74140    0.01620
 3582.00000   -0.11060   45.93460   88.76850    8.04430   -0.00180   21.09500    3.60740    2.87600 2085.53450 12606.00650  759.49090    0.01690
 3582.50000   -0.10160   45.97660  105.91440    8.04330   -0.00290   23.76110    3.64010    2.85670 2105.43900 11282.86570  653.24040    0.01760
 3583.00000   -0.07920   46.04450  161.92420    8.04240   -0.00560   25.57440    3.68740    2.83750 2122.01590 14696.49480  591.34530    0.01820
 3583.50000   -0.07270   46.05030  181.23800    8.04140   -0.00560   25.36400    3.70960    2.82540 2105.38260 9926.73650  552.83590    0.01800
 3584.00000   -0.07820   46.08690  180.43980    8.04050   -0.00200   23.63450    3.67930    2.82980 2098.73070 9262.24230  519.68000    0.01800
 3584.50000   -0.08370   46.17450  176.44900    8.03960    0.00140   21.95180    3.66070    2.83940 2020.85320 7678.19390  555.90060    0.01840
 3585.00000   -0.08800   46.33240  175.65080    8.03860    0.00440   20.26900    3.64100    2.84910 1928.92090 6467.36470  565.83310    0.01930
 3585.50000   -0.09000   46.55640  176.40550    8.03820    0.00400   18.58620    3.56480    2.85660 1893.38550 8427.67880  443.82760    0.02010
 3586.00000   -0.09110   46.67310  177.31840    8.03160    0.00080   17.70070    3.48690    2.84850 1697.57670 6312.45140  373.46140    0.02320
 3586.50000   -0.08460   46.82270  178.23140    8.02050   -0.00110   18.45090    3.41010    2.83840 1468.53190 3308.06440  334.59430    0.02700
 3587.00000   -0.07910   46.94280  178.96170    8.00930   -0.00270   18.67570    3.39770    2.83760 1425.69120 2832.40420  377.29610    0.03230
 3587.50000   -0.07780   47.02920  178.75480    7.99810    0.00040   18.63660    3.41460    2.83810 1558.77120 3325.47670  341.17280    0.03600
 3588.00000   -0.08250   47.01480  177.57230    7.98690    0.00340   18.57840    3.43150    2.84780 1549.35260 2917.20530  391.00820    0.03640
 3588.50000   -0.08510   47.00310  177.09930    8.00790    0.00440   18.76290    3.39800    2.84720 1530.18050 3714.60070  369.66450    0.03610
 3589.00000   -0.07610   47.04550  177.97880    8.05100    0.00100   19.04990    3.36030    2.81510 1559.87090 3738.14690  383.34030    0.03590
 3589.50000   -0.06720   47.07690  179.27210    8.07800   -0.00320   19.82170    3.31860    2.81400 1826.05210 5032.99910  355.48490    0.03570
 3590.00000   -0.06550   47.05110  179.99640    8.09140   -0.00290   20.01770    3.32490    2.81960 1793.71680 5145.30180  405.36880    0.03560
 3590.50000   -0.07110   47.08580  179.99640    8.10490   -0.00260   19.35110    3.35200    2.82670 1472.18000 3622.27240  411.54970    0.03540
 3591.00000   -0.07800   47.14430  179.58250    8.11120   -0.00450   18.58820    3.38410    2.83370 1548.10800 4332.09320  432.83640    0.03530
 3591.50000   -0.08000   47.15970  175.91680    8.11270   -0.00820   18.58320    3.41370    2.83930 1488.27780 3987.37930  413.62900    0.03510
 3592.00000   -0.07430   47.14240  172.66500    8.11420   -0.00690   20.98780    3.44270    2.83060 1103.32030 1990.14790  354.05630    0.03490
 3592.50000   -0.06710   47.18290  170.06360    8.11570   -0.00520   23.97610    3.43910    2.81990  714.80450 1249.70610  199.07720    0.03580
 3593.00000   -0.05900   47.23230  173.29100    8.11720   -0.00360   28.53210    3.43340    2.80910  435.38360  546.54460  144.00690    0.03780
 3593.50000   -0.06000   47.23210  177.06660    8.11870   -0.00190   34.22880    3.43170    2.80680  567.13720  717.08290  144.96100    0.04390
 3594.00000   -0.06600   47.13370  180.84220    8.12020    0.00020   39.92560    3.43660    2.81350  899.94860 1517.60040  178.46940    0.04450
 3594.50000   -0.06880   47.03530  184.61780    8.12170   -0.00170   42.39180    3.45130    2.81990  881.47420 1369.75340  277.53210    0.04260
 3595.00000   -0.07120   46.96360  188.39340    8.12320    0.00000   40.66850    3.44110    2.82630  714.15080  865.94450  347.84610    0.03960
 3595.50000   -0.07450   46.99220  189.38260    8.12470    0.00100   37.66660    3.43090    2.83030  691.99350  773.05200  318.49580    0.03660
 3596.00000   -0.07120   47.09840  172.05680    8.12610    0.00120   35.24670    3.46200    2.82090  546.90930  691.10030  267.74650    0.03790
 3596.50000   -0.06300   47.20460  128.74240    8.12760    0.00120   33.06080    3.58850    2.80540  407.49520  494.54030  171.12790    0.04090
 3597.00000   -0.05220   47.21330   85.42810    8.12910    0.00120   33.02270    3.71030    2.79000  350.27900  401.77140  147.84050    0.04650
 3597.50000   -0.03950   47.11930   82.37560    8.13060    0.00000   36.29380    3.71960    2.76960  298.78900  344.95390  137.76300    0.05320
 3598.00000   -0.03650   47.00160   80.54420    8.13210   -0.00190   42.61270    3.65930    2.76760  300.10540  330.06450  196.08790    0.05780
 3598.50000   -0.04740   46.78930   80.31010    8.13360   -0.00350   51.17930    3.46610    2.79740  345.89140  365.09150  177.27350    0.05700
 3599.00000   -0.06250   46.64240   84.63700    8.13510   -0.00190   55.96930    3.34480    2.82720  363.78200  501.00860  232.87160    0.04770
 3599.50000   -0.07730   46.48800  106.27130    8.13660    0.00010   53.47730    3.30160    2.84780  615.88680  681.47360  213.02880    0.04130
 3600.00000   -0.08640   46.33370  127.90570    8.13810   -0.00080   48.19660    3.32700    2.84780  731.38050  587.64140  251.41280    0.03810
 3600.50000   -0.08490   46.26620  140.67930    8.13960   -0.00180   41.42370    3.44670    2.84780  818.90230  698.87860  315.61630    0.03560
 3601.00000   -0.07710   46.32910  119.74960    8.14110   -0.00320   35.81040    3.62040    2.83380  882.47740  703.30060  398.06480    0.03400
 3601.50000   -0.07720   46.40760   91.87290    8.14260   -0.00300   33.66080    3.75140    2.83440  727.58990  652.05880  320.44020    0.03250
