~Version ---------------------------------------------------
VERS.   2.0 : CWLS log ASCII Standard -VERSION 2.0
WRAP.    NO : One line per depth step
DLM . SPACE : Column Data Section Delimiter
~Well ------------------------------------------------------
STRT .FT                 102.0 : START DEPTH
STOP .FT                5015.0 : STOP DEPTH
STEP .FT                   0.5 : STEP
NULL .                -9999.25 : NULL VALUE
COMP .                         : COMPANY
WELL .                         : WELL
FLD  .                         : FIELD
LOC  .                         : LOCATION
PROV .                         : PROVINCE
CNTY .                         : COUNTY
STAT .                         : STATE
CTRY .                         : COUNTRY
SRVC .                         : SERVICE COMPANY
DATE .                         : DATE
UWI  .                         : UNIQUE WELL ID
API  .                         : API NUMBER
SLAT .WGS84 3.0314498471068987 : SURFACE LATITUDE
SLON .WGS84  8.782247756437002 : SURFACE LONGITUDE
DATUM.F                    nan : DEPTH DATUM ELEV
~Curve Information -----------------------------------------
DEPT   .FT    : 
DPHZ_LS.DEC   : HGRD STANDARD RESOLUTION DENSITY POROSITY
DTCO   .US/F  : DELTA-T COMPRESSIONAL
DTSM   .US/F  : DELTA-T SHEAR
HCALD  .IN    : HRCC CALIPER CALIBRATED FROM DENSITY LOG
HDRA   .G/C3  : HRDD SPINE AND RIBS DENSITY CORRECTION
HSGRD  .GAPI  : HNGS STANDARD GAMMA RAY FROM DENSITY LOG
PEFZ   .B/E   : HRDD STANDARD RESOLUTION FORMATION PHOTOELECTRIC FACTOR
RHOZ   .G/C3  : HRDD STANDARD RESOLUTION FORMATION DENSITY
RLA3   .OHMM  : APPARENT RESISTIVITY FROM COMPUTED FOCUSING MODE 3
RLA5   .OHMM  : APPARENT RESISTIVITY FROM COMPUTED FOCUSING MODE 5
RXOZ   .OHMM  : INVADED FORMATION RESISTIVITY FILTERED AT 18 INCHES
TNPH_LS.DEC   : THERMAL NEUTRON POROSITY [LIMESTONE]
~Params ----------------------------------------------------
~Other -----------------------------------------------------
~ASCII -----------------------------------------------------
# ...
 2174.00000   -0.10280   -9999.25   -9999.25    8.01650    0.00140    9.21330    3.53910    2.86630  352.41800  441.01610  253.92320    0.01700
 2174.50000   -0.10240   -9999.25   -9999.25    8.01580    0.00120    9.35100    3.60530    2.86460  247.94820  427.32830  287.18950    0.01640
 2175.00000   -0.09340   -9999.25   -9999.25    8.01760    0.00040    8.92340    3.71880    2.86060  167.47100  221.81200  207.83480    0.01630
 2175.50000   -0.09850   -9999.25   -9999.25    8.02330   -0.00170    8.38900    3.81010    2.86460  232.16040  230.36180  146.09140    0.01690
 2176.00000   -0.10920   -9999.25   -9999.25    8.02900   -0.00210    7.76890    3.88060    2.87400  313.02270  416.67570  180.95490    0.01850
 2176.50000   -0.11050   -9999.25   -9999.25    8.03470   -0.00420    7.02060    3.77410    2.88340  502.30000 1045.53580  219.45900    0.01840
 2177.00000   -0.10860   -9999.25   -9999.25    8.03050   -0.00420    6.41130    3.65350    2.88640 1006.88320 1556.30080  393.68540    0.01450
 2177.50000   -0.11050   -9999.25   -9999.25    8.01980    0.00040    6.14410    3.60190    2.89630  300.19330  897.09980  396.17310    0.01050
 2178.00000   -0.11980   -9999.25   -9999.25    8.00910    0.00040    5.28890    3.67630    2.90620  533.84330  820.40350  339.20370    0.00650
 2178.50000   -0.12870   -9999.25   -9999.25    7.99840    0.00050    4.48710    3.77630    2.91790 1003.65370 1470.44000  280.01910    0.00340
 2179.00000   -0.12960   -9999.25   -9999.25    7.98770    0.00050    3.68530    3.81950    2.91840  609.55390 1272.29760  232.34140    0.00570
 2179.50000   -0.11340   -9999.25   -9999.25    7.98890    0.00050    3.68550    3.75860    2.89940  401.61530  503.41570  205.84790    0.00790
 2180.00000   -0.10220   -9999.25   -9999.25    7.99430   -0.00060    5.07570    3.64310    2.88380  324.65160  383.73250  232.86470    0.01020
 2180.50000   -0.08970   -9999.25   -9999.25    7.99370   -0.00380    7.27380    3.50550    2.86820  320.58160  339.45080  244.02520    0.01130
 2181.00000   -0.09190   -9999.25   -9999.25    7.99320   -0.00260    9.62740    3.38860    2.85490  345.77660  410.33120  216.49230    0.01280
 2181.50000   -0.08530   -9999.25   -9999.25    7.99260   -0.00170   12.60280    3.35910    2.84300  436.62580  529.45110  244.35150    0.01540
 2182.00000   -0.07540   -9999.25   -9999.25    7.99210   -0.00010   15.57820    3.36580    2.83120  317.16630  464.04290  149.68330    0.02040
 2182.50000   -0.06340   -9999.25   -9999.25    7.99160   -0.00140   18.55360    3.38490    2.81860  122.63810  170.20490   35.93600    0.02720
 2183.00000   -0.06350   -9999.25   -9999.25    7.99100   -0.00290   16.34360    3.40900    2.81160   44.82640   51.35730   36.11690    0.03270
 2183.50000   -0.07360   -9999.25   -9999.25    7.99050   -0.00240   13.22380    3.45450    2.82690   51.14530  306.47740   44.64580    0.02930
 2184.00000   -0.08980   -9999.25   -9999.25    7.99000   -0.00280   10.10410    3.46140    2.84590  356.83390  543.42130   55.17220    0.02400
 2184.50000   -0.09270   -9999.25   -9999.25    7.98940   -0.00290    6.98430    3.45020    2.86120  534.22590  623.74760  340.86410    0.01870
 2185.00000   -0.08460   -9999.25   -9999.25    7.98890   -0.00340    5.71890    3.45190    2.85610  633.37530  725.65460  394.55470    0.01650
 2185.50000   -0.07650   -9999.25   -9999.25    7.98830   -0.00480    5.29140    3.46300    2.83390  563.26100  616.04530  373.25740    0.01610
 2186.00000   -0.07810   -9999.25   -9999.25    7.98780   -0.00570    5.29160    3.44670    2.83010  433.01240  478.26770  282.81870    0.01560
 2186.50000   -0.09040   -9999.25   -9999.25    7.98730   -0.00520    5.52420    3.43030    2.84340  302.76370  340.49020  229.97710    0.01610
 2187.00000   -0.09920   -9999.25   -9999.25    7.98670   -0.00200    6.14760    3.36630    2.85980  244.41900  280.03680  180.55430    0.01650
 2187.50000   -0.09790   -9999.25   -9999.25    7.98620    0.00120    7.17330    3.35170    2.87020  286.72240  321.08250  175.16910    0.01670
 2188.00000   -0.09320   -9999.25   -9999.25    7.98560    0.00020    8.61630    3.35250    2.86690  276.07030  361.50300  152.83210    0.01620
 2188.50000   -0.09070   -9999.25   -9999.25    7.98510   -0.00190   10.02320    3.40470    2.85940  122.91880  215.87170   96.56960    0.01500
 2189.00000   -0.08950   -9999.25   -9999.25    7.98460   -0.00300   11.82150    3.40830    2.85190  133.44750  156.91550  109.54890    0.01370
 2189.50000   -0.08640   -9999.25   -9999.25    7.98400   -0.00350   11.80680    3.41190    2.84440  150.39890  165.92790   89.52920    0.01330
 2190.00000   -0.08230   -9999.25   -9999.25    7.98350   -0.00340   10.66260    3.42680    2.84610  150.39730  315.25600  127.59010    0.01310
 2190.50000   -0.08800   -9999.25   -9999.25    7.98290   -0.00310   10.09800    3.43470    2.85450  336.20160  499.30160  155.93800    0.01290
 2191.00000   -0.09510   -9999.25   -9999.25    7.98240   -0.00280   10.57600    3.38480    2.86480  319.65720  647.75510  301.96390    0.01240
 2191.50000   -0.09850   -9999.25   -9999.25    7.98190   -0.00050   11.17360    3.37380    2.87500  321.68410  355.82830  253.87400    0.01170
 2192.00000   -0.10900   -9999.25   -9999.25    7.98130    0.00270   11.77110    3.36270    2.88520  417.25100  621.00030  306.46330    0.01080
 2192.50000   -0.11120   -9999.25   -9999.25    7.98080    0.00480   12.12960    3.33170    2.88990  635.64310  792.57430  471.03450    0.01000
 2193.00000   -0.11180   -9999.25   -9999.25    7.98030    0.00430   10.80050    3.32000    2.88510  763.23830  825.38240  602.69120    0.00940
 2193.50000   -0.10240   -9999.25   -9999.25    7.97970    0.00320    9.13350    3.30820    2.87720  815.01220  910.51780  589.76590    0.00890
 2194.00000   -0.09510   -9999.25   -9999.25    7.97920   -0.00070    8.09020    3.29720    2.86940  835.83730 1069.01810  656.65610    0.00820
 2194.50000   -0.09550   -9999.25   -9999.25    7.97860   -0.00310    6.91390    3.28920    2.86320  826.88290 1121.14730  619.95660    0.00750
 2195.00000   -0.09330   -9999.25   -9999.25    7.97810   -0.00320    6.32250    3.27150    2.85810  820.16690  974.87310  582.32640    0.00710
 2195.50000   -0.08840   -9999.25   -9999.25    7.97760   -0.00390    6.34240    3.32810    2.85290  884.63700 1028.87280  584.76670    0.00670
 2196.00000   -0.08460   -9999.25   -9999.25    7.97700   -0.00260    6.76240    3.37860    2.84690  766.81050 1015.12870  615.85670    0.00680
 2196.50000   -0.08760   -9999.25   -9999.25    7.97650   -0.00260    7.31790    3.43380    2.84850  513.69530  727.16540  478.55930    0.00750
 2197.00000   -0.09270   -9999.25   -9999.25    7.97590   -0.00180    7.67850    3.41910    2.85590  402.17670  611.97840  475.53830    0.00840
 2197.50000   -0.09770   -9999.25   -9999.25    7.97540   -0.00020    7.21760    3.39380    2.86330  569.75810 1070.23070  560.26190    0.00860
 2198.00000   -0.10220   -9999.25   -9999.25    7.97490   -0.00010    6.94590    3.36600    2.87020  975.95820 1415.76530  740.63640    0.00850
 2198.50000   -0.10340   -9999.25   -9999.25    7.97430   -0.00010    6.35930    3.33950    2.87480 1204.91960 1479.65160  823.10100    0.00760
 2199.00000   -0.10450   -9999.25   -9999.25    7.97380    0.00050    6.20730    3.30700    2.87940 1283.34210 1633.99800  797.54900    0.00690
 2199.50000   -0.10620   -9999.25   -9999.25    7.97330    0.00060    6.60180    3.27460    2.88230 1275.27990 1760.08460  941.29290    0.00690
 2200.00000   -0.11020   -9999.25   -9999.25    7.97270    0.00060    7.18550    3.26090    2.88560 1367.30990 1833.49430 1085.03680    0.00710
 2200.50000   -0.11210   -9999.25   -9999.25    7.94980    0.00350    7.66080    3.26350    2.88800 1384.23540 1765.41780 1078.16040    0.00750
 2201.00000   -0.10820   -9999.25   -9999.25    7.94010    0.00320    8.64710    3.27870    2.88170 1028.20080 1287.49150  756.26060    0.00790
 2201.50000   -0.10350   -9999.25   -9999.25    7.93740    0.00080    9.19340    3.30750    2.87510  594.02130  809.56520  492.53170    0.00930
