~Version ---------------------------------------------------
VERS.   2.0 : CWLS log ASCII Standard -VERSION 2.0
WRAP.    NO : One line per depth step
DLM . SPACE : Column Data Section Delimiter
~Well ------------------------------------------------------
STRT .FT                 102.0 : START DEPTH
STOP .FT                5015.0 : STOP DEPTH
STEP .FT                   0.5 : STEP
NULL .                -9999.25 : NULL VALUE
COMP .                         : COMPANY
WELL .                         : WELL
FLD  .                         : FIELD
LOC  .                         : LOCATION
PROV .                         : PROVINCE
CNTY .                         : COUNTY
STAT .                         : STATE
CTRY .                         : COUNTRY
SRVC .                         : SERVICE COMPANY
DATE .                         : DATE
UWI  .                         : UNIQUE WELL ID
API  .                         : API NUMBER
SLAT .WGS84 3.0314498471068987 : SURFACE LATITUDE
SLON .WGS84  8.782247756437002 : SURFACE LONGITUDE
DATUM.F                    nan : DEPTH DATUM ELEV
~Curve Information -----------------------------------------
DEPT   .FT    : 
DPHZ_LS.DEC   : HGRD STANDARD RESOLUTION DENSITY POROSITY
DTCO   .US/F  : DELTA-T COMPRESSIONAL
DTSM   .US/F  : DELTA-T SHEAR
HCALD  .IN    : HRCC CALIPER CALIBRATED FROM DENSITY LOG
HDRA   .G/C3  : HRDD SPINE AND RIBS DENSITY CORRECTION
HSGRD  .GAPI  : HNGS STANDARD GAMMA RAY FROM DENSITY LOG
PEFZ   .B/E   : HRDD STANDARD RESOLUTION FORMATION PHOTOELECTRIC FACTOR
RHOZ   .G/C3  : HRDD STANDARD RESOLUTION FORMATION DENSITY
RLA3   .OHMM  : APPARENT RESISTIVITY FROM COMPUTED FOCUSING MODE 3
RLA5   .OHMM  : APPARENT RESISTIVITY FROM COMPUTED FOCUSING MODE 5
RXOZ   .OHMM  : INVADED FORMATION RESISTIVITY FILTERED AT 18 INCHES
TNPH_LS.DEC   : THERMAL NEUTRON POROSITY [LIMESTONE]
~Params ----------------------------------------------------
~Other -----------------------------------------------------
~ASCII -----------------------------------------------------
# ...
 4386.00000   -0.06280   46.12090   81.34140    8.21300   -0.00290   36.84460    3.64660    2.81330 1050.46700 1812.93110  465.56050    0.02320
 4386.50000   -0.06860   46.03010   81.13450    8.21670   -0.00370   31.50840    3.75630    2.82570 1264.06070 4351.95320  522.47290    0.02050
 4387.00000   -0.07730   45.83680   80.44470    8.22040   -0.00450   28.70780    3.85750    2.83820 1412.94240 19519.15180  602.93680    0.01650
 4387.50000   -0.08690   45.77000   80.30680    8.22420   -0.00360   26.98470    3.91330    2.86190 1518.68290 84474.30310  646.35350    0.01400
 4388.00000   -0.09600   45.58920   80.28710    8.22790    0.00080   25.78630    3.89730    2.88420 1539.55830 99944.58830  702.27440    0.01260
 4388.50000   -0.09960   45.36500   80.23780    8.23160    0.00520   25.09660    3.88120    2.88470 1515.14200 33091.80110  625.25600    0.01150
 4389.00000   -0.10440   45.18460   80.18850    8.23540    0.00860   25.00640    3.86520    2.87440 1515.75430 29755.82780  715.62970    0.01050
 4389.50000   -0.10060   45.24350   80.13930    8.23910    0.00690   24.97970    3.86900    2.87130 1547.80320 95603.27170  718.37750    0.00910
 4390.00000   -0.10860   45.62800   80.09980    8.24280    0.00540   24.95290    3.89070    2.90720 1594.15160 63972.39260  766.20810    0.00760
 4390.50000   -0.12050   45.92720   80.32070    8.24650    0.00420   24.33720    3.87990    2.90720 1597.94600 81729.43470  820.52870    0.00610
 4391.00000   -0.11900   46.02860   80.68910    8.25030    0.00430   23.87380    3.82030    2.89750 1538.80080 61228.47220  776.41920    0.00670
 4391.50000   -0.10930   45.88920   81.05760    8.25400    0.00440   23.68930    3.76080    2.87860 1593.08030 72319.29920  625.26040    0.00800
 4392.00000   -0.10150   45.80050   80.98880    8.25770    0.00070   24.59950    3.72450    2.85960 1629.39450 102174.62550  656.83720    0.00940
 4392.50000   -0.07710   45.42000   80.42110    8.26140   -0.00260   25.40320    3.70360    2.84070 1387.82550 14831.70650  708.48840    0.01180
 4393.00000   -0.06810   45.02570   80.28520    8.26520   -0.00400   25.19070    3.68910    2.82180 1375.07010 24931.88180  678.20580    0.01360
 4393.50000   -0.06870   44.57620   79.23520    8.26890   -0.00740   22.69080    3.66640    2.81890 1525.25290 84868.97760  654.83300    0.01530
 4394.00000   -0.07540   44.40580   78.68030    8.27260   -0.00480   21.20670    3.63820    2.83050 1510.89120 82739.16480  625.90450    0.01650
 4394.50000   -0.08340   44.35110   78.28140    8.27640    0.00060   18.90110    3.60990    2.84450 1399.55060 41203.58690  435.74680    0.01690
 4395.00000   -0.09030   44.36500   78.35210    8.28010    0.00370   18.48520    3.58170    2.85390 1288.21000 16282.57820  215.80390    0.01720
 4395.50000   -0.08420   44.38810   78.49910    8.28380    0.00580   17.99960    3.58340    2.84760 1543.36890 27187.36360  182.43260    0.01700
 4396.00000   -0.07620   44.37510   78.33340    8.28120    0.00260   18.54290    3.59680    2.83250 1403.23390 36033.38730  173.16470    0.01640
 4396.50000   -0.06900   44.29870   78.16770    8.27700   -0.00230   18.59930    3.63380    2.82180 1542.71900 63628.39550  315.60120    0.01530
 4397.00000   -0.07220   44.32500   78.11970    8.27270   -0.00360   18.90350    3.69220    2.82510 1548.92660 97553.70610  415.42920    0.01480
 4397.50000   -0.07680   44.42830   78.42600    8.26850   -0.00040   18.97780    3.72080    2.83290 1543.20190 87979.88860  602.03220    0.01530
 4398.00000   -0.07890   44.51020   78.77670    8.26430   -0.00010   20.49110    3.76570    2.84070 1465.96050 46175.01190  501.28410    0.01570
 4398.50000   -0.08300   44.57790   79.12740    8.26010    0.00170   21.17730    3.74250    2.84880 1431.54070 20960.19870  583.92740    0.01560
 4399.00000   -0.08970   44.79290   79.47810    8.25590    0.00350   24.43760    3.73420    2.85690 1456.70830 46972.73270  699.83070    0.01540
 4399.50000   -0.09600   44.86300   79.82880    8.25170    0.00410   27.95750    3.68360    2.86360 1473.51360 45233.10570  883.97920    0.01520
 4400.00000   -0.08970   44.71460   80.17950    8.24740    0.00020   30.26170    3.62430    2.85200 1418.29340 22739.40060  587.63350    0.01500
 4400.50000   -0.07930   44.84490   80.53020    8.24320   -0.00290   29.37840    3.56490    2.82530 1278.93790 9781.03100  697.55770    0.01500
 4401.00000   -0.07180   45.07090   80.60120    8.24170   -0.00510   28.04980    3.54170    2.82470 1302.15860 10746.33480  578.81720    0.01540
 4401.50000   -0.07120   45.06800   80.60210    8.24430   -0.00560   26.36240    3.54260    2.83010 1328.24000 8298.67140  709.90070    0.01570
 4402.00000   -0.07300   45.12690   80.60330    8.24680   -0.00020   25.98020    3.54350    2.83010 1266.90100 9045.86310  852.86680    0.01580
 4402.50000   -0.07650   45.27980   80.60350    8.24940   -0.00310   26.28720    3.54440    2.82740 1266.90100 6368.23140  653.29280    0.01580
 4403.00000   -0.07210   45.58690   80.60350    8.25190   -0.00300   26.44010    3.54530    2.81940 1266.90100 8154.63210  713.57210    0.01590
 4403.50000   -0.06770   45.81740   80.60350    8.25450    0.00040   25.50400    3.56880    2.81830 1254.97740 9995.27320  599.61390    0.01610
 4404.00000   -0.06610   45.98200   80.60350    8.25700   -0.00330   24.63580    3.62330    2.81940 1130.99670 9593.54360  673.36400    0.01650
 4404.50000   -0.07340   46.19480   80.60350    8.25960    0.00090   22.96770    3.63510    2.82530 1120.35220 4200.69050  564.40220    0.01800
 4405.00000   -0.07200   46.34780   80.60350    8.26210    0.00090   23.49580    3.61120    2.82850 1078.76660 3498.83200  550.34560    0.01890
 4405.50000   -0.07200   46.31610   80.61050    8.26470    0.00090   25.58730    3.56820    2.82910  950.85010 2598.14210  358.62660    0.01970
 4406.00000   -0.07410   46.06820   80.74950    8.26720    0.00240   26.91200    3.52510    2.82960  970.05120 2153.31920  336.82280    0.01980
 4406.50000   -0.07660   45.68920   80.70140    8.26970    0.00140   24.85380    3.48920    2.82590 1055.85300 3706.37240  417.58360    0.01920
 4407.00000   -0.07310   45.31960   80.65310    8.27230   -0.00230   22.30420    3.51110    2.82100 1141.65490 7131.39220  599.61390    0.01870
 4407.50000   -0.06820   44.96410   80.47680    8.27480   -0.00500   20.11630    3.56540    2.82000 1227.45680 12103.61190  872.57890    0.01770
 4408.00000   -0.07660   44.57640   80.38270    8.27740   -0.00500   19.28880    3.61380    2.82000 1278.93790 14092.49980  918.89890    0.01660
 4408.50000   -0.09990   44.32900   80.28870    8.27290   -0.00180   18.93460    3.63880    2.85760 1289.31720 8660.87840  844.91400    0.01610
 4409.00000   -0.10500   44.29400   80.19460    8.26670    0.00310   19.10570    3.66390    2.87720 1401.39820 12263.16550  803.35320    0.01590
 4409.50000   -0.10180   44.37670   80.19510    8.26050    0.00160   20.93130    3.69250    2.87520 1430.21760 36972.53320  868.02250    0.01710
 4410.00000   -0.09130   44.31780   80.28780    8.25430   -0.01140   22.83080    3.69900    2.86250 1355.83320 12500.58170  948.82520    0.01820
 4410.50000   -0.08880   44.24420   80.14570    8.24810   -0.01520   25.06140    3.63590    2.85200 1331.95020 12656.01290  834.43560    0.01920
 4411.00000   -0.09170   44.17060   80.08820    8.24190   -0.00920   26.60060    3.57530    2.85720 1329.36760 12975.55990  783.97080    0.02030
 4411.50000   -0.09550   44.11880   79.95080    8.24120    0.00070   27.94240    3.52640    2.86280 1317.41660 7734.72700  757.03210    0.02150
 4412.00000   -0.09700   44.09210   79.81330    8.24410    0.00240   29.67520    3.47750    2.86640 1223.96580 4850.46460  881.86620    0.02200
 4412.50000   -0.09330   44.09490   79.67590    8.24700   -0.00080   32.01170    3.50000    2.86110 1129.28350 4036.35310  941.15670    0.02210
 4413.00000   -0.08770   44.23550   79.53840    8.24980   -0.00430   36.01130    3.52580    2.85010 1061.12560 3638.80200  936.76970    0.02130
 4413.50000   -0.08000   44.41060   79.42780    8.25270   -0.00650   39.90980    3.56220    2.83920 1041.65490 3234.17160  868.83310    0.02020
