~Version ---------------------------------------------------
VERS.   2.0 : CWLS log ASCII Standard -VERSION 2.0
WRAP.    NO : One line per depth step
DLM . SPACE : Column Data Section Delimiter
~Well ------------------------------------------------------
STRT .FT                 102.0 : START DEPTH
STOP .FT                5015.0 : STOP DEPTH
STEP .FT                   0.5 : STEP
NULL .                -9999.25 : NULL VALUE
COMP .                         : COMPANY
WELL .                         : WELL
FLD  .                         : FIELD
LOC  .                         : LOCATION
PROV .                         : PROVINCE
CNTY .                         : COUNTY
STAT .                         : STATE
CTRY .                         : COUNTRY
SRVC .                         : SERVICE COMPANY
DATE .                         : DATE
UWI  .                         : UNIQUE WELL ID
API  .                         : API NUMBER
SLAT .WGS84 3.0314498471068987 : SURFACE LATITUDE
SLON .WGS84  8.782247756437002 : SURFACE LONGITUDE
DATUM.F                    nan : DEPTH DATUM ELEV
~Curve Information -----------------------------------------
DEPT   .FT    : 
DPHZ_LS.DEC   : HGRD STANDARD RESOLUTION DENSITY POROSITY
DTCO   .US/F  : DELTA-T COMPRESSIONAL
DTSM   .US/F  : DELTA-T SHEAR
HCALD  .IN    : HRCC CALIPER CALIBRATED FROM DENSITY LOG
HDRA   .G/C3  : HRDD SPINE AND RIBS DENSITY CORRECTION
HSGRD  .GAPI  : HNGS STANDARD GAMMA RAY FROM DENSITY LOG
PEFZ   .B/E   : HRDD STANDARD RESOLUTION FORMATION PHOTOELECTRIC FACTOR
RHOZ   .G/C3  : HRDD STANDARD RESOLUTION FORMATION DENSITY
RLA3   .OHMM  : APPARENT RESISTIVITY FROM COMPUTED FOCUSING MODE 3
RLA5   .OHMM  : APPARENT RESISTIVITY FROM COMPUTED FOCUSING MODE 5
RXOZ   .OHMM  : INVADED FORMATION RESISTIVITY FILTERED AT 18 INCHES
TNPH_LS.DEC   : THERMAL NEUTRON POROSITY [LIMESTONE]
~Params ----------------------------------------------------
~Other -----------------------------------------------------
~ASCII -----------------------------------------------------
# ...
 3770.00000    0.01630   56.11320   89.98410    8.06020    0.00090   30.00620    3.02400    2.64360   76.33180  112.31200   40.77170    0.06750
 3770.50000    0.04540   56.89790   89.90020    8.06760    0.00030   33.78050    2.94860    2.60350   60.03910   75.95770   34.56770    0.07230
 3771.00000    0.06520   56.40200   89.81630    8.07500    0.00020   33.74930    2.94520    2.60350   51.86150   67.11750   31.26620    0.08380
 3771.50000    0.06240   55.21000   89.73240    8.08250   -0.00410   31.64440    3.01100    2.63950   65.80000   82.73240   33.68020    0.08790
 3772.00000    0.04360   53.97450   89.64860    8.08990   -0.00540   29.84170    3.09710    2.66820   79.73850  152.96010   45.30460    0.08570
 3772.50000    0.00900   52.74870   89.56470    8.09430   -0.00370   29.65840    3.24170    2.69970   92.04300  123.94190   56.77730    0.07970
 3773.00000   -0.01700   51.93190   89.53110    8.10680   -0.00340   30.33420    3.32850    2.73530   87.60120  100.89740   71.61780    0.07100
 3773.50000   -0.03870   52.36980   90.16840    8.10990   -0.00170   29.29850    3.34650    2.77080  107.76230  145.22850   82.63170    0.06230
 3774.00000   -0.04120   53.30350   90.79240    8.11300   -0.00290   30.02070    3.32170    2.77770  118.39190  171.34030   78.76020    0.05360
 3774.50000   -0.02680   54.71570   91.41650    8.11610   -0.00330   33.08980    3.27810    2.74960   82.68840  138.72140   67.60480    0.05200
 3775.00000   -0.01240   55.50680   92.04050    8.11920   -0.00360   41.67710    3.11390    2.71490   66.31510   88.56840   49.85480    0.05310
 3775.50000    0.00230   56.29780   92.70400    8.12230   -0.00170   49.03380    2.99930    2.70530   49.94190   65.57210   37.31500    0.06050
 3776.00000    0.00350   56.29100   92.77300    8.12530    0.00010   55.23900    2.92020    2.70470   33.56860   42.57570   28.96340    0.06870
 3776.50000   -0.00610   55.38970   92.84200    8.12120    0.00150   55.12960    2.90790    2.71860   36.44310   42.56770   28.45470    0.07590
 3777.00000   -0.01870   54.47970   92.70400    8.11710    0.00140   49.38990    3.02100    2.74170   56.02290   63.11560   33.05830    0.08190
 3777.50000   -0.03210   53.62200   91.97990    8.11290    0.00130   42.41580    3.13890    2.76480   73.85870   79.69470   45.42220    0.07950
 3778.00000   -0.04370   53.46040   91.24690    8.10880    0.00120   37.27450    3.22790    2.77920   90.53170   98.33240   56.94840    0.07360
 3778.50000   -0.04310   53.67290   90.51400    8.10470    0.00110   34.71430    3.25730    2.76580  100.21950  109.51500   62.41020    0.06780
 3779.00000   -0.01980   53.84990   89.80700    8.10050    0.00080   33.98720    3.22430    2.75250   81.84680  101.29210   59.69360    0.06620
 3779.50000   -0.00260   53.61750   89.16080    8.09640    0.00060   35.18810    3.15230    2.68870   61.61570   77.16700   49.41110    0.06780
 3780.00000    0.01480   53.08100   88.58010    8.09230    0.00030   36.13530    3.10360    2.68700   45.14600   52.70890   36.56820    0.07040
 3780.50000    0.01040   52.15530   87.99940    8.08810    0.00000   32.61180    3.05490    2.68700   46.89640   80.66930   37.69900    0.07290
 3781.00000   -0.00060   50.83270   87.41860    8.08400   -0.00020   27.98310    3.20400    2.70360  112.64130  206.78110   55.85730    0.07320
 3781.50000   -0.01270   49.89800   87.04830    8.07990    0.00020   20.02980    3.35600    2.72430  241.65640  328.72920  104.46560    0.06870
 3782.00000   -0.02740   49.18940   85.71900    8.07570    0.00150   16.38050    3.46380    2.74490  305.20420  566.76650  172.93470    0.06060
 3782.50000   -0.03830   48.73960   83.96320    8.07160    0.00400   12.93610    3.50940    2.76560  500.67320 1258.43470  212.07300    0.05300
 3783.00000   -0.04620   48.39510   82.90970    8.06750    0.00490   11.04350    3.54790    2.78630  949.74930 1813.14820  321.89360    0.04740
 3783.50000   -0.05290   48.10870   86.44470    8.06330    0.00540   11.26250    3.54550    2.79530  968.12070 1768.42770  279.93890    0.04190
 3784.00000   -0.05810   47.88690   88.56580    8.05920    0.00400   12.61770    3.53690    2.80440  862.38870 1298.78320  251.52840    0.03980
 3784.50000   -0.05850   47.69950   86.13780    8.05510    0.00220   13.08640    3.50820    2.80470  756.65670 1266.76060  376.64380    0.03960
 3785.00000   -0.05690   47.67470   82.55100    8.05100    0.00120   13.96680    3.50320    2.79930  672.07110  995.23580  518.75910    0.04010
 3785.50000   -0.05380   47.82430   81.23360    8.04930   -0.00050   14.69000    3.49820    2.79390  689.39930  851.93830  630.28080    0.04030
 3786.00000   -0.04940   48.04550   81.82040    8.05130   -0.00250   15.24900    3.49320    2.78860  607.33340 1308.20720  611.64420    0.04040
 3786.50000   -0.04420   48.30840   82.40720    8.05330   -0.00350   15.21530    3.48820    2.77850  476.25650  963.30810  336.49410    0.04140
 3787.00000   -0.03770   48.72710   82.39300    8.05530   -0.00290   15.70770    3.43960    2.76530  345.17970  415.52470  244.58170    0.04860
 3787.50000   -0.02950   48.99030   82.07910    8.05730   -0.00130   16.94870    3.38010    2.75220  285.49310  301.35000  197.77820    0.05660
 3788.00000   -0.02090   48.95340   82.49750    8.05930   -0.00330   19.14760    3.32060    2.74100  269.81220  305.23850  219.92330    0.06510
 3788.50000   -0.02240   48.73280   83.13830    8.06140   -0.00540   21.19890    3.26930    2.74730  250.21520  281.28840  197.87060    0.06760
 3789.00000   -0.03450   48.32760   83.49300    8.06340   -0.00360   23.43820    3.25080    2.77520  332.73130  518.08070  259.87520    0.06180
 3789.50000   -0.05100   48.00830   83.06830    8.06540   -0.00170   25.40920    3.27670    2.80170  597.46860  761.97500  321.26590    0.05390
 3790.00000   -0.05810   48.14030   82.95040    8.06740   -0.00160   25.02660    3.31360    2.80220  521.25320  720.27340  227.05750    0.04980
 3790.50000   -0.04800   48.38080   83.62420    8.06940   -0.00150   23.12360    3.35050    2.78260  358.38240  511.06200  165.17700    0.05190
 3791.00000   -0.03620   48.45840   84.13530    8.07140   -0.00140   21.96750    3.34150    2.76740  283.06020  301.85050  139.65530    0.05870
 3791.50000   -0.03660   48.50420   84.11110    8.07300    0.00040   20.94470    3.27500    2.76690  271.98050  283.47050  141.63350    0.06550
 3792.00000   -0.04420   48.40150   84.08690    8.07730    0.00120   19.98230    3.23870    2.77830  265.25760  280.87510  158.76170    0.06670
 3792.50000   -0.04970   48.27350   83.95440    8.08440    0.00130   19.66150    3.27860    2.78970  273.82880  423.90600  205.42290    0.06540
 3793.00000   -0.05140   48.19880   83.56030    8.09140    0.00100   19.66150    3.34870    2.79680  404.18780  599.34970  279.13610    0.06080
 3793.50000   -0.05110   48.38650   82.91420    8.09850    0.00070   20.33870    3.39850    2.79800  531.07080  749.14230  429.09030    0.05720
 3794.00000   -0.04880   48.65160   83.23760    8.10560    0.00040   21.05160    3.44650    2.78380  543.61880  730.64580  478.59620    0.05400
 3794.50000   -0.04000   48.97550   83.56100    8.11270    0.00010   21.76440    3.49450    2.76750  500.49110  596.27890  400.33360    0.05670
 3795.00000   -0.03190   49.38750   83.88450    8.11970   -0.00110   21.90700    3.53760    2.75750  396.26990  434.03330  264.35750    0.06010
 3795.50000   -0.03140   49.69490   84.24830    8.12680   -0.00030   19.96250    3.55880    2.76540  292.04870  332.48970  154.28330    0.06350
 3796.00000   -0.04130   49.68100   83.42350    8.13390    0.00050   19.55650    3.58260    2.78470  286.62240  306.40380  132.86930    0.06690
 3796.50000   -0.05270   49.40350   82.40630    8.14100    0.00130   18.96550    3.56220    2.79800  256.01020  260.14000  122.14350    0.06840
 3797.00000   -0.05100   48.89930   83.13850    8.14800    0.00310   18.42550    3.54190    2.79220  222.85750  253.72550  112.90900    0.06960
 3797.50000   -0.04210   48.50400   84.28220    8.15510    0.00120   17.94400    3.51850    2.77380  234.44610  358.19910  110.45670    0.07180
