~Version ---------------------------------------------------
VERS.   2.0 : CWLS log ASCII Standard -VERSION 2.0
WRAP.    NO : One line per depth step
DLM . SPACE : Column Data Section Delimiter
~Well ------------------------------------------------------
STRT .FT                 102.0 : START DEPTH
STOP .FT                5015.0 : STOP DEPTH
STEP .FT                   0.5 : STEP
NULL .                -9999.25 : NULL VALUE
COMP .                         : COMPANY
WELL .                         : WELL
FLD  .                         : FIELD
LOC  .                         : LOCATION
PROV .                         : PROVINCE
CNTY .                         : COUNTY
STAT .                         : STATE
CTRY .                         : COUNTRY
SRVC .                         : SERVICE COMPANY
DATE .                         : DATE
UWI  .                         : UNIQUE WELL ID
API  .                         : API NUMBER
SLAT .WGS84 3.0314498471068987 : SURFACE LATITUDE
SLON .WGS84  8.782247756437002 : SURFACE LONGITUDE
DATUM.F                    nan : DEPTH DATUM ELEV
~Curve Information -----------------------------------------
DEPT   .FT    : 
DPHZ_LS.DEC   : HGRD STANDARD RESOLUTION DENSITY POROSITY
DTCO   .US/F  : DELTA-T COMPRESSIONAL
DTSM   .US/F  : DELTA-T SHEAR
HCALD  .IN    : HRCC CALIPER CALIBRATED FROM DENSITY LOG
HDRA   .G/C3  : HRDD SPINE AND RIBS DENSITY CORRECTION
HSGRD  .GAPI  : HNGS STANDARD GAMMA RAY FROM DENSITY LOG
PEFZ   .B/E   : HRDD STANDARD RESOLUTION FORMATION PHOTOELECTRIC FACTOR
RHOZ   .G/C3  : HRDD STANDARD RESOLUTION FORMATION DENSITY
RLA3   .OHMM  : APPARENT RESISTIVITY FROM COMPUTED FOCUSING MODE 3
RLA5   .OHMM  : APPARENT RESISTIVITY FROM COMPUTED FOCUSING MODE 5
RXOZ   .OHMM  : INVADED FORMATION RESISTIVITY FILTERED AT 18 INCHES
TNPH_LS.DEC   : THERMAL NEUTRON POROSITY [LIMESTONE]
~Params ----------------------------------------------------
~Other -----------------------------------------------------
~ASCII -----------------------------------------------------
# ...
 3182.00000   -0.06140   48.18600   86.97380    8.17210   -0.00100   21.92400    3.69210    2.80880  340.98550  483.69810  119.95290    0.05160
 3182.50000   -0.06390   48.44040   86.14120    8.16250    0.00090   24.72220    3.63880    2.80540  230.90240  335.17260   99.22790    0.05610
 3183.00000   -0.05890   48.82760   85.30870    8.15290    0.00140   25.49570    3.58560    2.79580  192.37230  210.96420   79.54610    0.06180
 3183.50000   -0.05250   48.78410   85.08850    8.14340    0.00490   24.04140    3.56380    2.78500  179.55620  200.58910   56.63630    0.06750
 3184.00000   -0.04430   48.55520   85.35320    8.13380    0.00390   21.20780    3.58930    2.77410  175.08610  203.13350   37.33480    0.07320
 3184.50000   -0.03810   48.20680   85.58200    8.12420    0.00160   19.08000    3.63960    2.77190  153.37580  192.53870   34.07390    0.07690
 3185.00000   -0.04110   47.99580   85.69780    8.11460    0.00100   20.28530    3.58640    2.78170  305.60150  498.05380   49.47410    0.07330
 3185.50000   -0.04750   47.86730   86.56350    8.10500    0.00030   21.79200    3.52770    2.79370  493.45160  728.88150  119.45670    0.06510
 3186.00000   -0.05250   47.80210   87.15590    8.09550   -0.00120   22.60860    3.49400    2.79010  534.38150  905.00780  364.05440    0.05770
 3186.50000   -0.04620   48.04480   86.61560    8.08970   -0.00450   21.96700    3.47370    2.78040  514.54610  861.17390  389.98120    0.05690
 3187.00000   -0.03960   48.50480   85.89460    8.08970   -0.00770   22.42530    3.48490    2.77270  350.14170  584.56180  142.71290    0.05790
 3187.50000   -0.03960   48.93150   85.35620    8.08360   -0.00610   23.25020    3.46120    2.78130  248.42920  307.94970  131.30200    0.05960
 3188.00000   -0.04250   49.12200   85.54840    8.07810   -0.00240   22.19420    3.47420    2.78290  187.72450  252.22760  104.93610    0.06130
 3188.50000   -0.04490   49.08190   85.74070    8.07580    0.00060   20.25620    3.51610    2.77800  114.76630  192.15810   94.85280    0.06170
 3189.00000   -0.03990   49.01670   86.00480    8.07350    0.00090   18.31810    3.55800    2.77190  114.76630  164.98450   96.78550    0.06040
 3189.50000   -0.03780   48.90710   86.24530    8.07110    0.00050   17.26220    3.53000    2.76960  167.17040  233.35420   55.29840    0.05910
 3190.00000   -0.03910   48.89310   85.62830    8.06880    0.00010   18.59880    3.48390    2.78130  203.68550  253.82080   59.94270    0.05780
 3190.50000   -0.04450   48.81080   85.55230    8.07490   -0.00040   19.93540    3.48430    2.79300  187.34350  294.65750   49.99030    0.05740
 3191.00000   -0.05120   48.70730   86.37330    8.08310   -0.00030   21.27200    3.51110    2.80260  168.56110  199.32790   80.31020    0.05930
 3191.50000   -0.05620   48.55940   87.50560    8.09140   -0.00030   22.60860    3.53400    2.80000  169.37650  225.35590   69.73400    0.06350
 3192.00000   -0.04830   48.41610   88.32280    8.09960   -0.00280   23.89170    3.58330    2.78610  229.80100  317.07610  105.55860    0.06760
 3192.50000   -0.04070   48.21340   88.32280    8.10780   -0.00250   24.10560    3.62400    2.77470  255.57760  347.13650  152.38260    0.07180
 3193.00000   -0.04240   48.07860   88.32280    8.11600   -0.00040   22.83580    3.61910    2.77800  198.42930  279.99190  109.64450    0.07370
 3193.50000   -0.04960   48.28950   88.32280    8.12430    0.00200   20.79080    3.58520    2.79240  150.38440  215.02980  104.07060    0.07360
 3194.00000   -0.05670   48.67210   88.59890    8.13250    0.00440   21.45910    3.61890    2.80670  111.07040  150.06770  104.91970    0.07370
 3194.50000   -0.06250   49.15680   89.13810    8.14070    0.00300   22.57290    3.65260    2.81090   77.63700   85.10560  146.73890    0.07410
 3195.00000   -0.06150   49.66160   89.63980    8.14900   -0.00090   23.57100    3.69570    2.80200   69.85060   73.91140  147.09730    0.07890
 3195.50000   -0.05000   49.98590   89.97830    8.15230   -0.00310   23.14320    3.73500    2.79070   65.07400   70.66340  180.88720    0.08370
 3196.00000   -0.04000   49.94890   89.97830    8.14840   -0.00280   22.07400    3.74300    2.77940   59.20250   71.93800  114.62400    0.08900
 3196.50000   -0.03970   49.84460   89.97830    8.14460   -0.00180   20.64110    3.73430    2.77230   60.11000   65.68680   60.99260    0.09350
 3197.00000   -0.04190   49.61490   89.70250    8.14070    0.00000   18.39560    3.73530    2.77580   49.33670   62.88410   34.76850    0.09490
 3197.50000   -0.04430   49.38530   88.89770    8.13680    0.00160   16.64070    3.77240    2.78020   64.09660   89.50830   40.44770    0.09400
 3198.00000   -0.04560   49.10230   88.09300    8.13290    0.00060   15.40930    3.83190    2.78460   84.27100   91.79360   65.74350    0.08930
 3198.50000   -0.04690   48.92190   87.28820    8.12900   -0.00210   14.73600    3.89930    2.78890   65.31920   96.54230  139.86310    0.08370
 3199.00000   -0.04980   48.83360   86.66740    8.12510   -0.00370   15.01670    3.91540    2.79300  109.92590  138.28510  123.97630    0.07690
 3199.50000   -0.05370   48.78410   86.39080    8.12120   -0.00450   16.00570    3.86580    2.79440  189.36140  268.20950  105.44990    0.07010
 3200.00000   -0.05760   48.57770   85.82450    8.11730   -0.00520   17.73630    3.80440    2.80540  268.79690  380.03900  132.22780    0.06280
 3200.50000   -0.05890   48.34910   85.51660    8.11350   -0.00530   19.72170    3.77700    2.80650  310.83840  446.69970  175.07530    0.05650
 3201.00000   -0.05830   48.32060   85.09390    8.11110   -0.00480   18.24470    3.77150    2.80590  356.97530  513.15170  173.94720    0.05570
 3201.50000   -0.05630   48.74320   84.73470    8.11810   -0.00350   16.92550    3.73940    2.80250  375.43010  516.39840  158.66040    0.05630
 3202.00000   -0.05330   49.04330   85.07670    8.09980   -0.00100   16.14710    3.66740    2.79900  276.52040  439.51930  144.97940    0.06010
 3202.50000   -0.04890   49.14820   85.98550    8.08140    0.00150   16.09220    3.51280    2.79540  231.05530  256.49770  126.44340    0.06370
 3203.00000   -0.05170   49.29710   86.89440    8.06300    0.00930   16.03730    3.35470    2.79190  185.17580  229.91700  101.02100    0.07020
 3203.50000   -0.04810   49.40870   87.55410    8.04460    0.01210   15.22870    3.25230    2.78600  120.65790  175.37120   63.59610    0.07800
 3204.00000   -0.05110   49.23170   88.04780    8.02630    0.00930   14.41950    3.26790    2.77660   93.80270  120.82540   56.61310    0.08670
 3204.50000   -0.03850   49.05160   87.80680    8.00790    0.00580   13.95890    3.33610    2.76540   76.36320   92.96280   55.57530    0.09560
 3205.00000   -0.03180   48.79260   87.36150    8.00240    0.00120   14.41920    3.41580    2.76110   58.55920   72.01540   19.86440    0.10450
 3205.50000   -0.03800   48.68950   86.91620    7.99950    0.00170   14.99700    3.45340    2.77670   59.20250   68.68690   17.33510    0.10130
 3206.00000   -0.04850   48.44690   86.37450    7.99660    0.00270   15.46050    3.48970    2.79630  100.33710  217.22720   21.39260    0.08760
 3206.50000   -0.06360   48.15860   85.50800    7.99370    0.00170   15.72700    3.52880    2.81590  230.59630  427.41460   98.75640    0.07380
 3207.00000   -0.06460   47.85400   84.80060    7.99080    0.00170   15.69800    3.48630    2.81990  399.73700  576.30270  230.43120    0.05690
 3207.50000   -0.05580   47.54940   84.92680    7.98780    0.00210   15.10690    3.38900    2.80780  488.13740  752.21240  135.42610    0.04980
 3208.00000   -0.04900   47.58260   85.21930    7.98490    0.00470   14.61740    3.28010    2.79650  543.54000  928.12200  105.98270    0.04260
 3208.50000   -0.04730   47.68640   84.59240    7.98200    0.00450   14.00070    3.22600    2.78520  598.94260  888.71590  111.46550    0.03680
 3209.00000   -0.04870   47.86140   83.64570    7.97910    0.00200   14.10590    3.23320    2.77860  617.76130  715.90540  151.27540    0.03490
 3209.50000   -0.04140   48.12350   82.69890    7.97620   -0.00580   14.49310    3.24610    2.77810  452.14690  608.36990  150.39030    0.03470
