~Version ---------------------------------------------------
VERS.   2.0 : CWLS log ASCII Standard -VERSION 2.0
WRAP.    NO : One line per depth step
DLM . SPACE : Column Data Section Delimiter
~Well ------------------------------------------------------
STRT .FT                 102.0 : START DEPTH
STOP .FT                5015.0 : STOP DEPTH
STEP .FT                   0.5 : STEP
NULL .                -9999.25 : NULL VALUE
COMP .                         : COMPANY
WELL .                         : WELL
FLD  .                         : FIELD
LOC  .                         : LOCATION
PROV .                         : PROVINCE
CNTY .                         : COUNTY
STAT .                         : STATE
CTRY .                         : COUNTRY
SRVC .                         : SERVICE COMPANY
DATE .                         : DATE
UWI  .                         : UNIQUE WELL ID
API  .                         : API NUMBER
SLAT .WGS84 3.0314498471068987 : SURFACE LATITUDE
SLON .WGS84  8.782247756437002 : SURFACE LONGITUDE
DATUM.F                    nan : DEPTH DATUM ELEV
~Curve Information -----------------------------------------
DEPT   .FT    : 
DPHZ_LS.DEC   : HGRD STANDARD RESOLUTION DENSITY POROSITY
DTCO   .US/F  : DELTA-T COMPRESSIONAL
DTSM   .US/F  : DELTA-T SHEAR
HCALD  .IN    : HRCC CALIPER CALIBRATED FROM DENSITY LOG
HDRA   .G/C3  : HRDD SPINE AND RIBS DENSITY CORRECTION
HSGRD  .GAPI  : HNGS STANDARD GAMMA RAY FROM DENSITY LOG
PEFZ   .B/E   : HRDD STANDARD RESOLUTION FORMATION PHOTOELECTRIC FACTOR
RHOZ   .G/C3  : HRDD STANDARD RESOLUTION FORMATION DENSITY
RLA3   .OHMM  : APPARENT RESISTIVITY FROM COMPUTED FOCUSING MODE 3
RLA5   .OHMM  : APPARENT RESISTIVITY FROM COMPUTED FOCUSING MODE 5
RXOZ   .OHMM  : INVADED FORMATION RESISTIVITY FILTERED AT 18 INCHES
TNPH_LS.DEC   : THERMAL NEUTRON POROSITY [LIMESTONE]
~Params ----------------------------------------------------
~Other -----------------------------------------------------
~ASCII -----------------------------------------------------
# ...
 3966.00000   -0.05970   48.79250   84.54320    8.12170   -0.00110   11.52040    3.82350    2.81910  451.16350  731.46630  228.21840    0.05110
 3966.50000   -0.06760   48.49300   84.33100    8.11990   -0.00180   11.70040    3.86180    2.82950  677.12790  958.53040  379.89850    0.04190
 3967.00000   -0.07510   48.22920   84.95940    8.11820   -0.00250   11.53730    3.90010    2.84380  703.55560 1119.28020  433.61480    0.03440
 3967.50000   -0.08330   48.21730   85.05600    8.13220   -0.00350   11.05200    3.94920    2.86080 1017.76660 2026.36590  564.89580    0.02810
 3968.00000   -0.09110   48.25210   84.69370    8.14400   -0.00460   10.35200    4.07120    2.87780 1248.05720 2377.19120  672.29990    0.02370
 3968.50000   -0.09880   48.18070   84.16400    8.15440   -0.00490    9.70060    4.26790    2.88520 1368.67220 3133.74530  705.99780    0.02220
 3969.00000   -0.10880   48.18990   83.55380    8.16480   -0.00520    9.72870    4.46460    2.87660 1447.17030 3827.54050  572.63330    0.02180
 3969.50000   -0.10410   48.35340   82.83300    8.17530   -0.00470   10.42370    4.58650    2.86730 1456.94240 3949.05730  543.35810    0.02240
 3970.00000   -0.08740   48.36850   82.83850    8.16640   -0.00450   12.53390    4.35850    2.85800 1359.79420 2957.50800  645.25230    0.02330
 3970.50000   -0.08610   48.12010   82.93420    8.15260   -0.00370   13.49670    4.17680    2.85310 1071.71090 1952.79190  770.04540    0.02430
 3971.00000   -0.09160   47.80580   82.62880    8.13890   -0.00200   13.96390    4.05660    2.84460  830.64510 1160.54800  646.91720    0.02490
 3971.50000   -0.08930   47.56070   82.32340    8.14700   -0.00200   14.13840    3.95960    2.83600  722.76610 1051.92180  626.13730    0.02550
 3972.00000   -0.08230   47.48550   82.54940    8.15520   -0.00540   14.91930    3.91390    2.83280  700.23450 1240.30250  648.13670    0.02680
 3972.50000   -0.07580   47.45430   82.66500    8.16330   -0.00690   16.20730    3.80850    2.83280  671.59520  819.96570  569.79660    0.02760
 3973.00000   -0.08180   47.42580   82.08540    8.18070   -0.00460   18.02840    3.70310    2.83540  573.34310  899.83830  341.14090    0.02630
 3973.50000   -0.08700   47.39900   81.88530    8.18730   -0.00190   21.25580    3.63510    2.84940  475.09100  613.77920  274.50100    0.02470
 3974.00000   -0.08400   47.37220   82.06270    8.19380   -0.00040   22.98460    3.61370    2.84940  430.25860  515.30490  251.43720    0.02410
 3974.50000   -0.08210   47.25050   82.05190    8.20030    0.00050   23.99090    3.60670    2.84620  451.13100  738.30300  285.93940    0.02430
 3975.00000   -0.08410   47.14360   81.75860    8.21370    0.00130   22.85580    3.59970    2.84080  408.91290  549.77360  286.10560    0.02390
 3975.50000   -0.08670   47.05110   81.13370    8.25660    0.00020   21.10330    3.59270    2.83920  421.94270  477.42950  292.12300    0.02280
 3976.00000   -0.08290   47.05810   81.09620    8.26780   -0.00170   19.19330    3.64200    2.83860  500.25150  605.67720  325.31350    0.02180
 3976.50000   -0.07810   47.10510   81.36500    8.25430   -0.00290   17.65060    3.71560    2.83860  464.15980  626.03280  363.79650    0.02230
 3977.00000   -0.07970   47.28810   82.04200    8.23660   -0.00060   16.64370    3.74800    2.83860  393.40990  464.16760  327.13800    0.02400
 3977.50000   -0.07860   47.50780   82.50460    8.21810    0.00030   15.78360    3.74840    2.83270  384.74050  415.20260  282.13370    0.02770
 3978.00000   -0.07530   47.69190   82.93390    8.19950    0.00030   14.78510    3.72740    2.82670  378.64860  408.62750  219.45580    0.03140
 3978.50000   -0.07170   47.82220   83.63160    8.18090    0.00030   13.49940    3.66360    2.82080  353.12290  383.35190  201.38480    0.03510
 3979.00000   -0.07120   47.78650   83.48890    8.16230    0.00020   13.13300    3.63900    2.81480  324.59890  366.67980  210.34770    0.03770
 3979.50000   -0.07200   47.68510   82.86900    8.15210   -0.00020   13.59130    3.62140    2.80880  310.52800  382.20800  250.40810    0.03860
 3980.00000   -0.06680   47.58170   82.06360    8.14620   -0.00260   14.52620    3.65390    2.80290  307.22650  365.98020  253.82600    0.03930
 3980.50000   -0.06000   47.47350   81.99320    8.14330   -0.00590   15.97270    3.63830    2.80180  312.97520  346.36890  225.94670    0.03960
 3981.00000   -0.05490   47.34770   82.14530    8.13580   -0.00870   17.79950    3.62280    2.81020  320.86040  498.04680  239.36560    0.04030
 3981.50000   -0.06080   47.25570   82.10570    8.12540   -0.00650   20.30510    3.59650    2.81860  412.87600  686.31320  261.03720    0.04180
 3982.00000   -0.06590   47.22780   82.05620    8.11500   -0.00250   22.58830    3.52750    2.82370  420.54060  578.58500  304.51450    0.04340
 3982.50000   -0.07020   47.27970   82.47850    8.10450   -0.00010   22.80390    3.46450    2.82150  461.63000  620.67680  331.65340    0.04500
 3983.00000   -0.06640   47.38950   82.90080    8.09410    0.00020   22.54230    3.50330    2.81240  502.71950  698.59180  291.87250    0.04660
 3983.50000   -0.06390   47.56740   82.72530    8.08370   -0.00010   22.21490    3.53110    2.81130  484.47810  577.91170  288.23930    0.04610
 3984.00000   -0.06550   47.69740   81.93840    8.07320    0.00080   21.84660    3.54300    2.82070  425.19820  641.07030  308.18720    0.04500
 3984.50000   -0.06890   47.75590   82.58570    8.06280    0.00160   20.99800    3.52100    2.83110  513.19010  957.98950  230.68810    0.04390
 3985.00000   -0.07560   47.78740   83.88460    8.05660    0.00430   18.35300    3.49910    2.84150  579.17540 1084.62610  290.46580    0.04240
 3985.50000   -0.08220   47.80090   84.72460    8.06840    0.00440   15.70800    3.53070    2.85170  623.97410  843.40360  263.69480    0.04090
 3986.00000   -0.09090   47.81430   84.12330    8.08300    0.00460   13.06300    3.54870    2.86190  418.30680  673.10350  225.36990    0.03940
 3986.50000   -0.09440   47.82780   83.27070    8.09760   -0.00260   12.45170    3.57860    2.86070  312.28620  397.34470  206.48680    0.03790
 3987.00000   -0.09200   47.83940   82.86490    8.09820   -0.00480   14.72560    3.60850    2.84990  294.25240  362.49580  177.42440    0.03760
 3987.50000   -0.08150   47.84800   82.57240    8.09370   -0.00700   20.23650    3.61780    2.83930  268.53870  328.61810  155.56250    0.03930
 3988.00000   -0.07360   47.80420   82.27980    8.09330   -0.00570   25.95430    3.59470    2.82880  244.90660  302.63020  159.47690    0.04100
 3988.50000   -0.07020   47.78070   82.26180    8.09280    0.00020   31.67210    3.62090    2.81830  246.35960  296.89980  147.06390    0.04280
 3989.00000   -0.06700   47.82630   82.68480    8.09240    0.00040   35.55150    3.63310    2.81070  255.76810  348.27080  210.31250    0.04450
 3989.50000   -0.06210   48.01650   83.19570    8.09190   -0.00020   37.28380    3.67940    2.80980  322.84960  443.52100  270.56920    0.04450
 3990.00000   -0.06140   48.39050   84.24080    8.09150   -0.00060   36.85490    3.75950    2.82390  396.48010  522.95150  388.57060    0.03990
 3990.50000   -0.07180   48.61590   85.29330    8.09100   -0.00070   34.94680    3.82560    2.83630  441.07700  619.99850  454.49780    0.03440
 3991.00000   -0.08330   48.60080   84.96830    8.09060   -0.00230   31.36380    3.87130    2.84610  423.67630  702.40790  488.28350    0.02990
 3991.50000   -0.08230   48.48470   84.70910    8.08980   -0.00090   28.46670    3.88130    2.84220  415.73710  533.56810  477.66870    0.03080
 3992.00000   -0.07240   48.35740   84.78230    8.08820   -0.00270   27.57090    3.78690    2.83030  385.62070  583.36420  466.98980    0.03370
 3992.50000   -0.06450   48.25690   84.61400    8.08660   -0.00470   29.41800    3.69250    2.81660  428.95610  763.30930  515.27620    0.03710
 3993.00000   -0.06710   48.25590   84.66210    8.08510   -0.00440   32.16620    3.58020    2.79340  543.15830  936.44210  696.14010    0.04180
 3993.50000   -0.06080   48.40570   84.71010    8.08350   -0.00420   34.46730    3.50260    2.77440  615.64650 1016.85570  736.27860    0.04720
