~Version ---------------------------------------------------
VERS.   2.0 : CWLS log ASCII Standard -VERSION 2.0
WRAP.    NO : One line per depth step
DLM . SPACE : Column Data Section Delimiter
~Well ------------------------------------------------------
STRT .FT                 102.0 : START DEPTH
STOP .FT                5015.0 : STOP DEPTH
STEP .FT                   0.5 : STEP
NULL .                -9999.25 : NULL VALUE
COMP .                         : COMPANY
WELL .                         : WELL
FLD  .                         : FIELD
LOC  .                         : LOCATION
PROV .                         : PROVINCE
CNTY .                         : COUNTY
STAT .                         : STATE
CTRY .                         : COUNTRY
SRVC .                         : SERVICE COMPANY
DATE .                         : DATE
UWI  .                         : UNIQUE WELL ID
API  .                         : API NUMBER
SLAT .WGS84 3.0314498471068987 : SURFACE LATITUDE
SLON .WGS84  8.782247756437002 : SURFACE LONGITUDE
DATUM.F                    nan : DEPTH DATUM ELEV
~Curve Information -----------------------------------------
DEPT   .FT    : 
DPHZ_LS.DEC   : HGRD STANDARD RESOLUTION DENSITY POROSITY
DTCO   .US/F  : DELTA-T COMPRESSIONAL
DTSM   .US/F  : DELTA-T SHEAR
HCALD  .IN    : HRCC CALIPER CALIBRATED FROM DENSITY LOG
HDRA   .G/C3  : HRDD SPINE AND RIBS DENSITY CORRECTION
HSGRD  .GAPI  : HNGS STANDARD GAMMA RAY FROM DENSITY LOG
PEFZ   .B/E   : HRDD STANDARD RESOLUTION FORMATION PHOTOELECTRIC FACTOR
RHOZ   .G/C3  : HRDD STANDARD RESOLUTION FORMATION DENSITY
RLA3   .OHMM  : APPARENT RESISTIVITY FROM COMPUTED FOCUSING MODE 3
RLA5   .OHMM  : APPARENT RESISTIVITY FROM COMPUTED FOCUSING MODE 5
RXOZ   .OHMM  : INVADED FORMATION RESISTIVITY FILTERED AT 18 INCHES
TNPH_LS.DEC   : THERMAL NEUTRON POROSITY [LIMESTONE]
~Params ----------------------------------------------------
~Other -----------------------------------------------------
~ASCII -----------------------------------------------------
# ...
 2566.00000   -0.00370   -9999.25   -9999.25    8.00260   -0.00420   11.65380    3.48310    2.74590  203.88610  258.82340   52.75110    0.11480
 2566.50000   -0.02930   -9999.25   -9999.25    8.00270   -0.00300   11.36640    3.54330    2.78400  369.14070 1292.53380  165.40800    0.09960
 2567.00000   -0.04510   -9999.25   -9999.25    8.00280   -0.00030   11.77600    3.54650    2.78670  535.14090 1183.61250  217.45110    0.08760
 2567.50000   -0.04600   -9999.25   -9999.25    8.00290    0.00160   11.96860    3.53450    2.78450  375.52750  680.86390  153.89300    0.08540
 2568.00000   -0.04110   -9999.25   -9999.25    8.00300    0.00150   11.71430    3.53830    2.77900  398.70670  617.22300  115.75230    0.08730
 2568.50000   -0.04020   -9999.25   -9999.25    8.00310    0.00100   12.07550    3.54210    2.77360  435.32120  820.38010  138.42340    0.08760
 2569.00000   -0.03830   -9999.25   -9999.25    8.00310    0.00060   12.66410    3.54870    2.76810  403.51600  672.76910  172.29410    0.08460
 2569.50000   -0.03480   -9999.25   -9999.25    8.00320    0.00010   13.42490    3.56660    2.76160  313.97250  397.30150  174.02390    0.08160
 2570.00000   -0.03250   -9999.25   -9999.25    8.00330    0.00020   16.05000    3.52560    2.76650  205.84660  277.41300  114.99880    0.07850
 2570.50000   -0.03750   -9999.25   -9999.25    8.00340    0.00060   18.70390    3.46980    2.77600   97.72070  157.52450   55.97380    0.07670
 2571.00000   -0.04460   -9999.25   -9999.25    8.00350    0.00070   22.13100    3.41230    2.78570  142.39170  201.31230   45.29590    0.07640
 2571.50000   -0.05370   -9999.25   -9999.25    8.00360    0.00130   26.91420    3.36820    2.79530  255.60220  544.33010   56.39930    0.07550
 2572.00000   -0.05300   -9999.25   -9999.25    8.00370    0.00220   26.28510    3.34220    2.79760  323.52850  457.41300  135.86740    0.07380
 2572.50000   -0.05020   -9999.25   -9999.25    8.00380    0.00200   24.17990    3.36250    2.79440  201.16370  290.60670  143.03420    0.07200
 2573.00000   -0.04910   -9999.25   -9999.25    8.00390    0.00150   22.07470    3.34680    2.79150  211.23750  314.86820  143.57930    0.06950
 2573.50000   -0.04970   -9999.25   -9999.25    8.00400    0.00160   22.83880    3.32030    2.78860  316.47290  456.30070  162.96960    0.06740
 2574.00000   -0.04930   -9999.25   -9999.25    8.00410    0.00200   25.31310    3.28830    2.78580  274.97850  401.74660  143.96630    0.07000
 2574.50000   -0.04590   -9999.25   -9999.25    8.00410    0.00360   26.65410    3.30240    2.78220  210.78300  270.46850  112.62300    0.07300
 2575.00000   -0.04250   -9999.25   -9999.25    8.00420    0.00420   24.62340    3.32810    2.77550  197.91090  257.17370   82.59530    0.08330
 2575.50000   -0.03810   -9999.25   -9999.25    8.00430    0.00590   21.36740    3.36310    2.76890  143.33910  190.05400   71.78490    0.09050
 2576.00000   -0.03390   -9999.25   -9999.25    8.00440    0.00530   19.94600    3.40360    2.76220  143.51950  260.43420   67.48420    0.09580
 2576.50000   -0.03060   -9999.25   -9999.25    8.00450    0.00430   18.77090    3.43050    2.76090  172.85820  260.43420   64.56450    0.09920
 2577.00000   -0.03480   -9999.25   -9999.25    8.00460    0.00340   18.55570    3.45290    2.76840  244.30820  277.37280   77.81730    0.09420
 2577.50000   -0.04110   -9999.25   -9999.25    8.00470    0.00240   18.55390    3.46900    2.77750  363.41050  539.14480  140.36480    0.08660
 2578.00000   -0.04840   -9999.25   -9999.25    8.00480    0.00140   18.55240    3.51270    2.78620  529.03770 1619.07210  214.72680    0.07640
 2578.50000   -0.05220   -9999.25   -9999.25    8.01510    0.00040   18.87120    3.58100    2.79500  638.94690 1649.96800  219.75210    0.06290
 2579.00000   -0.05520   -9999.25   -9999.25    8.01430   -0.00060   19.08350    3.63370    2.80810  327.63040  849.50640  226.15340    0.05610
 2579.50000   -0.05950   -9999.25   -9999.25    8.01360   -0.00160   19.61640    3.65370    2.81770  360.28750  606.95590  159.71700    0.05220
 2580.00000   -0.06980   -9999.25   -9999.25    8.01290   -0.00060   20.54200    3.67370    2.81390  502.78860 1196.53730  175.18850    0.05180
 2580.50000   -0.06430   -9999.25   -9999.25    8.01220    0.00050   21.55110    3.64870    2.80090  557.20630 1153.46040  201.43380    0.05390
 2581.00000   -0.05430   -9999.25   -9999.25    8.01150    0.00050   22.83850    3.55220    2.78790  433.79260  899.36240  163.91470    0.06110
 2581.50000   -0.04080   -9999.25   -9999.25    8.01070    0.00050   24.14480    3.54800    2.77190  280.60170  645.26440  121.01660    0.06820
 2582.00000   -0.02970   -9999.25   -9999.25    8.01000   -0.00080   24.83370    3.52380    2.75590  127.41080  391.16640   80.47320    0.08330
 2582.50000   -0.02470   -9999.25   -9999.25    8.00930   -0.00290   23.54600    3.50610    2.74880  122.70200  137.06850   54.07410    0.09100
 2583.00000   -0.02880   -9999.25   -9999.25    8.00860   -0.00200   20.91000    3.46640    2.75810  179.29800  141.48070   53.53950    0.09640
 2583.50000   -0.03570   -9999.25   -9999.25    8.00790   -0.00020   19.50060    3.44430    2.77320  271.01630  458.54980   87.71400    0.10070
 2584.00000   -0.04240   -9999.25   -9999.25    8.00710   -0.00010   22.08510    3.43750    2.77540  332.29530  466.52500  140.99690    0.09980
 2584.50000   -0.03760   -9999.25   -9999.25    8.00640    0.00000   24.14640    3.45910    2.76110  320.40310  366.61800  131.87870    0.09470
 2585.00000   -0.02720   -9999.25   -9999.25    8.00570   -0.00170   24.94590    3.50310    2.74670  402.91720  592.86030  116.45220    0.08950
 2585.50000   -0.01860   -9999.25   -9999.25    8.00500   -0.00600   23.52210    3.53970    2.74070  427.23270  738.26950  138.94650    0.08950
 2586.00000   -0.02760   -9999.25   -9999.25    8.00430   -0.00650   21.62540    3.54700    2.75820  400.50610  757.28870  206.65650    0.08870
 2586.50000   -0.04140   -9999.25   -9999.25    8.00350   -0.00580   19.00010    3.56480    2.77880  525.91410 1496.79950  277.34060    0.08220
 2587.00000   -0.05440   -9999.25   -9999.25    8.00280   -0.00520   17.25780    3.59840    2.79950  804.00360 1949.89350  369.86640    0.07550
 2587.50000   -0.06050   -9999.25   -9999.25    8.00210   -0.00450   17.00780    3.63860    2.80840  557.92560 1990.14930  398.90130    0.06760
 2588.00000   -0.05470   -9999.25   -9999.25    8.00140   -0.00390   17.58800    3.67160    2.79830  546.55210  795.46720  299.74090    0.06180
 2588.50000   -0.04770   -9999.25   -9999.25    8.00070   -0.00350   17.67990    3.74890    2.78200  592.79270  792.27360  258.63100    0.05750
 2589.00000   -0.04190   -9999.25   -9999.25    7.99990   -0.00350   17.17300    3.82880    2.77580  558.22410  916.10130  302.44500    0.05260
 2589.50000   -0.04770   -9999.25   -9999.25    7.99920   -0.00290   16.72180    3.83000    2.79040  505.62280  702.00840  272.99360    0.05100
 2590.00000   -0.05620   -9999.25   -9999.25    7.99850   -0.00080   16.99970    3.77130    2.80830  575.76330 1084.58320  251.05740    0.05030
 2590.50000   -0.06570   -9999.25   -9999.25    7.99780   -0.00110   17.08900    3.67350    2.82320  779.47780 2276.22960  304.83070    0.04980
 2591.00000   -0.06970   -9999.25   -9999.25    7.99710   -0.00140   16.81950    3.57580    2.81900  942.44940 2344.60340  359.23080    0.04970
 2591.50000   -0.05930   -9999.25   -9999.25    7.99630   -0.00170   16.45750    3.49370    2.79940  692.38410 1318.25960  447.26330    0.05200
 2592.00000   -0.04820   -9999.25   -9999.25    7.99560   -0.00080   16.61830    3.42070    2.77970  488.21270  811.19550  385.83150    0.05480
 2592.50000   -0.03820   -9999.25   -9999.25    7.99490   -0.00200   17.23250    3.45410    2.76710  506.82920  611.77450  370.19120    0.05760
 2593.00000   -0.03590   -9999.25   -9999.25    7.99420   -0.00310   18.09080    3.53520    2.77230  534.38150  685.78540  290.59810    0.05600
 2593.50000   -0.04370   -9999.25   -9999.25    7.99350   -0.00360   19.01000    3.62390    2.78520  439.51800  564.04470  219.09670    0.05200
