~Version ---------------------------------------------------
VERS.   2.0 : CWLS log ASCII Standard -VERSION 2.0
WRAP.    NO : One line per depth step
DLM . SPACE : Column Data Section Delimiter
~Well ------------------------------------------------------
STRT .FT                 102.0 : START DEPTH
STOP .FT                5015.0 : STOP DEPTH
STEP .FT                   0.5 : STEP
NULL .                -9999.25 : NULL VALUE
COMP .                         : COMPANY
WELL .                         : WELL
FLD  .                         : FIELD
LOC  .                         : LOCATION
PROV .                         : PROVINCE
CNTY .                         : COUNTY
STAT .                         : STATE
CTRY .                         : COUNTRY
SRVC .                         : SERVICE COMPANY
DATE .                         : DATE
UWI  .                         : UNIQUE WELL ID
API  .                         : API NUMBER
SLAT .WGS84 3.0314498471068987 : SURFACE LATITUDE
SLON .WGS84  8.782247756437002 : SURFACE LONGITUDE
DATUM.F                    nan : DEPTH DATUM ELEV
~Curve Information -----------------------------------------
DEPT   .FT    : 
DPHZ_LS.DEC   : HGRD STANDARD RESOLUTION DENSITY POROSITY
DTCO   .US/F  : DELTA-T COMPRESSIONAL
DTSM   .US/F  : DELTA-T SHEAR
HCALD  .IN    : HRCC CALIPER CALIBRATED FROM DENSITY LOG
HDRA   .G/C3  : HRDD SPINE AND RIBS DENSITY CORRECTION
HSGRD  .GAPI  : HNGS STANDARD GAMMA RAY FROM DENSITY LOG
PEFZ   .B/E   : HRDD STANDARD RESOLUTION FORMATION PHOTOELECTRIC FACTOR
RHOZ   .G/C3  : HRDD STANDARD RESOLUTION FORMATION DENSITY
RLA3   .OHMM  : APPARENT RESISTIVITY FROM COMPUTED FOCUSING MODE 3
RLA5   .OHMM  : APPARENT RESISTIVITY FROM COMPUTED FOCUSING MODE 5
RXOZ   .OHMM  : INVADED FORMATION RESISTIVITY FILTERED AT 18 INCHES
TNPH_LS.DEC   : THERMAL NEUTRON POROSITY [LIMESTONE]
~Params ----------------------------------------------------
~Other -----------------------------------------------------
~ASCII -----------------------------------------------------
# ...
 4778.00000   -0.06700   45.56770   79.97820    7.94510   -0.00050    9.98200    3.48890    2.81820  382.51130  560.94000  248.96210    0.04610
 4778.50000   -0.06920   45.68030   79.97820    7.94610   -0.00270   10.56640    3.52140    2.82770  610.68900 1184.25670  224.38590    0.04180
 4779.00000   -0.07550   45.91250   79.94820    7.94720   -0.00250   11.15090    3.55570    2.83850 1110.65060 1807.57340  353.40860    0.03400
 4779.50000   -0.08250   45.80020   79.91820    7.94830   -0.00180   11.27760    3.57180    2.84930 1510.57600 5374.37540  478.14480    0.02850
 4780.00000   -0.08880   45.51220   79.88810    7.94930   -0.00090   10.47120    3.60670    2.85420 1398.23440 4264.74760  898.98130    0.02610
 4780.50000   -0.08820   45.38890   79.85810    7.95040    0.00000    9.66480    3.65930    2.85470 1211.29730 2919.99800  787.65570    0.02480
 4781.00000   -0.08420   45.52810   79.84010    7.95150   -0.00170    9.39420    3.72750    2.85040 1050.82280 2367.12520  712.79840    0.02540
 4781.50000   -0.08270   45.68160   79.84010    7.95250   -0.00230    9.12320    3.74890    2.84310 1199.48550 3478.16520  717.24350    0.02650
 4782.00000   -0.08180   45.43820   79.84010    7.95360   -0.00300    9.29520    3.76050    2.83890 1237.41610 3535.84950  721.68870    0.02760
 4782.50000   -0.07920   45.43370   79.84010    7.95470   -0.00520    8.94930    3.76960    2.83680 1162.78530 2970.83240  720.59980    0.02870
 4783.00000   -0.07660   45.42960   79.70210    7.95580   -0.00540    8.95550    3.77880    2.83460 1136.90310 3679.20220  710.87030    0.02780
 4783.50000   -0.07780   45.50950   79.70210    7.95680   -0.00550    8.65900    3.78410    2.83210 1414.17570 4890.91330  704.73250    0.02500
 4784.00000   -0.07930   45.48940   79.70210    7.95790   -0.00610    7.85760    3.77430    2.82880 1295.21610 4471.33620  700.38640    0.02210
 4784.50000   -0.07560   45.09820   79.70210    7.95900   -0.00680    7.92200    3.79070    2.82540 1328.96740 4151.22810  705.40510    0.01930
 4785.00000   -0.07240   44.83980   79.46240    7.96000   -0.00820    8.12690    3.81360    2.83250 1441.08980 5445.67020  683.84290    0.01980
 4785.50000   -0.07760   44.69410   79.20830    7.96110   -0.00690    8.83230    3.78610    2.84100 1468.68170 5656.15350  701.63470    0.02130
 4786.00000   -0.08570   44.54430   78.95420    7.96220   -0.00450    9.09340    3.71270    2.84950 1590.05730 10964.44400  734.46450    0.02290
 4786.50000   -0.09360   44.37950   78.70010    7.96320   -0.00050    8.98500    3.67140    2.85800 1837.66570 18743.59550  767.24910    0.02380
 4787.00000   -0.09840   44.52540   78.96620    7.96430    0.00110    9.01730    3.65970    2.86740 1844.40530 23635.07370  722.45350    0.02300
 4787.50000   -0.10010   44.73240   79.54110    7.96540    0.00110    9.41880    3.65210    2.87680 1678.08670 11980.11620  647.63140    0.02170
 4788.00000   -0.10480   44.93940   80.11590    7.96640    0.00080   10.35730    3.63310    2.88230 1636.82580 13749.34130  667.46220    0.02040
 4788.50000   -0.10780   45.12460   80.12820    7.96750    0.00020   11.41720    3.65290    2.87490 1784.36670 13601.38460  694.81970    0.01910
 4789.00000   -0.10500   45.38240   80.14350    7.96860   -0.00040   11.56800    3.67270    2.85580 1611.51760 5951.75770  690.79490    0.01780
 4789.50000   -0.10160   45.45620   80.15880    7.96960   -0.00100   11.37940    3.73870    2.83670 1544.67780 17261.01000  710.93600    0.01650
 4790.00000   -0.08270   45.19600   80.17410    7.97070   -0.00380   11.14590    3.80830    2.82900 1879.48630 32130.48080  736.05770    0.01570
 4790.50000   -0.07320   44.88540   80.18940    7.97180   -0.00780    9.43670    3.83790    2.83630 1797.19610 21652.33200  722.21320    0.01640
 4791.00000   -0.08410   44.97750   80.20470    7.97290   -0.00360    8.25680    3.79760    2.85460 1556.58740 11174.18320  668.28970    0.01910
 4791.50000   -0.09950   45.33190   80.22000    7.97390    0.00490    7.39040    3.75370    2.87290 1315.97880 2756.78300  616.42400    0.02180
 4792.00000   -0.10500   45.65040   80.23530    7.97500    0.00730    7.02410    3.73340    2.87550 1438.71080 4358.71760  618.49670    0.02450
 4792.50000   -0.10200   45.82530   80.25060    7.97610    0.00380    7.31270    3.75100    2.85680 1619.48190 3962.13080  626.97970    0.02570
 4793.00000   -0.07900   46.00010   80.25370    7.97710    0.00120    7.92350    3.81070    2.83810 1305.84300 2672.71350  635.42740    0.02540
 4793.50000   -0.07850   46.17490   80.24430    7.97820   -0.00160    8.56610    3.81550    2.83860 1403.02480 4965.07880  619.72000    0.02480
 4794.00000   -0.08460   46.20990   80.23480    7.97930    0.00030    8.17450    3.76130    2.85060 1732.04250 11994.73670  612.04060    0.02390
 4794.50000   -0.09290   45.96150   80.22540    7.98030    0.00180    7.19180    3.70720    2.86260 1866.27660 21445.13460  701.02520    0.02280
 4795.00000   -0.09950   45.65110   80.21600    7.98140    0.00400    6.64020    3.66460    2.87000 1979.07440 22271.72450  744.56580    0.02200
 4795.50000   -0.09980   45.34810   80.20650    7.98250    0.00140    6.27810    3.67860    2.86370 1992.95500 52254.34410  808.77370    0.02090
 4796.00000   -0.09590   45.31970   80.19710    7.98350    0.00060    6.23460    3.68560    2.85620 1891.67450 47459.11400  801.30050    0.01980
 4796.50000   -0.08940   45.34120   80.18760    7.98460    0.00020    6.40380    3.77350    2.84870 1807.14300 16247.37230  767.94470    0.01870
 4797.00000   -0.08280   45.44930   80.17820    7.98490   -0.00110    6.86030    3.80890    2.84120 1938.62540 32624.70070  954.50290    0.01870
 4797.50000   -0.08020   45.60980   80.16880    7.98460   -0.00620    7.43010    3.81130    2.83760 2010.55240 99214.76900 1143.16350    0.02000
 4798.00000   -0.08070   46.04770   80.15930    7.98440   -0.00440    7.35850    3.74970    2.84600 1790.44420 68240.38210 1214.29920    0.02120
 4798.50000   -0.08370   45.77640   80.14990    7.98410   -0.00220    6.77180    3.69640    2.85470 1535.54210 6116.39770 1111.07300    0.02250
 4799.00000   -0.08360   45.72970   80.14050    7.98380   -0.00150    6.47920    3.68470    2.85530 1697.27940 8489.31220 1042.34840    0.02370
 4799.50000   -0.07960   45.52720   80.13100    7.98360   -0.00180    6.48090    3.70050    2.83810 1552.85310 7597.19730 1008.41920    0.02420
 4800.00000   -0.07490   45.36890   80.12160    7.98330   -0.00210    6.67230    3.72690    2.83110 1748.98010 12008.18950  947.01280    0.02440
 4800.50000   -0.07720   45.16750   80.11590    7.98310   -0.00300    6.55100    3.74320    2.83110 1464.94890 9874.69970  863.45830    0.02460
 4801.00000   -0.08410   45.15090   80.14500    7.98280   -0.00350    6.71970    3.70780    2.83810 1259.55850 4539.11120  818.76730    0.02490
 4801.50000   -0.09120   45.25970   80.18120    7.98250   -0.00070    7.02870    3.66680    2.85560 1516.47840 5586.48600  808.26410    0.02510
 4802.00000   -0.09600   45.33000   80.21750    7.98230    0.00280    7.43140    3.67120    2.86350 1735.67560 11963.40910  882.51890    0.02560
 4802.50000   -0.09240   45.42160   80.25380    7.98200    0.00120    7.65980    3.68250    2.86030 1119.87590 7828.24410  744.26860    0.02760
 4803.00000   -0.08980   45.58390   80.29010    7.98170    0.00100    7.79180    3.66630    2.85440  990.17930 1885.92670  716.47930    0.02960
 4803.50000   -0.08650   45.78680   80.32640    7.98150    0.00080    7.71720    3.65800    2.84880 1305.93890 2657.43070  647.62810    0.03160
 4804.00000   -0.08380   45.93560   80.36270    7.98120    0.00060    7.59250    3.62880    2.84390 1199.47510 2877.57950  782.08050    0.03350
 4804.50000   -0.08170   46.05090   80.39180    7.98100    0.00110    7.48570    3.59190    2.84190  871.60410 2048.50610  602.84040    0.03560
 4805.00000   -0.08570   46.27390   80.70520    7.98070    0.00120    7.70210    3.55620    2.84880  543.73320  744.94820  378.86430    0.03700
 4805.50000   -0.08570   46.33350   81.22770    7.98040    0.00440    7.81610    3.55140    2.84940  526.75040  858.95970  369.36150    0.03870
