~Version ---------------------------------------------------
VERS.   2.0 : CWLS log ASCII Standard -VERSION 2.0
WRAP.    NO : One line per depth step
DLM . SPACE : Column Data Section Delimiter
~Well ------------------------------------------------------
STRT .FT                 102.0 : START DEPTH
STOP .FT                5015.0 : STOP DEPTH
STEP .FT                   0.5 : STEP
NULL .                -9999.25 : NULL VALUE
COMP .                         : COMPANY
WELL .                         : WELL
FLD  .                         : FIELD
LOC  .                         : LOCATION
PROV .                         : PROVINCE
CNTY .                         : COUNTY
STAT .                         : STATE
CTRY .                         : COUNTRY
SRVC .                         : SERVICE COMPANY
DATE .                         : DATE
UWI  .                         : UNIQUE WELL ID
API  .                         : API NUMBER
SLAT .WGS84 3.0314498471068987 : SURFACE LATITUDE
SLON .WGS84  8.782247756437002 : SURFACE LONGITUDE
DATUM.F                    nan : DEPTH DATUM ELEV
~Curve Information -----------------------------------------
DEPT   .FT    : 
DPHZ_LS.DEC   : HGRD STANDARD RESOLUTION DENSITY POROSITY
DTCO   .US/F  : DELTA-T COMPRESSIONAL
DTSM   .US/F  : DELTA-T SHEAR
HCALD  .IN    : HRCC CALIPER CALIBRATED FROM DENSITY LOG
HDRA   .G/C3  : HRDD SPINE AND RIBS DENSITY CORRECTION
HSGRD  .GAPI  : HNGS STANDARD GAMMA RAY FROM DENSITY LOG
PEFZ   .B/E   : HRDD STANDARD RESOLUTION FORMATION PHOTOELECTRIC FACTOR
RHOZ   .G/C3  : HRDD STANDARD RESOLUTION FORMATION DENSITY
RLA3   .OHMM  : APPARENT RESISTIVITY FROM COMPUTED FOCUSING MODE 3
RLA5   .OHMM  : APPARENT RESISTIVITY FROM COMPUTED FOCUSING MODE 5
RXOZ   .OHMM  : INVADED FORMATION RESISTIVITY FILTERED AT 18 INCHES
TNPH_LS.DEC   : THERMAL NEUTRON POROSITY [LIMESTONE]
~Params ----------------------------------------------------
~Other -----------------------------------------------------
~ASCII -----------------------------------------------------
# ...
 4582.00000   -0.07870   47.18170   81.90990    7.95630   -0.00040   16.59610    3.41960    2.82640  546.54460  704.31980  281.27590    0.02780
 4582.50000   -0.07170   47.02290   82.16290    7.96760    0.00070   16.41050    3.43370    2.81910  506.72390  677.19520  258.29550    0.02720
 4583.00000   -0.06350   46.99330   82.59920    7.98160   -0.00380   17.16630    3.47880    2.81130  537.16870  706.81860  292.96690    0.02720
 4583.50000   -0.05750   47.14890   82.34730    7.99560   -0.00460   18.41680    3.53350    2.80130  567.61350  749.06030  288.81590    0.02780
 4584.00000   -0.05750   47.29610   82.60470    8.00960   -0.00320   19.28690    3.53890    2.79980  562.28100  725.81990  266.99620    0.02860
 4584.50000   -0.05730   47.26090   84.56090    8.02360   -0.00190   19.91360    3.52240    2.80640  507.69990  645.47440  283.25370    0.02910
 4585.00000   -0.06100   47.15190   86.12370    8.03760   -0.00050   20.43860    3.45780    2.81310  450.18030  522.94890  277.74630    0.02880
 4585.50000   -0.06540   47.00430   84.48100    8.05160    0.00080   20.44160    3.45750    2.81980  403.83940  532.93330  256.95640    0.02900
 4586.00000   -0.07210   46.66220   82.05940    8.06560    0.00130   18.54630    3.49960    2.82850  523.90800  984.90830  242.64660    0.02880
 4586.50000   -0.07760   46.34270   81.27010    8.08760    0.00130   16.65060    3.54170    2.83730  753.79970 1248.19580  238.75130    0.02820
 4587.00000   -0.08380   45.78530   81.03030    8.09380    0.00140   14.69190    3.58370    2.84600  739.80980 1114.29810  265.76140    0.02770
 4587.50000   -0.08730   45.64840   81.12030    8.07010    0.00170   13.36130    3.61670    2.85300  736.62830 1139.91860  336.55720    0.02710
 4588.00000   -0.08810   45.54050   81.21030    8.04640    0.00370   12.60680    3.61290    2.85080  736.40530 1171.94410  264.47620    0.02720
 4588.50000   -0.08360   45.60690   81.30040    8.02270    0.00160   12.75690    3.61090    2.84500  681.47360 1011.10230  229.70350    0.02800
 4589.00000   -0.07910   45.77580   81.39040    7.99320    0.00140   13.28820    3.58810    2.83930  668.70640  876.92890  246.39830    0.02910
 4589.50000   -0.07780   45.98730   81.44440    7.94070    0.00060   14.26530    3.54680    2.83360  612.35030  818.44100  410.41950    0.02890
 4590.00000   -0.07790   46.15300   81.49610    7.91710   -0.00060   15.01030    3.49130    2.83730  532.93330  766.30720  517.33540    0.02850
 4590.50000   -0.07970   46.03600   81.62520    7.91020   -0.00310   14.73400    3.45680    2.84300  532.93330  735.02690  548.89430    0.02790
 4591.00000   -0.08240   45.81890   81.65100    7.90720   -0.00250   14.32740    3.42280    2.84670  552.37790  766.26890  565.66920    0.02760
 4591.50000   -0.08610   45.94290   81.53810    7.90420   -0.00170   14.07760    3.41160    2.84560  564.04470  807.92490  547.63270    0.02830
 4592.00000   -0.08660   46.22680   81.35000    7.90110    0.00070   14.64000    3.40320    2.83960  570.06650  807.92490  489.76950    0.02840
 4592.50000   -0.07910   46.65570   81.23710    7.89810    0.00040   16.19260    3.40940    2.83360  600.17550  875.47100  476.82040    0.02700
 4593.00000   -0.07240   47.07230   81.62970    7.89510    0.00050   17.89350    3.41560    2.82750  569.66500  808.03280  452.24840    0.02570
 4593.50000   -0.06900   47.61100   82.12040    7.89210    0.00060   20.25910    3.40150    2.82150  470.51720  599.59030  355.16520    0.02540
 4594.00000   -0.06810   48.35690   82.80440    7.88910    0.00040   23.31500    3.33480    2.81360  371.36950  432.83640  293.96450    0.02620
 4594.50000   -0.06500   49.38040   83.59590    7.88610    0.00030   25.82930    3.29850    2.79820  397.16670  490.47750  305.62630    0.02760
 4595.00000   -0.05640   50.30900   84.30130    7.88310    0.00010   29.08320    3.24430    2.77960  441.10030  529.58740  325.16350    0.02840
 4595.50000   -0.03440   51.09520   82.83820    7.88010   -0.00200   33.18230    3.23230    2.76020  335.01970  434.75370  275.12310    0.02830
 4596.00000   -0.01240   51.12870   82.16470    7.87710   -0.00350   37.60940    3.22040    2.74080  237.20310  293.23370  212.57260    0.02870
 4596.50000   -0.01260   50.64820   83.39640    7.87410   -0.00390   40.12290    3.20110    2.72880  193.55090  206.14750  161.51030    0.03030
 4597.00000   -0.02170   50.07550   84.36510    7.87110   -0.00190   38.29960    3.18140    2.73710  228.92510  242.11430  180.35450    0.03450
 4597.50000   -0.03040   49.50270   84.37870    7.86810    0.00010   35.07190    3.18380    2.74980  338.49130  358.25170  206.23690    0.03380
 4598.00000   -0.03250   49.06720   83.99730    7.86500    0.00040   31.35450    3.23400    2.76240  344.95390  430.97660  292.01620    0.03210
 4598.50000   -0.03390   48.79990   83.37750    7.86200    0.00120   28.06010    3.29390    2.77270  371.13550  556.97940  290.28220    0.03040
 4599.00000   -0.03910   48.89420   82.94890    7.85970   -0.00590   27.50840    3.32550    2.78290  398.38880  476.96350  313.09390    0.02860
 4599.50000   -0.04560   49.08680   82.73680    7.85980   -0.00680   29.42150    3.28350    2.78450  396.27360  443.89120  293.96450    0.02650
 4600.00000   -0.04150   49.04080   82.52470    7.85990   -0.00620   31.33460    3.26070    2.77110  363.94560  438.33090  269.37500    0.02500
 4600.50000   -0.03410   48.74120   82.31270    7.86000   -0.00570   32.27110    3.28300    2.75550  275.85040  375.42430  244.78550    0.02570
 4601.00000   -0.03050   48.45670   82.50660    7.86010   -0.00510   28.55500    3.31040    2.77250  331.83440  316.05690  230.06410    0.02730
 4601.50000   -0.04500   48.05490   82.75990    7.86020   -0.00480   24.17590    3.30880    2.78940  499.23240  924.96090  348.28920    0.02840
 4602.00000   -0.05940   47.64240   82.15000    7.86030   -0.00290   19.79670    3.28630    2.80640  666.63030 1290.52890  466.51440    0.02730
 4602.50000   -0.06950   47.82330   82.46700    7.86040   -0.00100   19.82000    3.27130    2.82010  660.24690 1066.93600  450.89060    0.02350
 4603.00000   -0.06450   48.38640   83.02750    7.86050    0.00040   24.30270    3.24020    2.81620  503.85700  620.26390  357.28590    0.02030
 4603.50000   -0.05640   49.18740   82.73640    7.86060    0.00080   28.16700    3.20480    2.80220  387.45740  473.90990  313.92580    0.02120
 4604.00000   -0.04850   49.81790   82.60940    7.86070    0.00050   33.12910    3.16650    2.78810  318.65840  405.10150  304.28610    0.02390
 4604.50000   -0.04060   50.46570   83.71450    7.86080    0.00030   37.93530    3.14460    2.77530  243.36630  306.09920  251.92710    0.02660
 4605.00000   -0.03270   50.98380   85.78570    7.86090    0.00000   40.52270    3.18790    2.76760  226.92690  307.15950  268.18800    0.02930
 4605.50000   -0.03170   51.69010   85.01720    7.86100    0.00080   41.82040    3.21950    2.75990  441.14020  585.38310  372.69260    0.03120
 4606.00000   -0.03050   52.11090   83.97730    7.86110    0.00070   44.24260    3.24760    2.75270  490.25290  643.04000  462.13980    0.03210
 4606.50000   -0.02630   52.45320   84.96360    7.86120    0.00060   48.40690    3.19000    2.74640  402.22780  533.40990  429.79720    0.03310
 4607.00000   -0.02060   52.76230   86.46620    7.86130    0.00080   53.52780    3.09660    2.74000  329.73630  423.77990  375.77390    0.03440
 4607.50000   -0.01560   52.93520   86.95920    7.86140    0.00030   55.19830    2.98590    2.73470  334.05350  353.54530  321.75050    0.03630
 4608.00000   -0.01750   52.45830   85.99820    7.86150    0.00100   52.72770    2.98320    2.73470  355.93400  373.30420  307.96760    0.03790
 4608.50000   -0.02440   51.16090   84.59390    7.86160    0.00080   46.61920    3.02350    2.75330  362.87970  391.41400  325.16520    0.03810
 4609.00000   -0.03470   49.64290   83.35420    7.86170    0.00070   38.55790    3.08180    2.77190  405.04100  470.60920  355.60020    0.03520
 4609.50000   -0.04810   48.47980   83.26750    7.86180    0.00090   30.00850    3.24970    2.79060  452.92820  972.62210  378.66490    0.03070
