~Version ---------------------------------------------------
VERS.   2.0 : CWLS log ASCII Standard -VERSION 2.0
WRAP.    NO : One line per depth step
DLM . SPACE : Column Data Section Delimiter
~Well ------------------------------------------------------
STRT .FT                 102.0 : START DEPTH
STOP .FT                5015.0 : STOP DEPTH
STEP .FT                   0.5 : STEP
NULL .                -9999.25 : NULL VALUE
COMP .                         : COMPANY
WELL .                         : WELL
FLD  .                         : FIELD
LOC  .                         : LOCATION
PROV .                         : PROVINCE
CNTY .                         : COUNTY
STAT .                         : STATE
CTRY .                         : COUNTRY
SRVC .                         : SERVICE COMPANY
DATE .                         : DATE
UWI  .                         : UNIQUE WELL ID
API  .                         : API NUMBER
SLAT .WGS84 3.0314498471068987 : SURFACE LATITUDE
SLON .WGS84  8.782247756437002 : SURFACE LONGITUDE
DATUM.F                    nan : DEPTH DATUM ELEV
~Curve Information -----------------------------------------
DEPT   .FT    : 
DPHZ_LS.DEC   : HGRD STANDARD RESOLUTION DENSITY POROSITY
DTCO   .US/F  : DELTA-T COMPRESSIONAL
DTSM   .US/F  : DELTA-T SHEAR
HCALD  .IN    : HRCC CALIPER CALIBRATED FROM DENSITY LOG
HDRA   .G/C3  : HRDD SPINE AND RIBS DENSITY CORRECTION
HSGRD  .GAPI  : HNGS STANDARD GAMMA RAY FROM DENSITY LOG
PEFZ   .B/E   : HRDD STANDARD RESOLUTION FORMATION PHOTOELECTRIC FACTOR
RHOZ   .G/C3  : HRDD STANDARD RESOLUTION FORMATION DENSITY
RLA3   .OHMM  : APPARENT RESISTIVITY FROM COMPUTED FOCUSING MODE 3
RLA5   .OHMM  : APPARENT RESISTIVITY FROM COMPUTED FOCUSING MODE 5
RXOZ   .OHMM  : INVADED FORMATION RESISTIVITY FILTERED AT 18 INCHES
TNPH_LS.DEC   : THERMAL NEUTRON POROSITY [LIMESTONE]
~Params ----------------------------------------------------
~Other -----------------------------------------------------
~ASCII -----------------------------------------------------
# ...
 4162.00000   -0.04130   49.77470   82.61840    8.03230   -0.00660   26.34420    3.25230    2.76360 1780.31660 4123.19370  518.60300    0.03820
 4162.50000   -0.03360   49.39130   81.91250    8.02920   -0.00770   23.67700    3.22140    2.75100 1226.16850 1987.01190  306.70750    0.03680
 4163.00000   -0.02790   49.15150   81.38640    8.02610   -0.00440   21.37360    3.16260    2.74820  680.95620  927.86230  251.40830    0.03520
 4163.50000   -0.02990   49.00850   81.51590    8.02300    0.00070   23.39100    3.15030    2.76240  946.89030 1360.09790  223.49290    0.03380
 4164.00000   -0.03640   49.20560   82.09610    8.01990    0.00250   26.22410    3.13810    2.77330 1364.71650 1990.58490  347.04740    0.03320
 4164.50000   -0.04020   49.60660   82.76470    8.01690    0.00320   28.90770    3.17970    2.76800 1571.21250 2672.44740  429.24540    0.03570
 4165.00000   -0.03490   49.97920   83.40610    8.01380    0.00090   31.35340    3.22140    2.75480 1561.69990 2740.72910  681.79640    0.03890
 4165.50000   -0.02530   50.31150   84.08280    8.01070   -0.00260   32.06410    3.22300    2.73680 1902.47610 8438.96920  679.02660    0.04090
 4166.00000   -0.01140   50.80620   84.79240    8.00760   -0.00600   31.27670    3.22100    2.71170 2260.21140 11121.29360 1084.97550    0.04000
 4166.50000    0.00440   51.38920   84.67940    8.00450   -0.00850   30.64740    3.13460    2.68660 2082.31690 7913.92990  511.74730    0.03890
 4167.00000    0.01560   51.87100   83.96700    8.00150   -0.00790   31.28440    3.08150    2.68610 1898.76240 5348.05600  302.87920    0.04200
 4167.50000    0.00290   52.31080   84.02090    7.99840    0.00040   32.88980    3.03320    2.71560 1784.93450 7455.32480  259.08250    0.04830
 4168.00000   -0.01490   52.33130   84.43020    7.99530    0.00180   33.42470    3.05540    2.74500 2231.91030 12294.90620  290.25780    0.05480
 4168.50000   -0.03270   52.23140   84.57300    7.99220    0.00330   31.45410    3.10730    2.77440 2217.88320 13431.76040  589.88860    0.05480
 4169.00000   -0.04030   51.80890   84.15380    7.98910    0.00470   29.70380    3.11870    2.77490 2095.50010 10324.33550  558.14420    0.05210
 4169.50000   -0.03690   51.57730   83.73460    7.98610    0.00620   28.61930    3.12040    2.76270 1967.41900 6754.63980  810.94500    0.04960
 4170.00000   -0.02660   51.40830   83.02340    7.98300    0.00290   28.54740    3.11350    2.75050 1806.75760 4277.16250  500.57200    0.04830
 4170.50000   -0.02060   51.35360   82.43090    7.97990    0.00180   27.70310    3.14010    2.73830 1523.13990 3931.02920  351.83970    0.04710
 4171.00000   -0.01750   51.27520   82.79940    7.97680    0.00180   27.12710    3.15610    2.73880 2027.26070 6729.80600  311.00320    0.04810
 4171.50000   -0.02290   51.22330   83.48330    7.97370    0.00160   25.95720    3.12620    2.74710 2057.76610 6242.09690  327.11210    0.04920
 4172.00000   -0.02650   51.15400   82.79690    7.97070    0.00130   24.73890    3.09920    2.75540 1909.43940 4402.92030  358.10900    0.04840
 4172.50000   -0.02900   51.15830   82.62910    7.96840    0.00100   22.82360    3.11800    2.75610 1697.47650 3633.64010  384.46190    0.04650
 4173.00000   -0.02730   51.21510   83.03020    7.96680    0.00070   21.96770    3.15360    2.74990 1595.25680 3094.09550  548.79600    0.04460
 4173.50000   -0.02400   51.48210   83.28220    7.96510   -0.00290   22.16680    3.19080    2.74360 1976.75340 8225.21330  663.81240    0.04270
 4174.00000   -0.02020   51.64590   83.36310    7.96340   -0.00290   22.56650    3.20580    2.74110 2166.54690 6078.67650 1023.17620    0.04140
 4174.50000   -0.02110   51.54770   83.35670    7.96170   -0.00170   22.64710    3.10650    2.74580 2146.84010 5575.82000  882.01640    0.04180
 4175.00000   -0.02460   51.46620   83.73140    7.96010    0.00020   22.23630    3.06860    2.75320 2154.09860 7817.51360  706.54630    0.04230
 4175.50000   -0.02720   51.79050   84.62220    7.94800    0.00130   21.82540    3.02980    2.75180 2423.72110 8979.22140  594.69380    0.04240
 4176.00000   -0.02220   51.96650   84.52540    7.94890    0.00140   21.61470    3.00530    2.74590 2291.68670 8061.50960  722.25010    0.04080
 4176.50000   -0.01610   52.09890   84.07120    7.95300    0.00100   21.39370    2.98090    2.73130 2298.68210 8029.65480  694.93040    0.03980
 4177.00000   -0.01200   52.03320   84.18500    7.95710    0.00100   21.23730    2.94600    2.72670 2613.32730 14711.74410  542.26000    0.04180
 4177.50000   -0.01240   51.92800   85.10380    7.96120    0.00100   21.02570    2.96990    2.73710 2634.52240 12743.03940  423.15070    0.04370
 4178.00000   -0.01550   51.81550   85.59530    7.96530    0.00070   21.09850    2.96900    2.73560 2557.32880 9171.84100  393.27560    0.04560
 4178.50000   -0.01620   51.64850   84.96650    7.96940    0.00080   21.17120    3.02460    2.73200 2773.72150 14040.03030  564.34370    0.04700
 4179.00000   -0.01360   51.64520   84.49120    7.97350    0.00090   21.51690    3.04310    2.72990 2622.49870 9409.65880  643.56480    0.04660
 4179.50000   -0.01510   51.64190   84.80390    7.97770    0.00100   21.45240    3.04420    2.74390 2565.94620 15881.88300  815.13910    0.04350
 4180.00000   -0.02340   51.70940   84.63030    7.99080    0.00250   21.55780    3.06690    2.75460 2709.10910 7502.14920  627.92680    0.03990
 4180.50000   -0.03130   51.74060   84.18760    8.00580    0.00480   21.66320    3.09260    2.76540 2328.82950 9900.75870  505.90420    0.03840
 4181.00000   -0.03540   51.76240   84.36670    8.01650    0.00370   22.51520    3.12640    2.76720 2475.64480 8073.49030  499.86360    0.03850
 4181.50000   -0.02530   51.78430   84.51920    8.02290   -0.00020   23.08600    3.16060    2.75810 2242.38720 8246.51840  651.78620    0.03960
 4182.00000   -0.01930   51.90930   84.10070    8.02290   -0.00090   22.52750    3.15060    2.74850 2511.83970 6348.04860  815.55950    0.04030
 4182.50000   -0.01490   51.90830   85.29170    8.01920   -0.00020   21.44360    3.11280    2.73900 2186.54720 4675.98180  982.01730    0.04060
 4183.00000   -0.01290   51.95760   86.52470    8.01300    0.00060   20.97810    3.07500    2.73060 2755.42020 23188.80310  966.01300    0.04060
 4183.50000   -0.01110   51.83840   84.41590    8.00670    0.00100   20.87110    3.03720    2.72530 3171.70270 12345.05900  781.42440    0.03990
 4184.00000   -0.00730   51.56540   83.31160    8.00050    0.00070   20.48720    3.00320    2.72070 3042.16370 17242.80560  610.80230    0.03870
 4184.50000   -0.00470   51.19810   82.59830    7.99430   -0.00040   19.84720    2.93140    2.71580 2831.46480 12267.47650  614.18550    0.03800
 4185.00000   -0.00510   51.30260   82.80100    7.98810   -0.00130   19.76740    2.94270    2.71780 2813.67040 7635.09260  354.39690    0.03840
 4185.50000   -0.01090   51.55510   83.97160    7.98190    0.00010   20.90950    3.00320    2.72830 2473.06240 6308.32730  210.74420    0.03980
 4186.00000   -0.01870   52.05160   85.27590    7.97570    0.00080   22.43760    3.05330    2.73880 2441.28080 10418.58650  174.62820    0.04260
 4186.50000   -0.02560   51.61980   85.77290    7.96940    0.00140   23.88560    3.12500    2.74940 2867.39010 14271.30390  201.06810    0.04530
 4187.00000   -0.02390   51.52090   84.92780    7.97170    0.00120   24.98120    3.15230    2.75160 2748.89270 12297.40370  321.94220    0.04780
 4187.50000   -0.02050   51.24380   84.42320    7.97450   -0.00120   25.66780    3.23450    2.74430 2388.30170 7809.66340  594.55510    0.04900
 4188.00000   -0.01890   50.69580   84.42920    7.97730   -0.00020   27.49560    3.28080    2.73850 2333.99200 6782.61910 1054.82860    0.04860
 4188.50000   -0.02380   49.96950   84.43520    7.98010    0.00090   30.21370    3.28360    2.73850 2304.22160 11266.69490  697.55770    0.04540
 4189.00000   -0.03160   49.35980   83.72580    7.98290   -0.00280   32.47150    3.26290    2.74940 2001.83960 2505.05250  760.00480    0.04080
 4189.50000   -0.04120   48.82430   82.42570    7.98570    0.00080   33.27330    3.24980    2.76660 1555.66890 3821.66770  534.73020    0.03570
