~Version ---------------------------------------------------
VERS.   2.0 : CWLS log ASCII Standard -VERSION 2.0
WRAP.    NO : One line per depth step
DLM . SPACE : Column Data Section Delimiter
~Well ------------------------------------------------------
STRT .FT                 102.0 : START DEPTH
STOP .FT                5015.0 : STOP DEPTH
STEP .FT                   0.5 : STEP
NULL .                -9999.25 : NULL VALUE
COMP .                         : COMPANY
WELL .                         : WELL
FLD  .                         : FIELD
LOC  .                         : LOCATION
PROV .                         : PROVINCE
CNTY .                         : COUNTY
STAT .                         : STATE
CTRY .                         : COUNTRY
SRVC .                         : SERVICE COMPANY
DATE .                         : DATE
UWI  .                         : UNIQUE WELL ID
API  .                         : API NUMBER
SLAT .WGS84 3.0314498471068987 : SURFACE LATITUDE
SLON .WGS84  8.782247756437002 : SURFACE LONGITUDE
DATUM.F                    nan : DEPTH DATUM ELEV
~Curve Information -----------------------------------------
DEPT   .FT    : 
DPHZ_LS.DEC   : HGRD STANDARD RESOLUTION DENSITY POROSITY
DTCO   .US/F  : DELTA-T COMPRESSIONAL
DTSM   .US/F  : DELTA-T SHEAR
HCALD  .IN    : HRCC CALIPER CALIBRATED FROM DENSITY LOG
HDRA   .G/C3  : HRDD SPINE AND RIBS DENSITY CORRECTION
HSGRD  .GAPI  : HNGS STANDARD GAMMA RAY FROM DENSITY LOG
PEFZ   .B/E   : HRDD STANDARD RESOLUTION FORMATION PHOTOELECTRIC FACTOR
RHOZ   .G/C3  : HRDD STANDARD RESOLUTION FORMATION DENSITY
RLA3   .OHMM  : APPARENT RESISTIVITY FROM COMPUTED FOCUSING MODE 3
RLA5   .OHMM  : APPARENT RESISTIVITY FROM COMPUTED FOCUSING MODE 5
RXOZ   .OHMM  : INVADED FORMATION RESISTIVITY FILTERED AT 18 INCHES
TNPH_LS.DEC   : THERMAL NEUTRON POROSITY [LIMESTONE]
~Params ----------------------------------------------------
~Other -----------------------------------------------------
~ASCII -----------------------------------------------------
# ...
 3378.00000   -0.07790   48.01080   83.19500    8.02840    0.00090   31.19350    3.48390    2.82560  258.81960  336.36620  294.57360    0.05480
 3378.50000   -0.07270   48.27890   83.27220    8.02960    0.00050   28.84980    3.46630    2.81560  286.38340  374.18780  287.68070    0.05570
 3379.00000   -0.06750   48.39560   83.74350    8.03070    0.00020   26.47170    3.52450    2.80550  356.96660  453.86840  302.56330    0.05630
 3379.50000   -0.05960   48.53720   84.39750    8.03190   -0.00010   25.01240    3.60490    2.79380  291.59620  461.00280  261.42290    0.05810
 3380.00000   -0.04900   48.69560   85.10760    8.03300   -0.00140   26.32280    3.66140    2.77530  236.68290  293.65080  192.85570    0.06230
 3380.50000   -0.03730   48.69010   84.98550    8.03420   -0.00350   27.09790    3.66030    2.75950  189.64220  233.35420  136.15650    0.06560
 3381.00000   -0.02780   48.66010   84.65520    8.03530   -0.00350   26.53080    3.65210    2.75240  142.60140  169.28960  108.14320    0.06930
 3381.50000   -0.02450   48.65470   84.32490    8.03650   -0.00350   25.02370    3.64380    2.74900  116.58980  119.61950   71.15480    0.07320
 3382.00000   -0.02640   48.64940   83.99460    8.03760   -0.00350   23.67980    3.65560    2.75810  129.91190  180.52790   93.90060    0.07620
 3382.50000   -0.03770   48.64400   84.03510    8.03880   -0.00350   23.22390    3.59770    2.79280  156.79790  214.99200  100.26400    0.07750
 3383.00000   -0.04640   48.63860   84.06750    8.03990   -0.00320   23.80220    3.56970    2.79420  146.51860  155.83470  132.98350    0.07770
 3383.50000   -0.05190   48.63330   83.96510    8.04110   -0.00290   24.60030    3.54160    2.79420  134.28680  150.20190  114.15780    0.07710
 3384.00000   -0.04980   48.56900   85.08140    8.04170   -0.00250   24.16260    3.53530    2.78880  131.84040  145.23980   95.33220    0.07660
 3384.50000   -0.04850   48.85020   86.22450    8.04150   -0.00220   23.01020    3.52260    2.78880  128.55700  135.12560  110.34650    0.07620
 3385.00000   -0.05080   49.39800   87.14490    8.04740   -0.00190   21.58940    3.50740    2.79420  188.84520  248.55820  117.67070    0.07690
 3385.50000   -0.05270   49.94570   88.06530    8.06250    0.00050   20.73180    3.47760    2.79790  171.39780  225.15540  135.69440    0.07820
 3386.00000   -0.05220   50.49350   89.26450    8.06030    0.00280   20.24110    3.48300    2.79690  124.79660  166.69490  103.61710    0.07900
 3386.50000   -0.04870   51.20990   90.24820    8.05810    0.00210   19.16590    3.54960    2.78620   86.41940  108.23440   80.18170    0.07980
 3387.00000   -0.04320   51.64880   90.53280    8.05590    0.00170   15.55900    3.61620    2.77540   75.07780   88.58930   75.21400    0.08050
 3387.50000   -0.03410   51.76390   91.11960    8.05380    0.00130   12.56560    3.68280    2.76470   59.76210   72.56810   65.84870    0.08200
 3388.00000   -0.02700   51.92090   92.92960    8.05160    0.00090   10.28530    3.73630    2.75400   44.44650   56.54680   52.74420    0.09020
 3388.50000   -0.02660   51.71110   94.31970    8.04940    0.00050    7.45040    3.71250    2.74950   37.36590   40.52560   39.63970    0.10610
 3389.00000   -0.02980   51.40840   91.34510    8.04720    0.00010    5.94410    3.67030    2.76210   37.60230   34.77110   43.54820    0.12040
 3389.50000   -0.03610   51.10580   90.43980    8.04510   -0.00020    5.21130    3.62700    2.78080   38.56270   36.56680   46.31460    0.12060
 3390.00000   -0.04450   50.73000   90.13120    8.04290    0.00070    4.90830    3.58090    2.79630   46.67050   35.88170   41.42550    0.11250
 3390.50000   -0.05360   50.56060   90.65160    8.04070    0.00150    4.77690    3.57160    2.79690   78.62180   92.08400   44.22160    0.10400
 3391.00000   -0.05310   50.51130   90.74770    8.03850    0.00170    5.02960    3.58830    2.79630   66.52800   78.55000   62.06930    0.09550
 3391.50000   -0.05080   50.44270   90.51270    8.03640    0.00140    5.42080    3.55870    2.78370   51.41060   49.74050   63.83810    0.09020
 3392.00000   -0.04820   50.28960   90.19360    8.03420    0.00110    5.92680    3.54560    2.78290   49.62250   44.17970   56.48750    0.09240
 3392.50000   -0.04790   50.22680   89.93060    8.03200    0.00080    6.51570    3.52020    2.78290   47.20850   40.32850   55.29530    0.09610
 3393.00000   -0.04500   50.27020   89.70580    8.02980    0.00050    7.57420    3.49490    2.78990   33.56860   30.70040   40.85750    0.09870
 3393.50000   -0.04750   50.23590   88.39310    8.02770    0.00100    8.84050    3.51120    2.78750   44.14130   42.08400   41.99470    0.09810
 3394.00000   -0.05010   50.11710   87.08030    8.02550    0.00350    9.83280    3.52010    2.78170   68.97080  115.69510   45.60890    0.08960
 3394.50000   -0.04550   49.99480   87.15370    8.02330    0.00400   10.13380    3.44950    2.77150   93.80030  160.36750   47.29240    0.08300
 3395.00000   -0.03720   49.88800   87.38450    8.02110    0.00030    9.64840    3.40620    2.76020   55.93700   93.52480   47.29240    0.07890
 3395.50000   -0.02880   49.86220   86.99150    8.01900   -0.00300    9.52510    3.39340    2.74900   65.73360   76.45680   46.93610    0.07750
 3396.00000   -0.02560   49.90020   85.46950    8.01680   -0.00150    8.76850    3.46930    2.74890   64.22640   96.54230   43.40650    0.08430
 3396.50000   -0.02940   49.93830   87.54440    8.01460    0.00060    7.79480    3.53580    2.75930   54.88900   64.89830   71.51440    0.09060
 3397.00000   -0.03450   49.99030   90.20420    8.01240    0.00390    6.74170    3.56490    2.76980   61.87180   62.09640   87.05900    0.09490
 3397.50000   -0.04090   50.05210   91.15960    8.01030    0.00430    5.83700    3.54910    2.78100   51.49250   59.41560   49.23960    0.09820
 3398.00000   -0.04490   49.99200   89.98590    8.00810    0.00470    5.52560    3.55130    2.77280   40.88630   62.21990   41.26270    0.09960
 3398.50000   -0.03310   50.01660   86.70790    8.00590    0.00160    5.21420    3.55360    2.76370   54.92110   70.56960   35.83660    0.09940
 3399.00000   -0.02390   50.11590   85.22270    8.00370   -0.00290    4.73240    3.56920    2.75460   54.25430   65.94230   38.45820    0.09480
 3399.50000   -0.01980   50.09490   89.63950    8.00150   -0.00020    4.74070    3.62310    2.74790   49.62250   82.00190   36.19970    0.08830
 3400.00000   -0.02140   49.84330   95.30730    7.99940    0.00280    5.28200    3.63160    2.73870   78.61600  135.63190   37.69020    0.08240
 3400.50000   -0.01780   49.75830   93.62730    7.99720    0.00450    6.27720    3.61130    2.73480  101.81080  143.61590   32.89200    0.07920
 3401.00000   -0.01420   49.82160   87.56150    7.99500   -0.00160    7.27240    3.58580    2.73970   82.11270   96.22020   41.46610    0.07880
 3401.50000   -0.02000   49.89950   86.06970    7.99280   -0.00030    7.54950    3.53100    2.74780   75.70350  105.70580   50.24290    0.08160
 3402.00000   -0.02710   49.83580   85.72300    7.99070   -0.00020    7.07860    3.49180    2.75580   81.13930  121.13800   67.31800    0.08610
 3402.50000   -0.03070   49.73650   86.61970    7.98850   -0.00010    6.20310    3.50010    2.75820   79.61920   84.57130   74.83510    0.09060
 3403.00000   -0.02620   49.87220   87.94170    7.98630   -0.00170    5.68140    3.51450    2.74930   69.63290   81.94660   62.09640    0.09560
 3403.50000   -0.01940   50.07360   89.91750    7.98410   -0.00260    5.49270    3.51450    2.73910   59.62770   68.40170   49.16800    0.10050
 3404.00000   -0.01210   50.23070   90.48410    7.98200   -0.00280    5.68320    3.50470    2.72880   49.62250   57.93640   43.38890    0.10450
 3404.50000   -0.00890   50.40450   92.21250    7.97980   -0.00300    5.58780    3.49500    2.72670   39.91260   47.65460   32.07290    0.10770
 3405.00000   -0.01090   50.62070   90.08570    7.97760   -0.00270    5.74640    3.47750    2.73590   33.14810   38.45820   36.51070    0.10880
 3405.50000   -0.01740   50.58430   88.10390    7.97540   -0.00070    6.21950    3.42900    2.74060   40.00260   42.14830   81.12470    0.10900
