~Version ---------------------------------------------------
VERS.   2.0 : CWLS log ASCII Standard -VERSION 2.0
WRAP.    NO : One line per depth step
DLM . SPACE : Column Data Section Delimiter
~Well ------------------------------------------------------
STRT .F                    6.0 : START DEPTH
STOP .F                10238.5 : STOP DEPTH
STEP .F                    0.5 : STEP
NULL .                -9999.25 : NULL VALUE
COMP .                         : COMPANY
WELL .                         : WELL
FLD  .                         : FIELD
LOC  .                         : LOCATION
PROV .                         : PROVINCE
CNTY .                         : COUNTY
STAT .                         : STATE
CTRY .                         : COUNTRY
SRVC .                         : SERVICE COMPANY
DATE .                         : DATE
UWI  .                         : UNIQUE WELL ID
API  .                         : API NUMBER
SLAT .WGS84  4.521437490691298 : SURFACE LATITUDE
SLON .WGS84 1.6054966445739893 : SURFACE LONGITUDE
DATUM.F                 792.34 : DEPTH DATUM ELEV
~Curve Information -----------------------------------------
DEPT.F     : 
GRD .GAPI  : GAMMA RAY FROM DENSITY LOG
HCAL.IN    : HILT CALIPER
NPOR.DEC   : NEUTRON POROSITY LIMESTONE
PEFZ.B/E   : FORMATION PHETOELECTRIC FACTOR
DPHZ.DEC   : DENSITY POROSITY LIMESTONE
HDRA.G/C3  : DELTA RHO HIP TOOL
RHOZ.G/C3  : HILT BULK DENSITY
AE10.OHMM  : 10-IN. ARRAY INDUCTION RESISTIVITY
AE30.OHMM  : 30-IN. ARRAY INDUCTION RESISTIVITY
AE90.OHMM  : 90-IN. ARRAY INDUCTION RESISTIVITY
DTCO.US/F  : COMPRESSIONAL-WAVE INTERVAL TRANSIT TIME ACOUSTIC SLOWNESS
DTSM.US/F  : SHEAR-WAVE INTERVAL TRANSIT TIME DELTA-T
~Params ----------------------------------------------------
~Other -----------------------------------------------------
~ASCII -----------------------------------------------------
# ...
 10198.00000   -9999.25    8.58900    0.10720    3.66450    0.04750    0.00500    2.62700  500.98130  564.50180  541.77890   -9999.25   -9999.25
 10198.50000   -9999.25    8.59070    0.11010    3.66390    0.04620    0.00530    2.62700  714.57370  711.14520  614.15380   -9999.25   -9999.25
 10199.00000   -9999.25    8.59240    0.11160    3.74430    0.03890    0.00670    2.64150 1015.12010  915.53590  754.87130   -9999.25   -9999.25
 10199.50000   -9999.25    8.58560    0.10720    3.82740    0.03290    0.00860    2.65280 1406.31850 1178.67080  976.31280   -9999.25   -9999.25
 10200.00000   -9999.25    8.57500    0.10710    3.90260    0.03820    0.01070    2.65000 1753.41050 1461.76700 1207.34190   -9999.25   -9999.25
 10200.50000   -9999.25    8.56540    0.11460    3.91370    0.04480    0.01100    2.63690 1728.91980 1506.32740 1236.75590   -9999.25   -9999.25
 10201.00000   -9999.25    8.56580    0.12480    3.91460    0.05070    0.01100    2.62380 1614.27330 1516.81880 1414.48330   -9999.25   -9999.25
 10201.50000   -9999.25    8.56810    0.13160    3.90820    0.05660    0.01100    2.61450 1642.81820 1584.54880 1475.89660   -9999.25   -9999.25
 10202.00000   -9999.25    8.57080   -9999.25    3.90170    0.06010    0.01100    2.60830 1739.74440 1745.82920 1673.03590   -9999.25   -9999.25
 10202.50000   -9999.25    8.55880   -9999.25    3.89520    0.07120    0.01120    2.59620 1796.77710 1893.90860 1725.83790   -9999.25   -9999.25
 10203.00000   -9999.25    8.54880   -9999.25    3.82070    0.07600    0.01140    2.58310 1802.23710 1939.61670 1570.59850   -9999.25   -9999.25
 10203.50000   -9999.25    8.54090   -9999.25    3.80170    0.08140    0.01150    2.57360 1829.03310 1851.17300 1293.65660   -9999.25   -9999.25
 10204.00000   -9999.25    8.53360   -9999.25    3.78500    0.08340    0.01040    2.56830 1856.54650 1559.98520  945.49480   -9999.25   -9999.25
 10204.50000   -9999.25    8.52710   -9999.25    3.75560    0.09030    0.00920    2.56200 1821.06090 1462.68920 1022.64880   -9999.25   -9999.25
 10205.00000   -9999.25    8.52170   -9999.25    3.75370    0.10410    0.00800    2.54430 1680.83980 1475.11330 1357.87920   -9999.25   -9999.25
 10205.50000   -9999.25    8.51990   -9999.25    3.84490    0.11620    0.00690    2.51930 1540.11930 1775.50220 1405.62150   -9999.25   -9999.25
 10206.00000   -9999.25    8.49260   -9999.25    3.98120    0.10990    0.00680    2.52050 1583.55220 1862.50520 1695.69120   -9999.25   -9999.25
 10206.50000   -9999.25    8.47420   -9999.25    4.15300    0.09240    0.02960    2.54780 1358.01640 1520.93710 1971.23560   -9999.25   -9999.25
 10207.00000   -9999.25    8.48500   -9999.25    4.21710    0.07390    0.03310    2.58170  764.07460  847.51670  971.69450   -9999.25   -9999.25
 10207.50000   -9999.25    8.49990   -9999.25    4.17090    0.07740    0.01070    2.57680  447.60350  512.59970  578.75890   -9999.25   -9999.25
 10208.00000   -9999.25    8.50980   -9999.25    4.10030    0.08320    0.03800    2.56770  302.37010  335.20360  367.80940   -9999.25   -9999.25
 10208.50000   -9999.25    8.51840   -9999.25    4.09690    0.07860    0.02650    2.58100  204.26030  232.53190  262.70490   -9999.25   -9999.25
 10209.00000   -9999.25    8.52870   -9999.25    4.27990    0.05560    0.01330    2.60660  153.93050  165.02900  187.63480   -9999.25   -9999.25
 10209.50000   -9999.25    8.54230   -9999.25    4.76370    0.03070    0.01470    2.68210  138.60980  153.68080  162.84080   -9999.25   -9999.25
 10210.00000   -9999.25    8.54520   -9999.25    5.27270    0.00080    0.03010    2.71700  140.96270  153.68010  161.78790   -9999.25   -9999.25
 10210.50000   -9999.25    8.54300   -9999.25    5.83060   -0.01320    0.04220    2.72250  169.99320  178.30690  197.87470   -9999.25   -9999.25
 10211.00000   -9999.25    8.53950   -9999.25    6.10660   -0.01350    0.05430    2.72380  225.64300  248.97370  292.49040   -9999.25   -9999.25
 10211.50000   -9999.25    8.53410   -9999.25    6.14890   -0.00910    0.05640    2.72380  361.14680  401.22400  465.61780   -9999.25   -9999.25
 10212.00000   -9999.25    8.52870   -9999.25    6.12150   -0.01210    0.05310    2.72300  578.70320  650.78130  785.75310   -9999.25   -9999.25
 10212.50000   -9999.25    8.54020   -9999.25    6.03940   -0.01590    0.04430    2.72060  910.92010  991.03830 1325.99650   -9999.25   -9999.25
 10213.00000   -9999.25    8.56630   -9999.25    5.89760   -0.01740    0.03810    2.71820 1384.21000 1448.27400 1972.62670   -9999.25   -9999.25
 10213.50000   -9999.25    8.55590   -9999.25    5.75590   -0.01690    0.04230    2.71700 1688.32700 1764.05810 1989.02720   -9999.25   -9999.25
 10214.00000   -9999.25    8.53630   -9999.25    5.62070   -0.01790    0.05000    2.71810 1879.34130 1942.21970 1999.26420   -9999.25   -9999.25
 10214.50000   -9999.25    8.51920   -9999.25    5.67540   -0.01860    0.05840    2.72200 1937.19360 1971.64260 2009.30880   -9999.25   -9999.25
 10215.00000   -9999.25   -9999.25   -9999.25    5.96510   -9999.25    0.06740    2.72580 1947.27170 1996.81480 2015.83530   -9999.25   -9999.25
 10215.50000   -9999.25   -9999.25   -9999.25   -9999.25   -9999.25   -9999.25   -9999.25 1953.47770 1995.99830 2020.07600   -9999.25   -9999.25
 10216.00000   -9999.25   -9999.25   -9999.25   -9999.25   -9999.25   -9999.25   -9999.25 1953.47770 1990.84720 2020.07600   -9999.25   -9999.25
 10216.50000   -9999.25   -9999.25   -9999.25   -9999.25   -9999.25   -9999.25   -9999.25 1947.40320 1985.60470 2020.07600   -9999.25   -9999.25
 10217.00000   -9999.25   -9999.25   -9999.25   -9999.25   -9999.25   -9999.25   -9999.25 1919.21970 1980.36850 2020.07600   -9999.25   -9999.25
 10217.50000   -9999.25   -9999.25   -9999.25   -9999.25   -9999.25   -9999.25   -9999.25 1803.58420 1978.04110 2019.06370   -9999.25   -9999.25
 10218.00000   -9999.25   -9999.25   -9999.25   -9999.25   -9999.25   -9999.25   -9999.25 1684.97970 1934.91910 1991.26370   -9999.25   -9999.25
 10218.50000   -9999.25   -9999.25   -9999.25   -9999.25   -9999.25   -9999.25   -9999.25 1556.61550 1814.71780 1907.67000   -9999.25   -9999.25
 10219.00000   -9999.25   -9999.25   -9999.25   -9999.25   -9999.25   -9999.25   -9999.25 1336.49110 1625.96010 1680.49190   -9999.25   -9999.25
 10219.50000   -9999.25   -9999.25   -9999.25   -9999.25   -9999.25   -9999.25   -9999.25 1220.37220 1422.76650 1513.44020   -9999.25   -9999.25
 10220.00000   -9999.25   -9999.25   -9999.25   -9999.25   -9999.25   -9999.25   -9999.25 1097.93520 1259.21620 1412.46890   -9999.25   -9999.25
 10220.50000   -9999.25   -9999.25   -9999.25   -9999.25   -9999.25   -9999.25   -9999.25 1086.34160 1245.43870 1360.22570   -9999.25   -9999.25
 10221.00000   -9999.25   -9999.25   -9999.25   -9999.25   -9999.25   -9999.25   -9999.25 1209.48660 1276.77990 1388.98430   -9999.25   -9999.25
 10221.50000   -9999.25   -9999.25   -9999.25   -9999.25   -9999.25   -9999.25   -9999.25 1349.15500 1412.83640 1480.97170   -9999.25   -9999.25
 10222.00000   -9999.25   -9999.25   -9999.25   -9999.25   -9999.25   -9999.25   -9999.25 1504.80580 1566.27780 1607.03520   -9999.25   -9999.25
 10222.50000   -9999.25   -9999.25   -9999.25   -9999.25   -9999.25   -9999.25   -9999.25 1655.60670 1712.74660 1743.82820   -9999.25   -9999.25
 10223.00000   -9999.25   -9999.25   -9999.25   -9999.25   -9999.25   -9999.25   -9999.25 1672.09200 1848.66550 1876.58960   -9999.25   -9999.25
 10223.50000   -9999.25   -9999.25   -9999.25   -9999.25   -9999.25   -9999.25   -9999.25 1672.47850 1896.72730 1959.57200   -9999.25   -9999.25
 10224.00000   -9999.25   -9999.25   -9999.25   -9999.25   -9999.25   -9999.25   -9999.25 1672.86600 1908.22940 1975.47900   -9999.25   -9999.25
 10224.50000   -9999.25   -9999.25   -9999.25   -9999.25   -9999.25   -9999.25   -9999.25 1677.30940 1900.66830 1954.24020   -9999.25   -9999.25
 10225.00000   -9999.25   -9999.25   -9999.25   -9999.25   -9999.25   -9999.25   -9999.25 1691.52770 1869.69070 1891.83240   -9999.25   -9999.25
 10225.50000   -9999.25   -9999.25   -9999.25   -9999.25   -9999.25   -9999.25   -9999.25 1711.82730 1830.00840 1865.16460   -9999.25   -9999.25
