~Version ---------------------------------------------------
VERS.   2.0 : CWLS log ASCII Standard -VERSION 2.0
WRAP.    NO : One line per depth step
DLM . SPACE : Column Data Section Delimiter
~Well ------------------------------------------------------
STRT .F                    6.0 : START DEPTH
STOP .F                10238.5 : STOP DEPTH
STEP .F                    0.5 : STEP
NULL .                -9999.25 : NULL VALUE
COMP .                         : COMPANY
WELL .                         : WELL
FLD  .                         : FIELD
LOC  .                         : LOCATION
PROV .                         : PROVINCE
CNTY .                         : COUNTY
STAT .                         : STATE
CTRY .                         : COUNTRY
SRVC .                         : SERVICE COMPANY
DATE .                         : DATE
UWI  .                         : UNIQUE WELL ID
API  .                         : API NUMBER
SLAT .WGS84  4.521437490691298 : SURFACE LATITUDE
SLON .WGS84 1.6054966445739893 : SURFACE LONGITUDE
DATUM.F                 792.34 : DEPTH DATUM ELEV
~Curve Information -----------------------------------------
DEPT.F     : 
GRD .GAPI  : GAMMA RAY FROM DENSITY LOG
HCAL.IN    : HILT CALIPER
NPOR.DEC   : NEUTRON POROSITY LIMESTONE
PEFZ.B/E   : FORMATION PHETOELECTRIC FACTOR
DPHZ.DEC   : DENSITY POROSITY LIMESTONE
HDRA.G/C3  : DELTA RHO HIP TOOL
RHOZ.G/C3  : HILT BULK DENSITY
AE10.OHMM  : 10-IN. ARRAY INDUCTION RESISTIVITY
AE30.OHMM  : 30-IN. ARRAY INDUCTION RESISTIVITY
AE90.OHMM  : 90-IN. ARRAY INDUCTION RESISTIVITY
DTCO.US/F  : COMPRESSIONAL-WAVE INTERVAL TRANSIT TIME ACOUSTIC SLOWNESS
DTSM.US/F  : SHEAR-WAVE INTERVAL TRANSIT TIME DELTA-T
~Params ----------------------------------------------------
~Other -----------------------------------------------------
~ASCII -----------------------------------------------------
# ...
 4066.00000  109.97060    8.82830   -9999.25   -9999.25   -9999.25   -9999.25   -9999.25    2.86050    2.94320    3.01820   84.92600  213.97140
 4066.50000  102.33710    8.82810   -9999.25   -9999.25   -9999.25   -9999.25   -9999.25    2.84650    2.92970    3.04150   75.85050  214.57130
 4067.00000  101.52190    8.82790   -9999.25   -9999.25   -9999.25   -9999.25   -9999.25    2.82300    2.90550    3.08100   74.93540  214.95190
 4067.50000  107.00140    8.82770   -9999.25   -9999.25   -9999.25   -9999.25   -9999.25    2.84710    2.93650    3.07960   80.13390  215.29810
 4068.00000  112.76630    8.82750   -9999.25   -9999.25   -9999.25   -9999.25   -9999.25    2.90150    2.94440    3.04320   89.17890  216.98010
 4068.50000  114.34260    8.82730   -9999.25   -9999.25   -9999.25   -9999.25   -9999.25    2.73150    2.80780    2.96700   98.02640  217.02040
 4069.00000  112.11360    8.82710   -9999.25   -9999.25   -9999.25   -9999.25   -9999.25    2.52700    2.72790    2.81130  100.14920  214.96390
 4069.50000  109.07100    8.82690   -9999.25   -9999.25   -9999.25   -9999.25   -9999.25    2.64150    2.79320    2.87840  100.71750  215.57220
 4070.00000  105.26400    8.82680   -9999.25   -9999.25   -9999.25   -9999.25   -9999.25    2.80170    2.89570    2.96910  100.93450  217.01270
 4070.50000  102.78630    8.84060   -9999.25   -9999.25   -9999.25   -9999.25   -9999.25    2.88000    2.97670    3.12860  101.31760  217.25610
 4071.00000  103.67350    8.85440   -9999.25   -9999.25   -9999.25   -9999.25   -9999.25    2.90000    2.98440    3.16490  101.26880  216.63260
 4071.50000  108.06960    8.84710   -9999.25   -9999.25   -9999.25   -9999.25   -9999.25    2.88020    2.96400    3.02270  100.85580  216.20480
 4072.00000  109.49510    8.84770   -9999.25   -9999.25   -9999.25   -9999.25   -9999.25    2.79960    2.89620    2.97520  100.51710  215.93810
 4072.50000  108.89990    8.87350   -9999.25   -9999.25   -9999.25   -9999.25   -9999.25    2.75880    2.82730    2.95590  100.28400  215.24530
 4073.00000  108.10010    8.89930   -9999.25   -9999.25   -9999.25   -9999.25   -9999.25    2.78940    2.83020    2.94350  100.17230  215.48710
 4073.50000  110.68260    8.92500   -9999.25   -9999.25   -9999.25   -9999.25   -9999.25    2.72620    2.83320    2.92180  100.06070  215.69770
 4074.00000  118.83160    8.96200   -9999.25   -9999.25   -9999.25   -9999.25   -9999.25    2.68890    2.83620    2.93830   99.94900  215.60130
 4074.50000  124.70960    9.00330   -9999.25   -9999.25   -9999.25   -9999.25   -9999.25    2.75200    2.82890    3.00850   99.83730  215.50490
 4075.00000  122.55890    9.04470   -9999.25   -9999.25   -9999.25   -9999.25   -9999.25    2.73410    2.81290    3.00950   99.72560  215.78680
 4075.50000  117.30450    9.08600   -9999.25   -9999.25   -9999.25   -9999.25   -9999.25    2.69660    2.79700    2.99370  100.03390  216.04450
 4076.00000  113.12080    9.10670   -9999.25   -9999.25   -9999.25   -9999.25   -9999.25    2.70230    2.79140    2.97810  100.34270  216.21240
 4076.50000  111.45140    9.09510   -9999.25   -9999.25   -9999.25   -9999.25   -9999.25    2.73030    2.80450    2.96250  100.61930  216.46760
 4077.00000  111.65670    9.05320   -9999.25   -9999.25   -9999.25   -9999.25   -9999.25    2.74810    2.83210    2.94800  100.89460  216.06160
 4077.50000  112.45290    9.01140   -9999.25   -9999.25   -9999.25   -9999.25   -9999.25    2.75890    2.86060    2.92580  101.11400  215.65560
 4078.00000  113.77030    8.98000   -9999.25   -9999.25   -9999.25   -9999.25   -9999.25    2.73710    2.81630    2.90550  100.86170  215.22070
 4078.50000  112.44560    8.95820   -9999.25   -9999.25   -9999.25   -9999.25   -9999.25    2.71680    2.77320    2.95490  100.48020  215.05710
 4079.00000  106.39070    8.94810   -9999.25   -9999.25   -9999.25   -9999.25   -9999.25    2.76630    2.81260    3.03610   99.91540  216.63690
 4079.50000   99.23700    8.95180   -9999.25   -9999.25   -9999.25   -9999.25   -9999.25    2.80090    2.85370    3.09690   99.63040  217.58810
 4080.00000   98.84830    8.97570   -9999.25   -9999.25   -9999.25   -9999.25   -9999.25    2.76900    2.86500    3.04330   99.73680  216.72570
 4080.50000  106.87250    8.99860   -9999.25   -9999.25   -9999.25   -9999.25   -9999.25    2.73300    2.85500    3.00970  100.06820  216.24850
 4081.00000  115.98980    8.99970   -9999.25   -9999.25   -9999.25   -9999.25   -9999.25    2.68920    2.82790    2.96400  100.27160  217.01540
 4081.50000  120.38980    9.00080   -9999.25   -9999.25   -9999.25   -9999.25   -9999.25    2.60530    2.77570    2.86760  100.35340  217.61330
 4082.00000  117.65220    9.00190   -9999.25   -9999.25   -9999.25   -9999.25   -9999.25    2.60350    2.73510    2.82390  100.90030  218.12850
 4082.50000  111.15390    9.01010   -9999.25   -9999.25   -9999.25   -9999.25   -9999.25    2.60530    2.70820    2.81920  101.62840  218.76980
 4083.00000  107.73240    9.06690   -9999.25   -9999.25   -9999.25   -9999.25   -9999.25    2.62780    2.68150    2.81560  102.34840  219.56960
 4083.50000  109.96060    9.08660   -9999.25   -9999.25   -9999.25   -9999.25   -9999.25    2.60880    2.70220    2.80420  102.16070  219.43870
 4084.00000  114.15390    9.08090   -9999.25   -9999.25   -9999.25   -9999.25   -9999.25    2.61340    2.72360    2.81060  101.95580  218.39940
 4084.50000  114.72320    9.03900   -9999.25   -9999.25   -9999.25   -9999.25   -9999.25    2.64470    2.75980    2.87470  101.73770  217.03540
 4085.00000  111.08590    9.02250   -9999.25   -9999.25   -9999.25   -9999.25   -9999.25    2.68810    2.76000    2.92470  101.57980  215.67140
 4085.50000  108.91760    9.06730   -9999.25   -9999.25   -9999.25   -9999.25   -9999.25    2.68660    2.76010    2.93440  101.33900  215.38930
 4086.00000  109.26870    9.11560   -9999.25   -9999.25   -9999.25   -9999.25   -9999.25    2.66310    2.73430    2.94410  101.03360  215.24370
 4086.50000  107.47050    9.15030   -9999.25   -9999.25   -9999.25   -9999.25   -9999.25    2.68620    2.76510    2.96110  100.82120  214.17650
 4087.00000   99.85890    9.12390   -9999.25   -9999.25   -9999.25   -9999.25   -9999.25    2.72920    2.81950    3.01540  101.23830  213.43520
 4087.50000   92.67530    9.10250   -9999.25   -9999.25   -9999.25   -9999.25   -9999.25    2.73660    2.81950    2.96020  102.09990  213.53540
 4088.00000   92.06180    9.10300   -9999.25   -9999.25   -9999.25   -9999.25   -9999.25    2.68170    2.79750    2.96030  102.65770  213.63560
 4088.50000   96.63420    9.10350   -9999.25   -9999.25   -9999.25   -9999.25   -9999.25    2.63430    2.81800    2.96060  103.19270  213.73580
 4089.00000  101.62070    9.12050   -9999.25   -9999.25   -9999.25   -9999.25   -9999.25    2.72300    2.83870    2.94140  103.57680  214.14990
 4089.50000  105.00210    9.14530   -9999.25   -9999.25   -9999.25   -9999.25   -9999.25    2.75400    2.83810    2.92680  103.76880  214.47990
 4090.00000  107.20560    9.14180   -9999.25   -9999.25   -9999.25   -9999.25   -9999.25    2.67700    2.75400    2.92280  103.57990  214.18390
 4090.50000  108.64490    9.10440   -9999.25   -9999.25   -9999.25   -9999.25   -9999.25    2.67650    2.75360    2.91880  103.31950  215.29260
 4091.00000  108.78910    9.07250   -9999.25   -9999.25   -9999.25   -9999.25   -9999.25    2.67610    2.75310    2.91710  103.50740  217.12760
 4091.50000  107.27840    9.11150   -9999.25   -9999.25   -9999.25   -9999.25   -9999.25    2.67570    2.75260    2.95010  103.53400  217.80040
 4092.00000  105.75770    9.13680   -9999.25   -9999.25   -9999.25   -9999.25   -9999.25    2.67520    2.75220    2.99840  103.36740  217.72720
 4092.50000  105.91460    9.16040   -9999.25   -9999.25   -9999.25   -9999.25   -9999.25    2.66100    2.74690    2.99270  103.15960  216.45050
 4093.00000  108.90750    9.12380   -9999.25   -9999.25   -9999.25   -9999.25   -9999.25    2.69750    2.77510    2.98560  102.95660  213.96510
 4093.50000  111.77570    9.11570   -9999.25   -9999.25   -9999.25   -9999.25   -9999.25    2.69660    2.77410    2.97960  102.59120  212.37700
