~Version ---------------------------------------------------
VERS.   2.0 : CWLS log ASCII Standard -VERSION 2.0
WRAP.    NO : One line per depth step
DLM . SPACE : Column Data Section Delimiter
~Well ------------------------------------------------------
STRT .F                    6.0 : START DEPTH
STOP .F                10238.5 : STOP DEPTH
STEP .F                    0.5 : STEP
NULL .                -9999.25 : NULL VALUE
COMP .                         : COMPANY
WELL .                         : WELL
FLD  .                         : FIELD
LOC  .                         : LOCATION
PROV .                         : PROVINCE
CNTY .                         : COUNTY
STAT .                         : STATE
CTRY .                         : COUNTRY
SRVC .                         : SERVICE COMPANY
DATE .                         : DATE
UWI  .                         : UNIQUE WELL ID
API  .                         : API NUMBER
SLAT .WGS84  4.521437490691298 : SURFACE LATITUDE
SLON .WGS84 1.6054966445739893 : SURFACE LONGITUDE
DATUM.F                 792.34 : DEPTH DATUM ELEV
~Curve Information -----------------------------------------
DEPT.F     : 
GRD .GAPI  : GAMMA RAY FROM DENSITY LOG
HCAL.IN    : HILT CALIPER
NPOR.DEC   : NEUTRON POROSITY LIMESTONE
PEFZ.B/E   : FORMATION PHETOELECTRIC FACTOR
DPHZ.DEC   : DENSITY POROSITY LIMESTONE
HDRA.G/C3  : DELTA RHO HIP TOOL
RHOZ.G/C3  : HILT BULK DENSITY
AE10.OHMM  : 10-IN. ARRAY INDUCTION RESISTIVITY
AE30.OHMM  : 30-IN. ARRAY INDUCTION RESISTIVITY
AE90.OHMM  : 90-IN. ARRAY INDUCTION RESISTIVITY
DTCO.US/F  : COMPRESSIONAL-WAVE INTERVAL TRANSIT TIME ACOUSTIC SLOWNESS
DTSM.US/F  : SHEAR-WAVE INTERVAL TRANSIT TIME DELTA-T
~Params ----------------------------------------------------
~Other -----------------------------------------------------
~ASCII -----------------------------------------------------
# ...
 9582.00000  299.35920    8.66390    0.15620    3.48960    0.14770    0.00790    2.45710   -9999.25 2013.45850 1908.77320   69.79790  111.93130
 9582.50000  299.35380    8.65980    0.15410    3.52020    0.14420    0.00840    2.46130   -9999.25 2017.28990 1816.25260   69.63550  111.65450
 9583.00000  299.34830    8.65570    0.14680    3.54730    0.13990    0.00820    2.46800   -9999.25 2021.12980 1680.87020   69.61870  111.45690
 9583.50000  299.34280    8.65150    0.14150    3.54520    0.13350    0.00740    2.47540   -9999.25 2006.13670 1555.49560   69.47050  111.63030
 9584.00000  299.33730    8.64730    0.14400    3.53470    0.12800    0.00620    2.48720   -9999.25 1949.53940 1439.47170   69.55070  112.31210
 9584.50000  299.33190    8.64310    0.16460    3.47510    0.12350    0.00500    2.49570   -9999.25 1890.58130 1332.10270   70.36680  113.09350
 9585.00000  299.32640    8.63890    0.16730    3.37420    0.12050    0.00390    2.49980   -9999.25 1833.40520 1264.61900   71.14110  113.82760
 9585.50000  299.32100    8.63670    0.16060    3.26640    0.11840    0.00420    2.50320   -9999.25 1803.84560 1263.27560   71.76250  114.28640
 9586.00000  299.31550    8.63940    0.15140    3.24440    0.11800    0.00480    2.50600   -9999.25 1805.14730 1310.36790   72.33990  114.81080
 9586.50000  299.31010    8.64210    0.15110    3.27700    0.12380    0.00580    2.50610   -9999.25 1827.51050 1441.89820   73.09530  115.43570
 9587.00000  299.30460    8.64480    0.15260    3.38170    0.12610    0.00670    2.49940   -9999.25 1892.39010 1597.08800   74.10740  115.99010
 9587.50000  299.29910    8.64740    0.15120    3.41300    0.12670    0.00770    2.49400   -9999.25 1935.26330 1769.80440   74.64710  116.32010
 9588.00000  299.29360    8.65010    0.15200    3.42650    0.12870    0.00840    2.49150   -9999.25 1952.24480 1902.22680   74.77220  116.66790
 9588.50000  299.28820    8.65280    0.17390    3.43250    0.13910    0.00800    2.47730   -9999.25 1956.21630 1936.48550   74.48570  117.03100
 9589.00000  299.28270    8.65550    0.19980    3.47540    0.15370    0.00730    2.45470   -9999.25 1956.21630 1911.90780   73.84590  117.27330
 9589.50000  299.27730    8.65820    0.19970    3.65230    0.15590    0.00570    2.44390   -9999.25 1961.17770 1780.76270   73.30450  117.20340
 9590.00000  299.27180    8.66090    0.18770    3.90250    0.14500    0.00490    2.45550   -9999.25 1966.45070 1658.33110   72.91980  116.78650
 9590.50000  299.27480    8.66360    0.16440    4.03210    0.12530    0.00430    2.48240   -9999.25 1969.21190 1514.33360   72.67870  116.13860
 9591.00000  299.27990    8.66630    0.15800    3.98000    0.11810    0.00380    2.50330   -9999.25 1968.75680 1424.09800   72.42640  115.49060
 9591.50000  299.28500    8.66900    0.15850    3.90960    0.11460    0.00320    2.51120   -9999.25 1968.30190 1329.53830   71.85760  115.19480
 9592.00000  299.29010    8.66970    0.15960    3.80930    0.11340    0.00280    2.51420   -9999.25 1910.35830 1263.94370   71.31740  115.00780
 9592.50000  299.29520    8.66970    0.16070    3.70950    0.11160    0.00310    2.51690   -9999.25 1613.47140 1171.04980   71.17360  114.95150
 9593.00000  299.30030    8.66970    0.16370    3.62890    0.11220    0.00440    2.51840   -9999.25 1504.52830 1109.71520   70.84020  115.01910
 9593.50000  299.30540    8.66970    0.17110    3.56420    0.11480    0.00580    2.51430   -9999.25 1511.88150 1045.54880   70.33800  115.10540
 9594.00000  299.31050    8.66980    0.17110    3.52940    0.11770    0.00620    2.51000   -9999.25 1540.29430 1045.65440   70.03520  114.85910
 9594.50000  299.31560    8.66980    0.17520    3.53380    0.11810    0.00600    2.50580   -9999.25 1611.58410 1064.98220   69.76880  114.61280
 9595.00000  299.32070    8.66640    0.17710    3.51100    0.12220    0.00540    2.50510   -9999.25 1713.29300 1136.92110   69.41730  114.05740
 9595.50000  299.32580    8.66160    0.16990    3.48150    0.11830    0.00470    2.50850   -9999.25 1821.41990 1160.03740   69.06090  113.46110
 9596.00000  299.33090    8.65680    0.16160    3.45500    0.11140    0.00410    2.52040   -9999.25 1930.93460 1177.76010   68.78380  112.76850
 9596.50000  299.33600    8.65200    0.15990    3.42600    0.10670    0.00360    2.52710   -9999.25 1968.28140 1183.74240   68.50680  112.31150
 9597.00000  299.34110    8.64720    0.16110    3.41810    0.11290    0.00310    2.51710   -9999.25 1977.22250 1183.62160   68.73520  112.15060
 9597.50000  299.34620    8.64240    0.16150    3.41200    0.12450    0.00230    2.50560   -9999.25 1984.59780 1205.09440   69.36590  112.21940
 9598.00000  299.35130    8.64030    0.16170    3.40940    0.13470    0.00160    2.48590   -9999.25 1989.09500 1253.83970   70.21850  112.35870
 9598.50000  299.35640    8.64200    0.16060    3.41320    0.14090    0.00110    2.47080   -9999.25 1988.63420 1339.16810   71.17490  114.58800
 9599.00000  299.36150    8.64370    0.16020    3.39950    0.14450    0.00050    2.46500   -9999.25 1988.17460 1448.98990   72.04720  116.56220
 9599.50000  299.36660    8.64540    0.16320    3.39260    0.15040    0.00000    2.45700   -9999.25 1987.71520 1550.25440   73.16130  118.50830
 9600.00000  299.37160    8.64720    0.17770    3.44800    0.15250   -0.00070    2.45010   -9999.25 1944.04600 1595.76460   74.88040  120.66060
 9600.50000  299.37680    8.64890    0.18180    3.54920    0.15630   -0.00140    2.44110   -9999.25 1807.99370 1545.40670   76.88100  122.99890
 9601.00000  299.38180    8.65060    0.19540    3.73970    0.16280   -0.00220    2.43040   -9999.25 1681.46370 1417.40600   78.19140  125.52760
 9601.50000  299.38700    8.65230    0.21460    3.92950    0.17660   -0.00280    2.41680   -9999.25 1538.83130 1179.54270   79.40380  126.98090
 9602.00000  299.39200    8.65400    0.22730    3.95770    0.18330   -0.00280    2.40150   -9999.25 1336.19690  977.15090   79.46420  127.62220
 9602.50000  299.39720    8.66140    0.23870    3.92480    0.18220   -0.00280    2.40110   -9999.25 1160.24560  861.46170   79.38520  127.99660
 9603.00000  299.40220    8.67310    0.25950    3.89190    0.17820   -0.00270    2.40400   -9999.25 1012.33530  802.10690   78.95850  127.36170
 9603.50000  299.40730    8.68480    0.27020    3.84670    0.17440   -0.00200    2.41050   -9999.25  902.25920  757.11790   78.04310  126.69440
 9604.00000  299.41240    8.64860    0.26490    3.83960    0.17310   -0.00080    2.41360   -9999.25  909.53090  795.49790   77.25030  126.02700
 9604.50000  299.41750    8.62900    0.25170    3.88310    0.17170    0.00080    2.41530   -9999.25  936.83630  849.82240   76.76170  125.27170
 9605.00000  299.42260    8.61500    0.24130    3.97130    0.17190    0.00240    2.41680   -9999.25  974.57240  883.06020   76.62920  124.29260
 9605.50000  299.42770    8.58100    0.23040    4.11500    0.16950    0.01060    2.41820   -9999.25 1034.98330  905.78490   76.29200  123.61020
 9606.00000  299.43280    8.53390    0.21970    4.30280    0.16090    0.02820    2.44440   -9999.25 1111.31490  943.39390   76.05430  123.07260
 9606.50000  299.43790    8.53650    0.21740    4.40270    0.14780    0.05200    2.45610   -9999.25 1195.62830  984.86070   76.16900  122.63100
 9607.00000  299.44300    8.54860    0.21830    4.40400    0.14870    0.05370    2.44600   -9999.25 1308.90120 1028.11870   76.25150  122.22180
 9607.50000  299.44810    8.56070    0.22100    4.39040    0.16390    0.03180    2.42480   -9999.25 1433.86630 1086.70010   76.27160  122.16540
 9608.00000  299.45320    8.57370    0.22350    4.42920    0.17640    0.01100    2.40860   -9999.25 1428.00150 1203.64580   76.34630  122.16480
 9608.50000  299.45830    8.58710    0.22330    4.54460    0.16880    0.01100    2.42660   -9999.25 1400.87920 1325.25850   76.40920  122.21140
 9609.00000  299.46340    8.58690    0.21780    4.65290    0.15280    0.01750    2.45760   -9999.25 1386.24120 1351.54210   76.38860  122.19610
 9609.50000  299.46850    8.57090    0.22460    4.57430    0.14660    0.02820    2.45760   -9999.25 1363.69350 1444.69840   76.25730  122.27140
