~Version ---------------------------------------------------
VERS.   2.0 : CWLS log ASCII Standard -VERSION 2.0
WRAP.    NO : One line per depth step
DLM . SPACE : Column Data Section Delimiter
~Well ------------------------------------------------------
STRT .F                    6.0 : START DEPTH
STOP .F                10238.5 : STOP DEPTH
STEP .F                    0.5 : STEP
NULL .                -9999.25 : NULL VALUE
COMP .                         : COMPANY
WELL .                         : WELL
FLD  .                         : FIELD
LOC  .                         : LOCATION
PROV .                         : PROVINCE
CNTY .                         : COUNTY
STAT .                         : STATE
CTRY .                         : COUNTRY
SRVC .                         : SERVICE COMPANY
DATE .                         : DATE
UWI  .                         : UNIQUE WELL ID
API  .                         : API NUMBER
SLAT .WGS84  4.521437490691298 : SURFACE LATITUDE
SLON .WGS84 1.6054966445739893 : SURFACE LONGITUDE
DATUM.F                 792.34 : DEPTH DATUM ELEV
~Curve Information -----------------------------------------
DEPT.F     : 
GRD .GAPI  : GAMMA RAY FROM DENSITY LOG
HCAL.IN    : HILT CALIPER
NPOR.DEC   : NEUTRON POROSITY LIMESTONE
PEFZ.B/E   : FORMATION PHETOELECTRIC FACTOR
DPHZ.DEC   : DENSITY POROSITY LIMESTONE
HDRA.G/C3  : DELTA RHO HIP TOOL
RHOZ.G/C3  : HILT BULK DENSITY
AE10.OHMM  : 10-IN. ARRAY INDUCTION RESISTIVITY
AE30.OHMM  : 30-IN. ARRAY INDUCTION RESISTIVITY
AE90.OHMM  : 90-IN. ARRAY INDUCTION RESISTIVITY
DTCO.US/F  : COMPRESSIONAL-WAVE INTERVAL TRANSIT TIME ACOUSTIC SLOWNESS
DTSM.US/F  : SHEAR-WAVE INTERVAL TRANSIT TIME DELTA-T
~Params ----------------------------------------------------
~Other -----------------------------------------------------
~ASCII -----------------------------------------------------
# ...
 2246.00000  126.23470    8.92170   -9999.25   -9999.25   -9999.25   -9999.25   -9999.25    3.78440    3.83290    4.23730  102.33210  207.61360
 2246.50000  128.92070    8.92080   -9999.25   -9999.25   -9999.25   -9999.25   -9999.25    3.78970    3.82890    4.23810  102.06820  207.52820
 2247.00000  133.59040    8.91990   -9999.25   -9999.25   -9999.25   -9999.25   -9999.25    3.79040    3.82490    4.17510  101.88430  207.56780
 2247.50000  135.50630    8.91900   -9999.25   -9999.25   -9999.25   -9999.25   -9999.25    3.79110    3.82080    4.13910  101.88810  207.73210
 2248.00000  134.64300    8.91800   -9999.25   -9999.25   -9999.25   -9999.25   -9999.25    3.77360    3.81680    4.12650  101.92570  207.89630
 2248.50000  127.37190    8.89890   -9999.25   -9999.25   -9999.25   -9999.25   -9999.25    3.74080    3.81280    4.11990  102.01980  208.13530
 2249.00000  122.21230    8.87280   -9999.25   -9999.25   -9999.25   -9999.25   -9999.25    3.69340    3.81040    4.11550  102.21350  208.17430
 2249.50000  122.25440    8.85430   -9999.25   -9999.25   -9999.25   -9999.25   -9999.25    3.67390    3.81710    4.11270  102.23570  208.24400
 2250.00000  124.41930    8.84620   -9999.25   -9999.25   -9999.25   -9999.25   -9999.25    3.69550    3.82390    4.11390  102.32160  208.26430
 2250.50000  123.64440    8.84620   -9999.25   -9999.25   -9999.25   -9999.25   -9999.25    3.71710    3.83730    4.12980  102.42490  208.25700
 2251.00000  121.19990    8.81790   -9999.25   -9999.25   -9999.25   -9999.25   -9999.25    3.73890    3.85990    4.16360  102.42290  208.24970
 2251.50000  120.28680    8.77890   -9999.25   -9999.25   -9999.25   -9999.25   -9999.25    3.75460    3.88040    4.19770  102.28410  207.92010
 2252.00000  124.98720    8.78430   -9999.25   -9999.25   -9999.25   -9999.25   -9999.25    3.76080    3.90100    4.23020  102.07020  207.57300
 2252.50000  129.97450    8.79910   -9999.25   -9999.25   -9999.25   -9999.25   -9999.25    3.73430    3.91640    4.25620  102.01800  206.96060
 2253.00000  133.58330    8.81800   -9999.25   -9999.25   -9999.25   -9999.25   -9999.25    3.71740    3.92710    4.27580  101.89430  206.96860
 2253.50000  134.70580    8.83690   -9999.25   -9999.25   -9999.25   -9999.25   -9999.25    3.87530    3.92770    4.26290  101.65570  207.25150
 2254.00000  133.46890    8.82740   -9999.25   -9999.25   -9999.25   -9999.25   -9999.25    3.82540    3.89240    4.22920  101.41710  207.53440
 2254.50000  131.19570    8.78940   -9999.25   -9999.25   -9999.25   -9999.25   -9999.25    3.80610    3.83350    4.16580  101.37820  207.82900
 2255.00000  129.47480    8.77490   -9999.25   -9999.25   -9999.25   -9999.25   -9999.25    3.79990    3.82700    4.16180  101.41420  208.02930
 2255.50000  130.70870    8.78270   -9999.25   -9999.25   -9999.25   -9999.25   -9999.25    3.79090    3.82700    4.16180  101.48650  207.77510
 2256.00000  130.79860    8.79060   -9999.25   -9999.25   -9999.25   -9999.25   -9999.25    3.77550    3.82700    4.15690  101.59350  207.65660
 2256.50000  129.91800    8.79850   -9999.25   -9999.25   -9999.25   -9999.25   -9999.25    3.76020    3.82700    4.15590  101.77790  207.59500
 2257.00000  128.48240    8.78260   -9999.25   -9999.25   -9999.25   -9999.25   -9999.25    3.74840    3.82700    4.15950  101.83510  207.55200
 2257.50000  126.51630    8.77060   -9999.25   -9999.25   -9999.25   -9999.25   -9999.25    3.74840    3.82700    4.16300  101.84130  207.50900
 2258.00000  123.78700    8.77230   -9999.25   -9999.25   -9999.25   -9999.25   -9999.25    3.74840    3.82700    4.16660  101.93620  207.46600
 2258.50000  121.09560    8.76870   -9999.25   -9999.25   -9999.25   -9999.25   -9999.25    3.74840    3.82700    4.17020  102.04680  207.41130
 2259.00000  118.61510    8.74040   -9999.25   -9999.25   -9999.25   -9999.25   -9999.25    3.74840    3.82700    4.17380  102.14310  207.29930
 2259.50000  118.03040    8.72770   -9999.25   -9999.25   -9999.25   -9999.25   -9999.25    3.74840    3.82700    4.17740  102.25560  207.18740
 2260.00000  119.75890    8.71700   -9999.25   -9999.25   -9999.25   -9999.25   -9999.25    3.74880    3.84110    4.18100  102.30450  207.07540
 2260.50000  121.79810    8.71400   -9999.25   -9999.25   -9999.25   -9999.25   -9999.25    3.75380    3.87140    4.23400  102.24850  206.96350
 2261.00000  122.86740    8.71110   -9999.25   -9999.25   -9999.25   -9999.25   -9999.25    3.75940    3.83060    4.26390  102.24850  206.88500
 2261.50000  123.47160    8.72050   -9999.25   -9999.25   -9999.25   -9999.25   -9999.25    3.76500    3.80210    4.22570  102.24850  206.86670
 2262.00000  124.92820    8.74070   -9999.25   -9999.25   -9999.25   -9999.25   -9999.25    3.77060    3.80650    4.19150  102.24480  206.83310
 2262.50000  126.85210    8.76150   -9999.25   -9999.25   -9999.25   -9999.25   -9999.25    3.77620    3.81080    4.19150  102.21110  206.71240
 2263.00000  128.94860    8.76980   -9999.25   -9999.25   -9999.25   -9999.25   -9999.25    3.77380    3.81520    4.18590  102.16070  206.88440
 2263.50000  131.97740    8.76260   -9999.25   -9999.25   -9999.25   -9999.25   -9999.25    3.74680    3.81960    4.16910  102.18330  207.20450
 2264.00000  136.17790    8.76270   -9999.25   -9999.25   -9999.25   -9999.25   -9999.25    3.73250    3.82400    4.15240  102.26320  207.52470
 2264.50000  136.27290    8.76090   -9999.25   -9999.25   -9999.25   -9999.25   -9999.25    3.75340    3.83290    4.13680  102.29670  208.23460
 2265.00000  130.92530    8.76030   -9999.25   -9999.25   -9999.25   -9999.25   -9999.25    3.78510    3.84900    4.14790  102.33010  208.68590
 2265.50000  123.85670    8.77260   -9999.25   -9999.25   -9999.25   -9999.25   -9999.25    3.79730    3.86510    4.13920  102.36360  208.51800
 2266.00000  122.45760    8.77910   -9999.25   -9999.25   -9999.25   -9999.25   -9999.25    3.74300    3.88120    4.13920  102.35670  208.58800
 2266.50000  126.31860    8.78330   -9999.25   -9999.25   -9999.25   -9999.25   -9999.25    3.73820    3.89380    4.16040  102.23920  208.80570
 2267.00000  130.60660    8.78750   -9999.25   -9999.25   -9999.25   -9999.25   -9999.25    3.74520    3.89380    4.18170  101.92680  208.83430
 2267.50000  130.85910    8.79170   -9999.25   -9999.25   -9999.25   -9999.25   -9999.25    3.75220    3.89380    4.18810  101.68030  208.86280
 2268.00000  128.00990    8.79590   -9999.25   -9999.25   -9999.25   -9999.25   -9999.25    3.75930    3.89380    4.19440  101.64560  208.73540
 2268.50000  122.49480    8.80010   -9999.25   -9999.25   -9999.25   -9999.25   -9999.25    3.76870    3.89380    4.20060  101.64560  208.54930
 2269.00000  120.42070    8.79840   -9999.25   -9999.25   -9999.25   -9999.25   -9999.25    3.78240    3.89380    4.20690  101.64560  208.67020
 2269.50000  122.46750    8.79510   -9999.25   -9999.25   -9999.25   -9999.25   -9999.25    3.79620    3.89350    4.23650  101.64560  208.51440
 2270.00000  125.66930    8.79190   -9999.25   -9999.25   -9999.25   -9999.25   -9999.25    3.81000    3.89310    4.27230  101.66180  208.37460
 2270.50000  128.04180    8.78860   -9999.25   -9999.25   -9999.25   -9999.25   -9999.25    3.82380    3.89930    4.28340  101.69760  208.23470
 2271.00000  128.01330    8.78540   -9999.25   -9999.25   -9999.25   -9999.25   -9999.25    3.83770    3.91650    4.23550  101.73330  208.03800
 2271.50000  126.88850    8.78210   -9999.25   -9999.25   -9999.25   -9999.25   -9999.25    3.85160    3.93380    4.18630  101.76160  207.65410
 2272.00000  126.67890    8.77890   -9999.25   -9999.25   -9999.25   -9999.25   -9999.25    3.86560    3.94880    4.13710  101.71740  207.42160
 2272.50000  127.17100    8.77860   -9999.25   -9999.25   -9999.25   -9999.25   -9999.25    3.87730    3.96090    4.12470  101.69880  207.47810
 2273.00000  127.58070    8.77010   -9999.25   -9999.25   -9999.25   -9999.25   -9999.25    3.88530    3.97300    4.14980  101.85690  207.61410
 2273.50000  127.23000    8.76870   -9999.25   -9999.25   -9999.25   -9999.25   -9999.25    3.89330    3.99420    4.20550  102.04950  207.75010
