~Version ---------------------------------------------------
VERS.   2.0 : CWLS log ASCII Standard -VERSION 2.0
WRAP.    NO : One line per depth step
DLM . SPACE : Column Data Section Delimiter
~Well ------------------------------------------------------
STRT .F                    6.0 : START DEPTH
STOP .F                10238.5 : STOP DEPTH
STEP .F                    0.5 : STEP
NULL .                -9999.25 : NULL VALUE
COMP .                         : COMPANY
WELL .                         : WELL
FLD  .                         : FIELD
LOC  .                         : LOCATION
PROV .                         : PROVINCE
CNTY .                         : COUNTY
STAT .                         : STATE
CTRY .                         : COUNTRY
SRVC .                         : SERVICE COMPANY
DATE .                         : DATE
UWI  .                         : UNIQUE WELL ID
API  .                         : API NUMBER
SLAT .WGS84  4.521437490691298 : SURFACE LATITUDE
SLON .WGS84 1.6054966445739893 : SURFACE LONGITUDE
DATUM.F                 792.34 : DEPTH DATUM ELEV
~Curve Information -----------------------------------------
DEPT.F     : 
GRD .GAPI  : GAMMA RAY FROM DENSITY LOG
HCAL.IN    : HILT CALIPER
NPOR.DEC   : NEUTRON POROSITY LIMESTONE
PEFZ.B/E   : FORMATION PHETOELECTRIC FACTOR
DPHZ.DEC   : DENSITY POROSITY LIMESTONE
HDRA.G/C3  : DELTA RHO HIP TOOL
RHOZ.G/C3  : HILT BULK DENSITY
AE10.OHMM  : 10-IN. ARRAY INDUCTION RESISTIVITY
AE30.OHMM  : 30-IN. ARRAY INDUCTION RESISTIVITY
AE90.OHMM  : 90-IN. ARRAY INDUCTION RESISTIVITY
DTCO.US/F  : COMPRESSIONAL-WAVE INTERVAL TRANSIT TIME ACOUSTIC SLOWNESS
DTSM.US/F  : SHEAR-WAVE INTERVAL TRANSIT TIME DELTA-T
~Params ----------------------------------------------------
~Other -----------------------------------------------------
~ASCII -----------------------------------------------------
# ...
 7146.00000  114.34770   10.26950   -9999.25   -9999.25   -9999.25   -9999.25   -9999.25    2.22670    2.33300    2.52650   90.59580  168.82540
 7146.50000  114.23880   10.19950   -9999.25   -9999.25   -9999.25   -9999.25   -9999.25    2.24190    2.32580    2.51090   89.12050  212.30480
 7147.00000  111.37380   10.09160   -9999.25   -9999.25   -9999.25   -9999.25   -9999.25    2.18940    2.31380    2.35980   88.00280  213.64480
 7147.50000  108.86460    9.92500   -9999.25   -9999.25   -9999.25   -9999.25   -9999.25    2.21370    2.28640    2.35240   89.30290  211.59440
 7148.00000  110.48880    9.72860   -9999.25   -9999.25   -9999.25   -9999.25   -9999.25    2.18230    2.22420    2.29250   92.03720  209.50430
 7148.50000  117.81040    9.77100   -9999.25   -9999.25   -9999.25   -9999.25   -9999.25    2.09180    2.19910    2.22850   93.60570  207.51570
 7149.00000  126.78230    9.84580   -9999.25   -9999.25   -9999.25   -9999.25   -9999.25    2.00620    2.19940    2.22880   94.93810  206.81960
 7149.50000  130.59700    9.79750   -9999.25   -9999.25   -9999.25   -9999.25   -9999.25    1.97620    2.15350    2.22720   95.50810  206.88570
 7150.00000  129.93600    9.73030   -9999.25   -9999.25   -9999.25   -9999.25   -9999.25    2.01120    2.14300    2.16990   96.46670  206.89880
 7150.50000  124.57110    9.70670   -9999.25   -9999.25   -9999.25   -9999.25   -9999.25    1.94490    2.08900    2.15310   97.71500  205.15190
 7151.00000  115.63550    9.75020   -9999.25   -9999.25   -9999.25   -9999.25   -9999.25    2.09090    2.14120    2.14800   98.06180  204.43380
 7151.50000  107.70640    9.94550   -9999.25   -9999.25   -9999.25   -9999.25   -9999.25    2.33830    2.37770    2.48180   97.96940  205.72180
 7152.00000  101.87680   10.17080   -9999.25   -9999.25   -9999.25   -9999.25   -9999.25    2.43910    2.52000    2.74540   96.61590  207.44970
 7152.50000   99.58150   10.23120   -9999.25   -9999.25   -9999.25   -9999.25   -9999.25    2.38460    2.41560    2.59070   96.22800  209.25470
 7153.00000  100.38590   10.16070   -9999.25   -9999.25   -9999.25   -9999.25   -9999.25    2.23220    2.26600    2.35530   97.37460  208.86280
 7153.50000  104.11520   10.09130   -9999.25   -9999.25   -9999.25   -9999.25   -9999.25    2.11100    2.18850    2.21670   97.62830  207.81510
 7154.00000  109.62540   10.02330   -9999.25   -9999.25   -9999.25   -9999.25   -9999.25    2.11650    2.18980    2.22040   97.36320  206.19020
 7154.50000  112.89220    9.95520   -9999.25   -9999.25   -9999.25   -9999.25   -9999.25    2.17670    2.24790    2.28690   96.99950  204.78390
 7155.00000  111.07600    9.89030   -9999.25   -9999.25   -9999.25   -9999.25   -9999.25    2.31550    2.40570    2.52650   96.73470  203.29260
 7155.50000  106.73590    9.77490   -9999.25   -9999.25   -9999.25   -9999.25   -9999.25    2.77350    2.91030    3.06050   95.64140  200.53860
 7156.00000  105.28490    9.51770   -9999.25   -9999.25   -9999.25   -9999.25   -9999.25    3.81100    3.56260    3.41670   94.45280  197.62260
 7156.50000  109.00650    9.25330   -9999.25   -9999.25   -9999.25   -9999.25   -9999.25    3.89100    3.59880    3.43600   92.84760  195.25660
 7157.00000  111.96860    9.20580   -9999.25   -9999.25   -9999.25   -9999.25   -9999.25    3.79630    3.69200    3.52020   90.55830  192.63540
 7157.50000  112.36870    9.23240   -9999.25   -9999.25   -9999.25   -9999.25   -9999.25    4.22370    3.89500    3.73860   89.54500  190.84320
 7158.00000  112.10020    9.35000   -9999.25   -9999.25   -9999.25   -9999.25   -9999.25    4.45730    3.89230    3.77550   90.10210  191.32750
 7158.50000  112.53380    9.49020   -9999.25   -9999.25   -9999.25   -9999.25   -9999.25    3.79750    3.50250    3.36670   91.76990  191.95640
 7159.00000  114.47590    9.60980   -9999.25   -9999.25   -9999.25   -9999.25   -9999.25    3.02930    3.09770    3.13280   92.52530  193.94030
 7159.50000  118.42550    9.51610   -9999.25   -9999.25   -9999.25   -9999.25   -9999.25    2.79870    2.99660    3.09370   93.30540  194.18710
 7160.00000  122.96750    9.38990   -9999.25   -9999.25   -9999.25   -9999.25   -9999.25    2.79120    2.97650    3.08360   93.49010  192.48020
 7160.50000  123.02270    9.30130   -9999.25   -9999.25   -9999.25   -9999.25   -9999.25    2.80200    2.98270    3.09110   93.35430  187.85150
 7161.00000  117.71820    9.60620   -9999.25   -9999.25   -9999.25   -9999.25   -9999.25    3.36280    3.37330    3.30180   92.54470  182.29920
 7161.50000  108.94640    9.61590   -9999.25   -9999.25   -9999.25   -9999.25   -9999.25    4.26140    3.91970    3.74790   93.21220  175.97670
 7162.00000  101.51150    9.45270   -9999.25   -9999.25   -9999.25   -9999.25   -9999.25    3.76360    3.70900    3.38240   94.02100  158.20410
 7162.50000   98.77550    9.28000   -9999.25   -9999.25   -9999.25   -9999.25   -9999.25    3.03240    2.79640    2.53170   94.43280  144.79550
 7163.00000  100.81480    9.15540   -9999.25   -9999.25   -9999.25   -9999.25   -9999.25    2.76300    2.56290    2.47510   94.63330  118.62460
 7163.50000  107.80950    9.19940   -9999.25   -9999.25   -9999.25   -9999.25   -9999.25    3.12300    2.89820    2.78130   94.21980  106.72680
 7164.00000  115.95330    9.26850   -9999.25   -9999.25   -9999.25   -9999.25   -9999.25    3.33470    3.04090    2.81090   93.95090  100.63720
 7164.50000  123.28510    9.31640   -9999.25   -9999.25   -9999.25   -9999.25   -9999.25    3.05950    2.92540    2.80380   94.30150  117.48540
 7165.00000  126.43010    9.23780   -9999.25   -9999.25   -9999.25   -9999.25   -9999.25    2.67110    2.64740    2.54270   95.19670  159.58050
 7165.50000  126.33550    9.21700   -9999.25   -9999.25   -9999.25   -9999.25   -9999.25    2.67380    2.60040    2.53060   96.15460  196.60440
 7166.00000  126.07580    9.20510   -9999.25   -9999.25   -9999.25   -9999.25   -9999.25    2.75700    2.74190    2.69590   97.02280  205.59900
 7166.50000  126.17210    9.17640   -9999.25   -9999.25   -9999.25   -9999.25   -9999.25    2.78390    2.75730    2.71320   97.55390  203.93000
 7167.00000  125.65540    9.11280   -9999.25   -9999.25   -9999.25   -9999.25   -9999.25    2.87370    2.79010    2.73910   97.52410  204.11370
 7167.50000  124.36240    9.03790   -9999.25   -9999.25   -9999.25   -9999.25   -9999.25    3.05350    2.95410    2.87900   96.20780  203.63460
 7168.00000  121.30730    9.02910   -9999.25   -9999.25   -9999.25   -9999.25   -9999.25    3.23640    3.12750    3.04890   95.02910  165.69950
 7168.50000  114.69440    9.02780   -9999.25   -9999.25   -9999.25   -9999.25   -9999.25    3.42630    3.31100    3.22790   93.97160  129.29570
 7169.00000  105.14700    9.02280   -9999.25   -9999.25   -9999.25   -9999.25   -9999.25    3.54670    3.45560    3.38940   93.16230   97.58380
 7169.50000   99.56380    9.00190   -9999.25   -9999.25   -9999.25   -9999.25   -9999.25    3.59820    3.51800    3.45950   92.54480   92.32140
 7170.00000   99.70100    9.00730   -9999.25   -9999.25   -9999.25   -9999.25   -9999.25    3.62970    3.55090    3.49340   92.02690   91.65520
 7170.50000  102.85010    9.03390   -9999.25   -9999.25   -9999.25   -9999.25   -9999.25    3.64940    3.57100    3.51370   92.08570   90.65820
 7171.00000  105.01430    9.11760   -9999.25   -9999.25   -9999.25   -9999.25   -9999.25    3.63110    3.54540    3.48290   92.28970   89.67340
 7171.50000  106.91730    9.20130   -9999.25   -9999.25   -9999.25   -9999.25   -9999.25    3.51570    3.42230    3.35350   93.21760   88.90750
 7172.00000  110.72910    9.28050   -9999.25   -9999.25   -9999.25   -9999.25   -9999.25    3.38280    3.25650    3.15310   95.33380   89.66860
 7172.50000  114.32230    9.35920   -9999.25   -9999.25   -9999.25   -9999.25   -9999.25    3.13810    2.91450    2.72220   97.76840  113.55670
 7173.00000  115.33920    9.45490   -9999.25   -9999.25   -9999.25   -9999.25   -9999.25    2.57600    2.40750    2.24840   99.64080  169.43000
 7173.50000  114.14100    9.58030   -9999.25   -9999.25   -9999.25   -9999.25   -9999.25    2.33620    2.22830    2.18410  100.72300  215.69160
