~Version ---------------------------------------------------
VERS.   2.0 : CWLS log ASCII Standard -VERSION 2.0
WRAP.    NO : One line per depth step
DLM . SPACE : Column Data Section Delimiter
~Well ------------------------------------------------------
STRT .F                    6.0 : START DEPTH
STOP .F                10238.5 : STOP DEPTH
STEP .F                    0.5 : STEP
NULL .                -9999.25 : NULL VALUE
COMP .                         : COMPANY
WELL .                         : WELL
FLD  .                         : FIELD
LOC  .                         : LOCATION
PROV .                         : PROVINCE
CNTY .                         : COUNTY
STAT .                         : STATE
CTRY .                         : COUNTRY
SRVC .                         : SERVICE COMPANY
DATE .                         : DATE
UWI  .                         : UNIQUE WELL ID
API  .                         : API NUMBER
SLAT .WGS84  4.521437490691298 : SURFACE LATITUDE
SLON .WGS84 1.6054966445739893 : SURFACE LONGITUDE
DATUM.F                 792.34 : DEPTH DATUM ELEV
~Curve Information -----------------------------------------
DEPT.F     : 
GRD .GAPI  : GAMMA RAY FROM DENSITY LOG
HCAL.IN    : HILT CALIPER
NPOR.DEC   : NEUTRON POROSITY LIMESTONE
PEFZ.B/E   : FORMATION PHETOELECTRIC FACTOR
DPHZ.DEC   : DENSITY POROSITY LIMESTONE
HDRA.G/C3  : DELTA RHO HIP TOOL
RHOZ.G/C3  : HILT BULK DENSITY
AE10.OHMM  : 10-IN. ARRAY INDUCTION RESISTIVITY
AE30.OHMM  : 30-IN. ARRAY INDUCTION RESISTIVITY
AE90.OHMM  : 90-IN. ARRAY INDUCTION RESISTIVITY
DTCO.US/F  : COMPRESSIONAL-WAVE INTERVAL TRANSIT TIME ACOUSTIC SLOWNESS
DTSM.US/F  : SHEAR-WAVE INTERVAL TRANSIT TIME DELTA-T
~Params ----------------------------------------------------
~Other -----------------------------------------------------
~ASCII -----------------------------------------------------
# ...
 5914.00000  122.78720    9.40010   -9999.25   -9999.25   -9999.25   -9999.25   -9999.25    2.10070    2.06760    2.02510  102.59310  225.43910
 5914.50000  120.81120    9.38960   -9999.25   -9999.25   -9999.25   -9999.25   -9999.25    2.14180    2.08910    2.04130  102.87940  221.65800
 5915.00000  118.95530    9.38030   -9999.25   -9999.25   -9999.25   -9999.25   -9999.25    2.23300    2.32420    2.31110  101.83170  219.61390
 5915.50000  116.26350    9.37320   -9999.25   -9999.25   -9999.25   -9999.25   -9999.25    2.50330    2.60460    2.74930  100.61970  216.87670
 5916.00000  113.15560    9.36610   -9999.25   -9999.25   -9999.25   -9999.25   -9999.25    2.55930    2.65580    2.75870   99.42760  214.02640
 5916.50000  112.55820    9.35890   -9999.25   -9999.25   -9999.25   -9999.25   -9999.25    2.44930    2.59970    2.68540   98.51000  213.90910
 5917.00000  114.73920    9.34860   -9999.25   -9999.25   -9999.25   -9999.25   -9999.25    2.40950    2.36310    2.59550   98.60830  216.65040
 5917.50000  117.42370    9.32170   -9999.25   -9999.25   -9999.25   -9999.25   -9999.25    2.34680    2.24110    2.48960   99.60290  219.86560
 5918.00000  120.05400    9.25930   -9999.25   -9999.25   -9999.25   -9999.25   -9999.25    2.20260    2.17500    2.28960  100.93110  222.54610
 5918.50000  123.61160    9.19690   -9999.25   -9999.25   -9999.25   -9999.25   -9999.25    2.04510    2.06580    2.08680  102.25920  225.22670
 5919.00000  126.62260    9.12320   -9999.25   -9999.25   -9999.25   -9999.25   -9999.25    1.93130    1.97400    2.00490  103.00590  228.06560
 5919.50000  127.27460    9.04410   -9999.25   -9999.25   -9999.25   -9999.25   -9999.25    1.93130    1.95750    1.96700  103.54600  230.74760
 5920.00000  124.20800    9.00630   -9999.25   -9999.25   -9999.25   -9999.25   -9999.25    1.93400    1.99830    2.00380  103.85170  234.63220
 5920.50000  121.32080    8.97190   -9999.25   -9999.25   -9999.25   -9999.25   -9999.25    1.93930    1.99650    1.99020  103.97960  236.78760
 5921.00000  119.43840    8.95130   -9999.25   -9999.25   -9999.25   -9999.25   -9999.25    1.94460    1.95750    1.95820  103.73170  212.53830
 5921.50000  118.40970    9.02750   -9999.25   -9999.25   -9999.25   -9999.25   -9999.25    1.94970    1.94460    1.92680  103.48380  148.81220
 5922.00000  119.11100    9.07220   -9999.25   -9999.25   -9999.25   -9999.25   -9999.25    1.96700    1.94920    1.92430  103.33770  102.69500
 5922.50000  121.53470    9.07220   -9999.25   -9999.25   -9999.25   -9999.25   -9999.25    2.02500    2.00200    1.95990  103.27870  101.46880
 5923.00000  125.65020    9.07220   -9999.25   -9999.25   -9999.25   -9999.25   -9999.25    2.14230    2.05930    2.01520  103.29510  102.83480
 5923.50000  128.82610    9.02250   -9999.25   -9999.25   -9999.25   -9999.25   -9999.25    2.16650    2.09160    2.02840  103.31710  104.90360
 5924.00000  129.79310    9.05080   -9999.25   -9999.25   -9999.25   -9999.25   -9999.25    2.13020    2.09820    2.01600  103.42050  106.36740
 5924.50000  130.22180    9.07910   -9999.25   -9999.25   -9999.25   -9999.25   -9999.25    2.05680    2.03170    1.97420  103.52200  105.07240
 5925.00000  131.12080    9.08170   -9999.25   -9999.25   -9999.25   -9999.25   -9999.25    1.98700    1.96470    1.90570  103.46090  102.96260
 5925.50000  131.70260    9.07910   -9999.25   -9999.25   -9999.25   -9999.25   -9999.25    1.97250    1.95040    1.90350  103.42730  103.36200
 5926.00000  130.64330    9.00390   -9999.25   -9999.25   -9999.25   -9999.25   -9999.25    2.01740    1.96410    1.91590  103.06490  103.37950
 5926.50000  125.70560    8.92880   -9999.25   -9999.25   -9999.25   -9999.25   -9999.25    2.06320    2.00960    1.96950  102.57050  102.24690
 5927.00000  120.72930    8.90090   -9999.25   -9999.25   -9999.25   -9999.25   -9999.25    2.06920    2.05610    2.02150  102.05200  100.34880
 5927.50000  117.96390    8.94610   -9999.25   -9999.25   -9999.25   -9999.25   -9999.25    2.15350    2.15610    2.28640  101.53340   98.93740
 5928.00000  115.78560    9.00100   -9999.25   -9999.25   -9999.25   -9999.25   -9999.25    2.25130    2.19350    2.37660  101.15410   95.12930
 5928.50000  111.18890    9.03980   -9999.25   -9999.25   -9999.25   -9999.25   -9999.25    2.26010    2.14220    2.28580  100.92750  115.66110
 5929.00000  107.28560    9.03300   -9999.25   -9999.25   -9999.25   -9999.25   -9999.25    2.26010    2.11730    2.22120  100.70120  172.22960
 5929.50000  109.66260    9.01830   -9999.25   -9999.25   -9999.25   -9999.25   -9999.25    2.26050    2.12430    2.18450  100.49120  206.24150
 5930.00000  117.47560    9.00540   -9999.25   -9999.25   -9999.25   -9999.25   -9999.25    2.26550    2.16330    2.17220  100.26310  210.72300
 5930.50000  124.62710    9.00890   -9999.25   -9999.25   -9999.25   -9999.25   -9999.25    2.28960    2.21380    2.18940   99.82860  209.81190
 5931.00000  128.71090    9.02460   -9999.25   -9999.25   -9999.25   -9999.25   -9999.25    2.36640    2.26240    2.22430   99.41720  208.61210
 5931.50000  129.29350    9.04030   -9999.25   -9999.25   -9999.25   -9999.25   -9999.25    2.42000    2.30580    2.27170   99.33110  207.39540
 5932.00000  127.43630    9.04580   -9999.25   -9999.25   -9999.25   -9999.25   -9999.25    2.51860    2.34970    2.28830   99.36450  205.90280
 5932.50000  125.10470    9.02590   -9999.25   -9999.25   -9999.25   -9999.25   -9999.25    2.35430    2.27830    2.20820   99.45870  203.98610
 5933.00000  125.20850    9.00610   -9999.25   -9999.25   -9999.25   -9999.25   -9999.25    2.27730    2.25620    2.17390   99.58440  202.86210
 5933.50000  125.53990    8.98720   -9999.25   -9999.25   -9999.25   -9999.25   -9999.25    2.49670    2.30270    2.29830   99.91560  201.46450
 5934.00000  124.69100    8.96840   -9999.25   -9999.25   -9999.25   -9999.25   -9999.25    2.40340    2.35930    2.30890  100.24680  201.39420
 5934.50000  123.95620    8.94960   -9999.25   -9999.25   -9999.25   -9999.25   -9999.25    2.54040    2.43500    2.39900  100.06620  202.33870
 5935.00000  123.63710    8.93370   -9999.25   -9999.25   -9999.25   -9999.25   -9999.25    2.65950    2.52660    2.48000   99.64590  205.68960
 5935.50000  121.63920    8.92840   -9999.25   -9999.25   -9999.25   -9999.25   -9999.25    2.58940    2.53410    2.45700   99.11590  207.69780
 5936.00000  117.84150    8.89410   -9999.25   -9999.25   -9999.25   -9999.25   -9999.25    2.61190    2.53040    2.34520   98.80940  210.22200
 5936.50000  115.12540    8.87340   -9999.25   -9999.25   -9999.25   -9999.25   -9999.25    2.65130    2.56390    2.49470   98.69680  214.04500
 5937.00000  114.65220    8.90620   -9999.25   -9999.25   -9999.25   -9999.25   -9999.25    2.66410    2.59210    2.76950   98.67870  218.32200
 5937.50000  115.03650    8.94330   -9999.25   -9999.25   -9999.25   -9999.25   -9999.25    2.64940    2.58710    2.76170   98.55180  218.95890
 5938.00000  115.81350    8.93870   -9999.25   -9999.25   -9999.25   -9999.25   -9999.25    2.57400    2.53540    2.37350   98.84970  219.08180
 5938.50000  120.69830    8.93360   -9999.25   -9999.25   -9999.25   -9999.25   -9999.25    2.44830    2.42080    2.36010   99.19020  219.20460
 5939.00000  123.65700    8.93360   -9999.25   -9999.25   -9999.25   -9999.25   -9999.25    2.41810    2.34050    2.39050   99.53070  219.85490
 5939.50000  119.92050    8.92160   -9999.25   -9999.25   -9999.25   -9999.25   -9999.25    2.32060    2.25640    2.36200  100.07780  220.75640
 5940.00000  114.84080    8.90820   -9999.25   -9999.25   -9999.25   -9999.25   -9999.25    2.23460    2.19240    2.19300  100.62740  222.37900
 5940.50000  111.42650    8.89480   -9999.25   -9999.25   -9999.25   -9999.25   -9999.25    2.25130    2.20100    2.13810  101.16310  224.26930
 5941.00000  113.85030    8.88140   -9999.25   -9999.25   -9999.25   -9999.25   -9999.25    2.29350    2.26860    2.23480  101.48240  225.84260
 5941.50000  116.38910    8.86960   -9999.25   -9999.25   -9999.25   -9999.25   -9999.25    2.26490    2.27990    2.25380  101.36080  226.47980
