~Version ---------------------------------------------------
VERS.   2.0 : CWLS log ASCII Standard -VERSION 2.0
WRAP.    NO : One line per depth step
DLM . SPACE : Column Data Section Delimiter
~Well ------------------------------------------------------
STRT .F                    6.0 : START DEPTH
STOP .F                10238.5 : STOP DEPTH
STEP .F                    0.5 : STEP
NULL .                -9999.25 : NULL VALUE
COMP .                         : COMPANY
WELL .                         : WELL
FLD  .                         : FIELD
LOC  .                         : LOCATION
PROV .                         : PROVINCE
CNTY .                         : COUNTY
STAT .                         : STATE
CTRY .                         : COUNTRY
SRVC .                         : SERVICE COMPANY
DATE .                         : DATE
UWI  .                         : UNIQUE WELL ID
API  .                         : API NUMBER
SLAT .WGS84  4.521437490691298 : SURFACE LATITUDE
SLON .WGS84 1.6054966445739893 : SURFACE LONGITUDE
DATUM.F                 792.34 : DEPTH DATUM ELEV
~Curve Information -----------------------------------------
DEPT.F     : 
GRD .GAPI  : GAMMA RAY FROM DENSITY LOG
HCAL.IN    : HILT CALIPER
NPOR.DEC   : NEUTRON POROSITY LIMESTONE
PEFZ.B/E   : FORMATION PHETOELECTRIC FACTOR
DPHZ.DEC   : DENSITY POROSITY LIMESTONE
HDRA.G/C3  : DELTA RHO HIP TOOL
RHOZ.G/C3  : HILT BULK DENSITY
AE10.OHMM  : 10-IN. ARRAY INDUCTION RESISTIVITY
AE30.OHMM  : 30-IN. ARRAY INDUCTION RESISTIVITY
AE90.OHMM  : 90-IN. ARRAY INDUCTION RESISTIVITY
DTCO.US/F  : COMPRESSIONAL-WAVE INTERVAL TRANSIT TIME ACOUSTIC SLOWNESS
DTSM.US/F  : SHEAR-WAVE INTERVAL TRANSIT TIME DELTA-T
~Params ----------------------------------------------------
~Other -----------------------------------------------------
~ASCII -----------------------------------------------------
# ...
 8350.00000  115.29380   10.72130    0.38960    4.56810    0.10080    0.08480    2.53940    2.44160    2.33330    2.29490   95.36010  198.96030
 8350.50000  116.25950   10.83710    0.39370    4.37440    0.09440    0.07880    2.55160    2.37770    2.26090    2.21470   95.40580  198.45740
 8351.00000  116.10420   10.88690    0.40270    4.17400    0.08970    0.07440    2.55410    2.30430    2.18300    2.14530   95.15230  197.14570
 8351.50000  115.18010   10.94990    0.41800    4.13940    0.09770    0.07350    2.54290    2.32400    2.16150    2.12420   94.54600  195.65120
 8352.00000  113.82670   11.02630    0.40770    4.30840    0.10270    0.07510    2.53520    2.56810    2.35860    2.20910   93.85460  196.20630
 8352.50000  112.50880   11.14080    0.38990    4.53070    0.10410    0.10000    2.53030    2.84740    2.54580    2.35280   93.46730  198.33890
 8353.00000  111.04630   11.17840    0.39710    4.78750    0.10490    0.10900    2.51850    2.83210    2.54480    2.36430   93.70270  202.00030
 8353.50000  110.56580   11.16090    0.42440    4.99880    0.11010    0.10810    2.49900    2.66190    2.48220    2.25530   93.96870  204.66340
 8354.00000  111.80730   11.14910    0.43710    5.15230    0.12400    0.09690    2.49680    2.61140    2.38250    2.18910   94.41720  204.56760
 8354.50000  114.71700   11.17550    0.42440    5.16580    0.11510    0.09900    2.51210    2.49980    2.31490    2.20560   95.08990  204.03430
 8355.00000  118.75180   11.20230    0.40360    4.88160    0.10140    0.12350    2.54030    2.46620    2.29490    2.25810   94.82640  204.03720
 8355.50000  120.86780   10.97230    0.37870    4.49070    0.07860    0.12410    2.56550    2.32390    2.27930    2.23680   93.94620  204.04000
 8356.00000  120.77990   10.73470    0.36350    4.20220    0.07310    0.10760    2.58300    2.32600    2.26000    2.22380   93.88220  202.88120
 8356.50000  118.75910   10.79510    0.37110    4.13100    0.06990    0.08700    2.59250    2.48630    2.31680    2.28640   94.94210  200.65560
 8357.00000  115.98630   10.90200    0.37710    4.18660    0.06840    0.08700    2.59390    2.59080    2.37030    2.31320   95.92210  198.23340
 8357.50000  113.62360   10.99920    0.36340    4.28410    0.07390    0.09330    2.59220    2.57230    2.42480    2.25520   95.99240  198.66350
 8358.00000  112.44870   11.04500    0.35580    4.33860    0.08840    0.10210    2.56830    2.62080    2.47260    2.20130   95.69860  199.10730
 8358.50000  112.24530   11.07650    0.37620    4.38890    0.10640    0.10880    2.53540    2.84810    2.50930    2.28800   94.93130  198.63010
 8359.00000  112.44890   11.11710    0.40130    4.43920    0.11280    0.11300    2.51880    3.03990    2.51450    2.37640   94.16400  197.31480
 8359.50000  112.86290   11.26270    0.40320    4.48140    0.10920    0.11730    2.51850    2.85530    2.45810    2.35420   94.28400  198.38490
 8360.00000  113.26600   11.30660    0.39490    4.49590    0.11110    0.12100    2.51610    2.82250    2.40840    2.32760   94.99390  200.98970
 8360.50000  113.30810   11.30690    0.38840    4.57460    0.11430    0.12450    2.46610    2.82790    2.38180    2.31710   95.68080  202.70710
 8361.00000  112.71280   11.35040    0.39460    4.74130    0.12680    0.12800    2.46650    2.82730    2.38840    2.27420   95.51410  204.99820
 8361.50000  111.88960   11.61470    0.40920    4.98600    0.12750    0.13150    2.47460    2.86180    2.41990    2.32990   95.25290  206.83170
 8362.00000  110.85400   11.84120    0.42050    5.13460    0.12570    0.13340    2.51690    2.80690    2.42890    2.31010   95.22740  206.90990
 8362.50000  109.01000   11.84930    0.42750    5.15400    0.11300    0.13310    2.52470    2.70600    2.40670    2.23550   95.19130  206.81250
 8363.00000  106.79340   11.60090    0.42940    5.16330    0.11380    0.13220    2.52300    2.72000    2.40850    2.24180   94.58490  206.00640
 8363.50000  106.42000   11.35920    0.42050    5.04420    0.11470    0.13120    2.51930    2.74800    2.41910    2.29390   93.74910  204.09560
 8364.00000  109.47910   11.23600    0.40820    4.94930    0.10500    0.13010    2.51820    2.73150    2.41310    2.33820   93.90550  202.81650
 8364.50000  116.28800   11.12960    0.40070    4.84570    0.09100    0.12830    2.55190    2.68630    2.40550    2.35240   94.08160  202.06190
 8365.00000  120.52570   10.99850    0.40130    4.65890    0.07970    0.12660    2.57130    2.58790    2.41560    2.29770   94.19420  202.69530
 8365.50000  119.48950   10.89000    0.40010    4.44940    0.08310    0.11070    2.57010    2.58880    2.44380    2.33660   93.90960  202.90930
 8366.00000  117.31310   10.80510    0.39180    4.27120    0.08700    0.09250    2.54380    2.77320    2.46990    2.41040   92.27610  201.43720
 8366.50000  115.88360   10.70140    0.37780    4.11060    0.10260    0.07840    2.51470    2.66180    2.39920    2.35880   91.43280  198.46350
 8367.00000  115.33520   10.72370    0.36840    4.10620    0.12590    0.08110    2.48550    2.53320    2.36850    2.32980   91.41250  197.82660
 8367.50000  114.55710   10.75990    0.37920    4.33800    0.14320    0.11110    2.45670    2.61340    2.46180    2.35280   91.76070  196.53550
 8368.00000  113.72990   10.82360    0.40430    4.79630    0.13140    0.14420    2.46590    2.83470    2.69130    2.59020   91.58530  193.99180
 8368.50000  112.84020   10.78080    0.41950    5.04950    0.10420    0.15810    2.50980    3.14810    2.75890    2.70960   91.07820  194.71440
 8369.00000  111.27200   10.56240    0.42790    4.95790    0.08550    0.15810    2.55370    2.82880    2.51580    2.37190   92.07810  196.93660
 8369.50000  109.90820   10.58870    0.42580    4.58720    0.08190    0.12410    2.56530    2.52510    2.43880    2.26980   93.65620  198.15640
 8370.00000  109.27940   10.61430    0.41170    4.28930    0.08620    0.08780    2.56450    2.67330    2.55040    2.44500   94.33550  199.09860
 8370.50000  110.03040   10.42040    0.38800    4.09090    0.08670    0.07430    2.56080    2.92350    2.57560    2.51830   94.44420  200.21240
 8371.00000  112.00880   10.16740    0.36110    3.99330    0.09410    0.05640    2.55480    2.72340    2.46510    2.37710   93.98600  200.66640
 8371.50000  113.50650   10.22070    0.35410    3.96300    0.09940    0.05350    2.54430    2.60390    2.43230    2.31410   93.26320  199.42160
 8372.00000  113.80900   10.32180    0.36420    3.99270    0.11010    0.05390    2.53160    2.72470    2.43830    2.38690   93.05790  197.40680
 8372.50000  114.31790   10.38040    0.37610    4.04480    0.11350    0.05580    2.51570    2.84280    2.51170    2.40060   93.83300  195.19590
 8373.00000  115.23780   10.41440    0.37840    4.11990    0.12020    0.05830    2.49730    2.90130    2.56180    2.44970   94.40830  197.80250
 8373.50000  115.07400   10.44070    0.38060    4.24300    0.13230    0.07120    2.47900    2.88940    2.51260    2.41690   94.50240  201.75980
 8374.00000  113.71990   10.58080    0.39650    4.51920    0.14570    0.09010    2.46700    2.84550    2.49140    2.27330   94.30990  202.84940
 8374.50000  111.19870   10.67970    0.43650    4.78670    0.14560    0.10740    2.46710    2.94140    2.52010    2.35250   93.55020  201.99050
 8375.00000  108.72410   10.71540    0.43830    4.96410    0.13640    0.13430    2.47280    3.01430    2.47070    2.27450   92.79040  201.22210
 8375.50000  106.41950   10.84390    0.42920    5.03250    0.12710    0.14090    2.48260    2.88640    2.47790    2.17910   91.95050  200.48320
 8376.00000  104.31830   11.28620    0.41950    5.11890    0.12670    0.14360    2.48990    3.26140    2.61060    2.38200   90.83090  200.97430
 8376.50000  102.64600   11.16120    0.42110    5.38580    0.13390    0.14630    2.48880    3.62870    2.82470    2.52690   89.87640  201.72250
 8377.00000  101.97530   10.86890    0.43260    5.56420    0.14920    0.15280    2.46690    3.78100    2.74310    2.46730   88.65810  202.55530
 8377.50000  101.24390   10.91800    0.44150    5.88640    0.15150    0.16040    2.45300    3.40060    2.54040    2.35680   86.82080  204.49550
