~Version ---------------------------------------------------
VERS.   2.0 : CWLS log ASCII Standard -VERSION 2.0
WRAP.    NO : One line per depth step
DLM . SPACE : Column Data Section Delimiter
~Well ------------------------------------------------------
STRT .F                    6.0 : START DEPTH
STOP .F                10238.5 : STOP DEPTH
STEP .F                    0.5 : STEP
NULL .                -9999.25 : NULL VALUE
COMP .                         : COMPANY
WELL .                         : WELL
FLD  .                         : FIELD
LOC  .                         : LOCATION
PROV .                         : PROVINCE
CNTY .                         : COUNTY
STAT .                         : STATE
CTRY .                         : COUNTRY
SRVC .                         : SERVICE COMPANY
DATE .                         : DATE
UWI  .                         : UNIQUE WELL ID
API  .                         : API NUMBER
SLAT .WGS84  4.521437490691298 : SURFACE LATITUDE
SLON .WGS84 1.6054966445739893 : SURFACE LONGITUDE
DATUM.F                 792.34 : DEPTH DATUM ELEV
~Curve Information -----------------------------------------
DEPT.F     : 
GRD .GAPI  : GAMMA RAY FROM DENSITY LOG
HCAL.IN    : HILT CALIPER
NPOR.DEC   : NEUTRON POROSITY LIMESTONE
PEFZ.B/E   : FORMATION PHETOELECTRIC FACTOR
DPHZ.DEC   : DENSITY POROSITY LIMESTONE
HDRA.G/C3  : DELTA RHO HIP TOOL
RHOZ.G/C3  : HILT BULK DENSITY
AE10.OHMM  : 10-IN. ARRAY INDUCTION RESISTIVITY
AE30.OHMM  : 30-IN. ARRAY INDUCTION RESISTIVITY
AE90.OHMM  : 90-IN. ARRAY INDUCTION RESISTIVITY
DTCO.US/F  : COMPRESSIONAL-WAVE INTERVAL TRANSIT TIME ACOUSTIC SLOWNESS
DTSM.US/F  : SHEAR-WAVE INTERVAL TRANSIT TIME DELTA-T
~Params ----------------------------------------------------
~Other -----------------------------------------------------
~ASCII -----------------------------------------------------
# ...
 1630.00000  126.64780    8.89220   -9999.25   -9999.25   -9999.25   -9999.25   -9999.25    3.23200    3.56260    4.13010  107.05910  229.78460
 1630.50000  125.67780    8.83310   -9999.25   -9999.25   -9999.25   -9999.25   -9999.25    3.24000    3.52800    4.06620  107.07310  230.49370
 1631.00000  123.69010    8.78440   -9999.25   -9999.25   -9999.25   -9999.25   -9999.25    3.30670    3.52800    4.00180  106.87860  231.35960
 1631.50000  122.36360    8.77560   -9999.25   -9999.25   -9999.25   -9999.25   -9999.25    3.24270    3.49620    3.95600  106.75840  230.44240
 1632.00000  121.70540    8.77560   -9999.25   -9999.25   -9999.25   -9999.25   -9999.25    3.25390    3.48600    3.95560  106.33070  229.38500
 1632.50000  122.10270    8.83520   -9999.25   -9999.25   -9999.25   -9999.25   -9999.25    3.35220    3.50000    4.06660  105.90290  228.34110
 1633.00000  125.75790    8.88860   -9999.25   -9999.25   -9999.25   -9999.25   -9999.25    3.37880    3.51380    4.10220  105.53900  227.15600
 1633.50000  131.36940    8.88080   -9999.25   -9999.25   -9999.25   -9999.25   -9999.25    3.35940    3.52740    4.05190  105.34790  225.95530
 1634.00000  133.76070    8.84530   -9999.25   -9999.25   -9999.25   -9999.25   -9999.25    3.40640    3.58050    4.05040  105.26630  224.80080
 1634.50000  132.36640    8.80450   -9999.25   -9999.25   -9999.25   -9999.25   -9999.25    3.46300    3.63790    4.12220  105.08620  223.40970
 1635.00000  130.29250    8.83720   -9999.25   -9999.25   -9999.25   -9999.25   -9999.25    3.50320    3.69450    4.26810  104.76000  221.89710
 1635.50000  130.47250    8.86980   -9999.25   -9999.25   -9999.25   -9999.25   -9999.25    3.78330    3.75590    4.45220  104.52360  218.81360
 1636.00000  133.79650    8.88240   -9999.25   -9999.25   -9999.25   -9999.25   -9999.25    3.72300    3.82440    4.43480  104.15940  217.78780
 1636.50000  135.39590    8.80290   -9999.25   -9999.25   -9999.25   -9999.25   -9999.25    3.57560    3.81970    4.20410  103.81090  217.58270
 1637.00000  131.91520    8.73060   -9999.25   -9999.25   -9999.25   -9999.25   -9999.25    3.50220    3.78100    4.13840  104.07500  218.92540
 1637.50000  124.49430    8.74350   -9999.25   -9999.25   -9999.25   -9999.25   -9999.25    3.39490    3.71770    4.14150  104.51210  219.58280
 1638.00000  119.28540    8.77620   -9999.25   -9999.25   -9999.25   -9999.25   -9999.25    3.38960    3.64830    4.15350  105.02070  220.31240
 1638.50000  119.45030    8.81770   -9999.25   -9999.25   -9999.25   -9999.25   -9999.25    3.41000    3.61160    4.25510  105.50870  221.05670
 1639.00000  121.04600    8.82000   -9999.25   -9999.25   -9999.25   -9999.25   -9999.25    3.44500    3.63690    4.38620  105.95430  221.99550
 1639.50000  120.80170    8.78880   -9999.25   -9999.25   -9999.25   -9999.25   -9999.25    3.46590    3.66230    4.48460  106.08550  223.51880
 1640.00000  120.46220    8.79170   -9999.25   -9999.25   -9999.25   -9999.25   -9999.25    3.56450    3.69250    4.46640  105.82260  223.92990
 1640.50000  123.46820    8.81600   -9999.25   -9999.25   -9999.25   -9999.25   -9999.25    3.53860    3.73170    4.33530  105.46920  223.80850
 1641.00000  127.84460    8.84020   -9999.25   -9999.25   -9999.25   -9999.25   -9999.25    3.58790    3.77130    4.32090  105.07510  222.61410
 1641.50000  128.11240    8.84520   -9999.25   -9999.25   -9999.25   -9999.25   -9999.25    3.62850    3.80120    4.32090  104.60390  221.41970
 1642.00000  128.11280    8.79330   -9999.25   -9999.25   -9999.25   -9999.25   -9999.25    3.69240    3.82680    4.30150  104.04730  219.47210
 1642.50000  128.91130    8.74540   -9999.25   -9999.25   -9999.25   -9999.25   -9999.25    3.74240    3.84300    4.26460  103.61700  217.60430
 1643.00000  131.19830    8.74560   -9999.25   -9999.25   -9999.25   -9999.25   -9999.25    3.75220    3.85370    4.25700  103.27760  216.60120
 1643.50000  130.46860    8.74710   -9999.25   -9999.25   -9999.25   -9999.25   -9999.25    3.70590    3.87360    4.29680  103.37860  216.10930
 1644.00000  127.07790    8.75080   -9999.25   -9999.25   -9999.25   -9999.25   -9999.25    3.62860    3.92830    4.35070  103.47970  215.73170
 1644.50000  124.67180    8.75460   -9999.25   -9999.25   -9999.25   -9999.25   -9999.25    3.69820    3.91200    4.40700  103.57950  215.02660
 1645.00000  125.66410    8.75830   -9999.25   -9999.25   -9999.25   -9999.25   -9999.25    3.74250    3.86900    4.55000  103.63140  213.03430
 1645.50000  128.03090    8.76270   -9999.25   -9999.25   -9999.25   -9999.25   -9999.25    3.61690    3.83020    4.56510  103.42060  208.76190
 1646.00000  129.98500    8.76860   -9999.25   -9999.25   -9999.25   -9999.25   -9999.25    3.54910    3.80580    4.46980  103.24830  205.92590
 1646.50000  129.49030    8.77460   -9999.25   -9999.25   -9999.25   -9999.25   -9999.25    3.48070    3.78290    4.42110  103.23200  205.85330
 1647.00000  126.64600    8.78050   -9999.25   -9999.25   -9999.25   -9999.25   -9999.25    3.47630    3.79820    4.34230  103.15230  207.98760
 1647.50000  123.71460    8.78640   -9999.25   -9999.25   -9999.25   -9999.25   -9999.25    3.46620    3.80050    4.29200  102.84220  209.72080
 1648.00000  123.69270    8.79230   -9999.25   -9999.25   -9999.25   -9999.25   -9999.25    3.46620    3.77500    4.31550  102.92540  211.11370
 1648.50000  125.42540    8.79820   -9999.25   -9999.25   -9999.25   -9999.25   -9999.25    3.48920    3.74560    4.32560  103.19740  213.08500
 1649.00000  126.84660    8.80420   -9999.25   -9999.25   -9999.25   -9999.25   -9999.25    3.39590    3.70510    4.09140  103.03010  216.41570
 1649.50000  129.89170    8.80920   -9999.25   -9999.25   -9999.25   -9999.25   -9999.25    3.33980    3.66520    4.02330  102.78170  218.70860
 1650.00000  134.25220    8.80880   -9999.25   -9999.25   -9999.25   -9999.25   -9999.25    3.36670    3.62860    4.04440  102.53330  219.99810
 1650.50000  138.34630    8.80830   -9999.25   -9999.25   -9999.25   -9999.25   -9999.25    3.36720    3.64320    4.08770  102.40110  221.08260
 1651.00000  138.18030    8.80780   -9999.25   -9999.25   -9999.25   -9999.25   -9999.25    3.38440    3.65790    4.11450  102.61770  222.16720
 1651.50000  135.26630    8.80740   -9999.25   -9999.25   -9999.25   -9999.25   -9999.25    3.39540    3.67260    4.14120  102.53600  223.25170
 1652.00000  131.08180    8.80690   -9999.25   -9999.25   -9999.25   -9999.25   -9999.25    3.39390    3.68740    4.17710  102.94150  223.44400
 1652.50000  127.76600    8.80650   -9999.25   -9999.25   -9999.25   -9999.25   -9999.25    3.38130    3.70220    4.21330  103.62910  223.26020
 1653.00000  127.02860    8.80510   -9999.25   -9999.25   -9999.25   -9999.25   -9999.25    3.38370    3.71500    4.24980  104.01900  222.98140
 1653.50000  128.47050    8.79760   -9999.25   -9999.25   -9999.25   -9999.25   -9999.25    3.47840    3.72740    4.28430  103.95150  223.05060
 1654.00000  128.42320    8.79280   -9999.25   -9999.25   -9999.25   -9999.25   -9999.25    3.46640    3.73030    4.25970  103.84160  222.43260
 1654.50000  127.03480    8.80800   -9999.25   -9999.25   -9999.25   -9999.25   -9999.25    3.46640    3.73030    4.21550  103.62290  221.81460
 1655.00000  125.24820    8.82320   -9999.25   -9999.25   -9999.25   -9999.25   -9999.25    3.46640    3.73030    4.17180  103.19640  220.21760
 1655.50000  123.80360    8.83670   -9999.25   -9999.25   -9999.25   -9999.25   -9999.25    3.46640    3.73030    4.12860  102.74820  218.42100
 1656.00000  121.77200    8.84880   -9999.25   -9999.25   -9999.25   -9999.25   -9999.25    3.53090    3.73030    4.11890  102.35840  217.25740
 1656.50000  118.68020    8.84140   -9999.25   -9999.25   -9999.25   -9999.25   -9999.25    3.60320    3.73030    4.23000  102.12250  216.39700
 1657.00000  117.99130    8.82870   -9999.25   -9999.25   -9999.25   -9999.25   -9999.25    3.70500    3.73030    4.27720  102.10750  215.63210
 1657.50000  119.37460    8.84570   -9999.25   -9999.25   -9999.25   -9999.25   -9999.25    3.55340    3.78020    4.28290  102.11440  214.82600
