~Version ---------------------------------------------------
VERS.   2.0 : CWLS log ASCII Standard -VERSION 2.0
WRAP.    NO : One line per depth step
DLM . SPACE : Column Data Section Delimiter
~Well ------------------------------------------------------
STRT .F                    6.0 : START DEPTH
STOP .F                10238.5 : STOP DEPTH
STEP .F                    0.5 : STEP
NULL .                -9999.25 : NULL VALUE
COMP .                         : COMPANY
WELL .                         : WELL
FLD  .                         : FIELD
LOC  .                         : LOCATION
PROV .                         : PROVINCE
CNTY .                         : COUNTY
STAT .                         : STATE
CTRY .                         : COUNTRY
SRVC .                         : SERVICE COMPANY
DATE .                         : DATE
UWI  .                         : UNIQUE WELL ID
API  .                         : API NUMBER
SLAT .WGS84  4.521437490691298 : SURFACE LATITUDE
SLON .WGS84 1.6054966445739893 : SURFACE LONGITUDE
DATUM.F                 792.34 : DEPTH DATUM ELEV
~Curve Information -----------------------------------------
DEPT.F     : 
GRD .GAPI  : GAMMA RAY FROM DENSITY LOG
HCAL.IN    : HILT CALIPER
NPOR.DEC   : NEUTRON POROSITY LIMESTONE
PEFZ.B/E   : FORMATION PHETOELECTRIC FACTOR
DPHZ.DEC   : DENSITY POROSITY LIMESTONE
HDRA.G/C3  : DELTA RHO HIP TOOL
RHOZ.G/C3  : HILT BULK DENSITY
AE10.OHMM  : 10-IN. ARRAY INDUCTION RESISTIVITY
AE30.OHMM  : 30-IN. ARRAY INDUCTION RESISTIVITY
AE90.OHMM  : 90-IN. ARRAY INDUCTION RESISTIVITY
DTCO.US/F  : COMPRESSIONAL-WAVE INTERVAL TRANSIT TIME ACOUSTIC SLOWNESS
DTSM.US/F  : SHEAR-WAVE INTERVAL TRANSIT TIME DELTA-T
~Params ----------------------------------------------------
~Other -----------------------------------------------------
~ASCII -----------------------------------------------------
# ...
 7762.00000  128.27990    8.93210   -9999.25   -9999.25   -9999.25   -9999.25   -9999.25    7.20540    8.74280   11.82090   83.22150  166.25820
 7762.50000  127.30970    8.89630   -9999.25   -9999.25   -9999.25   -9999.25   -9999.25    5.43600    5.86490    6.22610   84.86140  174.05280
 7763.00000  133.69520    8.96890   -9999.25   -9999.25   -9999.25   -9999.25   -9999.25    4.10110    4.26110    4.51080   87.34630  181.20840
 7763.50000  142.40740    8.99220   -9999.25   -9999.25   -9999.25   -9999.25   -9999.25    3.46940    3.87090    4.03310   89.32150  187.86950
 7764.00000  144.90430    8.92140   -9999.25   -9999.25   -9999.25   -9999.25   -9999.25    3.57910    3.83030    4.01470   90.67930  193.88130
 7764.50000  143.37400    8.82950   -9999.25   -9999.25   -9999.25   -9999.25   -9999.25    3.68390    3.92240    4.25190   92.03710  197.86640
 7765.00000  139.38710    8.82050   -9999.25   -9999.25   -9999.25   -9999.25   -9999.25    4.24680    4.40700    4.65640   93.01460  199.42430
 7765.50000  136.61500    8.90790   -9999.25   -9999.25   -9999.25   -9999.25   -9999.25    4.51750    4.68030    4.86450   92.98030  199.82530
 7766.00000  133.85080    8.99520   -9999.25   -9999.25   -9999.25   -9999.25   -9999.25    4.33760    4.41070    4.79770   92.27570  199.80440
 7766.50000  130.45410    8.99390   -9999.25   -9999.25   -9999.25   -9999.25   -9999.25    4.00670    4.16130    4.39470   91.65290  199.78340
 7767.00000  124.84880    8.94070   -9999.25   -9999.25   -9999.25   -9999.25   -9999.25    3.68910    3.83130    4.04170   92.47200  199.76250
 7767.50000  121.39540    8.87540   -9999.25   -9999.25   -9999.25   -9999.25   -9999.25    3.32650    3.44540    3.66290   93.13840  201.34130
 7768.00000  122.54580    8.83600   -9999.25   -9999.25   -9999.25   -9999.25   -9999.25    2.94020    3.01360    3.12300   93.53590  203.29080
 7768.50000  128.91350    8.92400   -9999.25   -9999.25   -9999.25   -9999.25   -9999.25    2.90260    3.00610    3.05920   94.37190  204.15620
 7769.00000  137.67790    9.02500   -9999.25   -9999.25   -9999.25   -9999.25   -9999.25    3.23290    3.27180    3.49480   95.65070  202.93570
 7769.50000  147.41590    8.98760   -9999.25   -9999.25   -9999.25   -9999.25   -9999.25    3.89560    4.09720    4.29830   95.35670  197.25480
 7770.00000  153.11470    8.89630   -9999.25   -9999.25   -9999.25   -9999.25   -9999.25    4.61680    4.79610    5.09430   95.02840  192.73680
 7770.50000  160.43220    8.80510   -9999.25   -9999.25   -9999.25   -9999.25   -9999.25    4.98690    5.15650    5.56180   93.60930  186.89720
 7771.00000  167.41320    8.71530   -9999.25   -9999.25   -9999.25   -9999.25   -9999.25    4.95360    5.10290    5.39800   92.16580  182.37310
 7771.50000  172.91440    8.77630   -9999.25   -9999.25   -9999.25   -9999.25   -9999.25    4.96320    5.24290    5.34460   90.98390  179.44500
 7772.00000  173.51670    8.88750   -9999.25   -9999.25   -9999.25   -9999.25   -9999.25    5.51540    5.69120    5.91780   90.59680  177.88180
 7772.50000  171.62190    8.98480   -9999.25   -9999.25   -9999.25   -9999.25   -9999.25    5.66030    5.80080    6.21890   90.47210  177.40590
 7773.00000  166.02450    8.92200   -9999.25   -9999.25   -9999.25   -9999.25   -9999.25    5.01540    5.39500    6.06690   90.95430  177.21530
 7773.50000  157.84520    8.79810   -9999.25   -9999.25   -9999.25   -9999.25   -9999.25    4.54350    4.96260    5.30460   91.56390  177.47410
 7774.00000  144.30510    8.70010   -9999.25   -9999.25   -9999.25   -9999.25   -9999.25    4.61330    5.19120    5.60840   91.90720  178.15160
 7774.50000  131.68880    8.80720   -9999.25   -9999.25   -9999.25   -9999.25   -9999.25    4.08280    4.45900    5.10010   91.72190  178.82910
 7775.00000  119.55830    8.91660   -9999.25   -9999.25   -9999.25   -9999.25   -9999.25    3.42490    3.59530    3.79210   91.53670  179.21540
 7775.50000  110.77250    8.93980   -9999.25   -9999.25   -9999.25   -9999.25   -9999.25    3.44380    3.72920    3.75140   90.78720  179.49560
 7776.00000  101.15530    8.92360   -9999.25   -9999.25   -9999.25   -9999.25   -9999.25    3.74920    3.89670    4.11730   90.20870  179.90110
 7776.50000   94.11340    8.91780   -9999.25   -9999.25   -9999.25   -9999.25   -9999.25    3.82790    4.08960    4.09830   89.75670  180.42180
 7777.00000   91.68970    8.91270   -9999.25   -9999.25   -9999.25   -9999.25   -9999.25    3.98960    4.25510    4.50740   89.22610  181.48030
 7777.50000   95.74050    8.90750   -9999.25   -9999.25   -9999.25   -9999.25   -9999.25    3.96830    4.30810    4.62160   88.61840  182.70350
 7778.00000  101.65700    8.91120   -9999.25   -9999.25   -9999.25   -9999.25   -9999.25    3.70050    4.04950    4.47640   88.71180  183.70810
 7778.50000  104.69840    8.91770   -9999.25   -9999.25   -9999.25   -9999.25   -9999.25    3.35610    3.64570    4.01730   89.48800  184.14270
 7779.00000  106.78430    8.92410   -9999.25   -9999.25   -9999.25   -9999.25   -9999.25    3.10420    3.31930    3.56220   90.79200  184.49030
 7779.50000  108.12550    8.90340   -9999.25   -9999.25   -9999.25   -9999.25   -9999.25    3.04490    3.14960    3.26840   91.71960  184.74320
 7780.00000  107.83770    8.89310   -9999.25   -9999.25   -9999.25   -9999.25   -9999.25    3.06830    3.19270    3.21160   91.98960  183.93160
 7780.50000  106.62940    8.90230   -9999.25   -9999.25   -9999.25   -9999.25   -9999.25    3.37250    3.34790    3.28340   92.24590  183.08800
 7781.00000  105.48880    8.95200   -9999.25   -9999.25   -9999.25   -9999.25   -9999.25    3.69350    3.41820    3.35940   92.07920  181.27590
 7781.50000  106.52810    8.92940   -9999.25   -9999.25   -9999.25   -9999.25   -9999.25    3.63170    3.45840    3.40290   91.83110  179.92180
 7782.00000  110.58720    8.86760   -9999.25   -9999.25   -9999.25   -9999.25   -9999.25    3.56990    3.46930    3.39090   91.43210  179.93570
 7782.50000  115.84830    8.82090   -9999.25   -9999.25   -9999.25   -9999.25   -9999.25    3.27090    3.17490    3.03550   90.85790  180.31420
 7783.00000  119.05870    8.84970   -9999.25   -9999.25   -9999.25   -9999.25   -9999.25    3.00170    2.93920    2.89040   90.27740  181.49600
 7783.50000  119.61660    8.90540   -9999.25   -9999.25   -9999.25   -9999.25   -9999.25    3.07730    3.02870    2.97230   89.47290  183.10050
 7784.00000  117.59850    8.91710   -9999.25   -9999.25   -9999.25   -9999.25   -9999.25    3.44450    3.22670    3.12170   89.45720  183.91170
 7784.50000  112.40540    8.88040   -9999.25   -9999.25   -9999.25   -9999.25   -9999.25    3.97950    3.75590    3.53970   90.95900  183.30940
 7785.00000  107.49070    8.80660   -9999.25   -9999.25   -9999.25   -9999.25   -9999.25    4.61010    3.87250    3.80110   91.24300  182.05750
 7785.50000  106.69180    8.73290   -9999.25   -9999.25   -9999.25   -9999.25   -9999.25    3.71950    3.59590    3.31240   90.08040  180.12580
 7786.00000  110.20750    8.75080   -9999.25   -9999.25   -9999.25   -9999.25   -9999.25    3.25520    3.12200    2.95860   89.48310  178.42120
 7786.50000  113.37990    8.83800   -9999.25   -9999.25   -9999.25   -9999.25   -9999.25    3.14130    3.06380    2.95610   90.27780  176.80060
 7787.00000  111.67680    8.95410   -9999.25   -9999.25   -9999.25   -9999.25   -9999.25    3.77770    3.54270    3.35640   90.91190  175.26230
 7787.50000  104.98750    8.93550   -9999.25   -9999.25   -9999.25   -9999.25   -9999.25    4.25820    3.92330    3.74040   90.78250  173.80160
 7788.00000   98.90920    8.86320   -9999.25   -9999.25   -9999.25   -9999.25   -9999.25    3.96090    3.77870    3.63690   89.62060  172.51750
 7788.50000   95.48120    8.86300   -9999.25   -9999.25   -9999.25   -9999.25   -9999.25    3.86350    3.71860    3.52660   87.45930  169.56630
 7789.00000   95.87660    8.91130   -9999.25   -9999.25   -9999.25   -9999.25   -9999.25    4.39010    4.29680    4.08010   83.48540  164.61160
 7789.50000   96.89150    8.96380   -9999.25   -9999.25   -9999.25   -9999.25   -9999.25    4.83150    4.74130    4.56930   80.50880  159.84510
