~Version ---------------------------------------------------
VERS.   2.0 : CWLS log ASCII Standard -VERSION 2.0
WRAP.    NO : One line per depth step
DLM . SPACE : Column Data Section Delimiter
~Well ------------------------------------------------------
STRT .F                    6.0 : START DEPTH
STOP .F                10238.5 : STOP DEPTH
STEP .F                    0.5 : STEP
NULL .                -9999.25 : NULL VALUE
COMP .                         : COMPANY
WELL .                         : WELL
FLD  .                         : FIELD
LOC  .                         : LOCATION
PROV .                         : PROVINCE
CNTY .                         : COUNTY
STAT .                         : STATE
CTRY .                         : COUNTRY
SRVC .                         : SERVICE COMPANY
DATE .                         : DATE
UWI  .                         : UNIQUE WELL ID
API  .                         : API NUMBER
SLAT .WGS84  4.521437490691298 : SURFACE LATITUDE
SLON .WGS84 1.6054966445739893 : SURFACE LONGITUDE
DATUM.F                 792.34 : DEPTH DATUM ELEV
~Curve Information -----------------------------------------
DEPT.F     : 
GRD .GAPI  : GAMMA RAY FROM DENSITY LOG
HCAL.IN    : HILT CALIPER
NPOR.DEC   : NEUTRON POROSITY LIMESTONE
PEFZ.B/E   : FORMATION PHETOELECTRIC FACTOR
DPHZ.DEC   : DENSITY POROSITY LIMESTONE
HDRA.G/C3  : DELTA RHO HIP TOOL
RHOZ.G/C3  : HILT BULK DENSITY
AE10.OHMM  : 10-IN. ARRAY INDUCTION RESISTIVITY
AE30.OHMM  : 30-IN. ARRAY INDUCTION RESISTIVITY
AE90.OHMM  : 90-IN. ARRAY INDUCTION RESISTIVITY
DTCO.US/F  : COMPRESSIONAL-WAVE INTERVAL TRANSIT TIME ACOUSTIC SLOWNESS
DTSM.US/F  : SHEAR-WAVE INTERVAL TRANSIT TIME DELTA-T
~Params ----------------------------------------------------
~Other -----------------------------------------------------
~ASCII -----------------------------------------------------
# ...
 6530.00000  111.29860    9.65950   -9999.25   -9999.25   -9999.25   -9999.25   -9999.25    1.94040    1.90010    1.86140  101.19570  191.24920
 6530.50000  108.93460    9.66000   -9999.25   -9999.25   -9999.25   -9999.25   -9999.25    1.88360    1.86220    1.83200  101.98030  192.21320
 6531.00000  109.96980    9.66040   -9999.25   -9999.25   -9999.25   -9999.25   -9999.25    1.89990    1.85820    1.82700  102.43430  193.42490
 6531.50000  113.22790    9.69960   -9999.25   -9999.25   -9999.25   -9999.25   -9999.25    2.07790    1.99240    1.93090  102.40900  195.00110
 6532.00000  113.18830    9.71730   -9999.25   -9999.25   -9999.25   -9999.25   -9999.25    2.12790    2.02740    1.99150  102.04970  196.06340
 6532.50000  111.98350    9.73310   -9999.25   -9999.25   -9999.25   -9999.25   -9999.25    1.98900    1.92490    1.88650  101.61780  196.70610
 6533.00000  112.29340    9.73440   -9999.25   -9999.25   -9999.25   -9999.25   -9999.25    1.98970    1.93320    1.89410  101.42120  196.32680
 6533.50000  117.37730    9.73580   -9999.25   -9999.25   -9999.25   -9999.25   -9999.25    2.04770    1.92830    1.87560  101.52980  195.94740
 6534.00000  123.12300    9.73660   -9999.25   -9999.25   -9999.25   -9999.25   -9999.25    1.89750    1.81540    1.77780  102.20310  195.12370
 6534.50000  124.73420    9.71850   -9999.25   -9999.25   -9999.25   -9999.25   -9999.25    1.89270    1.80000    1.77070  102.31840  192.99530
 6535.00000  123.09960    9.70110   -9999.25   -9999.25   -9999.25   -9999.25   -9999.25    1.93070    1.85360    1.82390  102.53780  191.77380
 6535.50000  120.29160    9.69860   -9999.25   -9999.25   -9999.25   -9999.25   -9999.25    1.87280    1.85120    1.82090  102.73190  191.07310
 6536.00000  116.55470    9.70640   -9999.25   -9999.25   -9999.25   -9999.25   -9999.25    1.85690    1.83370    1.80380  102.92600  191.38280
 6536.50000  112.12500    9.72410   -9999.25   -9999.25   -9999.25   -9999.25   -9999.25    1.83490    1.79230    1.76160  102.91080  191.66680
 6537.00000  111.23230    9.74180   -9999.25   -9999.25   -9999.25   -9999.25   -9999.25    1.89140    1.81980    1.78230  102.15820  192.34090
 6537.50000  112.95830    9.78740   -9999.25   -9999.25   -9999.25   -9999.25   -9999.25    2.02370    1.95850    1.90230  101.71740  193.34600
 6538.00000  114.71420    9.83390   -9999.25   -9999.25   -9999.25   -9999.25   -9999.25    2.13020    2.02080    1.98800  101.61780  194.23750
 6538.50000  114.90740    9.85900   -9999.25   -9999.25   -9999.25   -9999.25   -9999.25    2.14530    2.01470    1.98020  101.50050  194.99500
 6539.00000  114.19580    9.85800   -9999.25   -9999.25   -9999.25   -9999.25   -9999.25    2.06740    1.96810    1.93400  101.36170  193.37500
 6539.50000  113.12810    9.84140   -9999.25   -9999.25   -9999.25   -9999.25   -9999.25    2.00470    1.95240    1.91960  101.60410  190.95050
 6540.00000  113.41520    9.81230   -9999.25   -9999.25   -9999.25   -9999.25   -9999.25    1.97500    1.90990    1.87820  102.09770  188.51170
 6540.50000  116.14080    9.78880   -9999.25   -9999.25   -9999.25   -9999.25   -9999.25    1.92980    1.88970    1.85910  102.35620  186.92150
 6541.00000  121.63400    9.71620   -9999.25   -9999.25   -9999.25   -9999.25   -9999.25    1.97370    1.89470    1.84880  102.20270  187.02850
 6541.50000  126.85140    9.59280   -9999.25   -9999.25   -9999.25   -9999.25   -9999.25    2.20330    2.07340    2.00700  102.04920  187.16170
 6542.00000  128.18290    9.50090   -9999.25   -9999.25   -9999.25   -9999.25   -9999.25    2.23770    2.17340    2.00170  101.74700  186.64270
 6542.50000  126.46460    9.44500   -9999.25   -9999.25   -9999.25   -9999.25   -9999.25    2.17670    2.10800    2.00340  101.48010  185.74600
 6543.00000  121.45570    9.38900   -9999.25   -9999.25   -9999.25   -9999.25   -9999.25    2.22870    2.06010    2.00530  101.39090  185.48430
 6543.50000  117.16920    9.35330   -9999.25   -9999.25   -9999.25   -9999.25   -9999.25    2.04780    1.93720    1.88080  101.36930  186.36720
 6544.00000  116.68460    9.32380   -9999.25   -9999.25   -9999.25   -9999.25   -9999.25    1.92260    1.88080    1.85030  101.44480  186.80880
 6544.50000  117.48740    9.29350   -9999.25   -9999.25   -9999.25   -9999.25   -9999.25    1.91640    1.87410    1.84330  101.67490  186.20510
 6545.00000  116.93010    9.25090   -9999.25   -9999.25   -9999.25   -9999.25   -9999.25    1.85710    1.80720    1.77780  102.02020  185.31180
 6545.50000  115.00850    9.20830   -9999.25   -9999.25   -9999.25   -9999.25   -9999.25    1.91760    1.84040    1.79260  102.24070  183.20940
 6546.00000  113.03120    9.11690   -9999.25   -9999.25   -9999.25   -9999.25   -9999.25    2.10540    1.99580    1.91010  102.31020  182.09250
 6546.50000  113.90740    9.05360   -9999.25   -9999.25   -9999.25   -9999.25   -9999.25    1.99770    1.91160    1.86240  102.38570  182.92970
 6547.00000  118.59720    9.08630   -9999.25   -9999.25   -9999.25   -9999.25   -9999.25    1.86790    1.80850    1.77550  102.46120  185.51840
 6547.50000  123.53150    9.15140   -9999.25   -9999.25   -9999.25   -9999.25   -9999.25    1.87920    1.81950    1.78810  102.51150  185.67330
 6548.00000  123.14970    9.09960   -9999.25   -9999.25   -9999.25   -9999.25   -9999.25    1.94450    1.83720    1.80780  102.60060  184.52460
 6548.50000  118.10520    9.05020   -9999.25   -9999.25   -9999.25   -9999.25   -9999.25    1.87840    1.81370    1.78260  103.14870  183.87190
 6549.00000  115.06740    9.00090   -9999.25   -9999.25   -9999.25   -9999.25   -9999.25    1.82910    1.78560    1.75550  103.27490  185.11960
 6549.50000  117.91500    8.99380   -9999.25   -9999.25   -9999.25   -9999.25   -9999.25    1.83790    1.75850    1.72880  103.15690  186.51570
 6550.00000  123.21520    8.99690   -9999.25   -9999.25   -9999.25   -9999.25   -9999.25    1.84630    1.74720    1.71900  103.02160  186.47870
 6550.50000  125.11260    9.00010   -9999.25   -9999.25   -9999.25   -9999.25   -9999.25    1.83670    1.74020    1.71240  102.91540  186.35280
 6551.00000  122.69720    9.00320   -9999.25   -9999.25   -9999.25   -9999.25   -9999.25    1.83930    1.75760    1.72780  102.63140  187.01100
 6551.50000  119.38300    9.00630   -9999.25   -9999.25   -9999.25   -9999.25   -9999.25    1.82650    1.77440    1.74590  102.35070  187.64330
 6552.00000  117.42790    9.02400   -9999.25   -9999.25   -9999.25   -9999.25   -9999.25    1.83300    1.78020    1.75120  102.29150  188.23950
 6552.50000  116.14060    9.04580   -9999.25   -9999.25   -9999.25   -9999.25   -9999.25    1.85440    1.83030    1.77400  102.29310  188.34600
 6553.00000  115.11160    9.05660   -9999.25   -9999.25   -9999.25   -9999.25   -9999.25    1.93310    1.85760    1.78330  102.30690  187.22570
 6553.50000  115.56370    9.03980   -9999.25   -9999.25   -9999.25   -9999.25   -9999.25    1.93900    1.84710    1.78350  102.45520  187.21580
 6554.00000  116.23250    8.98620   -9999.25   -9999.25   -9999.25   -9999.25   -9999.25    1.83020    1.75930    1.72340  102.47770  188.06110
 6554.50000  114.80310    8.91750   -9999.25   -9999.25   -9999.25   -9999.25   -9999.25    1.81230    1.75670    1.71510  102.42820  175.03650
 6555.00000  111.37700    8.85820   -9999.25   -9999.25   -9999.25   -9999.25   -9999.25    1.92440    1.82120    1.78900  102.49630  127.05640
 6555.50000  111.20310    8.88040   -9999.25   -9999.25   -9999.25   -9999.25   -9999.25    1.87810    1.80830    1.77680  102.53720  107.89850
 6556.00000  115.40440    8.90100   -9999.25   -9999.25   -9999.25   -9999.25   -9999.25    1.83860    1.80520    1.77630  102.58200  103.62590
 6556.50000  119.54330    8.89230   -9999.25   -9999.25   -9999.25   -9999.25   -9999.25    1.85780    1.80530    1.77640  102.58570  102.74890
 6557.00000  120.77330    8.85270   -9999.25   -9999.25   -9999.25   -9999.25   -9999.25    1.86620    1.80550    1.77660  102.03590  102.40080
 6557.50000  119.73240    8.81320   -9999.25   -9999.25   -9999.25   -9999.25   -9999.25    1.91660    1.85510    1.81360  101.78650  102.00160
