~Version ---------------------------------------------------
VERS.   2.0 : CWLS log ASCII Standard -VERSION 2.0
WRAP.    NO : One line per depth step
DLM . SPACE : Column Data Section Delimiter
~Well ------------------------------------------------------
STRT .F                    6.0 : START DEPTH
STOP .F                10238.5 : STOP DEPTH
STEP .F                    0.5 : STEP
NULL .                -9999.25 : NULL VALUE
COMP .                         : COMPANY
WELL .                         : WELL
FLD  .                         : FIELD
LOC  .                         : LOCATION
PROV .                         : PROVINCE
CNTY .                         : COUNTY
STAT .                         : STATE
CTRY .                         : COUNTRY
SRVC .                         : SERVICE COMPANY
DATE .                         : DATE
UWI  .                         : UNIQUE WELL ID
API  .                         : API NUMBER
SLAT .WGS84  4.521437490691298 : SURFACE LATITUDE
SLON .WGS84 1.6054966445739893 : SURFACE LONGITUDE
DATUM.F                 792.34 : DEPTH DATUM ELEV
~Curve Information -----------------------------------------
DEPT.F     : 
GRD .GAPI  : GAMMA RAY FROM DENSITY LOG
HCAL.IN    : HILT CALIPER
NPOR.DEC   : NEUTRON POROSITY LIMESTONE
PEFZ.B/E   : FORMATION PHETOELECTRIC FACTOR
DPHZ.DEC   : DENSITY POROSITY LIMESTONE
HDRA.G/C3  : DELTA RHO HIP TOOL
RHOZ.G/C3  : HILT BULK DENSITY
AE10.OHMM  : 10-IN. ARRAY INDUCTION RESISTIVITY
AE30.OHMM  : 30-IN. ARRAY INDUCTION RESISTIVITY
AE90.OHMM  : 90-IN. ARRAY INDUCTION RESISTIVITY
DTCO.US/F  : COMPRESSIONAL-WAVE INTERVAL TRANSIT TIME ACOUSTIC SLOWNESS
DTSM.US/F  : SHEAR-WAVE INTERVAL TRANSIT TIME DELTA-T
~Params ----------------------------------------------------
~Other -----------------------------------------------------
~ASCII -----------------------------------------------------
# ...
 1014.00000   92.08110   15.58290   -9999.25   -9999.25   -9999.25   -9999.25   -9999.25    3.81190    3.56710    3.35080  112.11570  115.79010
 1014.50000   93.44950   15.08420   -9999.25   -9999.25   -9999.25   -9999.25   -9999.25    3.98080    3.69970    3.38930  108.51610  116.51150
 1015.00000   96.02430   14.83330   -9999.25   -9999.25   -9999.25   -9999.25   -9999.25    3.92730    3.62210    3.33180  108.64810  117.59020
 1015.50000   98.65440   14.87770   -9999.25   -9999.25   -9999.25   -9999.25   -9999.25    3.68050    3.47000    3.29310  111.40310  119.60070
 1016.00000   99.73880   14.98040   -9999.25   -9999.25   -9999.25   -9999.25   -9999.25    3.74480    3.46380    3.34640  114.59780  122.49150
 1016.50000   98.86550   15.20920   -9999.25   -9999.25   -9999.25   -9999.25   -9999.25    3.75070    3.43180    3.29360  116.06430  123.33950
 1017.00000   96.44540   15.50450   -9999.25   -9999.25   -9999.25   -9999.25   -9999.25    3.44710    3.35110    3.18540  116.17130  121.16810
 1017.50000   94.65400   15.52580   -9999.25   -9999.25   -9999.25   -9999.25   -9999.25    3.50790    3.30360    3.13700  115.03850  117.04080
 1018.00000   94.52060   14.99940   -9999.25   -9999.25   -9999.25   -9999.25   -9999.25    3.68320    3.42480    3.43610  114.12880  114.57740
 1018.50000   93.93200   14.33070   -9999.25   -9999.25   -9999.25   -9999.25   -9999.25    3.69120    3.46750    3.63030  113.29050  115.00230
 1019.00000   92.60120   14.30800   -9999.25   -9999.25   -9999.25   -9999.25   -9999.25    3.67790    3.30270    3.64640  112.23130  115.88450
 1019.50000   91.14260   14.35910   -9999.25   -9999.25   -9999.25   -9999.25   -9999.25    3.67790    3.23270    3.64460  111.41310  116.21200
 1020.00000   90.10560   14.41100   -9999.25   -9999.25   -9999.25   -9999.25   -9999.25    3.72570    3.24120    3.61620  111.32740  116.47690
 1020.50000   89.25910   14.47140   -9999.25   -9999.25   -9999.25   -9999.25   -9999.25    3.59010    3.26920    3.48840  111.37420  116.48660
 1021.00000   88.85000   14.93470   -9999.25   -9999.25   -9999.25   -9999.25   -9999.25    3.46990    3.35540    3.19170  110.74370  113.21950
 1021.50000   88.32060   15.08090   -9999.25   -9999.25   -9999.25   -9999.25   -9999.25    3.58730    3.45430    3.24790  109.71230  108.28420
 1022.00000   86.87860   15.22020   -9999.25   -9999.25   -9999.25   -9999.25   -9999.25    3.70920    3.47260    3.30700  108.64600  105.28450
 1022.50000   84.60490   16.17560   -9999.25   -9999.25   -9999.25   -9999.25   -9999.25    3.47150    3.33650    3.13730  108.23260  106.25660
 1023.00000   83.23080   16.80010   -9999.25   -9999.25   -9999.25   -9999.25   -9999.25    3.52850    3.46950    3.41000  109.26710  109.27020
 1023.50000   83.99970   16.49370   -9999.25   -9999.25   -9999.25   -9999.25   -9999.25    3.81120    3.49780    3.39590  111.02890  112.15690
 1024.00000   85.91130   16.17210   -9999.25   -9999.25   -9999.25   -9999.25   -9999.25    3.47070    3.32300    3.18230  112.36800  112.88870
 1024.50000   87.16040   15.85050   -9999.25   -9999.25   -9999.25   -9999.25   -9999.25    3.36060    3.32600    3.15220  112.47290  112.87580
 1025.00000   88.02790   15.52890   -9999.25   -9999.25   -9999.25   -9999.25   -9999.25    3.57600    3.45960    3.30890  111.72010  111.91990
 1025.50000   89.69800   15.05300   -9999.25   -9999.25   -9999.25   -9999.25   -9999.25    3.71300    3.58250    3.46660  111.42010  108.57710
 1026.00000   91.89750   15.26640   -9999.25   -9999.25   -9999.25   -9999.25   -9999.25    3.63140    3.51800    3.42920  112.63520  104.58910
 1026.50000   94.52110   15.60580   -9999.25   -9999.25   -9999.25   -9999.25   -9999.25    3.58710    3.46640    3.35560  112.72690  102.77990
 1027.00000   96.08800   15.86790   -9999.25   -9999.25   -9999.25   -9999.25   -9999.25    3.66010    3.41550    3.31310  111.51130  103.57560
 1027.50000   96.49850   15.97240   -9999.25   -9999.25   -9999.25   -9999.25   -9999.25    3.76180    3.37660    3.27520  108.46840  107.48960
 1028.00000   95.65100   17.17020   -9999.25   -9999.25   -9999.25   -9999.25   -9999.25    3.63560    3.37660    3.26080  111.29860  112.00450
 1028.50000   94.54310   18.59440   -9999.25   -9999.25   -9999.25   -9999.25   -9999.25    3.55830    3.39140    3.26550  115.19670  117.38010
 1029.00000   95.21180   19.45490   -9999.25   -9999.25   -9999.25   -9999.25   -9999.25    3.77820    3.41940    3.32750  118.16450  135.59480
 1029.50000   99.89590   18.51240   -9999.25   -9999.25   -9999.25   -9999.25   -9999.25    3.77820    3.41500    3.50760  118.71130  155.62040
 1030.00000  107.27120   15.70590   -9999.25   -9999.25   -9999.25   -9999.25   -9999.25    3.85650    3.32970    3.60620  117.94890  177.96780
 1030.50000  113.98720   12.89940   -9999.25   -9999.25   -9999.25   -9999.25   -9999.25    3.72710    3.19880    3.60530  116.91760  186.75990
 1031.00000  117.89500   10.25110   -9999.25   -9999.25   -9999.25   -9999.25   -9999.25    3.57260    3.20380    3.65130  116.03670  189.80380
 1031.50000  119.50730    9.48190   -9999.25   -9999.25   -9999.25   -9999.25   -9999.25    3.46660    3.29990    3.95460  115.84820  188.18600
 1032.00000  120.65610    9.26650   -9999.25   -9999.25   -9999.25   -9999.25   -9999.25    3.32950    3.48460    3.79060  117.08510  184.70210
 1032.50000  121.77360    9.09750   -9999.25   -9999.25   -9999.25   -9999.25   -9999.25    3.24470    3.52350    3.66300  117.96750  176.15270
 1033.00000  122.88840    8.94440   -9999.25   -9999.25   -9999.25   -9999.25   -9999.25    3.23370    3.42380    3.74060  115.08520  162.23990
 1033.50000  125.25720    8.92290   -9999.25   -9999.25   -9999.25   -9999.25   -9999.25    3.16400    3.33180    3.57240  107.85820  148.74550
 1034.00000  128.82390    8.93210   -9999.25   -9999.25   -9999.25   -9999.25   -9999.25    2.98320    3.29240    3.35440  109.14220  142.28060
 1034.50000  129.40930    8.93900   -9999.25   -9999.25   -9999.25   -9999.25   -9999.25    2.92780    3.33580    3.45140  114.72090  131.66390
 1035.00000  127.45650    8.91970   -9999.25   -9999.25   -9999.25   -9999.25   -9999.25    2.93800    3.41810    3.68550  116.23090  122.64380
 1035.50000  125.37070    8.90040   -9999.25   -9999.25   -9999.25   -9999.25   -9999.25    2.96610    3.42500    3.71690  116.69850  110.28970
 1036.00000  125.04150    8.90570   -9999.25   -9999.25   -9999.25   -9999.25   -9999.25    2.97280    3.38260    3.56880  117.33390  102.65030
 1036.50000  126.43770    8.91610   -9999.25   -9999.25   -9999.25   -9999.25   -9999.25    2.96910    3.32670    3.42710  117.85380  103.48490
 1037.00000  127.22110    8.92650   -9999.25   -9999.25   -9999.25   -9999.25   -9999.25    2.92680    3.28590    3.36750  117.97110  108.14520
 1037.50000  128.69130    8.91480   -9999.25   -9999.25   -9999.25   -9999.25   -9999.25    2.91580    3.25930    3.34690  117.95990  109.76040
 1038.00000  130.64220    8.90190   -9999.25   -9999.25   -9999.25   -9999.25   -9999.25    2.87930    3.25860    3.32650  118.22790  111.14600
 1038.50000  131.51660    8.90000   -9999.25   -9999.25   -9999.25   -9999.25   -9999.25    2.85870    3.24990    3.30690  118.24960  113.77850
 1039.00000  129.60420    8.90890   -9999.25   -9999.25   -9999.25   -9999.25   -9999.25    2.85220    3.23610    3.28770  117.45710  116.03840
 1039.50000  126.86280    8.91520   -9999.25   -9999.25   -9999.25   -9999.25   -9999.25    2.85220    3.21590    3.27850  116.56810  115.78920
 1040.00000  125.98620    8.91310   -9999.25   -9999.25   -9999.25   -9999.25   -9999.25    2.85220    3.19580    3.28760  115.77880  114.02670
 1040.50000  125.95520    8.91090   -9999.25   -9999.25   -9999.25   -9999.25   -9999.25    2.85220    3.17580    3.29670  114.93730  112.21770
 1041.00000  126.03690    8.90880   -9999.25   -9999.25   -9999.25   -9999.25   -9999.25    2.85620    3.15590    3.34490  114.30730  111.21760
 1041.50000  126.23340    8.90670   -9999.25   -9999.25   -9999.25   -9999.25   -9999.25    2.86820    3.15860    3.36790  113.75680  112.87500
