~Version ---------------------------------------------------
VERS.   2.0 : CWLS log ASCII Standard -VERSION 2.0
WRAP.    NO : One line per depth step
DLM . SPACE : Column Data Section Delimiter
~Well ------------------------------------------------------
STRT .F                    6.0 : START DEPTH
STOP .F                10238.5 : STOP DEPTH
STEP .F                    0.5 : STEP
NULL .                -9999.25 : NULL VALUE
COMP .                         : COMPANY
WELL .                         : WELL
FLD  .                         : FIELD
LOC  .                         : LOCATION
PROV .                         : PROVINCE
CNTY .                         : COUNTY
STAT .                         : STATE
CTRY .                         : COUNTRY
SRVC .                         : SERVICE COMPANY
DATE .                         : DATE
UWI  .                         : UNIQUE WELL ID
API  .                         : API NUMBER
SLAT .WGS84  4.521437490691298 : SURFACE LATITUDE
SLON .WGS84 1.6054966445739893 : SURFACE LONGITUDE
DATUM.F                 792.34 : DEPTH DATUM ELEV
~Curve Information -----------------------------------------
DEPT.F     : 
GRD .GAPI  : GAMMA RAY FROM DENSITY LOG
HCAL.IN    : HILT CALIPER
NPOR.DEC   : NEUTRON POROSITY LIMESTONE
PEFZ.B/E   : FORMATION PHETOELECTRIC FACTOR
DPHZ.DEC   : DENSITY POROSITY LIMESTONE
HDRA.G/C3  : DELTA RHO HIP TOOL
RHOZ.G/C3  : HILT BULK DENSITY
AE10.OHMM  : 10-IN. ARRAY INDUCTION RESISTIVITY
AE30.OHMM  : 30-IN. ARRAY INDUCTION RESISTIVITY
AE90.OHMM  : 90-IN. ARRAY INDUCTION RESISTIVITY
DTCO.US/F  : COMPRESSIONAL-WAVE INTERVAL TRANSIT TIME ACOUSTIC SLOWNESS
DTSM.US/F  : SHEAR-WAVE INTERVAL TRANSIT TIME DELTA-T
~Params ----------------------------------------------------
~Other -----------------------------------------------------
~ASCII -----------------------------------------------------
# ...
 2862.00000  135.85330    9.30450   -9999.25   -9999.25   -9999.25   -9999.25   -9999.25    4.32470    4.42370    4.78480   96.15260  198.23800
 2862.50000  128.25480    9.28310   -9999.25   -9999.25   -9999.25   -9999.25   -9999.25    4.31590    4.38730    4.83060   95.92840  198.09160
 2863.00000  122.44670    9.30690   -9999.25   -9999.25   -9999.25   -9999.25   -9999.25    4.30780    4.38730    4.80720   95.72210  198.15960
 2863.50000  121.57810    9.34200   -9999.25   -9999.25   -9999.25   -9999.25   -9999.25    4.29990    4.38730    4.77100   95.72210  197.82790
 2864.00000  125.32300    9.35900   -9999.25   -9999.25   -9999.25   -9999.25   -9999.25    4.29210    4.38730    4.71230   95.76160  196.88920
 2864.50000  131.49350    9.34520   -9999.25   -9999.25   -9999.25   -9999.25   -9999.25    4.28420    4.38730    4.65350   95.91960  196.64760
 2865.00000  135.07880    9.33140   -9999.25   -9999.25   -9999.25   -9999.25   -9999.25    4.28080    4.38730    4.63080   96.05040  196.53180
 2865.50000  135.97360    9.34380   -9999.25   -9999.25   -9999.25   -9999.25   -9999.25    4.28680    4.38730    4.68420   96.01490  196.41590
 2866.00000  134.22150    9.35710   -9999.25   -9999.25   -9999.25   -9999.25   -9999.25    4.29270    4.38730    4.76250   96.01610  196.22990
 2866.50000  131.50970    9.37090   -9999.25   -9999.25   -9999.25   -9999.25   -9999.25    4.29940    4.38730    4.84950   96.12720  196.12900
 2867.00000  129.36800    9.39040   -9999.25   -9999.25   -9999.25   -9999.25   -9999.25    4.30740    4.39060    4.88060   96.27760  196.37780
 2867.50000  126.93940    9.40590   -9999.25   -9999.25   -9999.25   -9999.25   -9999.25    4.31540    4.39450    4.84480   96.32680  196.22640
 2868.00000  123.64640    9.40430   -9999.25   -9999.25   -9999.25   -9999.25   -9999.25    4.32350    4.39840    4.82860   96.17110  196.29210
 2868.50000  124.47590    9.40280   -9999.25   -9999.25   -9999.25   -9999.25   -9999.25    4.33160    4.40230    4.82660   95.98150  196.44410
 2869.00000  132.48840    9.40340   -9999.25   -9999.25   -9999.25   -9999.25   -9999.25    4.33960    4.40620    4.82460   95.88370  196.77750
 2869.50000  141.83570    9.39260   -9999.25   -9999.25   -9999.25   -9999.25   -9999.25    4.34770    4.41010    4.82260   95.82630  196.19530
 2870.00000  143.03120    9.37860   -9999.25   -9999.25   -9999.25   -9999.25   -9999.25    4.35100    4.41390    4.82060   95.87320  196.11110
 2870.50000  137.00030    9.36460   -9999.25   -9999.25   -9999.25   -9999.25   -9999.25    4.35110    4.41780    4.81870   95.99770  196.39700
 2871.00000  133.23170    9.34980   -9999.25   -9999.25   -9999.25   -9999.25   -9999.25    4.35110    4.41440    4.81670   96.08990  196.66340
 2871.50000  132.99810    9.32640   -9999.25   -9999.25   -9999.25   -9999.25   -9999.25    4.35110    4.41060    4.81470   96.11400  196.92870
 2872.00000  133.36270    9.32110   -9999.25   -9999.25   -9999.25   -9999.25   -9999.25    4.35110    4.40680    4.83900   96.12450  197.15450
 2872.50000  132.62480    9.31620   -9999.25   -9999.25   -9999.25   -9999.25   -9999.25    4.34830    4.40300    4.86500   96.13510  197.12240
 2873.00000  131.13940    9.31980   -9999.25   -9999.25   -9999.25   -9999.25   -9999.25    4.34510    4.39930    4.87130   96.15900  196.90190
 2873.50000  130.32490    9.32440   -9999.25   -9999.25   -9999.25   -9999.25   -9999.25    4.34190    4.39550    4.82350   96.13160  196.85870
 2874.00000  130.61170    9.33030   -9999.25   -9999.25   -9999.25   -9999.25   -9999.25    4.33870    4.39170    4.79620   96.00610  196.88350
 2874.50000  131.14110    9.32490   -9999.25   -9999.25   -9999.25   -9999.25   -9999.25    4.33550    4.38790    4.71640   95.91210  197.08290
 2875.00000  130.88870    9.34060   -9999.25   -9999.25   -9999.25   -9999.25   -9999.25    4.32900    4.37280    4.69260   95.77640  197.28220
 2875.50000  128.98240    9.34400   -9999.25   -9999.25   -9999.25   -9999.25   -9999.25    4.30200    4.35520    4.64430   95.73540  197.63750
 2876.00000  125.92850    9.34620   -9999.25   -9999.25   -9999.25   -9999.25   -9999.25    4.27530    4.33760    4.64920   95.76520  197.91930
 2876.50000  123.59170    9.34550   -9999.25   -9999.25   -9999.25   -9999.25   -9999.25    4.24860    4.32010    4.65840   95.88800  198.03740
 2877.00000  122.75340    9.34480   -9999.25   -9999.25   -9999.25   -9999.25   -9999.25    4.23120    4.30260    4.67960   95.91520  198.28020
 2877.50000  124.14300    9.33800   -9999.25   -9999.25   -9999.25   -9999.25   -9999.25    4.21610    4.29000    4.71620   95.91800  197.97140
 2878.00000  127.39520    9.32890   -9999.25   -9999.25   -9999.25   -9999.25   -9999.25    4.20110    4.28000    4.75320   95.92070  197.66260
 2878.50000  129.26090    9.32330   -9999.25   -9999.25   -9999.25   -9999.25   -9999.25    4.18610    4.26990    4.75460   95.92350  197.35370
 2879.00000  127.99660    9.34010   -9999.25   -9999.25   -9999.25   -9999.25   -9999.25    4.17120    4.25990    4.71850   95.94790  196.85830
 2879.50000  124.93860    9.36210   -9999.25   -9999.25   -9999.25   -9999.25   -9999.25    4.15630    4.24990    4.64980   96.00250  196.47860
 2880.00000  126.57550    9.37550   -9999.25   -9999.25   -9999.25   -9999.25   -9999.25    4.11870    4.23990    4.57350   96.07780  196.47690
 2880.50000  132.06070    9.38870   -9999.25   -9999.25   -9999.25   -9999.25   -9999.25    4.08050    4.18950    4.52420   96.11840  196.57470
 2881.00000  136.40560    9.39280   -9999.25   -9999.25   -9999.25   -9999.25   -9999.25    4.05570    4.12750    4.51700   96.10120  196.24980
 2881.50000  135.54100    9.37220   -9999.25   -9999.25   -9999.25   -9999.25   -9999.25    4.03770    4.10840    4.52770   95.98740  195.92490
 2882.00000  129.88720    9.34310   -9999.25   -9999.25   -9999.25   -9999.25   -9999.25    4.01970    4.09400    4.48920   96.07870  195.50730
 2882.50000  123.25380    9.30720   -9999.25   -9999.25   -9999.25   -9999.25   -9999.25    4.00170    4.07970    4.42630   96.13260  195.19800
 2883.00000  121.02000    9.29590   -9999.25   -9999.25   -9999.25   -9999.25   -9999.25    3.97400    4.06540    4.41700   96.52400  196.01290
 2883.50000  121.29220    9.33660   -9999.25   -9999.25   -9999.25   -9999.25   -9999.25    3.94660    4.05120    4.41690   96.89730  196.91780
 2884.00000  123.69450    9.39490   -9999.25   -9999.25   -9999.25   -9999.25   -9999.25    3.91930    4.03700    4.39870   97.04620  198.28180
 2884.50000  127.33600    9.40830   -9999.25   -9999.25   -9999.25   -9999.25   -9999.25    3.89620    4.02280    4.36830   97.06780  199.74070
 2885.00000  128.86890    9.45370   -9999.25   -9999.25   -9999.25   -9999.25   -9999.25    3.87940    4.00880    4.30500   96.89170  200.32310
 2885.50000  129.75160    9.47480   -9999.25   -9999.25   -9999.25   -9999.25   -9999.25    3.86260    3.97760    4.28960   97.10430  199.40800
 2886.00000  129.91310    9.49770   -9999.25   -9999.25   -9999.25   -9999.25   -9999.25    3.84590    3.94580    4.30160   97.31700  199.40510
 2886.50000  129.60270    9.55060   -9999.25   -9999.25   -9999.25   -9999.25   -9999.25    3.82290    3.91430    4.24620   97.85420  200.07110
 2887.00000  125.99800    9.54940   -9999.25   -9999.25   -9999.25   -9999.25   -9999.25    3.79420    3.87870    4.23090   98.45760  200.71230
 2887.50000  120.86330    9.51370   -9999.25   -9999.25   -9999.25   -9999.25   -9999.25    3.76580    3.83890    4.24910   98.70670  200.97330
 2888.00000  118.46540    9.49300   -9999.25   -9999.25   -9999.25   -9999.25   -9999.25    3.72830    3.79940    4.19490   98.66540  200.81930
 2888.50000  117.97540    9.48780   -9999.25   -9999.25   -9999.25   -9999.25   -9999.25    3.68820    3.76040    4.11580   98.55650  201.64150
 2889.00000  118.19830    9.49710   -9999.25   -9999.25   -9999.25   -9999.25   -9999.25    3.65130    3.72170    4.05420   98.55190  202.85340
 2889.50000  118.61670    9.52620   -9999.25   -9999.25   -9999.25   -9999.25   -9999.25    3.57930    3.63340    4.01570   98.57930  204.18800
