~Version ---------------------------------------------------
VERS.   2.0 : CWLS log ASCII Standard -VERSION 2.0
WRAP.    NO : One line per depth step
DLM . SPACE : Column Data Section Delimiter
~Well ------------------------------------------------------
STRT .F                    6.0 : START DEPTH
STOP .F                10238.5 : STOP DEPTH
STEP .F                    0.5 : STEP
NULL .                -9999.25 : NULL VALUE
COMP .                         : COMPANY
WELL .                         : WELL
FLD  .                         : FIELD
LOC  .                         : LOCATION
PROV .                         : PROVINCE
CNTY .                         : COUNTY
STAT .                         : STATE
CTRY .                         : COUNTRY
SRVC .                         : SERVICE COMPANY
DATE .                         : DATE
UWI  .                         : UNIQUE WELL ID
API  .                         : API NUMBER
SLAT .WGS84  4.521437490691298 : SURFACE LATITUDE
SLON .WGS84 1.6054966445739893 : SURFACE LONGITUDE
DATUM.F                 792.34 : DEPTH DATUM ELEV
~Curve Information -----------------------------------------
DEPT.F     : 
GRD .GAPI  : GAMMA RAY FROM DENSITY LOG
HCAL.IN    : HILT CALIPER
NPOR.DEC   : NEUTRON POROSITY LIMESTONE
PEFZ.B/E   : FORMATION PHETOELECTRIC FACTOR
DPHZ.DEC   : DENSITY POROSITY LIMESTONE
HDRA.G/C3  : DELTA RHO HIP TOOL
RHOZ.G/C3  : HILT BULK DENSITY
AE10.OHMM  : 10-IN. ARRAY INDUCTION RESISTIVITY
AE30.OHMM  : 30-IN. ARRAY INDUCTION RESISTIVITY
AE90.OHMM  : 90-IN. ARRAY INDUCTION RESISTIVITY
DTCO.US/F  : COMPRESSIONAL-WAVE INTERVAL TRANSIT TIME ACOUSTIC SLOWNESS
DTSM.US/F  : SHEAR-WAVE INTERVAL TRANSIT TIME DELTA-T
~Params ----------------------------------------------------
~Other -----------------------------------------------------
~ASCII -----------------------------------------------------
# ...
 5298.00000  126.40860    9.10500   -9999.25   -9999.25   -9999.25   -9999.25   -9999.25    2.01160    2.06440    2.16360  107.63880  196.34090
 5298.50000  123.21420    9.12150   -9999.25   -9999.25   -9999.25   -9999.25   -9999.25    1.93120    1.99030    2.10820  107.59070  194.27870
 5299.00000  120.55610    9.15330   -9999.25   -9999.25   -9999.25   -9999.25   -9999.25    1.75920    1.81000    1.87330  108.52410  194.62640
 5299.50000  119.35050    9.19000   -9999.25   -9999.25   -9999.25   -9999.25   -9999.25    1.74880    1.80570    1.84810  108.93910  196.43880
 5300.00000  118.16600    9.18590   -9999.25   -9999.25   -9999.25   -9999.25   -9999.25    1.76870    1.84700    1.92620  108.43830  194.06940
 5300.50000  117.21890    9.15250   -9999.25   -9999.25   -9999.25   -9999.25   -9999.25    1.83750    1.89170    1.93020  107.80040  190.83560
 5301.00000  118.62090    9.13120   -9999.25   -9999.25   -9999.25   -9999.25   -9999.25    1.81850    1.87210    1.89680  107.55710  190.59700
 5301.50000  122.11560    9.14290   -9999.25   -9999.25   -9999.25   -9999.25   -9999.25    1.79910    1.85280    1.88870  107.27740  191.50740
 5302.00000  122.34550    9.17300   -9999.25   -9999.25   -9999.25   -9999.25   -9999.25    1.78510    1.82490    1.88670  106.86520  192.25020
 5302.50000  120.25070    9.19820   -9999.25   -9999.25   -9999.25   -9999.25   -9999.25    1.79790    1.81970    1.89010  106.57180  192.99310
 5303.00000  118.91300    9.18310   -9999.25   -9999.25   -9999.25   -9999.25   -9999.25    1.82590    1.84030    1.89350  106.53740  193.38650
 5303.50000  119.04610    9.16450   -9999.25   -9999.25   -9999.25   -9999.25   -9999.25    1.84190    1.85050    1.89690  106.65350  191.48380
 5304.00000  119.15300    9.12720   -9999.25   -9999.25   -9999.25   -9999.25   -9999.25    1.81530    1.86070    1.94210  107.01360  189.77280
 5304.50000  119.25990    9.10800   -9999.25   -9999.25   -9999.25   -9999.25   -9999.25    1.80710    1.84260    1.95290  107.46910  189.96970
 5305.00000  119.36670    9.09830   -9999.25   -9999.25   -9999.25   -9999.25   -9999.25    1.79230    1.78280    1.91190  107.86580  190.54910
 5305.50000  119.47360    9.13920   -9999.25   -9999.25   -9999.25   -9999.25   -9999.25    1.70590    1.76280    1.85550  107.89180  176.30840
 5306.00000  120.06600    9.11280   -9999.25   -9999.25   -9999.25   -9999.25   -9999.25    1.74420    1.77780    1.83320  107.93450  138.16050
 5306.50000  119.97570    9.05250   -9999.25   -9999.25   -9999.25   -9999.25   -9999.25    1.77170    1.80420    1.85270  107.98410  109.24580
 5307.00000  119.38700    9.04930   -9999.25   -9999.25   -9999.25   -9999.25   -9999.25    1.77170    1.83000    1.86650  107.97990  107.72910
 5307.50000  119.56520    9.04610   -9999.25   -9999.25   -9999.25   -9999.25   -9999.25    1.80800    1.85210    1.90460  107.86880  107.39020
 5308.00000  121.56160    9.05680   -9999.25   -9999.25   -9999.25   -9999.25   -9999.25    1.89050    1.86650    1.95440  107.58640  107.26820
 5308.50000  123.93100    9.08020   -9999.25   -9999.25   -9999.25   -9999.25   -9999.25    1.95370    1.86100    1.98530  107.42320  107.23290
 5309.00000  124.48830    9.11270   -9999.25   -9999.25   -9999.25   -9999.25   -9999.25    1.98470    1.86100    1.98350  107.33920  107.34760
 5309.50000  121.74750    9.13860   -9999.25   -9999.25   -9999.25   -9999.25   -9999.25    1.93300    1.87530    1.98010  107.18470  111.33180
 5310.00000  117.79990    9.08950   -9999.25   -9999.25   -9999.25   -9999.25   -9999.25    1.87040    1.91470    1.97680  106.90330  125.05000
 5310.50000  113.16250    9.04040   -9999.25   -9999.25   -9999.25   -9999.25   -9999.25    1.84780    1.92320    1.96130  106.48850  147.39460
 5311.00000  111.77830    9.02510   -9999.25   -9999.25   -9999.25   -9999.25   -9999.25    1.80330    1.85510    1.90670  106.27040  171.00440
 5311.50000  112.40040    9.04570   -9999.25   -9999.25   -9999.25   -9999.25   -9999.25    1.85840    1.97030    1.98840  106.63060  180.07520
 5312.00000  113.63540    9.07330   -9999.25   -9999.25   -9999.25   -9999.25   -9999.25    1.97680    2.02630    2.17620  107.07090  187.99730
 5312.50000  116.99550    9.10930   -9999.25   -9999.25   -9999.25   -9999.25   -9999.25    1.92340    1.99910    2.01380  107.44460  196.57880
 5313.00000  121.35070    9.11710   -9999.25   -9999.25   -9999.25   -9999.25   -9999.25    1.86160    1.87720    1.91040  107.55870  201.10120
 5313.50000  124.77740    9.01570   -9999.25   -9999.25   -9999.25   -9999.25   -9999.25    1.84050    1.85830    1.89390  107.67270  199.80360
 5314.00000  124.03610    8.91650   -9999.25   -9999.25   -9999.25   -9999.25   -9999.25    1.84050    1.87200    1.90310  107.70050  198.50750
 5314.50000  120.44250    8.91540   -9999.25   -9999.25   -9999.25   -9999.25   -9999.25    1.86880    1.89600    1.94680  107.58380  198.49780
 5315.00000  117.26470    8.95350   -9999.25   -9999.25   -9999.25   -9999.25   -9999.25    1.94110    1.96870    2.02490  107.54790  198.60180
 5315.50000  117.25680    8.99160   -9999.25   -9999.25   -9999.25   -9999.25   -9999.25    2.01610    2.06590    2.13890  107.61160  197.06300
 5316.00000  119.27780    8.97900   -9999.25   -9999.25   -9999.25   -9999.25   -9999.25    2.01770    2.10430    2.21680  107.31840  196.57830
 5316.50000  122.07950    8.94530   -9999.25   -9999.25   -9999.25   -9999.25   -9999.25    1.89300    1.96570    2.08980  106.81160  196.65370
 5317.00000  123.98410    9.00480   -9999.25   -9999.25   -9999.25   -9999.25   -9999.25    1.73860    1.86680    1.92530  106.42660  197.52760
 5317.50000  123.83420    9.06640   -9999.25   -9999.25   -9999.25   -9999.25   -9999.25    1.76610    1.84860    1.90030  106.73100  198.40150
 5318.00000  119.86350    9.08670   -9999.25   -9999.25   -9999.25   -9999.25   -9999.25    1.76970    1.85350    1.90790  107.05500  198.51580
 5318.50000  113.78540    9.10160   -9999.25   -9999.25   -9999.25   -9999.25   -9999.25    1.76510    1.85520    1.88440  107.41880  198.03940
 5319.00000  108.98330    9.10340   -9999.25   -9999.25   -9999.25   -9999.25   -9999.25    1.77750    1.81770    1.82420  107.78260  198.08290
 5319.50000  106.68580    9.10080   -9999.25   -9999.25   -9999.25   -9999.25   -9999.25    1.76940    1.82020    1.85350  108.14630  198.69260
 5320.00000  108.82070    9.11190   -9999.25   -9999.25   -9999.25   -9999.25   -9999.25    1.81650    1.86330    1.93160  108.26450  199.02650
 5320.50000  111.89090    9.12710   -9999.25   -9999.25   -9999.25   -9999.25   -9999.25    1.81930    1.84570    1.88750  108.23690  199.06300
 5321.00000  115.56690    9.14630   -9999.25   -9999.25   -9999.25   -9999.25   -9999.25    1.78620    1.77470    1.88500  107.73850  198.53390
 5321.50000  119.26000    9.12080   -9999.25   -9999.25   -9999.25   -9999.25   -9999.25    1.81430    1.74430    1.88220  107.06800  197.24890
 5322.00000  121.86630    9.09210   -9999.25   -9999.25   -9999.25   -9999.25   -9999.25    1.81000    1.74120    1.87560  106.82470  197.44750
 5322.50000  121.17390    9.11480   -9999.25   -9999.25   -9999.25   -9999.25   -9999.25    1.75160    1.76200    1.84650  106.89940  197.89600
 5323.00000  116.85400    9.15380   -9999.25   -9999.25   -9999.25   -9999.25   -9999.25    1.70270    1.77600    1.80040  107.12110  197.97980
 5323.50000  116.04780    9.18020   -9999.25   -9999.25   -9999.25   -9999.25   -9999.25    1.71460    1.78880    1.80040  107.48500  198.06360
 5324.00000  119.16420    9.10070   -9999.25   -9999.25   -9999.25   -9999.25   -9999.25    1.76440    1.80110    1.82090  107.68590  199.09740
 5324.50000  122.15300    9.05120   -9999.25   -9999.25   -9999.25   -9999.25   -9999.25    1.80620    1.81700    1.84920  107.84280  199.24450
 5325.00000  120.36640    9.00770   -9999.25   -9999.25   -9999.25   -9999.25   -9999.25    1.84430    1.85960    1.88540  107.99970  198.49910
 5325.50000  119.22260    9.05200   -9999.25   -9999.25   -9999.25   -9999.25   -9999.25    1.84070    1.88140    1.92130  108.01850  197.28030
