~Version ---------------------------------------------------
VERS.   2.0 : CWLS log ASCII Standard -VERSION 2.0
WRAP.    NO : One line per depth step
DLM . SPACE : Column Data Section Delimiter
~Well ------------------------------------------------------
STRT .F                    6.0 : START DEPTH
STOP .F                10238.5 : STOP DEPTH
STEP .F                    0.5 : STEP
NULL .                -9999.25 : NULL VALUE
COMP .                         : COMPANY
WELL .                         : WELL
FLD  .                         : FIELD
LOC  .                         : LOCATION
PROV .                         : PROVINCE
CNTY .                         : COUNTY
STAT .                         : STATE
CTRY .                         : COUNTRY
SRVC .                         : SERVICE COMPANY
DATE .                         : DATE
UWI  .                         : UNIQUE WELL ID
API  .                         : API NUMBER
SLAT .WGS84  4.521437490691298 : SURFACE LATITUDE
SLON .WGS84 1.6054966445739893 : SURFACE LONGITUDE
DATUM.F                 792.34 : DEPTH DATUM ELEV
~Curve Information -----------------------------------------
DEPT.F     : 
GRD .GAPI  : GAMMA RAY FROM DENSITY LOG
HCAL.IN    : HILT CALIPER
NPOR.DEC   : NEUTRON POROSITY LIMESTONE
PEFZ.B/E   : FORMATION PHETOELECTRIC FACTOR
DPHZ.DEC   : DENSITY POROSITY LIMESTONE
HDRA.G/C3  : DELTA RHO HIP TOOL
RHOZ.G/C3  : HILT BULK DENSITY
AE10.OHMM  : 10-IN. ARRAY INDUCTION RESISTIVITY
AE30.OHMM  : 30-IN. ARRAY INDUCTION RESISTIVITY
AE90.OHMM  : 90-IN. ARRAY INDUCTION RESISTIVITY
DTCO.US/F  : COMPRESSIONAL-WAVE INTERVAL TRANSIT TIME ACOUSTIC SLOWNESS
DTSM.US/F  : SHEAR-WAVE INTERVAL TRANSIT TIME DELTA-T
~Params ----------------------------------------------------
~Other -----------------------------------------------------
~ASCII -----------------------------------------------------
# ...
 8966.00000   59.16170    8.61570    0.02330    4.44090    0.01890    0.06920    2.67680 1678.60280  408.26360  318.63490   56.03370  110.10770
 8966.50000   60.04260    8.56540    0.02460    4.53240    0.01900    0.07190    2.67550 1562.81990  387.51350  316.52040   56.07670  110.62310
 8967.00000   62.38190    8.50960    0.02910    4.58910    0.02000    0.07280    2.67620 1341.71200  355.74110  313.17420   56.21800  111.61550
 8967.50000   65.56950    8.54680    0.03120    4.46600    0.01900    0.07010    2.67940 1149.15930  326.57380  302.48170   56.21440  112.56630
 8968.00000   69.39430    8.60180    0.02750    4.28460    0.01570    0.06730    2.68270 1005.92890  298.78870  291.47660   56.03010  112.48560
 8968.50000   72.76130    8.63350    0.02470    4.22330    0.01690    0.06520    2.68130  902.19290  287.37940  276.18410   55.70270  111.63370
 8969.00000   74.77380    8.61490    0.03090    4.28530    0.02740    0.06410    2.66170  808.67220  279.78030  273.11050   56.10580  107.42310
 8969.50000   73.60080    8.54610    0.03810    4.40230    0.03250    0.06410    2.65140  741.32350  276.35910  271.13830   56.78760  103.95910
 8970.00000   71.73560    8.52290    0.03820    4.45390    0.02570    0.06500    2.66620  666.71770  274.14610  261.54740   57.44160  101.87200
 8970.50000   70.74900    8.53740    0.03100    4.29250    0.01550    0.06680    2.68080  600.68390  265.77740  253.65570   58.11470  100.04060
 8971.00000   73.84460    8.59830    0.02750    4.01820    0.01920    0.06770    2.67300  514.06390  261.29400  235.82750   58.86680   97.98970
 8971.50000   78.85700    8.62450    0.03400    3.89450    0.03040    0.05220    2.65550  460.38610  252.40170  218.06480   59.61900   95.22200
 8972.00000   85.23530    8.63300    0.04360    3.96090    0.03760    0.05500    2.64390  445.70780  244.76150  216.23700   59.62370   96.23380
 8972.50000   91.52660    8.59000    0.05650    4.07270    0.04230    0.06370    2.63780  463.67430  249.44840  220.38360   59.41800   98.41210
 8973.00000   92.61740    8.58110    0.07110    4.19650    0.05120    0.06380    2.62520  503.50930  262.81840  226.32370   58.92700  100.52910
 8973.50000   86.98690    8.59110    0.07270    4.29970    0.05200    0.05820    2.62190  596.25380  276.90500  232.64560   58.29050  101.16740
 8974.00000   77.06330    8.65100    0.05390    4.39200    0.05080    0.05080    2.61670  736.65440  305.11530  243.91810   57.61200  101.83870
 8974.50000   70.11420    8.65130    0.04420    4.49500    0.05560    0.04920    2.61130  884.38230  341.10020  272.33990   57.03400  102.41880
 8975.00000   68.58190    8.61370    0.05100    4.54060    0.05980    0.05610    2.60690 1117.39650  427.96590  306.09540   56.70260  102.25110
 8975.50000   67.97190    8.60910    0.05250    4.55980    0.05320    0.06360    2.60820 1321.39370  451.08960  317.93940   56.82650  101.79510
 8976.00000   66.14880    8.62380    0.04890    4.42110    0.03510    0.06300    2.65560 1339.04690  459.06510  304.92800   56.83010  101.33910
 8976.50000   62.41680    8.63520    0.04050    4.21430    0.01640    0.06010    2.68160 1248.60910  428.99520  289.40080   56.75450  100.88310
 8977.00000   59.52520    8.64100    0.03220    4.12570    0.01100    0.05750    2.68830 1012.47860  346.01750  258.33440   56.67900  100.92820
 8977.50000   59.17440    8.63760    0.02920    4.17120    0.01900    0.05750    2.67840  780.65420  279.08950  233.85730   56.85490  102.35560
 8978.00000   61.34150    8.59610    0.03300    4.31570    0.02790    0.06760    2.65730  660.45540  246.53010  215.88900   57.25280  103.16380
 8978.50000   66.20240    8.53250    0.03670    4.46580    0.03370    0.07760    2.64900  600.43330  233.56640  208.09530   57.77430  103.97210
 8979.00000   71.05910    8.48590    0.03730    4.39290    0.02900    0.08760    2.66720  533.95100  227.38460  203.95970   58.53050  105.26260
 8979.50000   74.83730    8.55080    0.03690    4.28720    0.01780    0.09160    2.68980  474.94430  225.83670  202.97570   59.02620  107.25260
 8980.00000   77.27350    8.62970    0.03930    4.14800    0.01130    0.08510    2.68900  440.01350  222.73270  202.74280   59.34400  108.22370
 8980.50000   78.27960    8.67100    0.04360    4.07440    0.01730    0.07160    2.68150  416.62860  214.38840  198.28070   59.62850  108.92010
 8981.00000   77.16960    8.60800    0.04580    4.14970    0.02280    0.06870    2.67220  397.87050  199.64550  185.76410   59.68500  106.32550
 8981.50000   76.68180    8.56950    0.04580    4.20600    0.02520    0.07050    2.66830  376.71870  196.13350  158.28000   59.70100  103.36120
 8982.00000   78.50580    8.59870    0.04580    4.14750    0.02480    0.08450    2.66700  384.77430  201.75290  164.70630   59.51940  100.93380
 8982.50000   82.70450    8.67390    0.04780    4.03930    0.02670    0.08550    2.66450  408.56950  226.04560  190.80110   58.89130   99.66900
 8983.00000   82.13480    8.70800    0.06190    3.95980    0.03770    0.06870    2.64380  494.41000  251.72220  217.57280   58.28520   99.67400
 8983.50000   73.50670    8.69940    0.07000    4.19360    0.04140    0.07020    2.63880  713.19850  284.83000  243.27600   57.82850   99.97060
 8984.00000   62.03410    8.65520    0.06060    4.41930    0.03880    0.07220    2.64530  943.74200  341.90430  284.02170   57.56030  101.15450
 8984.50000   53.22490    8.60220    0.04080    4.60470    0.03010    0.07190    2.65650 1239.73730  410.41530  337.63680   57.54320  102.58170
 8985.00000   50.05040    8.60590    0.04020    4.55940    0.02820    0.06270    2.66000 1535.28720  484.47330  329.11560   57.88920  104.71790
 8985.50000   49.37060    8.67790    0.04470    4.35710    0.03800    0.03830    2.64340 1750.85570  490.39530  329.43160   58.31440  106.80670
 8986.00000   49.87630    8.73520    0.05260    4.37600    0.04450    0.02760    2.63680 1843.24580  463.10090  317.64390   58.78980  108.79040
 8986.50000   50.75390    8.72560    0.06040    4.51430    0.04420    0.02740    2.63560 1808.25070  436.07520  313.96780   59.35750  109.62500
 8987.00000   52.46480    8.67170    0.06830    4.64210    0.04350    0.05370    2.63370 1638.99960  410.62650  298.62520   59.34170  108.07850
 8987.50000   55.19030    8.61850    0.06940    4.66900    0.04610    0.07500    2.62980 1354.04330  377.76250  267.96140   59.19760  106.42390
 8988.00000   59.10090    8.61900    0.06120    4.51060    0.04830    0.07470    2.62720 1083.87890  347.40010  267.76420   59.05350  106.16720
 8988.50000   61.86300    8.68970    0.05990    4.31020    0.04590    0.06590    2.62730  875.06720  323.37170  250.99020   58.90940  108.14830
 8989.00000   64.07740    8.72530    0.05940    4.13980    0.04530    0.05850    2.63330  762.18020  303.39050  233.96360   58.74170  109.25370
 8989.50000   64.94000    8.72670    0.05900    4.10680    0.04570    0.05850    2.63600  659.50650  276.56090  227.00510   58.22510  110.08610
 8990.00000   64.11260    8.61310    0.05420    4.14220    0.03630    0.06390    2.64560  582.39450  254.00520  216.69110   57.70360  110.91850
 8990.50000   60.64090    8.56580    0.04930    4.18340    0.02220    0.07020    2.66150  510.03740  235.50010  205.08880   57.22110  111.55270
 8991.00000   57.78670    8.59960    0.04330    4.15920    0.00940    0.07020    2.68680  468.94240  229.43140  202.02630   57.11630  111.22420
 8991.50000   57.39790    8.70200    0.03670    4.05510    0.00750    0.07280    2.69960  433.55710  233.75880  206.21660   57.01280  110.47430
 8992.00000   59.59160    8.73780    0.03500    4.06240    0.01430    0.07480    2.69480  456.69300  241.67890  214.19310   56.92190  110.23430
 8992.50000   59.72270    8.67030    0.03800    4.12610    0.01900    0.07680    2.68060  498.17910  259.75370  222.10690   56.90020  109.99430
 8993.00000   57.98160    8.59730    0.04270    4.25650    0.01800    0.07830    2.68030  563.45260  286.19790  239.90710   56.91260  109.75430
 8993.50000   55.69370    8.60940    0.04190    4.27350    0.01000    0.07830    2.68760  630.28840  339.34660  279.86570   56.76180  109.51430
