~Version ---------------------------------------------------
VERS.   2.0 : CWLS log ASCII Standard -VERSION 2.0
WRAP.    NO : One line per depth step
DLM . SPACE : Column Data Section Delimiter
~Well ------------------------------------------------------
STRT .F                    6.0 : START DEPTH
STOP .F                10238.5 : STOP DEPTH
STEP .F                    0.5 : STEP
NULL .                -9999.25 : NULL VALUE
COMP .                         : COMPANY
WELL .                         : WELL
FLD  .                         : FIELD
LOC  .                         : LOCATION
PROV .                         : PROVINCE
CNTY .                         : COUNTY
STAT .                         : STATE
CTRY .                         : COUNTRY
SRVC .                         : SERVICE COMPANY
DATE .                         : DATE
UWI  .                         : UNIQUE WELL ID
API  .                         : API NUMBER
SLAT .WGS84  4.521437490691298 : SURFACE LATITUDE
SLON .WGS84 1.6054966445739893 : SURFACE LONGITUDE
DATUM.F                 792.34 : DEPTH DATUM ELEV
~Curve Information -----------------------------------------
DEPT.F     : 
GRD .GAPI  : GAMMA RAY FROM DENSITY LOG
HCAL.IN    : HILT CALIPER
NPOR.DEC   : NEUTRON POROSITY LIMESTONE
PEFZ.B/E   : FORMATION PHETOELECTRIC FACTOR
DPHZ.DEC   : DENSITY POROSITY LIMESTONE
HDRA.G/C3  : DELTA RHO HIP TOOL
RHOZ.G/C3  : HILT BULK DENSITY
AE10.OHMM  : 10-IN. ARRAY INDUCTION RESISTIVITY
AE30.OHMM  : 30-IN. ARRAY INDUCTION RESISTIVITY
AE90.OHMM  : 90-IN. ARRAY INDUCTION RESISTIVITY
DTCO.US/F  : COMPRESSIONAL-WAVE INTERVAL TRANSIT TIME ACOUSTIC SLOWNESS
DTSM.US/F  : SHEAR-WAVE INTERVAL TRANSIT TIME DELTA-T
~Params ----------------------------------------------------
~Other -----------------------------------------------------
~ASCII -----------------------------------------------------
# ...
 4682.00000  110.46640    9.03290   -9999.25   -9999.25   -9999.25   -9999.25   -9999.25    3.98210    4.15220    4.27730   88.87530  177.87680
 4682.50000  108.85310    9.07790   -9999.25   -9999.25   -9999.25   -9999.25   -9999.25    4.07160    4.21660    4.32940   88.89380  177.27200
 4683.00000  106.82350    9.12270   -9999.25   -9999.25   -9999.25   -9999.25   -9999.25    4.04760    4.18510    4.36810   88.64620  177.38870
 4683.50000  104.38630    9.16750   -9999.25   -9999.25   -9999.25   -9999.25   -9999.25    3.96180    4.15290    4.35030   88.43480  177.51130
 4684.00000  104.49130    9.19170   -9999.25   -9999.25   -9999.25   -9999.25   -9999.25    3.94810    4.17080    4.34840   88.33250  177.63400
 4684.50000  106.05900    9.20620   -9999.25   -9999.25   -9999.25   -9999.25   -9999.25    4.08760    4.23720    4.40780   88.24470  177.43170
 4685.00000  108.49340    9.21830   -9999.25   -9999.25   -9999.25   -9999.25   -9999.25    4.24140    4.31040    4.51040   88.24470  176.47240
 4685.50000  108.66530    9.23380   -9999.25   -9999.25   -9999.25   -9999.25   -9999.25    4.31080    4.43020    4.57220   88.24470  174.69420
 4686.00000  108.86600    9.26930   -9999.25   -9999.25   -9999.25   -9999.25   -9999.25    4.24220    4.46090    4.50630   88.21450  174.23000
 4686.50000  109.25690    9.29590   -9999.25   -9999.25   -9999.25   -9999.25   -9999.25    4.17700    4.43480    4.43550   88.18920  174.00180
 4687.00000  108.56900    9.27670   -9999.25   -9999.25   -9999.25   -9999.25   -9999.25    4.15020    4.37640    4.36670   88.27430  173.92600
 4687.50000  105.61360    9.25760   -9999.25   -9999.25   -9999.25   -9999.25   -9999.25    4.16380    4.27780    4.30500   88.46210  174.30690
 4688.00000  102.22690    9.25050   -9999.25   -9999.25   -9999.25   -9999.25   -9999.25    4.03680    4.18130    4.25370   88.61620  175.30890
 4688.50000  102.19030    9.24430   -9999.25   -9999.25   -9999.25   -9999.25   -9999.25    3.89920    4.00770    4.27320   88.63200  176.14330
 4689.00000  104.99890    9.23070   -9999.25   -9999.25   -9999.25   -9999.25   -9999.25    4.01980    4.39370    4.34750   88.64780  175.60160
 4689.50000  108.07640    9.19980   -9999.25   -9999.25   -9999.25   -9999.25   -9999.25    4.36850    4.47540    4.68580   88.65750  174.63570
 4690.00000  108.62970    9.16560   -9999.25   -9999.25   -9999.25   -9999.25   -9999.25    4.33480    4.42950    4.48550   88.66630  173.79720
 4690.50000  106.24790    9.13140   -9999.25   -9999.25   -9999.25   -9999.25   -9999.25    4.18520    4.29710    4.42430   88.62110  173.04400
 4691.00000  103.43730    9.09810   -9999.25   -9999.25   -9999.25   -9999.25   -9999.25    4.18080    4.30070    4.47930   88.28240  172.15060
 4691.50000  103.11510    9.06780   -9999.25   -9999.25   -9999.25   -9999.25   -9999.25    4.22310    4.31850    4.54650   87.80500  171.35800
 4692.00000  103.52720    9.04730   -9999.25   -9999.25   -9999.25   -9999.25   -9999.25    4.27640    4.42390    4.67710   87.52750  170.67650
 4692.50000  103.10220    9.04070   -9999.25   -9999.25   -9999.25   -9999.25   -9999.25    4.48080    4.69090    4.90560   87.22140  170.16890
 4693.00000   98.90150    9.03410   -9999.25   -9999.25   -9999.25   -9999.25   -9999.25    4.74800    5.06040    5.14560   86.46150  169.61140
 4693.50000   94.97560    9.02760   -9999.25   -9999.25   -9999.25   -9999.25   -9999.25    4.92480    5.18950    5.28720   85.46810  167.69230
 4694.00000   95.62360    9.02150   -9999.25   -9999.25   -9999.25   -9999.25   -9999.25    4.93890    5.30190    5.54970   84.51510  166.60130
 4694.50000   98.22210    9.01670   -9999.25   -9999.25   -9999.25   -9999.25   -9999.25    4.94130    5.40010    5.86820   84.15850  166.24640
 4695.00000   98.40780    9.02350   -9999.25   -9999.25   -9999.25   -9999.25   -9999.25    4.82040    5.29480    5.68810   83.83400  165.89160
 4695.50000   94.93690    9.03440   -9999.25   -9999.25   -9999.25   -9999.25   -9999.25    4.70970    4.94120    5.23830   83.96760  165.66030
 4696.00000   93.06720    9.04610   -9999.25   -9999.25   -9999.25   -9999.25   -9999.25    4.68010    4.84330    4.91390   84.47860  165.95940
 4696.50000   95.71460    9.05950   -9999.25   -9999.25   -9999.25   -9999.25   -9999.25    4.54510    4.74740    4.85140   85.17100  166.55170
 4697.00000  100.38900    9.07300   -9999.25   -9999.25   -9999.25   -9999.25   -9999.25    4.44430    4.71860    4.88150   85.80940  167.13300
 4697.50000  102.75330    9.08180   -9999.25   -9999.25   -9999.25   -9999.25   -9999.25    4.72970    4.78020    5.06750   86.23190  167.76250
 4698.00000  101.83830    9.08850   -9999.25   -9999.25   -9999.25   -9999.25   -9999.25    4.74950    4.85490    5.15680   86.25610  168.09480
 4698.50000  100.26960    9.09530   -9999.25   -9999.25   -9999.25   -9999.25   -9999.25    4.65970    4.84160    5.10170   85.98990  168.42710
 4699.00000  102.58750    9.07490   -9999.25   -9999.25   -9999.25   -9999.25   -9999.25    4.37530    4.72620    4.96720   85.59160  168.50060
 4699.50000  105.69370    9.05640   -9999.25   -9999.25   -9999.25   -9999.25   -9999.25    4.39820    4.58900    4.88280   85.55740  168.70760
 4700.00000  105.64940    9.05350   -9999.25   -9999.25   -9999.25   -9999.25   -9999.25    4.47520    4.67990    4.79430   85.93700  168.68570
 4700.50000  105.21110    9.03220   -9999.25   -9999.25   -9999.25   -9999.25   -9999.25    4.48070    4.61520    4.77820   86.31660  168.44820
 4701.00000  105.41400    9.00720   -9999.25   -9999.25   -9999.25   -9999.25   -9999.25    4.50270    4.79500    5.01110   86.39400  167.25530
 4701.50000  105.08940    8.97060   -9999.25   -9999.25   -9999.25   -9999.25   -9999.25    4.94060    5.26160    5.43310   86.00840  166.05660
 4702.00000  103.08060    8.96320   -9999.25   -9999.25   -9999.25   -9999.25   -9999.25    5.42100    5.71760    5.89050   85.27290  163.39720
 4702.50000  100.47820    8.95570   -9999.25   -9999.25   -9999.25   -9999.25   -9999.25    5.59470    5.83080    6.24740   84.65160  161.19760
 4703.00000   99.52850    8.94830   -9999.25   -9999.25   -9999.25   -9999.25   -9999.25    5.36500    5.62130    5.87100   84.55190  160.13200
 4703.50000   99.96150    8.94090   -9999.25   -9999.25   -9999.25   -9999.25   -9999.25    4.83640    5.20030    5.32040   85.01100  161.65790
 4704.00000  100.38970    8.93340   -9999.25   -9999.25   -9999.25   -9999.25   -9999.25    4.57300    4.72210    4.89540   85.58390  163.21700
 4704.50000  100.10510    8.92600   -9999.25   -9999.25   -9999.25   -9999.25   -9999.25    4.49250    4.62180    4.72660   86.05960  164.96650
 4705.00000   98.26610    8.91850   -9999.25   -9999.25   -9999.25   -9999.25   -9999.25    4.51490    4.74800    4.74530   86.31990  166.71600
 4705.50000   96.37250    8.91110   -9999.25   -9999.25   -9999.25   -9999.25   -9999.25    5.01510    5.11720    4.99650   85.92000  166.74530
 4706.00000   96.14180    8.90540   -9999.25   -9999.25   -9999.25   -9999.25   -9999.25    5.71400    5.53550    5.50800   85.26420  164.74750
 4706.50000   97.17970    8.91380   -9999.25   -9999.25   -9999.25   -9999.25   -9999.25    5.81700    5.68050    5.65460   84.60840  161.76640
 4707.00000   97.46230    8.92200   -9999.25   -9999.25   -9999.25   -9999.25   -9999.25    5.90460    5.68050    5.55250   83.64710  158.78540
 4707.50000   98.49650    8.92420   -9999.25   -9999.25   -9999.25   -9999.25   -9999.25    5.98840    5.79360    5.55620   82.75710  156.38090
 4708.00000   99.91570    8.92650   -9999.25   -9999.25   -9999.25   -9999.25   -9999.25    6.29510    6.23420    5.67450   81.83540  153.98440
 4708.50000   99.73350    8.92870   -9999.25   -9999.25   -9999.25   -9999.25   -9999.25    6.68030    7.05420    7.14650   80.97260  151.11340
 4709.00000   97.29640    8.93080   -9999.25   -9999.25   -9999.25   -9999.25   -9999.25    7.13570    7.42430    7.77440   80.41390  147.89820
 4709.50000   95.10540    8.92270   -9999.25   -9999.25   -9999.25   -9999.25   -9999.25    6.96920    7.25050    7.58380   79.97960  145.93600
