~Version ---------------------------------------------------
VERS.   2.0 : CWLS log ASCII Standard -VERSION 2.0
WRAP.    NO : One line per depth step
DLM . SPACE : Column Data Section Delimiter
~Well ------------------------------------------------------
STRT .F                    6.0 : START DEPTH
STOP .F                10238.5 : STOP DEPTH
STEP .F                    0.5 : STEP
NULL .                -9999.25 : NULL VALUE
COMP .                         : COMPANY
WELL .                         : WELL
FLD  .                         : FIELD
LOC  .                         : LOCATION
PROV .                         : PROVINCE
CNTY .                         : COUNTY
STAT .                         : STATE
CTRY .                         : COUNTRY
SRVC .                         : SERVICE COMPANY
DATE .                         : DATE
UWI  .                         : UNIQUE WELL ID
API  .                         : API NUMBER
SLAT .WGS84  4.521437490691298 : SURFACE LATITUDE
SLON .WGS84 1.6054966445739893 : SURFACE LONGITUDE
DATUM.F                 792.34 : DEPTH DATUM ELEV
~Curve Information -----------------------------------------
DEPT.F     : 
GRD .GAPI  : GAMMA RAY FROM DENSITY LOG
HCAL.IN    : HILT CALIPER
NPOR.DEC   : NEUTRON POROSITY LIMESTONE
PEFZ.B/E   : FORMATION PHETOELECTRIC FACTOR
DPHZ.DEC   : DENSITY POROSITY LIMESTONE
HDRA.G/C3  : DELTA RHO HIP TOOL
RHOZ.G/C3  : HILT BULK DENSITY
AE10.OHMM  : 10-IN. ARRAY INDUCTION RESISTIVITY
AE30.OHMM  : 30-IN. ARRAY INDUCTION RESISTIVITY
AE90.OHMM  : 90-IN. ARRAY INDUCTION RESISTIVITY
DTCO.US/F  : COMPRESSIONAL-WAVE INTERVAL TRANSIT TIME ACOUSTIC SLOWNESS
DTSM.US/F  : SHEAR-WAVE INTERVAL TRANSIT TIME DELTA-T
~Params ----------------------------------------------------
~Other -----------------------------------------------------
~ASCII -----------------------------------------------------
# ...
 3450.00000   92.91340    8.71030   -9999.25   -9999.25   -9999.25   -9999.25   -9999.25    4.99450    6.98790    8.39200   96.64050  204.04140
 3450.50000   72.48270    8.74850   -9999.25   -9999.25   -9999.25   -9999.25   -9999.25    8.75510   10.39790   11.32070   92.78410  187.66290
 3451.00000   60.30190    8.75880   -9999.25   -9999.25   -9999.25   -9999.25   -9999.25   11.81920   12.34950   13.17320   85.39690  171.25080
 3451.50000   58.94510    8.73280   -9999.25   -9999.25   -9999.25   -9999.25   -9999.25    7.36200    9.25030   10.23910   81.23120  160.44120
 3452.00000   64.07380    8.70500   -9999.25   -9999.25   -9999.25   -9999.25   -9999.25    5.72790    6.21520    6.84710   78.36430  151.58120
 3452.50000   71.14260    8.67730   -9999.25   -9999.25   -9999.25   -9999.25   -9999.25    6.05860    6.19740    6.61160   77.47100  147.18960
 3453.00000   73.75250    8.64950   -9999.25   -9999.25   -9999.25   -9999.25   -9999.25    6.11780    6.24820    6.56830   78.87210  146.52070
 3453.50000   74.64540    8.62840   -9999.25   -9999.25   -9999.25   -9999.25   -9999.25    6.11780    6.18670    6.19420   80.59130  146.64330
 3454.00000   74.60900    8.63240   -9999.25   -9999.25   -9999.25   -9999.25   -9999.25    5.71740    5.97430    6.02880   81.95690  147.33380
 3454.50000   73.81100    8.63640   -9999.25   -9999.25   -9999.25   -9999.25   -9999.25    5.66330    5.83560    6.10640   82.86970  148.19770
 3455.00000   70.97180    8.64040   -9999.25   -9999.25   -9999.25   -9999.25   -9999.25    5.88050    6.13510    6.33420   83.36910  149.06160
 3455.50000   69.64800    8.66000   -9999.25   -9999.25   -9999.25   -9999.25   -9999.25    5.98280    6.24240    6.41650   83.57120  149.94320
 3456.00000   72.16310    8.64490   -9999.25   -9999.25   -9999.25   -9999.25   -9999.25    5.67560    6.03420    6.27470   83.77320  151.00090
 3456.50000   75.60690    8.60470   -9999.25   -9999.25   -9999.25   -9999.25   -9999.25    5.68670    6.08200    6.26600   83.62350  151.74130
 3457.00000   74.19320    8.58780   -9999.25   -9999.25   -9999.25   -9999.25   -9999.25    6.46460    6.77510    7.17790   82.66420  151.49460
 3457.50000   68.60400    8.57790   -9999.25   -9999.25   -9999.25   -9999.25   -9999.25    7.25990    7.51750    7.91480   81.61030  149.88680
 3458.00000   68.48060    8.60390   -9999.25   -9999.25   -9999.25   -9999.25   -9999.25    7.27810    7.52970    7.94300   80.79370  147.45430
 3458.50000   70.75870    8.62990   -9999.25   -9999.25   -9999.25   -9999.25   -9999.25    7.24880    7.58110    7.89170   80.04680  145.16160
 3459.00000   70.48540    8.69020   -9999.25   -9999.25   -9999.25   -9999.25   -9999.25    7.55560    7.72170    7.89860   79.21500  141.86690
 3459.50000   67.75320    8.69260   -9999.25   -9999.25   -9999.25   -9999.25   -9999.25    7.61510    7.70940    7.92420   78.58960  140.11590
 3460.00000   67.78580    8.69510   -9999.25   -9999.25   -9999.25   -9999.25   -9999.25    7.26560    7.44810    7.62740   77.85360  138.60260
 3460.50000   71.63250    8.67930   -9999.25   -9999.25   -9999.25   -9999.25   -9999.25    6.70260    7.11440    7.29420   77.10150  138.39450
 3461.00000   73.56640    8.63300   -9999.25   -9999.25   -9999.25   -9999.25   -9999.25    6.41410    6.79980    7.22940   77.47140  138.24550
 3461.50000   72.57630    8.65190   -9999.25   -9999.25   -9999.25   -9999.25   -9999.25    6.53580    6.78190    7.19200   78.41100  139.51160
 3462.00000   71.73300    8.70870   -9999.25   -9999.25   -9999.25   -9999.25   -9999.25    6.60300    6.84340    7.17670   78.95450  140.63120
 3462.50000   71.06970    8.75580   -9999.25   -9999.25   -9999.25   -9999.25   -9999.25    6.58380    6.81330    7.16140   79.03740  141.73250
 3463.00000   69.81550    8.73840   -9999.25   -9999.25   -9999.25   -9999.25   -9999.25    6.45930    6.67400    7.07980   79.08790  142.52370
 3463.50000   68.69970    8.72110   -9999.25   -9999.25   -9999.25   -9999.25   -9999.25    6.29600    6.53760    6.80750   79.23370  143.01150
 3464.00000   69.58230    8.70370   -9999.25   -9999.25   -9999.25   -9999.25   -9999.25    5.99630    6.36550    6.51830   79.88890  143.49930
 3464.50000   71.42090    8.68630   -9999.25   -9999.25   -9999.25   -9999.25   -9999.25    5.66480    6.24750    6.37080   80.80670  144.14850
 3465.00000   73.49200    8.66130   -9999.25   -9999.25   -9999.25   -9999.25   -9999.25    5.72860    6.17180    6.41440   82.00850  145.78640
 3465.50000   74.07230    8.64560   -9999.25   -9999.25   -9999.25   -9999.25   -9999.25    5.93680    6.13830    6.43900   82.74610  147.53990
 3466.00000   72.45070    8.63730   -9999.25   -9999.25   -9999.25   -9999.25   -9999.25    5.93470    6.10500    6.43900   83.05660  149.42550
 3466.50000   69.79800    8.63730   -9999.25   -9999.25   -9999.25   -9999.25   -9999.25    5.89530    6.06670    6.43900   82.85830  151.26230
 3467.00000   69.64840    8.65470   -9999.25   -9999.25   -9999.25   -9999.25   -9999.25    5.85320    6.02240    6.43900   82.45460  150.91260
 3467.50000   72.85050    8.68300   -9999.25   -9999.25   -9999.25   -9999.25   -9999.25    5.88950    6.06130    6.43900   82.22790  149.78560
 3468.00000   75.00460    8.68790   -9999.25   -9999.25   -9999.25   -9999.25   -9999.25    5.94170    6.11670    6.51760   81.86900  148.56770
 3468.50000   70.64430    8.69280   -9999.25   -9999.25   -9999.25   -9999.25   -9999.25    6.00070    6.17740    6.63780   81.39380  147.75620
 3469.00000   68.04580    8.69770   -9999.25   -9999.25   -9999.25   -9999.25   -9999.25    6.03270    6.21710    6.61630   81.03320  147.75110
 3469.50000   69.24800    8.68810   -9999.25   -9999.25   -9999.25   -9999.25   -9999.25    5.93460    6.11610    6.30520   81.31050  148.03250
 3470.00000   73.93300    8.67820   -9999.25   -9999.25   -9999.25   -9999.25   -9999.25    5.71880    5.94170    6.07230   82.24820  148.98920
 3470.50000   76.73110    8.66840   -9999.25   -9999.25   -9999.25   -9999.25   -9999.25    5.45090    5.76740    6.01070   83.50800  150.33690
 3471.00000   74.59310    8.65850   -9999.25   -9999.25   -9999.25   -9999.25   -9999.25    5.33330    5.72650    5.99600   84.76140  151.80020
 3471.50000   69.20550    8.64870   -9999.25   -9999.25   -9999.25   -9999.25   -9999.25    5.59000    5.84820    6.11280   85.38670  153.47650
 3472.00000   61.87550    8.64230   -9999.25   -9999.25   -9999.25   -9999.25   -9999.25    5.82570    6.10610    6.56100   85.05520  154.48180
 3472.50000   60.53860    8.64090   -9999.25   -9999.25   -9999.25   -9999.25   -9999.25    5.99650    6.21950    6.54350   84.51050  154.41500
 3473.00000   65.64790    8.63280   -9999.25   -9999.25   -9999.25   -9999.25   -9999.25    5.99890    6.25550    6.46810   83.84890  154.34820
 3473.50000   71.59860    8.62260   -9999.25   -9999.25   -9999.25   -9999.25   -9999.25    5.94250    6.23640    6.40800   82.92010  154.29980
 3474.00000   75.20250    8.63010   -9999.25   -9999.25   -9999.25   -9999.25   -9999.25    5.79910    6.03420    6.16180   82.73570  154.42080
 3474.50000   77.36880    8.63770   -9999.25   -9999.25   -9999.25   -9999.25   -9999.25    5.54030    5.76500    5.90050   83.07670  154.64290
 3475.00000   79.07930    8.64520   -9999.25   -9999.25   -9999.25   -9999.25   -9999.25    5.39980    5.57210    5.80100   84.40470  155.09880
 3475.50000   78.66850    8.65280   -9999.25   -9999.25   -9999.25   -9999.25   -9999.25    5.28240    5.45090    5.74020   85.53630  156.09130
 3476.00000   76.92130    8.65260   -9999.25   -9999.25   -9999.25   -9999.25   -9999.25    5.29030    5.44770    5.75800   86.34280  157.36000
 3476.50000   73.73190    8.65220   -9999.25   -9999.25   -9999.25   -9999.25   -9999.25    5.35840    5.53070    5.88790   86.76400  158.33650
 3477.00000   71.91460    8.65400   -9999.25   -9999.25   -9999.25   -9999.25   -9999.25    5.58800    5.83430    6.44690   86.38680  158.04140
 3477.50000   69.37640    8.66440   -9999.25   -9999.25   -9999.25   -9999.25   -9999.25    5.96810    6.78360    7.42740   85.20360  156.63480
