~Version ---------------------------------------------------
VERS.   2.0 : CWLS log ASCII Standard -VERSION 2.0
WRAP.    NO : One line per depth step
DLM . SPACE : Column Data Section Delimiter
~Well ------------------------------------------------------
STRT .FT               8270.0 : START DEPTH
STOP .FT              10155.0 : STOP DEPTH
STEP .FT                  0.5 : STEP
NULL .               -9999.25 : NULL VALUE
COMP .                        : COMPANY
WELL .                        : WELL
FLD  .                        : FIELD
LOC  .                        : LOCATION
PROV .                        : PROVINCE
CNTY .                        : COUNTY
STAT .                        : STATE
CTRY .                        : COUNTRY
SRVC .                        : SERVICE COMPANY
DATE .                        : DATE
UWI  .                        : UNIQUE WELL ID
API  .                        : API NUMBER
SLAT .WGS84 6.047817939891701 : SURFACE LATITUDE
SLON .WGS84 2.741473395528601 : SURFACE LONGITUDE
DATUM.F                1152.0 : DEPTH DATUM ELEV
~Curve Information -----------------------------------------
DEPT   .FT    : 
AT10   .OHMM  : ARRAY INDUCTION TWO FOOT RESISTIVITY A10
AT30   .OHMM  : ARRAY INDUCTION TWO FOOT RESISTIVITY A30
AT90   .OHMM  : ARRAY INDUCTION TWO FOOT RESISTIVITY A90
DPHZ_LS.DEC   : HGRD STANDARD RESOLUTION DENSITY POROSITY
DTCO   .US/F  : DELTA-T COMPRESSIONAL
DTSM   .US/F  : DELTA-T SHEAR
ECGRS  .GAPI  : ENVIRONMENTALLY CORRECTED GAMMA RAY FROM SONIC LOG
HCALR  .IN    : HRCC CALIPER CALIBRATED FROM RESISTIVITY LOG
PEFZ   .B/E   : HRDD STANDARD RESOLUTION FORMATION PHOTOELECTRIC FACTOR
SPR    .MV    : SPONTANEOUS POTENTIAL FROM RESISTIVITY LOG
TNPH_LS.DEC   : THERMAL NEUTRON POROSITY [LIMESTONE]
~Params ----------------------------------------------------
~Other -----------------------------------------------------
~ASCII -----------------------------------------------------
# ...
 9002.00000    7.26630    7.55680    7.79450    0.05600   77.05610  142.60300  102.69320    9.01180    4.37330   92.65800    0.22740
 9002.50000    6.67230    6.93900    7.15730    0.06050   75.67930  139.95400   99.52340    9.08920    4.50900   92.22360    0.24990
 9003.00000    6.32970    6.58280    6.78980    0.06870   75.73370  139.36190   94.78320    9.18190    4.56700   93.39200    0.22740
 9003.50000    6.05100    6.29300    6.49090    0.07070   75.73370  139.24090   86.10140    9.01510    4.63480   94.12200    0.22910
 9004.00000    6.16330    6.87050    7.84570    0.05980   75.73370  139.02890   78.03560    9.05500    4.66060   94.85200    0.22580
 9004.50000    8.07860    9.09140   10.10370    0.03790   75.40730  138.99640   70.99630    9.11490    4.58110   93.43790    0.19690
 9005.00000   10.47260   11.54690   11.91010    0.01900   75.79330  141.33660   63.48570    9.08470    4.49740   91.15090    0.16200
 9005.50000    9.71450   10.96190   11.93390    0.02670   77.87320  142.43830   63.62680    9.00510    4.49790   88.07500    0.14620
 9006.00000    8.01960    8.03690    9.60960    0.05320   78.23840  142.33550   69.24750    9.02230    4.68160   87.34200    0.14830
 9006.50000    6.32470    6.39900    7.28540    0.07610   78.04170  142.64730   75.31860    9.15330    4.81520   90.85320    0.17440
 9007.00000    5.64670    5.87250    6.58140    0.08250   77.96890  142.77480   73.73830    9.36440    4.79630   89.14670    0.20450
 9007.50000    6.78390    7.05510    7.95320    0.08310   77.95640  142.87680   72.87900    9.19810    4.53710   88.60290    0.20260
 9008.00000    8.04070    8.36220    8.71880    0.07340   76.58940  142.77480   76.54740    9.12010    4.35210   90.44340    0.17770
 9008.50000    7.94910    8.26690    8.43160    0.05940   74.08410  140.54880   76.22920    9.04670    4.16300   90.30580    0.17720
 9009.00000    7.85740    8.17160    8.44550    0.05470   73.27780  138.93730   75.17800    9.04210    4.07660   90.41250    0.18040
 9009.50000    7.97960    8.29870    8.79880    0.05180   73.17530  138.16920   68.93320    9.06440    4.06150   91.38670    0.18380
 9010.00000    8.52060    8.86130    9.83460    0.04320   73.06920  137.63460   65.85400    9.09350    4.11000   92.28700    0.17650
 9010.50000    9.66560   10.05210   13.40760    0.02900   72.81340  137.98000   64.79540    9.07180    4.18640   91.89060    0.15790
 9011.00000   10.39110   10.80660   13.56800    0.01630   72.56470  138.54530   66.22010    9.00620    4.25940   91.27900    0.14640
 9011.50000    9.14790    9.51370   10.81290    0.01610   72.46270  138.99760   68.69660    8.96900    4.34410   88.24730    0.14430
 9012.00000    8.02470    8.34560    8.60810    0.02680   71.91690  139.65050   71.38980    8.99960    4.41630   87.39180    0.15530
 9012.50000    8.90710    9.26330    9.94250    0.03460   72.00360  140.19470   73.98910    9.00070    4.41000   87.07320    0.15930
 9013.00000    9.34940    9.72330   10.76550    0.04660   73.63590  142.82180   76.25420    9.00180    4.38800   88.15920    0.16390
 9013.50000    7.11520    7.09290    9.01950    0.08550   78.94100  146.94160   81.08200    9.00790    4.57650   88.86800    0.17020
 9014.00000    5.59070    6.36520    7.92800    0.13610   79.42960  145.74450   87.52840    9.04490    4.93170   90.67210    0.19110
 9014.50000    5.18250    6.02970    6.67800    0.17310   79.46300  146.18050   92.62790    9.38930    5.71600   88.98060    0.21570
 9015.00000    4.88650    5.74050    6.07620    0.20060   79.46080  147.45340   94.41680    9.85880    6.05770   88.26810    0.21330
 9015.50000    4.64950    5.45130    6.34080    0.19040   79.45110  147.31760   86.32980   10.36280    5.89470   89.37910    0.22490
 9016.00000    5.37750    5.57590    7.31230    0.15180   79.32200  145.61980   78.93500   10.35200    5.45590   89.95550    0.21080
 9016.50000    7.28720    7.59850    8.80690    0.10140   76.59450  140.07780   76.56200    9.09490    5.01710   90.26400    0.19550
 9017.00000    8.04860    8.37040   10.24610    0.05570   69.14700  134.53590   75.01630    8.97510    4.63980   91.51940    0.17610
 9017.50000    7.67920    8.07810   10.24610    0.04370   68.98970  130.73650   73.46490    8.98020    4.50880   89.75640    0.17110
 9018.00000    7.18720    7.89880   10.24610    0.04200   68.98440  129.49810   71.82620    8.99360    4.37780   85.73880    0.17200
 9018.50000    8.31070    8.52580   10.40700    0.03700   68.93610  129.81470   70.18750    9.00710    4.38890   82.30580    0.16820
 9019.00000    9.88550   10.28040   10.69800    0.03550   68.69240  129.59590   68.32900    9.01510    4.45000   83.43990    0.15760
 9019.50000   10.42690   10.84380   11.27070    0.03320   68.60600  129.40700   64.98000    8.98350    4.51940   84.27190    0.13780
 9020.00000   13.12020   13.64480   14.37320    0.02970   71.50140  129.12020   62.90640    8.92830    4.57230   84.51550    0.12040
 9020.50000   16.28690   16.93820   18.14440    0.02640   71.32520  129.58760   65.71800    8.92770    4.62700   84.24310    0.11350
 9021.00000   16.79710   17.60290   18.61740    0.02620   71.46740  129.62890   70.99360    8.91750    4.68180   84.66250    0.11340
 9021.50000   14.71010   15.29830   17.35540    0.03210   71.45780  129.67700   74.30440    8.93470    4.71480   86.53010    0.11910
 9022.00000    9.85670   10.25080   12.43320    0.03700   72.94580  129.72520   76.07180    8.94280    4.59380   87.14700    0.13530
 9022.50000    7.71300    8.02140    8.65840    0.04590   76.97860  132.11110   77.17580    8.96600    4.42870   88.69170    0.16070
 9023.00000    6.44070    6.69830    6.90900    0.06950   79.85820  141.50410   84.32090    8.98920    4.36500   90.10820    0.17440
 9023.50000    5.37310    5.58790    5.76370    0.09100   77.20660  141.52230   90.49400    9.01250    4.52540   89.16470    0.18200
 9024.00000    4.59750    4.78150    4.93190    0.09620   77.21390  141.54040   96.12600    9.03570    4.77820   89.56780    0.19250
 9024.50000    4.74350    5.00960    6.61080    0.08120   77.25400  141.55860   95.86150    9.11810    4.85820   88.56390    0.19090
 9025.00000    5.90230    7.42550    9.40770    0.06540   77.21270  141.57670   93.62830    9.27450    4.76020   85.00030    0.18420
 9025.50000    8.02990    8.71890   10.91970    0.05560   77.22800  141.59480   94.60740    9.05150    4.60180   81.37950    0.17370
 9026.00000    5.95840    6.49180    7.10470    0.05230   77.15560  141.50050   92.07110    9.03610    4.35620   81.40890    0.17500
 9026.50000    5.47360    6.03540    7.36240    0.04890   76.28840  138.50430   89.16180    9.02060    4.14600   82.48920    0.17620
 9027.00000    6.83260    7.76420    8.73130    0.04500   73.87900  135.16710   85.51840    9.00520    3.97030   85.05040    0.17290
 9027.50000    9.02470   10.16850   11.06780    0.03510   72.49180  131.82990   84.78190    8.98970    3.92520   84.27230    0.16930
 9028.00000   10.18520   11.61290   12.56870    0.02180   71.97280  131.16250   83.86190    8.97420    4.00500   85.01730    0.16760
 9028.50000   10.32960   11.09520   12.32060    0.01130   70.90990  130.61840   80.49550    8.96760    4.10070   85.15500    0.16500
 9029.00000   10.25540   11.62740   12.19700   -0.00070   70.10540  128.44190   75.57550    8.97420    4.20780   85.74130    0.16280
 9029.50000   10.30730   11.27800   13.54420   -0.01130   70.33820  128.48960   70.72610    8.98070    4.24780   86.32760    0.16040
 9030.00000   12.21210   13.46080   15.78040   -0.01620   70.33630  128.14800   74.67130    8.98730    4.28790   86.94740    0.15840
 9030.50000   11.86750   13.88510   15.23150   -0.00930   70.33430  127.78070   80.52590    8.99390    4.31870   85.23810    0.16460
 9031.00000    9.67340   10.69880   11.48830    0.00860   70.27770  127.77930   82.16140    8.99750    4.26540   83.52330    0.17430
 9031.50000    7.91810    8.23470    8.49370    0.02830   70.18390  127.77800   77.53570    9.00880    4.23830   81.19620    0.18930
 9032.00000    9.72830   10.11730   11.07480    0.04060   70.18390  129.48490   74.28470    9.02010    4.28490   81.59650    0.18010
