~Version ---------------------------------------------------
VERS.   2.0 : CWLS log ASCII Standard -VERSION 2.0
WRAP.    NO : One line per depth step
DLM . SPACE : Column Data Section Delimiter
~Well ------------------------------------------------------
STRT .FT               8270.0 : START DEPTH
STOP .FT              10155.0 : STOP DEPTH
STEP .FT                  0.5 : STEP
NULL .               -9999.25 : NULL VALUE
COMP .                        : COMPANY
WELL .                        : WELL
FLD  .                        : FIELD
LOC  .                        : LOCATION
PROV .                        : PROVINCE
CNTY .                        : COUNTY
STAT .                        : STATE
CTRY .                        : COUNTRY
SRVC .                        : SERVICE COMPANY
DATE .                        : DATE
UWI  .                        : UNIQUE WELL ID
API  .                        : API NUMBER
SLAT .WGS84 6.047817939891701 : SURFACE LATITUDE
SLON .WGS84 2.741473395528601 : SURFACE LONGITUDE
DATUM.F                1152.0 : DEPTH DATUM ELEV
~Curve Information -----------------------------------------
DEPT   .FT    : 
AT10   .OHMM  : ARRAY INDUCTION TWO FOOT RESISTIVITY A10
AT30   .OHMM  : ARRAY INDUCTION TWO FOOT RESISTIVITY A30
AT90   .OHMM  : ARRAY INDUCTION TWO FOOT RESISTIVITY A90
DPHZ_LS.DEC   : HGRD STANDARD RESOLUTION DENSITY POROSITY
DTCO   .US/F  : DELTA-T COMPRESSIONAL
DTSM   .US/F  : DELTA-T SHEAR
ECGRS  .GAPI  : ENVIRONMENTALLY CORRECTED GAMMA RAY FROM SONIC LOG
HCALR  .IN    : HRCC CALIPER CALIBRATED FROM RESISTIVITY LOG
PEFZ   .B/E   : HRDD STANDARD RESOLUTION FORMATION PHOTOELECTRIC FACTOR
SPR    .MV    : SPONTANEOUS POTENTIAL FROM RESISTIVITY LOG
TNPH_LS.DEC   : THERMAL NEUTRON POROSITY [LIMESTONE]
~Params ----------------------------------------------------
~Other -----------------------------------------------------
~ASCII -----------------------------------------------------
# ...
 9612.00000  106.09140 1409.54350  515.75820    0.01220   55.33350   95.36080   47.37640    8.70540    4.65250  -61.73510    0.02720
 9612.50000  106.09740 1058.70450  484.52640    0.01430   55.25560   95.78660   42.78300    8.72060    4.75600  -59.53150    0.02440
 9613.00000  106.10330 1008.06750  498.41750    0.01330   55.17770   96.75420   40.10140    8.73010    4.67120  -60.20840    0.02390
 9613.50000  101.59190 1067.56850  495.96850    0.00950   55.41400   97.69680   44.38230    8.73050    4.38190  -61.16130    0.02600
 9614.00000  101.06890 1242.37210  559.10810    0.01220   56.22610   98.88980   50.43080    8.73100    4.08220  -62.68040    0.03370
 9614.50000   95.59420 1417.17580  649.00520    0.02260   57.14000  100.39410   57.87070    8.73150    3.94000  -64.21810    0.04310
 9615.00000   89.45390 1289.48260  420.71140    0.03560   58.37590  102.83700   62.24890    8.73190    3.84530  -65.09030    0.04790
 9615.50000   84.54160  910.66440  293.82260    0.03990   59.83660  104.40200   66.85850    8.73240    3.76050  -63.49430    0.04750
 9616.00000   74.00170  610.65040  209.55460    0.04220   60.83640  106.12550   73.51810    8.73290    3.69330  -62.12370    0.05070
 9616.50000   67.96870  412.31030  172.15120    0.04970   61.64000  106.79690   84.61700    8.73340    3.53040  -62.74420    0.06370
 9617.00000   67.87020  382.02430  175.66450    0.06000   62.14410  107.62310   95.33860    8.73380    3.35930  -62.97620    0.07610
 9617.50000   68.47580  383.71060  181.17390    0.06780   62.75830  108.32130  105.42400    8.73430    3.19980  -62.58050    0.08290
 9618.00000   70.13740  353.37380  166.67810    0.07110   63.41920  108.19610  117.33460    8.73480    3.13430  -61.89870    0.08410
 9618.50000   71.83780  358.45390  159.65240    0.07190   63.38200  108.05060  121.75720    8.73520    3.10550  -60.94600    0.08080
 9619.00000   74.63380  400.78300  168.58830    0.07390   63.09900  107.29790  121.28040    8.73600    3.04720  -61.90730    0.07580
 9619.50000   74.72950  381.16210  164.45720    0.07420   62.08840  105.19890  117.33450    8.73050    2.98900  -62.02870    0.07310
 9620.00000   79.57550  304.73860  160.08120    0.06830   59.74240  103.44570  112.83310    8.72820    2.95970  -60.00640    0.06830
 9620.50000   89.44040  603.92820  198.22480    0.05950   59.36230  102.83760  107.96610    8.72580    2.99340  -61.25970    0.05890
 9621.00000   97.09480 1178.95410  236.95710    0.05350   58.73080  101.41080  105.86210    8.72350    3.08490  -65.67020    0.04650
 9621.50000  101.08700 1804.97510  256.02090    0.05540   57.91620   99.80880  101.15780    8.72880    3.24480  -65.01230    0.04520
 9622.00000  102.99330 1843.30090  349.06760    0.05390   56.86010   97.51970   94.14990    8.71350    3.47540  -65.30760    0.04670
 9622.50000  104.42370 1556.21600  405.96650    0.04600   56.74730   96.93780   84.33450    8.70350    3.70860  -65.68320    0.04480
 9623.00000  105.03980 1596.12420  513.19720    0.03980   56.52340   96.46560   84.89320    8.70100    3.93120  -63.43650    0.04130
 9623.50000  105.65590 1795.66510  535.31820    0.03760   56.23890   96.15760   92.84200    8.70100    4.08570  -65.65310    0.03780
 9624.00000  106.27200 1918.86910  575.55620    0.03450   55.94310   95.49780   98.36400    8.70100    4.09120  -65.73970    0.03880
 9624.50000  102.04850 1927.56750  557.72740    0.03240   55.52640   94.83800   95.38760    8.72160    4.04170  -65.51580    0.04060
 9625.00000  101.45710 1936.26590  555.20520    0.02910   54.97540   94.82150   92.73270    8.72160    3.99060  -62.31960    0.04250
 9625.50000  101.22390 1944.96430  519.95780    0.02680   54.70050   94.53850   89.02380    8.72880    4.02360  -63.36090    0.04430
 9626.00000  100.99080 1953.66270  467.84500    0.02520   54.64170   94.41430   81.71850    8.71780    4.11620  -62.51360    0.04280
 9626.50000  101.07890 1962.36100  390.88910    0.02140   54.34140   94.04630   68.09870    8.70850    4.26470  -62.09140    0.03810
 9627.00000  101.24730 1971.05940  384.50680    0.01570   53.98150   93.46800   59.39590    8.70500    4.36470  -66.40560    0.03040
 9627.50000  100.93210 1979.75780  385.25160    0.01320   53.89980   93.42370   50.81170    8.72540    4.47380  -67.95690    0.02170
 9628.00000   98.82210 1988.45620  365.14320    0.01490   53.92470   93.28300   52.28380    8.72210    4.47420  -69.21400    0.02020
 9628.50000   92.53730 1997.15460  351.65510    0.02060   53.90000   93.38970   54.37670    8.72880    4.42050  -68.73970    0.02590
 9629.00000   89.67280 2005.85300  337.37300    0.02440   54.07200   93.68620   55.24760    8.72000    4.45430  -66.10440    0.03160
 9629.50000   86.80820 1787.28880  303.08150    0.02140   54.54180   93.95310   51.15180    8.71610    4.54000  -64.94400    0.03220
 9630.00000   80.66270 1814.99620  445.21940    0.01340   54.98330   93.96120   45.03380    8.71210    4.61440  -63.92000    0.02500
 9630.50000   74.17570 1313.29200  387.53280    0.00540   55.21160   94.15940   45.20030    8.71720    4.51580  -65.69180    0.02010
 9631.00000   64.03310  492.35150  169.70710    0.00610   55.62250   94.97140   51.02170    8.72160    4.38280  -65.58100    0.02180
 9631.50000   52.56510  303.17520  117.12740    0.01410   56.10920   95.66770   60.34190    8.71510    4.28820  -64.75600    0.03010
 9632.00000   48.80560  279.59710  107.65200    0.02200   56.48060   95.90100   67.65840    8.68900    4.03000  -64.62750    0.03750
 9632.50000   51.04450  433.21290  144.27200    0.02800   56.73320   96.35970   73.49350    8.68890    3.88960  -64.06180    0.04440
 9633.00000   54.04680  915.35570  189.69910    0.02520   57.31270   96.58720   77.18300    8.68870    3.80430  -64.93730    0.05330
 9633.50000   54.20190 1459.41940  329.78080    0.02430   57.96890   97.63710   81.85680    8.68860    3.80630  -68.42890    0.05730
 9634.00000   50.74480 1226.69900  438.42270    0.02140   58.59770   99.31420   88.98700    8.68850    3.84440  -70.85980    0.05760
 9634.50000   47.35520  491.65420  280.78370    0.02070   59.48640   99.94050   89.41990    8.68830    3.89310  -71.56320    0.05480
 9635.00000   38.09690  243.81430  157.87840    0.02260   59.95800  100.34070   87.81130    8.68820    3.83420  -72.35750    0.05700
 9635.50000   35.64060  205.27960  149.36610    0.03330   60.00870  100.76310   90.39140    8.68800    3.71420  -71.42440    0.06060
 9636.00000   36.73280  214.13180  154.03310    0.03940   59.83180  101.04620  100.01390    8.69740    3.59480  -69.46050    0.06630
 9636.50000   38.88740  268.10270  148.88210    0.04390   59.71130  100.98670  120.21110    8.69260    3.48160  -69.59300    0.07480
 9637.00000   41.94270  302.40360  143.73100    0.04110   59.28550  100.06930  133.34600    8.69400    3.44140  -69.43010    0.07960
 9637.50000   45.85500  719.89030  199.83330    0.04480   58.60730   99.79450  139.01320    8.69940    3.53630  -68.51690    0.08190
 9638.00000   51.19540 1414.49120  287.27190    0.04720   58.26180   98.69700  127.33800    8.70490    3.75150  -67.96910    0.07080
 9638.50000   55.38640 1398.78680  234.29070    0.04560   57.40940   97.22240  106.52500    8.71040    4.04080  -68.04120    0.04990
 9639.00000   57.59220  860.73000  138.64860    0.03930   56.80990   96.10060   84.18790    8.71000    4.25510  -68.04120    0.03700
 9639.50000   61.20770 1139.61540  178.32310    0.03580   56.58350   94.92130   75.11680    8.70340    4.22250  -67.99310    0.02880
 9640.00000   66.89230 1418.50080  299.28390    0.03580   56.21550   93.51090   79.51800    8.71120    4.11320  -68.58270    0.03170
 9640.50000   70.51350 1673.20290  390.07910    0.03770   55.74380   92.44300   82.81330    8.72220    3.77320  -70.44360    0.03660
 9641.00000   75.63430 1831.17180  324.50310    0.03750   55.69870   92.18310   83.71550    8.72560    3.65300  -74.71970    0.04020
 9641.50000   77.03130 1955.55680  320.77410    0.01970   55.69640   92.23110   78.44590    8.72900    3.64870  -72.05280    0.04170
 9642.00000   77.33000 1946.36290  329.42770    0.00510   55.92770   92.50830   67.51240    8.72990    3.70400  -70.57520    0.04390
