~Version ---------------------------------------------------
VERS.   2.0 : CWLS log ASCII Standard -VERSION 2.0
WRAP.    NO : One line per depth step
DLM . SPACE : Column Data Section Delimiter
~Well ------------------------------------------------------
STRT .FT               8270.0 : START DEPTH
STOP .FT              10155.0 : STOP DEPTH
STEP .FT                  0.5 : STEP
NULL .               -9999.25 : NULL VALUE
COMP .                        : COMPANY
WELL .                        : WELL
FLD  .                        : FIELD
LOC  .                        : LOCATION
PROV .                        : PROVINCE
CNTY .                        : COUNTY
STAT .                        : STATE
CTRY .                        : COUNTRY
SRVC .                        : SERVICE COMPANY
DATE .                        : DATE
UWI  .                        : UNIQUE WELL ID
API  .                        : API NUMBER
SLAT .WGS84 6.047817939891701 : SURFACE LATITUDE
SLON .WGS84 2.741473395528601 : SURFACE LONGITUDE
DATUM.F                1152.0 : DEPTH DATUM ELEV
~Curve Information -----------------------------------------
DEPT   .FT    : 
AT10   .OHMM  : ARRAY INDUCTION TWO FOOT RESISTIVITY A10
AT30   .OHMM  : ARRAY INDUCTION TWO FOOT RESISTIVITY A30
AT90   .OHMM  : ARRAY INDUCTION TWO FOOT RESISTIVITY A90
DPHZ_LS.DEC   : HGRD STANDARD RESOLUTION DENSITY POROSITY
DTCO   .US/F  : DELTA-T COMPRESSIONAL
DTSM   .US/F  : DELTA-T SHEAR
ECGRS  .GAPI  : ENVIRONMENTALLY CORRECTED GAMMA RAY FROM SONIC LOG
HCALR  .IN    : HRCC CALIPER CALIBRATED FROM RESISTIVITY LOG
PEFZ   .B/E   : HRDD STANDARD RESOLUTION FORMATION PHOTOELECTRIC FACTOR
SPR    .MV    : SPONTANEOUS POTENTIAL FROM RESISTIVITY LOG
TNPH_LS.DEC   : THERMAL NEUTRON POROSITY [LIMESTONE]
~Params ----------------------------------------------------
~Other -----------------------------------------------------
~ASCII -----------------------------------------------------
# ...
 8392.00000   19.82280   48.51780   64.07680    0.00790   65.17800  113.88700   69.35610    8.76710    5.42530  222.80690    0.01730
 8392.50000   13.54420   31.88010   40.71990    0.00850   71.18650  129.83840   70.14650    8.76760    5.41340  223.74130    0.02860
 8393.00000    9.45430   12.30700   17.85110    0.01930   78.67190  152.91760   71.35540    8.77420    5.40150  223.37490    0.04340
 8393.50000    6.47570   10.03160   11.83740    0.06440   86.64060  175.99680   74.14860    8.80690    5.39190  223.98940    0.07990
 8394.00000    4.70030    6.82190    8.64230    0.16970   94.55490  176.14520   75.78350    8.84540    5.48000  225.20150    0.12540
 8394.50000    2.77560    4.11270    5.21660    0.24770   96.33180  176.29360   76.89290    9.68320    5.49650  224.71700    0.18910
 8395.00000    2.35510    2.87880    3.13750    0.28470   96.23330  177.10680   75.29940   10.35390    5.41730  223.92920    0.29840
 8395.50000    2.49760    3.02340    3.24110    0.26880   97.99470  189.59950   75.16120    9.72590    5.31310  222.99920    0.36710
 8396.00000    2.56520    3.30930    3.50970    0.25250   99.78320  201.89640   70.78420   10.35890    5.34350  221.13320    0.34590
 8396.50000    2.81430    3.46650    3.77830    0.23110   64.41630  196.21040   72.50500   10.27560    5.47150  221.52550    0.32710
 8397.00000    2.59800    3.06060    3.52940    0.20850   76.65870  182.53970   76.65400    9.67730    5.55140  221.09600    0.30410
 8397.50000    2.32730    2.65450    2.90440    0.21640   76.11460  179.71290   83.57920    9.37120    5.67040  220.66830    0.32690
 8398.00000    2.05660    2.24840    2.38600    0.25260   76.12850  179.73310   93.77960   10.12620    5.77190  222.01430    0.35290
 8398.50000    2.13460    2.25580    2.34710    0.29170   75.98770  179.75320   95.46310   10.23900    5.92340  222.45790    0.37690
 8399.00000    2.12650    2.24250    2.31600    0.29870   75.97120  179.77340   95.97350   10.36200    6.04960  222.41040    0.35250
 8399.50000    2.29500    2.46840    3.25940    0.22800   76.66590  179.79350   95.33730   10.86730    6.05940  222.36280    0.29940
 8400.00000    2.90410    3.39080    4.37060    0.16070   75.42180  179.80560   93.08650    9.21150    5.95470  223.93220    0.18560
 8400.50000    3.67700    4.31330    5.48190    0.07570   74.86310  175.45270   86.65950    8.88240    5.71690  224.05190    0.11030
 8401.00000    3.56810    4.26930    5.44680    0.05850   80.63070  188.62010   79.94130    8.89910    5.47900  223.99660    0.11240
 8401.50000    2.96250    3.55630    4.41590    0.08700   87.05900  197.97880   78.77500    8.98220    5.24120  223.44400    0.19660
 8402.00000    2.47000    2.84320    3.38510    0.10560   87.30570  197.65230   79.54670    9.13830    5.00340  222.78280    0.29900
 8402.50000    2.42960    2.53190    2.72490    0.12630   87.18040  197.36330   82.49540    9.30410    4.80110  220.71790    0.32450
 8403.00000    2.15990    2.31690    2.54310    0.17500   86.94950  196.52390   81.89980    9.53260    4.82980  220.22740    0.31870
 8403.50000    1.83280    2.03350    2.24500    0.24120   87.00050  195.31620   80.13410    9.97060    4.99210  220.26830    0.32430
 8404.00000    1.67150    1.98000    2.06610    0.29900   88.63750  195.75630   79.16360    9.95000    5.25400  220.30920    0.35430
 8404.50000    1.72740    2.04180    2.18960    0.29900   90.10210  197.19810   77.06320   11.06140    5.49680  221.37110    0.37220
 8405.00000    1.78340    2.16420    2.34200    0.29900   90.24040  199.09510   74.34490    9.82030    5.67400  221.68790    0.36600
 8405.50000    2.18790    2.43890    2.88890    0.26680   91.58030  178.95680   67.50950   10.53460    5.75820  222.00480    0.32690
 8406.00000    2.67950    3.32310    3.82430    0.23160   93.33780   91.98670   64.52200   10.93770    5.89110  222.31750    0.30090
 8406.50000    3.07280    3.93340    5.19480    0.22490   92.96870   96.57080   67.81660   10.16950    6.02610  221.55710    0.30050
 8407.00000    2.72650    3.58710    4.81060    0.23260   93.47960  103.30410   71.10830    9.80530    5.96200  222.84410    0.33050
 8407.50000    2.35210    3.26790    3.96960    0.22670   95.92730  105.37170   67.47210   11.52630    5.79090  222.80720    0.34360
 8408.00000    2.11500    2.83050    3.12850    0.24080   97.69840  107.33050   59.08300   10.27150    5.66470  222.52910    0.37680
 8408.50000    1.93790    2.48060    2.70360    0.28110   98.51190  107.59160   50.95190   11.03080    5.78960  221.14150    0.33730
 8409.00000    2.35190    2.66970    2.96870    0.29730   98.70730  107.78190   43.51100   11.18150    6.21390  220.20610    0.29980
 8409.50000    3.08590    3.61530    4.19000    0.29760  100.53710  108.79950   36.25830   10.56080    6.72560  219.25830    0.22700
 8410.00000    4.61200    5.10940    7.51660    0.14940  100.30920  109.72180   29.49380    9.65030    6.83610  218.63970    0.15370
 8410.50000    6.50600   10.37500   14.00110    0.05250   55.43860  110.50120   26.47900    8.74980    6.48740  218.70450    0.07700
 8411.00000   10.21580   20.06410   27.63610    0.01130   60.09980  112.05660   24.60310    8.77740    6.20850  219.64710    0.03910
 8411.50000   13.34220   22.36970   30.90350    0.09520   62.29440  115.55450   25.26280    8.87780    6.29700  219.83560    0.03310
 8412.00000   11.36620   19.31450   25.23670    0.14910   62.18550  117.50050   25.47120    9.09900    6.68990  219.49000    0.04700
 8412.50000    7.67850   11.08490   15.10550    0.24300   63.67280  118.78660   26.06590    8.94300    7.12590  219.39570    0.06940
 8413.00000   12.65370   14.27790   18.45560    0.21440   64.79720  119.62750   28.43030    8.79600    7.21130  219.94560    0.08330
 8413.50000   12.18570   13.24810   19.04600    0.16230   59.35620  120.11720   29.57110    9.07950    7.03620  221.70930    0.08020
 8414.00000   10.61040   11.20800   12.79060    0.11170   63.81780  121.36860   30.03000    8.98900    6.86100  221.16450    0.09340
 8414.50000   11.12530   12.57990   14.08350    0.12470   60.49880  123.15420   29.68110    8.83140    6.92610  222.26890    0.11530
 8415.00000   11.83180   12.78780   14.01210    0.15940   58.67400  123.96430   29.62830    9.74530    7.19450  222.78640    0.11010
 8415.50000   11.20500   12.17400   14.66910    0.20110   58.71590  123.84320   28.79590   10.61930    7.25950  221.65440    0.10490
 8416.00000   14.66390   17.78970   20.83710    0.17650   58.73820  123.82790   26.23670    8.76880    6.89310  220.19180    0.09820
 8416.50000   19.19330   21.24370   26.11040    0.14780   58.72380  123.81250   24.86370    8.82050    6.39220  217.48190    0.09250
 8417.00000   23.25580   27.91830   33.09570    0.11690   57.72390  123.91610   24.21160    8.90750    5.98060  218.51060    0.07850
 8417.50000   17.40290   22.41640   27.69190    0.10530   61.90370  125.94160   25.33070    8.84040    6.24410  218.48770    0.06410
 8418.00000    9.60740   12.83750   17.82400    0.07550   63.48500  127.84530   28.06160    8.81990    6.57730  219.29620    0.04760
 8418.50000    8.97850   10.56510   11.78210    0.04580   63.89340  129.78190   37.22870    8.81020    6.49150  218.93850    0.03990
 8419.00000   13.70560   16.81040   24.12350    0.01610   63.91340  130.45650   48.85170    8.78480    6.17120  218.67860    0.05050
 8419.50000   12.50000   18.28900   25.99010    0.01710   64.04410  131.10820   60.16770    8.73980    5.85080  219.64180    0.06110
 8420.00000    9.23280    9.84260   13.42310    0.02390   65.42170  133.58680   66.26260    8.76210    5.53040  220.99130    0.06730
 8420.50000    5.50240    6.91350    7.46350    0.03320   69.86120  140.33420   67.13290    8.78430    5.54240  221.07610    0.07370
 8421.00000    4.33780    4.55870    5.66070    0.05250   72.05460  143.92440   66.28530    8.92850    5.63220  220.84110    0.09810
 8421.50000    4.38590    4.57110    5.03290    0.06450   72.19350  143.68500   61.15860    9.06260    5.69020  220.04830    0.13040
 8422.00000    4.44140    4.61880    5.18140    0.06530   72.22020  143.92590   55.82710    8.92510    5.55100  217.94060    0.18410
