~Version ---------------------------------------------------
VERS.   2.0 : CWLS log ASCII Standard -VERSION 2.0
WRAP.    NO : One line per depth step
DLM . SPACE : Column Data Section Delimiter
~Well ------------------------------------------------------
STRT .FT               8270.0 : START DEPTH
STOP .FT              10155.0 : STOP DEPTH
STEP .FT                  0.5 : STEP
NULL .               -9999.25 : NULL VALUE
COMP .                        : COMPANY
WELL .                        : WELL
FLD  .                        : FIELD
LOC  .                        : LOCATION
PROV .                        : PROVINCE
CNTY .                        : COUNTY
STAT .                        : STATE
CTRY .                        : COUNTRY
SRVC .                        : SERVICE COMPANY
DATE .                        : DATE
UWI  .                        : UNIQUE WELL ID
API  .                        : API NUMBER
SLAT .WGS84 6.047817939891701 : SURFACE LATITUDE
SLON .WGS84 2.741473395528601 : SURFACE LONGITUDE
DATUM.F                1152.0 : DEPTH DATUM ELEV
~Curve Information -----------------------------------------
DEPT   .FT    : 
AT10   .OHMM  : ARRAY INDUCTION TWO FOOT RESISTIVITY A10
AT30   .OHMM  : ARRAY INDUCTION TWO FOOT RESISTIVITY A30
AT90   .OHMM  : ARRAY INDUCTION TWO FOOT RESISTIVITY A90
DPHZ_LS.DEC   : HGRD STANDARD RESOLUTION DENSITY POROSITY
DTCO   .US/F  : DELTA-T COMPRESSIONAL
DTSM   .US/F  : DELTA-T SHEAR
ECGRS  .GAPI  : ENVIRONMENTALLY CORRECTED GAMMA RAY FROM SONIC LOG
HCALR  .IN    : HRCC CALIPER CALIBRATED FROM RESISTIVITY LOG
PEFZ   .B/E   : HRDD STANDARD RESOLUTION FORMATION PHOTOELECTRIC FACTOR
SPR    .MV    : SPONTANEOUS POTENTIAL FROM RESISTIVITY LOG
TNPH_LS.DEC   : THERMAL NEUTRON POROSITY [LIMESTONE]
~Params ----------------------------------------------------
~Other -----------------------------------------------------
~ASCII -----------------------------------------------------
# ...
 9978.00000  158.75210  638.72640  285.02620    0.01970   49.07910  104.19160   23.40180    8.93700    6.35670 -160.31640    0.02210
 9978.50000  117.32900  355.37070  259.78450    0.02430   49.50810  104.54480   21.62910    8.86540    6.48170 -159.33980    0.02190
 9979.00000   85.33490  304.75120  197.78020    0.03270   49.74100  104.60560   20.01830    9.06790    6.49370 -158.76480    0.01920
 9979.50000   86.96290  304.28470  205.67090    0.04580   49.83220  104.66650   21.89050    9.33170    6.50650 -157.23720    0.01950
 9980.00000  131.48300  304.75120  246.31210    0.05490   50.00510  115.15290   24.17750    9.37470    6.57400 -156.32330    0.02150
 9980.50000  172.96140  379.80050  276.39990    0.05210   50.34900  115.51290   24.26640    9.37240    6.64570 -156.60670    0.02610
 9981.00000  211.93380  484.99060  194.10840    0.04130   50.52340  107.50130   23.45820    9.38530    6.70310 -159.94990    0.02480
 9981.50000  262.32570 1131.44530  269.34330    0.03050   50.59890  101.09240   22.18650    9.59480    6.70310 -163.91640    0.02190
 9982.00000  294.68360 1802.82450  789.14850    0.02470   50.70970  102.20380   21.46800    9.02280    6.61490 -169.30580    0.02120
 9982.50000  269.02720 1978.53770  835.67650    0.01950   50.07060  103.70690   23.64520    9.30210    6.55320 -164.09470    0.02210
 9983.00000  228.38980 1937.85270 1600.17500    0.01000   49.96230  102.43790   23.42470    9.22230    6.49370 -164.82840    0.01640
 9983.50000  185.19350 1897.16770 1451.71790   -0.00070   49.94210   99.78890   21.56500    8.82470    6.41280 -164.19130    0.01590
 9984.00000  148.93970 1639.48160  554.43890   -0.00590   49.94120   99.68120   19.44310    8.71570    6.03780 -162.80190    0.01590
 9984.50000  140.11760 1565.61680  401.70470    0.00120   49.94500   99.50800   20.85810    8.69920    5.68400 -163.02110    0.01390
 9985.00000  140.74290 1461.01410  307.97590    0.00320   49.89210   90.37890   21.35160    8.70910    5.47680 -162.14610    0.01240
 9985.50000  155.10650 1621.14530  631.62910   -0.00050   49.45680   81.18450   19.65440    8.79070    5.35820 -161.94420    0.01100
 9986.00000  174.15390 1888.03070 1300.96070    0.00650   49.22770   82.32850   17.80610    8.77830    5.38970 -160.54630    0.00950
 9986.50000  180.77760 1956.38250 1860.46340    0.01020   48.88920   83.02760   17.83460    8.75450    5.42980 -160.21970    0.00800
 9987.00000  176.20370 1911.85760 1167.30790    0.02210   48.64270   84.21320   18.32940    8.78860    5.52230 -158.86590    0.00710
 9987.50000  167.66110 1704.11630  608.49340    0.02120   48.77340   85.04740   18.50900    8.80300    5.57790 -161.64380    0.00850
 9988.00000  161.67250  942.88100  364.47120    0.02040   48.77950   85.68690   17.42870    8.81460    5.53120 -168.09620    0.00860
 9988.50000  176.31440 1468.41310  446.87080    0.01590   48.79440   85.55980   18.99910    8.81650    5.48140 -166.87630    0.00710
 9989.00000  185.24860 1986.67480  469.65340    0.00910   49.09930   84.76490   20.96040    8.84740    5.43750 -166.75230    0.00710
 9989.50000  192.53050 1911.80120  614.56210    0.00240   49.35000   84.67500   20.49360    8.85540    5.45670 -164.80460    0.00740
 9990.00000  204.07700 1685.01840  507.16070   -0.00350   49.47520  116.42480   19.36920    8.83830    5.44370 -161.32970    0.00760
 9990.50000  214.57920 1912.70250  543.94010   -0.00310   49.60030  114.68570   19.44080    8.82130    5.43330 -161.47030    0.00980
 9991.00000  229.43770 1463.02640  407.63940    0.00110   49.72540  118.67060   21.19890    8.81580    5.42610 -162.58360    0.01060
 9991.50000  241.34200  885.07220  521.51680    0.00290   49.61660  134.73570   21.02670    8.82680    5.41880 -161.50530    0.01110
 9992.00000  227.86880 1171.26830  766.61660    0.00270   48.98160  137.56420   21.09240    8.83470    5.38610 -162.11340    0.01090
 9992.50000  205.78780 1654.31540 1065.33640   -0.00100   48.55070  137.37070   20.41940    8.83110    5.36180 -162.48160    0.01010
 9993.00000  179.50730 1738.14210 1271.31960   -0.00430   48.38620  133.69550   21.09860    8.81900    5.28130 -161.12690    0.01010
 9993.50000  160.81330 1345.27670  724.30270   -0.00740   48.38670  130.02030   21.67950    8.80690    5.18450 -159.27820    0.00980
 9994.00000  152.97380 1021.01040  692.17580   -0.00590   48.58790  126.65100   22.89460    8.82840    5.13460 -165.89130    0.00850
 9994.50000  145.19600  853.62370  593.36980   -0.00320   48.70080  118.81840   24.78180    8.84350    5.13070 -168.30290    0.00740
 9995.00000  129.27900  675.55360  446.41380   -0.00230   49.17630  116.61000   25.15150    8.85490    5.16000 -169.25450    0.00730
 9995.50000  128.42590  754.91070  452.69020   -0.00360   49.57670  114.00470   26.61490    8.83820    5.18930 -167.99250    0.00980
 9996.00000  116.34080 1031.53300  517.54730   -0.00290   49.94310  112.63210   27.53480    8.81330    5.22840 -166.11530    0.01200
 9996.50000  123.93420  845.02090  525.80650    0.00540   49.37330  112.68160   29.44630    8.85840    5.56740 -165.08240    0.01320
 9997.00000  131.37950 1575.96310  440.73630    0.01070   49.96560  115.78320   29.60980    9.12990    5.90170 -164.81840    0.01260
 9997.50000  141.43680 1251.89170  537.14120    0.01520   49.95060  115.66050   28.03830    9.07870    6.23960 -164.24220    0.01130
 9998.00000  150.00530 1474.07650  653.34140    0.00350   49.99070  115.23420   26.07350    9.26800    6.37490 -164.05200    0.01000
 9998.50000  153.65880 1795.45730  650.94030   -0.01040   49.79210  115.32680   25.61100    9.12350    6.25550 -163.76740    0.00990
 9999.00000  150.21700 1979.98480  711.31080   -0.02090   49.42720  116.18510   26.15710    8.97880    5.87870 -164.15140    0.01070
 9999.50000  132.83710 1959.23250  865.74680   -0.01440   49.26770  115.77560   29.31620    8.83710    5.50190 -163.92570    0.00940
 10000.00000  112.71630 1938.48020 1333.77880   -0.00210   49.30260  114.45060   29.01020    8.79330    5.31820 -164.51630    0.00780
 10000.50000  101.61400 1705.08680 1477.95050    0.00530   49.30070  113.12550   28.70420    8.87680    5.31340 -169.17520    0.00630
 10001.00000   95.76950 1144.08470  864.12890    0.00570   48.96310  113.32330   28.29700    8.87040    5.31340 -170.34120    0.00670
 10001.50000   93.43170 1207.36780  495.83590    0.00270   48.98320  115.07810   27.81010    8.85890    5.30240 -169.85540    0.00780
 10002.00000  100.49440 1156.55150  737.68540   -0.00070   49.11770  116.19260   27.40440    8.90670    5.26370 -171.50520    0.00880
 10002.50000  117.55580 1067.56850  896.53310   -0.00500   49.08940  116.90070   26.99870    8.87030    5.24000 -167.11340    0.00970
 10003.00000  139.19180 1328.51560 1316.90820   -0.00530   49.06110  116.99940   26.16730    8.76340    5.23690 -169.15100    0.01090
 10003.50000  153.13480 1960.10190  811.17860   -0.00020   48.87240  117.09810   24.51480    9.22070    5.27640 -168.65360    0.01160
 10004.00000  153.31240 1960.10190 1033.71380    0.01030   48.98370  117.47760   27.00010    8.80330    5.36940 -169.59080    0.01230
 10004.50000  139.42990 1960.10190  926.21250    0.01430   49.19390  117.74820   26.24170    8.95290    5.37200 -169.74570    0.01330
 10005.00000  119.95960 1960.10190  830.72830    0.01920   49.30210  117.03870   25.44700    8.78330    5.37660 -165.18900    0.01300
 10005.50000  105.18160 1288.69940  642.72180    0.02220   49.69100  116.10800   24.47270    9.16250    5.38440 -165.59640    0.01200
 10006.00000   97.84450  915.28500  216.90030    0.02140   51.08650  116.38500   23.97170    8.97040    5.49440 -164.42520    0.01240
 10006.50000  106.39110 1324.10830  377.46220    0.01990   49.86840  117.15610   24.07770    9.22230    5.60450 -163.03770    0.01360
 10007.00000  109.68030 1397.35250  845.02100    0.01990   51.33170  117.71990   24.81100    8.90510    5.71400 -167.20820    0.01420
 10007.50000  109.35670 1790.55110 1723.71610    0.02170   51.35060  118.12090   26.13000    9.08260    5.82640 -168.89760    0.01470
 10008.00000  109.03310 1784.11400 1541.20860    0.02120   50.54080  118.26990   26.66350    9.11260    5.90400 -170.18180    0.01510
