~Version ---------------------------------------------------
VERS.   2.0 : CWLS log ASCII Standard -VERSION 2.0
WRAP.    NO : One line per depth step
DLM . SPACE : Column Data Section Delimiter
~Well ------------------------------------------------------
STRT .FT               8270.0 : START DEPTH
STOP .FT              10155.0 : STOP DEPTH
STEP .FT                  0.5 : STEP
NULL .               -9999.25 : NULL VALUE
COMP .                        : COMPANY
WELL .                        : WELL
FLD  .                        : FIELD
LOC  .                        : LOCATION
PROV .                        : PROVINCE
CNTY .                        : COUNTY
STAT .                        : STATE
CTRY .                        : COUNTRY
SRVC .                        : SERVICE COMPANY
DATE .                        : DATE
UWI  .                        : UNIQUE WELL ID
API  .                        : API NUMBER
SLAT .WGS84 6.047817939891701 : SURFACE LATITUDE
SLON .WGS84 2.741473395528601 : SURFACE LONGITUDE
DATUM.F                1152.0 : DEPTH DATUM ELEV
~Curve Information -----------------------------------------
DEPT   .FT    : 
AT10   .OHMM  : ARRAY INDUCTION TWO FOOT RESISTIVITY A10
AT30   .OHMM  : ARRAY INDUCTION TWO FOOT RESISTIVITY A30
AT90   .OHMM  : ARRAY INDUCTION TWO FOOT RESISTIVITY A90
DPHZ_LS.DEC   : HGRD STANDARD RESOLUTION DENSITY POROSITY
DTCO   .US/F  : DELTA-T COMPRESSIONAL
DTSM   .US/F  : DELTA-T SHEAR
ECGRS  .GAPI  : ENVIRONMENTALLY CORRECTED GAMMA RAY FROM SONIC LOG
HCALR  .IN    : HRCC CALIPER CALIBRATED FROM RESISTIVITY LOG
PEFZ   .B/E   : HRDD STANDARD RESOLUTION FORMATION PHOTOELECTRIC FACTOR
SPR    .MV    : SPONTANEOUS POTENTIAL FROM RESISTIVITY LOG
TNPH_LS.DEC   : THERMAL NEUTRON POROSITY [LIMESTONE]
~Params ----------------------------------------------------
~Other -----------------------------------------------------
~ASCII -----------------------------------------------------
# ...
 9124.00000   47.33480  106.31010   75.66330    0.01580   58.78990   98.89810   70.67340    8.72750    3.52480   60.21680    0.02930
 9124.50000   42.67830   89.39710   65.85460    0.02500   59.68230  100.09820   76.23540    8.73640    3.36410   62.51030    0.03570
 9125.00000   40.12540   72.48400   58.38980    0.03180   60.10370  101.46580   83.60710    8.75570    3.32240   63.52580    0.04280
 9125.50000   38.75390   64.96490   50.55610    0.03330   60.17920  102.10270   83.82470    8.73760    3.31610   63.63290    0.05140
 9126.00000   41.97940   54.82950   48.97050    0.02800   60.51340  102.73970   81.33970    8.72610    3.30980   64.95700    0.05490
 9126.50000   44.82640   68.50280   60.41160    0.02300   60.72880  103.25710   76.11040    8.73030    3.30350   65.24780    0.05060
 9127.00000   50.28480   89.17910   71.83490    0.01600   60.56680  102.87710   74.15140    8.74010    3.28310   66.03920    0.04630
 9127.50000   52.54540   97.41560   75.59290    0.01080   60.04740  102.09650   72.39490    8.74990    3.28560   66.83060    0.04240
 9128.00000   52.01290   97.37410   75.15700    0.00890   59.52810  101.44240   74.54960    8.74260    3.30440   68.25580    0.04250
 9128.50000   48.83630   85.00170   66.96260    0.01300   59.00880  100.52500   80.05210    8.75050    3.35270   66.04350    0.04360
 9129.00000   44.24500   71.40600   60.42580    0.02160   58.99140  100.15660   81.02990    8.72930    3.42000   63.51590    0.04830
 9129.50000   43.42030   65.12740   55.19220    0.02670   58.91840   99.70170   69.87910    8.72860    3.52720   61.43260    0.05450
 9130.00000   52.31470   80.60240   56.88610    0.02830   58.68220   98.55520   59.49010    8.71640    3.70210   58.25300    0.05500
 9130.50000   64.39310  106.12600   75.20540    0.02510   58.67740   98.53030   52.14850    8.71860    3.90820   56.39010    0.04360
 9131.00000   66.84400  122.37690   89.50790    0.02080   58.50550   98.50540   63.98560    8.72090    4.03740   57.80770    0.02900
 9131.50000   47.97440   95.58680   66.90720    0.02010   58.53770   98.48050   80.97330    8.72120    3.80390   57.76210    0.02560
 9132.00000   36.99810   68.79670   48.62920    0.02500   58.65150   98.53510   90.77770    8.74210    3.50520   57.16040    0.02970
 9132.50000   37.84380   58.52870   43.47110    0.03640   58.74230   98.19190   92.58330    8.76220    3.37050   58.57410    0.03920
 9133.00000   44.91490   73.43370   52.55230    0.04780   58.64050   97.85140   83.48600    8.76560    3.33530   58.50340    0.04870
 9133.50000   52.82620   87.88730   60.66020    0.05220   58.63230   98.29620   74.39600    8.76190    3.37000   59.39540    0.04870
 9134.00000   61.99810  102.67270   64.53140    0.04560   58.54410   98.28400   69.48860    8.76190    3.39180   60.33740    0.03590
 9134.50000   66.84400  118.78540   68.40260    0.04490   58.35530   98.36050   68.62500    8.75580    3.41360   59.90650    0.03340
 9135.00000   61.90050  125.23040   79.76440    0.04390   58.16510   97.86740   70.76120    8.74310    3.43110   62.75790    0.03340
 9135.50000   56.55330  134.71830   80.99960    0.04350   57.46850   97.08210   72.46730    8.75780    3.43740   60.87310    0.03570
 9136.00000   57.71140  162.61540   94.54920    0.03890   56.48370   97.18840   72.04170    8.76580    3.47310   57.35070    0.03480
 9136.50000   69.37060  200.38630  108.09880    0.03510   55.73710   96.46220   79.45100    8.75470    3.50380   56.18360    0.03420
 9137.00000   78.02700  318.52900  123.56700    0.03420   54.76580   95.77760   79.86020    8.72130    3.55890   56.56970    0.03370
 9137.50000   84.41410  384.48890  148.93980    0.03640   55.20060   95.62270   77.47540    8.70050    3.63280   55.53620    0.03310
 9138.00000  103.24180  544.45000  171.49540    0.03500   54.97850   96.01260   64.37270    8.69590    3.78370   57.67310    0.03020
 9138.50000  114.01110  785.61120  192.37010    0.02930   54.87010   96.33310   48.53010    8.69840    3.95660   58.12420    0.02160
 9139.00000  121.08610 1552.75900  255.73210    0.01870   54.96930   96.57780   49.18190    8.69820    4.10400   58.12420    0.00900
 9139.50000  117.49410 1843.28580  327.93070    0.01870   54.82190   96.71760   58.04410    8.70200    4.16790   57.34070    0.00430
 9140.00000  104.83610  937.50480  272.90290    0.02140   54.93910   96.89150   80.02700    8.71180    4.03310   57.27750    0.00510
 9140.50000   78.96680  344.56630  193.56600    0.02890   55.57820   97.06540  103.74770    8.72160    3.81020   59.25430    0.01230
 9141.00000   61.08620  199.73410  101.89530    0.03310   58.89360   97.21270  114.06160    8.73120    3.63910   57.81210    0.02250
 9141.50000   49.20760   73.97460   77.83390    0.04560   59.79130   97.51200  113.58780    8.73150    3.49500   57.77500    0.03270
 9142.00000   49.61110   66.37350   87.34960    0.05760   60.13540   97.91260  106.97870    8.73170    3.42500   59.18960    0.04290
 9142.50000   51.35870   73.52340   92.88220    0.06160   60.10250   97.26880  102.68130    8.73190    3.40560   53.28270    0.05300
 9143.00000   47.60500   66.61490   82.47060    0.06300   59.93170   97.00180   90.49360    8.74080    3.38630   50.83640    0.06120
 9143.50000   53.15310   58.78010   78.28220    0.05570   59.53310   96.81540   69.95380    8.75180    3.38720   50.24100    0.05760
 9144.00000   64.07480  107.61920  117.41280    0.04510   59.32310   96.45120   56.32560    8.76290    3.51620   51.01080    0.05150
 9144.50000   92.55210  166.96070  210.72170    0.03500   59.18360   96.04640   48.40050    8.76720    3.70300   50.76890    0.04350
 9145.00000  108.36680  274.99310  205.81820    0.02390   58.98690   95.63150   46.84640    8.76530    3.85470   53.46440    0.03120
 9145.50000   80.46370  232.20450  160.40570    0.01780   58.65900   95.54890   53.16880    8.77010    3.87330   53.01790    0.01900
 9146.00000   65.23770  191.59310  114.99320    0.02330   58.35220   95.90950   65.14120    8.76110    3.74860   53.48250    0.02020
 9146.50000   57.50700  150.98180   86.34480    0.03230   58.43970   96.27010   76.41250    8.74990    3.55280   54.09330    0.02880
 9147.00000   51.06900  110.37040   68.87250    0.04120   58.53200   96.91280   78.76190    8.73870    3.37550   54.12420    0.03740
 9147.50000   54.28420   85.98730   65.35330    0.04790   58.94130   97.62600   72.81280    8.75680    3.34230   54.38200    0.04590
 9148.00000   55.11180   90.23450   71.08150    0.04930   59.22790   98.18530   69.59630    8.77120    3.40650   54.63970    0.04770
 9148.50000   51.12470   91.35060   66.73650    0.04440   59.44580   99.17310   68.70820    8.76180    3.47090   54.42410    0.04600
 9149.00000   46.26490   82.01700   58.60380    0.04230   59.58850   99.39070   72.75330    8.75340    3.43010   51.89750    0.04250
 9149.50000   43.36000   72.36930   55.42340    0.04730   59.48710   99.66570   76.57490    8.74410    3.33570   49.41530    0.04610
 9150.00000   41.28580   66.57060   52.24290    0.05300   59.23870   99.50210   74.82200    8.73490    3.26030   49.46980    0.05520
 9150.50000   41.84100   65.51860   51.35220    0.05580   59.13480   99.33850   70.43830    8.72570    3.22610   50.56230    0.05680
 9151.00000   45.13290   74.52450   59.26990    0.05090   59.13210   99.17500   67.09170    8.71650    3.24830   51.31220    0.05670
 9151.50000   52.60890   96.24650   66.61890    0.04610   59.14540   99.01140   63.15380    8.70730    3.31620   51.97640    0.05320
 9152.00000   61.36960  117.96850   88.95660    0.04520   59.13840   98.61150   60.58720    8.69810    3.38400   51.09760    0.04930
 9152.50000   62.10580  130.28750   99.15790    0.04390   59.13130   98.49510   60.26240    8.69060    3.51740   51.89350    0.04530
 9153.00000   58.66030  136.33790   91.15450    0.03910   58.92930   98.37870   64.74720    8.69940    3.63980   51.21440    0.04000
 9153.50000   53.73130  130.45140   90.97170    0.03030   58.97720   98.26230   74.79300    8.71060    3.69380   51.89270    0.03800
 9154.00000   43.16440   98.61100   77.72810    0.03290   59.24630   97.97970   84.20770    8.72190    3.61470   51.58700    0.04230
