~Version ---------------------------------------------------
VERS.   2.0 : CWLS log ASCII Standard -VERSION 2.0
WRAP.    NO : One line per depth step
DLM . SPACE : Column Data Section Delimiter
~Well ------------------------------------------------------
STRT .FT               8270.0 : START DEPTH
STOP .FT              10155.0 : STOP DEPTH
STEP .FT                  0.5 : STEP
NULL .               -9999.25 : NULL VALUE
COMP .                        : COMPANY
WELL .                        : WELL
FLD  .                        : FIELD
LOC  .                        : LOCATION
PROV .                        : PROVINCE
CNTY .                        : COUNTY
STAT .                        : STATE
CTRY .                        : COUNTRY
SRVC .                        : SERVICE COMPANY
DATE .                        : DATE
UWI  .                        : UNIQUE WELL ID
API  .                        : API NUMBER
SLAT .WGS84 6.047817939891701 : SURFACE LATITUDE
SLON .WGS84 2.741473395528601 : SURFACE LONGITUDE
DATUM.F                1152.0 : DEPTH DATUM ELEV
~Curve Information -----------------------------------------
DEPT   .FT    : 
AT10   .OHMM  : ARRAY INDUCTION TWO FOOT RESISTIVITY A10
AT30   .OHMM  : ARRAY INDUCTION TWO FOOT RESISTIVITY A30
AT90   .OHMM  : ARRAY INDUCTION TWO FOOT RESISTIVITY A90
DPHZ_LS.DEC   : HGRD STANDARD RESOLUTION DENSITY POROSITY
DTCO   .US/F  : DELTA-T COMPRESSIONAL
DTSM   .US/F  : DELTA-T SHEAR
ECGRS  .GAPI  : ENVIRONMENTALLY CORRECTED GAMMA RAY FROM SONIC LOG
HCALR  .IN    : HRCC CALIPER CALIBRATED FROM RESISTIVITY LOG
PEFZ   .B/E   : HRDD STANDARD RESOLUTION FORMATION PHOTOELECTRIC FACTOR
SPR    .MV    : SPONTANEOUS POTENTIAL FROM RESISTIVITY LOG
TNPH_LS.DEC   : THERMAL NEUTRON POROSITY [LIMESTONE]
~Params ----------------------------------------------------
~Other -----------------------------------------------------
~ASCII -----------------------------------------------------
# ...
 9490.00000  117.05780 1915.38970  352.48120    0.01700   57.09600   96.84660   66.68570    8.70980    4.42340  -29.56600    0.03510
 9490.50000  114.77990 1760.00840  350.80720    0.02430   57.67460   97.02600   77.00910    8.70100    4.39630  -30.66640    0.04290
 9491.00000  112.33600 1844.89310  352.40090    0.03830   58.07720   97.21770   87.33240    8.71690    4.39510  -31.21630    0.05360
 9491.50000  109.95130 1916.89860  392.90100    0.04650   58.22240   97.45900   89.07210    8.72380    4.42330  -30.22660    0.05810
 9492.00000  107.78350 1960.10190  405.96650    0.04200   58.22670   97.53350   80.56470    8.73070    4.39330  -28.98940    0.05180
 9492.50000  100.77770 1503.55410  311.75460    0.03470   58.13950   97.83820   71.44190    8.71340    4.32930  -28.57710    0.04640
 9493.00000   86.51500  647.55510  211.83240    0.02720   57.76920   98.14290   68.00700    8.72210    4.23110  -30.33650    0.04730
 9493.50000   90.08770  647.55510  212.47280    0.02900   57.00880   98.13590   68.59860    8.70850    4.22210  -30.17160    0.04820
 9494.00000   97.34950  951.24270  289.58860    0.03120   56.59580   97.77810   69.82080    8.70510    4.23310  -29.16070    0.04830
 9494.50000  104.61130 1293.90700  331.35020    0.02860   56.45830   98.07750   65.68710    8.70900    4.34000  -27.93420    0.04680
 9495.00000  111.98210 1849.06940  351.78880    0.02060   55.93200   98.33630   57.13640    8.71300    4.48240  -25.95850    0.03550
 9495.50000  117.29970 1946.65680  398.83320    0.01400   55.57450   98.59520   48.61020    8.71800    4.57520  -26.73850    0.02790
 9496.00000  120.35730 1929.85050  455.01290    0.01780   55.58780   98.55360   45.07050    8.72190    4.52340  -28.78090    0.02170
 9496.50000  120.73220 1913.04420  452.18700    0.02480   55.81900   98.52360   46.61880    8.72190    4.37980  -32.01890    0.02170
 9497.00000  118.26880 1896.23790  388.29220    0.02990   56.26380   99.46620   49.63460    8.72180    4.21100  -33.74550    0.02520
 9497.50000  114.86510 1708.09640  312.74070    0.03320   56.35360  100.40880   53.59560    8.72170    4.10030  -31.54620    0.02960
 9498.00000  107.24580 1244.67850  288.50900    0.03910   56.35330  101.35140   59.94840    8.72160    3.97920  -30.10940    0.03410
 9498.50000  106.39480  921.91880  300.75920    0.04270   56.35290  101.67200   70.71010    8.72160    3.87660  -29.81640    0.03930
 9499.00000  101.38280  675.00750  246.20610    0.04840   56.49280  102.03100   79.80940    8.72990    3.78320  -29.52170    0.04860
 9499.50000  101.54690  538.40480  223.63110    0.04330   56.71020  102.11450   75.28980    8.73180    3.84620  -29.61900    0.04770
 9500.00000  106.01410  724.06670  264.71470    0.03850   57.11060  102.70290   63.69070    8.73170    4.02740  -30.49000    0.03160
 9500.50000  107.84630  891.10230  248.79900    0.03380   57.47860  103.25730   52.27030    8.73150    4.16440  -29.76210    0.02880
 9501.00000   98.85500  525.94980  213.28730    0.03050   56.99820  102.92890   54.88100    8.73140    4.14690  -29.65120    0.02980
 9501.50000   87.24570  299.29220  177.77550    0.03510   56.01950  102.13900   62.96170    8.73120    3.94770  -29.54030    0.03820
 9502.00000   84.43060  220.61540  148.98610    0.04160   55.46720  101.67630   73.62450    8.73110    3.70390  -28.59500    0.04950
 9502.50000  105.13570  267.89170  148.22200    0.04640   54.89200  101.21290   76.54560    8.73090    3.80820  -30.86290    0.03980
 9503.00000  123.04980  487.17560  222.16790    0.05130   54.46570   98.32440   66.38850    8.72250    4.05380  -34.10820    0.02500
 9503.50000  142.93240 1257.60370  394.63490    0.05130   54.14670   97.21580   52.39660    8.73220    4.54070  -35.96130    0.01020
 9504.00000  151.70310 1930.17930  489.14940    0.04220   53.70480   96.64100   44.49000    8.73210    5.09250  -34.81600    0.00890
 9504.50000  153.53500 1927.07810  511.32720    0.02910   53.24880   96.00840   41.65250    8.73200    5.48610  -33.67060    0.00800
 9505.00000  153.25860 1923.20160  497.43680    0.01830   53.00570   95.00910   39.63480    8.73200    5.63240  -33.30690    0.01010
 9505.50000  151.52710 1919.32510  480.81390    0.02130   52.71690   93.75970   37.85160    8.73190    5.71510  -31.96320    0.01160
 9506.00000  149.22030 1915.44860  483.61960    0.02570   52.69680   93.21890   35.67140    8.73190    5.66630  -32.14140    0.01160
 9506.50000  146.51790 1911.57210  492.03670    0.01930   52.93690   93.07440   38.26880    8.73180    5.59990  -32.27560    0.01090
 9507.00000  147.11350 1907.69560  524.81790    0.02490   53.44560   93.48280   42.10430    8.73170    5.45700  -31.09800    0.01120
 9507.50000  149.36240 1903.81910  542.42030    0.02650   54.07610   94.16780   45.52190    8.73170    5.19660  -31.05420    0.01360
 9508.00000  153.31980 1881.30440  551.08230    0.02560   54.63680   94.85280   42.84990    8.73160    4.92880  -30.18550    0.01380
 9508.50000  153.88770 1784.23660  533.81790    0.02610   54.69630   96.41790   40.29980    8.73150    4.67990  -31.15330    0.01240
 9509.00000  155.79210 1687.16870  502.59750    0.02780   54.78870   98.15300   43.45530    8.73160    4.30960  -32.69800    0.01730
 9509.50000  154.94860 1459.26150  475.30330    0.04160   54.89510  100.56800   49.38890    8.71860    3.99430  -34.33960    0.02310
 9510.00000  157.41700 1585.21510  463.59890    0.04950   54.91200  102.11030   56.25260    8.73110    3.76900  -34.90400    0.03140
 9510.50000  172.13700 1798.73320  521.93310    0.05210   54.83970  103.02020   59.54020    8.70930    3.79810  -36.27470    0.03270
 9511.00000  188.47880 1643.81780  608.74080    0.03930   54.57280  102.67960   53.86350    8.71180    4.07450  -34.18530    0.02490
 9511.50000  193.53950 1613.39950  627.19200    0.02580   54.52920  102.93480   42.63370    8.71420    4.39610  -33.47100    0.01490
 9512.00000  193.70470 1454.94380  535.73540    0.02020   54.61590  103.16560   33.94580    8.84580    4.59840  -32.67810    0.01120
 9512.50000  180.24170 1290.67480  451.75150    0.02260   54.60670  102.50230   34.06240    9.17650    4.51170  -33.73340    0.00800
 9513.00000  171.63900 1133.11140  395.79730    0.02780   54.29610  101.53850   37.91500    9.53890    4.32160  -33.64700    0.00970
 9513.50000  186.13530 1217.40340  385.77270    0.03310   54.28010  100.54180   42.47820    9.35700    4.13570  -32.68810    0.01350
 9514.00000  185.00130 1341.80730  406.56460    0.03790   54.16650   99.63890   47.53390    8.93300    3.99030  -32.22020    0.01740
 9514.50000  192.16830 1463.91470  437.61350    0.03710   54.14520   98.77490   53.62170    8.76840    3.84480  -31.75230    0.02120
 9515.00000  215.95180 1575.97740  483.93860    0.03490   53.88100   98.01630   58.09380    8.72160    3.81430  -32.15080    0.02470
 9515.50000  241.17610 1727.59250  512.44240    0.03030   54.07040   97.44660   52.89430    8.72930    3.96980  -33.88980    0.02610
 9516.00000  257.85780 1911.69300  582.57460    0.01890   54.37570   96.92630   42.22010    8.76980    4.24650  -36.85400    0.02090
 9516.50000  264.18660 1925.03380  629.52490    0.01000   54.67300   96.19320   32.27250    8.83120    4.45840  -38.54210    0.01440
 9517.00000  242.38840 1938.37460  774.93670    0.00620   55.47900   95.84120   27.26170    8.89640    4.45790  -38.09260    0.00790
 9517.50000  208.69790 1951.71530  663.83350    0.00990   55.72540   95.78890   31.32790    8.96010    4.16650  -35.60200    0.00670
 9518.00000  173.28140 1662.63660  999.09700    0.02970   56.00260   95.76680   38.92850    9.31210    3.83820  -34.18820    0.01170
 9518.50000  143.51910 1053.07450  305.57870    0.04310   55.78070   95.46250   50.26120    9.51790    3.58250  -32.78330    0.01680
 9519.00000  126.76410  643.23130  188.29400    0.05480   55.64030   94.94090   59.32190    9.00040    3.42320  -33.48740    0.02700
 9519.50000  130.55580  718.30650  207.49370    0.05170   54.97230   94.18890   60.44920    8.73460    3.40120  -34.08220    0.03350
 9520.00000  143.48630 1117.09190  357.01230    0.04180   54.46910   94.31650   52.80670    8.73500    3.73470  -32.51990    0.02970
