~Version ---------------------------------------------------
VERS.   2.0 : CWLS log ASCII Standard -VERSION 2.0
WRAP.    NO : One line per depth step
DLM . SPACE : Column Data Section Delimiter
~Well ------------------------------------------------------
STRT .FT               8270.0 : START DEPTH
STOP .FT              10155.0 : STOP DEPTH
STEP .FT                  0.5 : STEP
NULL .               -9999.25 : NULL VALUE
COMP .                        : COMPANY
WELL .                        : WELL
FLD  .                        : FIELD
LOC  .                        : LOCATION
PROV .                        : PROVINCE
CNTY .                        : COUNTY
STAT .                        : STATE
CTRY .                        : COUNTRY
SRVC .                        : SERVICE COMPANY
DATE .                        : DATE
UWI  .                        : UNIQUE WELL ID
API  .                        : API NUMBER
SLAT .WGS84 6.047817939891701 : SURFACE LATITUDE
SLON .WGS84 2.741473395528601 : SURFACE LONGITUDE
DATUM.F                1152.0 : DEPTH DATUM ELEV
~Curve Information -----------------------------------------
DEPT   .FT    : 
AT10   .OHMM  : ARRAY INDUCTION TWO FOOT RESISTIVITY A10
AT30   .OHMM  : ARRAY INDUCTION TWO FOOT RESISTIVITY A30
AT90   .OHMM  : ARRAY INDUCTION TWO FOOT RESISTIVITY A90
DPHZ_LS.DEC   : HGRD STANDARD RESOLUTION DENSITY POROSITY
DTCO   .US/F  : DELTA-T COMPRESSIONAL
DTSM   .US/F  : DELTA-T SHEAR
ECGRS  .GAPI  : ENVIRONMENTALLY CORRECTED GAMMA RAY FROM SONIC LOG
HCALR  .IN    : HRCC CALIPER CALIBRATED FROM RESISTIVITY LOG
PEFZ   .B/E   : HRDD STANDARD RESOLUTION FORMATION PHOTOELECTRIC FACTOR
SPR    .MV    : SPONTANEOUS POTENTIAL FROM RESISTIVITY LOG
TNPH_LS.DEC   : THERMAL NEUTRON POROSITY [LIMESTONE]
~Params ----------------------------------------------------
~Other -----------------------------------------------------
~ASCII -----------------------------------------------------
# ...
 10098.50000   58.82180   21.77130   19.89670   -0.02630   68.93570  128.66750   -9999.25    8.85770    3.79650 -166.82020    0.15860
 10099.00000   53.88050   21.12280   19.81050   -0.02960   69.09890  128.69780   -9999.25    8.85990    3.78740 -166.98970    0.15420
 10099.50000   48.68090   20.64100   19.90470   -0.02500   -9999.25   -9999.25   -9999.25    8.85930    3.82080 -169.18530    0.15200
 10100.00000   47.53660   20.68990   19.90470   -0.01770   -9999.25   -9999.25   -9999.25    8.85140    3.83200 -169.18010    0.15370
 10100.50000   46.59860   20.80500   19.90470   -0.01340   -9999.25   -9999.25   -9999.25    8.84350    3.80320 -167.85980    0.15910
 10101.00000   46.60290   20.92020   19.90470   -0.01100   -9999.25   -9999.25   -9999.25    8.82200    3.76530 -165.77460    0.16820
 10101.50000   46.60730   21.03540   20.20200   -0.01170   -9999.25   -9999.25   -9999.25    8.84350    3.74560 -165.57920    0.16560
 10102.00000   46.84880   21.07420   20.68670   -0.01650   -9999.25   -9999.25   -9999.25    8.85560    3.74850 -163.76460    0.16620
 10102.50000   47.14950   20.80750   21.17150   -0.01920   -9999.25   -9999.25   -9999.25    8.86880    3.74120 -163.39490    0.16270
 10103.00000   48.90040   20.54080   21.65620   -0.02020   -9999.25   -9999.25   -9999.25    8.85570    3.71700 -164.42210    0.15990
 10103.50000   49.75530   20.48740   22.14100   -0.02080   -9999.25   -9999.25   -9999.25    8.84260    3.73410 -162.31750    0.15610
 10104.00000   50.61030   20.71510   22.62570   -0.01780   -9999.25   -9999.25   -9999.25    8.83240    3.75110 -163.66890    0.15200
 10104.50000   51.46530   20.99970   23.11050   -0.01110   -9999.25   -9999.25   -9999.25    8.83350    3.76820 -163.35140    0.15290
 10105.00000   53.48520   21.28430   23.30010   -0.00470   -9999.25   -9999.25   -9999.25    8.83470    3.80360 -162.70810    0.15800
 10105.50000   53.83840   21.43580   23.04690   -0.00030   -9999.25   -9999.25   -9999.25    8.83450    3.82480 -163.59140    0.15410
 10106.00000   54.04690   21.33940   22.79370    0.00110   -9999.25   -9999.25   -9999.25    8.83070    3.82730 -167.14040    0.15490
 10106.50000   55.86810   21.24310   23.05520    0.00120   -9999.25   -9999.25   -9999.25    8.81630    3.82980 -168.44550    0.15040
 10107.00000   55.93320   21.14680   23.96230    0.00250   -9999.25   -9999.25   -9999.25    8.80190    3.83230 -165.21260    0.14810
 10107.50000   57.14070   21.33460   24.31880    0.00110   -9999.25   -9999.25   -9999.25    8.78490    3.83470 -164.04970    0.14690
 10108.00000   59.52480   21.59350   24.37410   -0.00130   -9999.25   -9999.25   -9999.25    8.81280    3.82300 -162.40560    0.14760
 10108.50000   61.07300   21.85230   24.42930   -0.00320   -9999.25   -9999.25   -9999.25    8.82750    3.77010 -162.64690    0.14810
 10109.00000   64.53530   21.98990   24.48450   -0.00310   -9999.25   -9999.25   -9999.25    8.80740    3.81420 -163.51010    0.14820
 10109.50000   69.99500   22.16010   24.31880   -0.00150   -9999.25   -9999.25   -9999.25    8.80030    3.79210 -164.07680    0.14830
 10110.00000   75.90440   22.29620   24.85410   -0.00340   -9999.25   -9999.25   -9999.25    8.79330    3.75750 -162.58660    0.14520
 10110.50000   84.46280   22.64810   25.38930   -0.00710   -9999.25   -9999.25   -9999.25    8.78630    3.75280 -160.92790    0.14340
 10111.00000   91.07630   23.08950   25.92460   -0.01170   -9999.25   -9999.25   -9999.25    8.78550    3.76040 -161.05680    0.14060
 10111.50000  100.17270   23.53090   26.34510   -0.01220   -9999.25   -9999.25   -9999.25    8.78350    3.79660 -161.18560    0.13930
 10112.00000  105.39400   23.97220   26.59340   -0.00880   -9999.25   -9999.25   -9999.25    8.77780    3.84280 -161.45990    0.13650
 10112.50000  115.94390   24.40510   26.84170   -0.01000   -9999.25   -9999.25   -9999.25    8.77960    3.88440 -163.83510    0.13380
 10113.00000  123.25320   25.25270   28.45530   -0.01140   -9999.25   -9999.25   -9999.25    8.78140    3.88400 -163.13090    0.12960
 10113.50000  131.85610   25.76010   29.64800   -0.01660   -9999.25   -9999.25   -9999.25    8.78920    3.84070 -160.79040    0.12920
 10114.00000  146.91520   25.76010   29.72530   -0.02090   -9999.25   -9999.25   -9999.25    8.82160    3.82220 -162.54990    0.13320
 10114.50000  150.01370   25.74600   29.80250   -0.02410   -9999.25   -9999.25   -9999.25    8.80740    3.83550 -160.09320    0.13600
 10115.00000  147.71630   25.93780   29.87980   -0.02440   -9999.25   -9999.25   -9999.25    8.78130    3.87430 -158.77360    0.13580
 10115.50000  143.51370   25.14630   29.95710   -0.02410   -9999.25   -9999.25   -9999.25    8.76940    3.86790 -161.03100    0.13260
 10116.00000  133.19190   26.52990   30.03430   -0.02710   -9999.25   -9999.25   -9999.25    8.75760    3.86150 -160.33090    0.13050
 10116.50000  120.40030   25.02040   28.87980   -0.03030   -9999.25   -9999.25   -9999.25    8.77160    3.82140 -159.33160    0.12950
 10117.00000  104.24620   23.48160   26.90410   -0.02870   -9999.25   -9999.25   -9999.25    8.78230    3.76120 -159.08620    0.13200
 10117.50000   87.10170   21.94290   24.92840   -0.02220   -9999.25   -9999.25   -9999.25    8.78430    3.73650 -158.67690    0.13300
 10118.00000   79.08480   20.40410   22.95270   -0.01670   -9999.25   -9999.25   -9999.25    8.78630    3.75040 -159.21180    0.13260
 10118.50000   76.26470   19.78600   22.98820   -0.01710   -9999.25   -9999.25   -9999.25    8.79940    3.75750 -160.41240    0.12760
 10119.00000   74.27490   20.54550   23.05050   -0.02230   -9999.25   -9999.25   -9999.25    8.79690    3.76450 -162.90140    0.12400
 10119.50000   74.58190   21.49580   23.11270   -0.02630   -9999.25   -9999.25   -9999.25    8.79430    3.72010 -163.23660    0.12280
 10120.00000   78.11130   20.70670   22.93330   -0.02440   -9999.25   -9999.25   -9999.25    8.79380    3.72740 -162.49430    0.12190
 10120.50000   82.79760   21.87240   23.99920   -0.02040   -9999.25   -9999.25   -9999.25    8.78180    3.73480 -161.66980    0.12180
 10121.00000   87.45310   22.20950   24.36180   -0.01610   -9999.25   -9999.25   -9999.25    8.78050    3.72670 -160.93460    0.12550
 10121.50000   87.37180   21.76160   23.19780   -0.01660   -9999.25   -9999.25   -9999.25    8.78000    3.69910 -159.24310    0.12920
 10122.00000   90.30610   21.29050   23.17800   -0.01440   -9999.25   -9999.25   -9999.25    8.77430    3.67160 -159.53160    0.13320
 10122.50000   92.10170   21.09800   23.52760   -0.01400   -9999.25   -9999.25   -9999.25    8.76860    3.64400 -158.69300    0.13670
 10123.00000   99.20060   22.02020   23.87710   -0.01270   -9999.25   -9999.25   -9999.25    8.76290    3.61640 -158.15860    0.14020
 10123.50000  105.26790   22.94240   24.27910   -0.01370   -9999.25   -9999.25   -9999.25    8.76360    3.59990 -158.08580    0.14370
 10124.00000  117.55700   23.68100   24.75970   -0.01710   -9999.25   -9999.25   -9999.25    8.76430    3.61640 -157.08780    0.14720
 10124.50000  143.11160   22.94810   24.77950   -0.01660   -9999.25   -9999.25   -9999.25    8.77290    3.70460 -158.13380   -9999.25
 10125.00000  168.24750   23.41680   24.87440   -0.01170   -9999.25   -9999.25   -9999.25    8.77640    3.79280 -159.69060   -9999.25
 10125.50000  194.91590   24.18570   26.85570   -0.01110   -9999.25   -9999.25   -9999.25    8.77080    3.84790 -159.86650   -9999.25
 10126.00000  226.29500   24.68350   27.87780   -0.01390   -9999.25   -9999.25   -9999.25    8.76510    3.87000 -159.14860   -9999.25
 10126.50000  248.01610   24.77440   27.74780   -0.01840   -9999.25   -9999.25   -9999.25    8.76900    3.83690 -158.91620   -9999.25
 10127.00000  266.41180   24.86530   27.61780   -0.01810   -9999.25   -9999.25   -9999.25    8.76620    3.80390 -155.94020   -9999.25
 10127.50000  257.57750   24.95620   28.05260   -0.01690   -9999.25   -9999.25   -9999.25    8.76340    3.78620 -156.42110   -9999.25
 10128.00000  241.84910   25.04710   29.30110   -0.01550   -9999.25   -9999.25   -9999.25    8.75600    3.75980 -157.31790   -9999.25
