~Version ---------------------------------------------------
VERS.   2.0 : CWLS log ASCII Standard -VERSION 2.0
WRAP.    NO : One line per depth step
DLM . SPACE : Column Data Section Delimiter
~Well ------------------------------------------------------
STRT .FT               8270.0 : START DEPTH
STOP .FT              10155.0 : STOP DEPTH
STEP .FT                  0.5 : STEP
NULL .               -9999.25 : NULL VALUE
COMP .                        : COMPANY
WELL .                        : WELL
FLD  .                        : FIELD
LOC  .                        : LOCATION
PROV .                        : PROVINCE
CNTY .                        : COUNTY
STAT .                        : STATE
CTRY .                        : COUNTRY
SRVC .                        : SERVICE COMPANY
DATE .                        : DATE
UWI  .                        : UNIQUE WELL ID
API  .                        : API NUMBER
SLAT .WGS84 6.047817939891701 : SURFACE LATITUDE
SLON .WGS84 2.741473395528601 : SURFACE LONGITUDE
DATUM.F                1152.0 : DEPTH DATUM ELEV
~Curve Information -----------------------------------------
DEPT   .FT    : 
AT10   .OHMM  : ARRAY INDUCTION TWO FOOT RESISTIVITY A10
AT30   .OHMM  : ARRAY INDUCTION TWO FOOT RESISTIVITY A30
AT90   .OHMM  : ARRAY INDUCTION TWO FOOT RESISTIVITY A90
DPHZ_LS.DEC   : HGRD STANDARD RESOLUTION DENSITY POROSITY
DTCO   .US/F  : DELTA-T COMPRESSIONAL
DTSM   .US/F  : DELTA-T SHEAR
ECGRS  .GAPI  : ENVIRONMENTALLY CORRECTED GAMMA RAY FROM SONIC LOG
HCALR  .IN    : HRCC CALIPER CALIBRATED FROM RESISTIVITY LOG
PEFZ   .B/E   : HRDD STANDARD RESOLUTION FORMATION PHOTOELECTRIC FACTOR
SPR    .MV    : SPONTANEOUS POTENTIAL FROM RESISTIVITY LOG
TNPH_LS.DEC   : THERMAL NEUTRON POROSITY [LIMESTONE]
~Params ----------------------------------------------------
~Other -----------------------------------------------------
~ASCII -----------------------------------------------------
# ...
 9856.00000   58.16870  242.62910  124.59050   -0.01490   51.44440   87.71090   40.37190    8.90370    4.53760 -123.79150    0.02330
 9856.50000   54.64160  195.75770  109.10360   -0.01680   51.79670   91.65530   42.40930    8.92360    4.45010 -125.85890    0.02730
 9857.00000   51.51780  166.43750   99.86240   -0.02190   51.92770   88.98470   46.08800    8.90930    4.32260 -129.38810    0.03150
 9857.50000   50.59860  145.74990   90.62110   -0.02750   52.16570   86.31420   51.84400    8.92110    4.20750 -128.97490    0.03480
 9858.00000   49.67940  124.42320   81.37980   -0.02830   52.33970   86.09120   54.25860    8.91210    4.13390 -127.92950    0.04000
 9858.50000   46.85080  109.33630   74.09930   -0.02490   52.55230   88.84090   55.47220    8.93100    4.15170 -126.55380    0.04240
 9859.00000   46.69840   95.80930   68.12590   -0.01780   52.59500   94.26760   54.08420    8.92420    4.21900 -123.24710    0.04370
 9859.50000   46.94580   89.70590   62.15250   -0.01170   52.62170   95.50820   55.00910    8.91750    4.29200 -123.82500    0.04510
 9860.00000   46.76960   90.76510   62.48210   -0.01090   53.19210   94.87070   54.58720    8.91560    4.34350 -126.03370    0.04690
 9860.50000   47.50690   92.08910   61.73040   -0.01530   53.63400   93.44670   53.43030    8.90520    4.38480 -125.84600    0.04910
 9861.00000   48.37610   93.41310   60.97870   -0.02410   53.73740   93.31040   53.22340    8.90260    4.35090 -125.42680    0.05260
 9861.50000   47.25400   90.81260   60.22700   -0.03060   53.84260   92.36270   55.61870    8.90880    4.19990 -126.46860    0.05310
 9862.00000   46.59210   85.59570   59.47530   -0.03800   54.01490   91.60360   59.55270    8.91510    4.04880 -125.54860    0.05320
 9862.50000   45.94110   80.37880   57.59920   -0.03940   54.03710   91.72420   60.93610    8.92140    3.93230 -124.95770    0.05270
 9863.00000   44.40790   75.16190   55.63860   -0.03890   53.84720   92.76920   61.80200    8.90810    3.90550 -127.86770    0.05560
 9863.50000   43.13530   70.61200   53.65160   -0.03060   53.84720   93.45030   61.95100    8.89390    3.94300 -130.09870    0.05690
 9864.00000   42.27100   67.23100   53.55910   -0.01970   53.93540   94.13150   63.63940    8.87210    4.04900 -129.21210    0.05780
 9864.50000   41.93070   68.52610   54.42670   -0.01300   53.92510   94.65240   64.62170    8.83680    4.10020 -130.42310    0.05790
 9865.00000   40.72810   69.82120   55.48580   -0.01270   53.75340   95.66190   61.89320    8.83270    4.15770 -129.73570    0.05800
 9865.50000   39.71770   71.11630   55.20630   -0.01460   53.82780   96.67140   59.59000    8.82870    4.24450 -126.64630    0.05660
 9866.00000   38.70740   72.41140   55.61260   -0.01360   53.83930   97.99120   56.93280    8.83890    4.27010 -126.47540    0.05650
 9866.50000   38.47400   73.64090   56.51520   -0.01360   53.81500   99.38850   58.23590    8.83750    4.29580 -127.24140    0.05650
 9867.00000   38.43470   74.60830   57.33670   -0.01790   54.01610  100.61220   54.79670    8.85500    4.30960 -125.56130    0.05690
 9867.50000   38.39550   75.57560   58.40760   -0.02600   54.19870  101.81380   55.21490    8.84990    4.22900 -125.41270    0.05670
 9868.00000   37.40130   76.54300   58.71860   -0.02520   54.22160  103.03870   57.58650    8.85580    4.22820 -126.09640    0.05670
 9868.50000   36.68770   77.51030   58.40230   -0.02220   54.20590  104.19000   60.71950    8.86170    4.26150 -125.12250    0.05780
 9869.00000   36.23250   79.31940   58.39010   -0.01810   53.98360  104.85090   63.10800    8.86760    4.30420 -126.03320    0.05840
 9869.50000   36.93290   84.29310   63.43830   -0.01760   53.61160  104.01290   64.41350    8.88230    4.31290 -128.17510    0.05870
 9870.00000   38.20960   92.09840   69.28480   -0.01240   53.48730  101.68740   63.69260    8.87480    4.36860 -130.37050    0.05870
 9870.50000   40.38610   99.90380   73.16540   -0.00820   53.20140  100.07100   59.00580    8.86720    4.45420 -131.88350    0.05700
 9871.00000   42.69730  119.05860   73.04750   -0.00560   52.44510   98.75290   53.16270    8.86350    4.53720 -132.03280    0.05170
 9871.50000   45.71900  144.45420   84.93790   -0.00600   52.17400   97.43480   47.82750    8.86060    4.62370 -130.51150    0.04310
 9872.00000   48.94810  169.84980   97.24880   -0.00760   51.99710   96.67640   41.53310    8.85780    4.66920 -129.05120    0.03380
 9872.50000   52.09610  195.25710  100.34810   -0.00600   51.90570   97.07710   38.97690    8.85490    4.73980 -129.62010    0.02630
 9873.00000   51.75750  215.58290   98.12750   -0.00850   51.85170   97.61100   37.67700    8.85100    4.78630 -129.65700    0.02040
 9873.50000   52.28750  224.03490   96.35090   -0.00980   51.72130   98.26170   40.11830    8.84670    4.79460 -129.53610    0.02060
 9874.00000   52.81750  349.40110  116.97190   -0.01240   51.73650   99.25570   41.48800    8.85090    4.72880 -129.52920    0.02180
 9874.50000   51.10430  434.09130  140.45270   -0.01340   51.73710  100.75380   42.48890    8.84640    4.69030 -129.04950    0.02390
 9875.00000   49.39620  277.87180  124.85280   -0.01110   51.82590  100.91660   41.41530    8.85740    4.69310 -127.76970    0.02720
 9875.50000   48.58460  243.81430  112.15460   -0.00360   51.90640  100.73480   40.14540    8.86420    4.76950 -128.07540    0.02870
 9876.00000   49.65880  269.20920  122.13220    0.00640   51.58930  100.66440   39.10690    8.85930    4.89870 -132.32660    0.02900
 9876.50000   50.73300  276.27500  128.65240    0.01490   51.92170  100.11730   39.08940    8.85590    4.95870 -134.15130    0.02740
 9877.00000   51.80730  277.60570  140.60440    0.01480   52.00770   99.57050   39.75030    8.86380    4.99370 -134.11880    0.02580
 9877.50000   53.43290  307.19830  170.30330    0.01090   51.90240   99.13240   40.24620    8.86380    5.00610 -133.85610    0.02430
 9878.00000   53.69630  392.78750  221.99080    0.00230   51.45940   98.24320   40.23780    8.86380    4.95790 -132.37240    0.02510
 9878.50000   55.12200  367.07950  200.23390    0.00230   51.27140   98.32190   39.28500    8.86380    4.96070 -131.91390    0.02630
 9879.00000   55.49790  300.08720  158.37400    0.00700   51.16990   98.00200   37.92450    8.86380    5.03510 -132.79230    0.02470
 9879.50000   57.90380  376.51360  164.90310    0.01200   51.16560   97.68210   36.07700    8.86300    5.08330 -132.10180    0.02200
 9880.00000   64.72800  577.10400  257.84140    0.00870   51.09600   97.19810   35.99510    8.85650    5.08680 -131.89120    0.01930
 9880.50000   72.41750 1328.46140  358.97700    0.00130   50.74960   98.09410   37.55730    8.86590    5.05620 -131.68420    0.01540
 9881.00000   77.95520 1936.56660  262.10990   -0.00550   49.99040   99.65960   39.64880    8.85480    5.04890 -128.28840    0.01450
 9881.50000   80.86650 1846.45740  234.38160   -0.00710   49.94680  101.17280   39.57960    8.86630    5.14810 -129.71800    0.01250
 9882.00000   81.98030 1353.32900  202.53620   -0.01210   49.86460  100.47270   38.52280    8.87790    5.13700 -128.72830    0.01100
 9882.50000   76.73380  996.16730  173.57700   -0.02080   49.76120  101.75880   36.71540    8.89200    5.02310 -132.46710    0.00970
 9883.00000   75.73800  704.14350  147.70320   -0.02700   49.78640  105.36440   35.86930    8.89470    4.90920 -136.72500    0.01250
 9883.50000   75.18160  546.75140  139.46470   -0.02920   50.60700  104.48530   34.59170    8.89370    4.79530 -138.86030    0.01620
 9884.00000   74.18260  992.49260  133.38370   -0.02800   50.73310   99.58630   32.87100    8.89260    4.75500 -136.37560    0.01740
 9884.50000   73.39650  772.86400  157.62840   -0.02640   50.75360   97.42410   33.05970    8.89160    4.74290 -135.53260    0.01790
 9885.00000   68.90770  947.51680  133.94710   -0.02690   50.95950   96.01400   35.29110    8.89610    4.70620 -133.71270    0.01850
 9885.50000   68.96510  651.77110  108.86670   -0.02670   51.19980  100.30590   38.52590    8.89140    4.68930 -132.17440    0.01910
 9886.00000   67.32400  714.63120  128.06980   -0.02210   51.22260  104.97130   40.75060    8.88660    4.68570 -131.09190    0.01960
