~Version ---------------------------------------------------
VERS.   2.0 : CWLS log ASCII Standard -VERSION 2.0
WRAP.    NO : One line per depth step
DLM . SPACE : Column Data Section Delimiter
~Well ------------------------------------------------------
STRT .FT               8270.0 : START DEPTH
STOP .FT              10155.0 : STOP DEPTH
STEP .FT                  0.5 : STEP
NULL .               -9999.25 : NULL VALUE
COMP .                        : COMPANY
WELL .                        : WELL
FLD  .                        : FIELD
LOC  .                        : LOCATION
PROV .                        : PROVINCE
CNTY .                        : COUNTY
STAT .                        : STATE
CTRY .                        : COUNTRY
SRVC .                        : SERVICE COMPANY
DATE .                        : DATE
UWI  .                        : UNIQUE WELL ID
API  .                        : API NUMBER
SLAT .WGS84 6.047817939891701 : SURFACE LATITUDE
SLON .WGS84 2.741473395528601 : SURFACE LONGITUDE
DATUM.F                1152.0 : DEPTH DATUM ELEV
~Curve Information -----------------------------------------
DEPT   .FT    : 
AT10   .OHMM  : ARRAY INDUCTION TWO FOOT RESISTIVITY A10
AT30   .OHMM  : ARRAY INDUCTION TWO FOOT RESISTIVITY A30
AT90   .OHMM  : ARRAY INDUCTION TWO FOOT RESISTIVITY A90
DPHZ_LS.DEC   : HGRD STANDARD RESOLUTION DENSITY POROSITY
DTCO   .US/F  : DELTA-T COMPRESSIONAL
DTSM   .US/F  : DELTA-T SHEAR
ECGRS  .GAPI  : ENVIRONMENTALLY CORRECTED GAMMA RAY FROM SONIC LOG
HCALR  .IN    : HRCC CALIPER CALIBRATED FROM RESISTIVITY LOG
PEFZ   .B/E   : HRDD STANDARD RESOLUTION FORMATION PHOTOELECTRIC FACTOR
SPR    .MV    : SPONTANEOUS POTENTIAL FROM RESISTIVITY LOG
TNPH_LS.DEC   : THERMAL NEUTRON POROSITY [LIMESTONE]
~Params ----------------------------------------------------
~Other -----------------------------------------------------
~ASCII -----------------------------------------------------
# ...
 9368.00000  117.90670 1846.67970  579.40030   -0.00120   53.88090   92.75480   33.53210    8.75600    4.71210   -0.45620    0.00200
 9368.50000  109.21130  931.28510  403.64660   -0.00390   56.56420   94.50690   33.46470    8.75270    4.57760   -1.01870    0.00190
 9369.00000   90.79560  361.53720  246.54020   -0.00650   58.17020   96.44950   39.00070    8.74940    4.38190   -1.13530    0.00470
 9369.50000   68.82240  199.66590  150.26740   -0.00120   58.41720   97.26500   49.64410    8.76250    3.98380    0.43620    0.01550
 9370.00000   51.80590  146.23100   95.76140    0.01390   58.46830   97.56140   60.91570    8.74920    3.69710    0.42800    0.03180
 9370.50000   42.75220   92.79610   59.97650    0.03120   59.04710   98.00200   72.01100    8.74960    3.51200    0.48840    0.04940
 9371.00000   40.47540   59.81370   49.33150    0.04200   59.62150  100.64060   81.95430    8.75250    3.49700   -0.98310    0.06850
 9371.50000   46.63630   69.64720   54.32920    0.04160   59.62120  101.07360   84.20830    8.74850    3.58630   -2.06400    0.07420
 9372.00000   46.77650   80.77830   59.32690    0.03800   59.62100  100.87800   78.10140    8.74340    3.65630   -4.06780    0.06630
 9372.50000   48.23550   84.90230   61.85250    0.02870   59.62080  100.66470   70.58480    8.75250    3.70420   -6.18520    0.05610
 9373.00000   45.79410   79.94190   61.58450    0.02470   59.62060  100.48300   67.78130    8.74580    3.75220   -6.55090    0.04880
 9373.50000   43.55650   74.98150   57.81720    0.02340   59.62030  100.62080   71.25530    8.73910    3.77750   -4.63880    0.04880
 9374.00000   41.56280   70.79510   54.04990    0.02320   59.51030  100.40510   74.67390    8.73910    3.83120   -4.45120    0.05000
 9374.50000   40.95210   67.49190   50.28260    0.02600   59.45510  100.27120   77.85900    8.73060    3.89290   -3.52550    0.05130
 9375.00000   41.75010   64.18880   50.11080    0.02740   59.51940  100.64990   76.13650    8.71990    3.95070   -3.05580    0.05340
 9375.50000   43.11880   68.67800   53.42100    0.02790   59.55720  100.89300   73.53640    8.71130    4.00230   -2.47380    0.05490
 9376.00000   44.46270   74.87110   57.31510    0.02620   59.55720  100.62920   72.33390    8.72850    4.00090   -0.23150    0.05600
 9376.50000   45.40420   81.06430   61.20920    0.02110   59.62350  100.31750   73.14640    8.72660    3.93920    0.86740    0.05710
 9377.00000   47.04610   86.68460   65.10320    0.02080   59.76250  100.32890   73.30890    8.72740    3.91020    1.43690    0.06030
 9377.50000   47.04610   86.70040   65.88670    0.02160   59.89630  100.82490   71.89900    8.73190    3.90400   -1.20330    0.06060
 9378.00000   46.52020   82.80490   64.40140    0.02720   60.06620  100.90990   72.75890    8.73190    3.89380   -2.92120    0.05860
 9378.50000   44.56890   77.94080   61.24840    0.03290   60.15090  100.80670   72.62040    8.73190    3.88350   -2.72680    0.05660
 9379.00000   42.71310   73.07680   57.62290    0.03500   60.35810  100.87150   72.06990    8.72880    3.87330   -5.86120    0.05750
 9379.50000   41.09940   68.21280   53.99740    0.03700   60.80910  101.16930   73.84580    8.72790    3.86490   -6.38450    0.06000
 9380.00000   40.97700   64.95570   51.69870    0.03810   61.00790  101.76070   78.15540    8.73070    3.86420   -4.53160    0.06250
 9380.50000   41.11110   64.10920   50.76190    0.03930   61.14070  101.91510   82.89300    8.73230    3.86340   -4.98190    0.06510
 9381.00000   42.84610   67.53070   54.73830    0.04200   61.24050  101.56940   85.32070    8.73220    3.86260   -5.38040    0.06590
 9381.50000   42.89890   71.68620   56.47300    0.04590   61.25540  102.72760   87.78790    8.73210    3.86190   -4.93090    0.06610
 9382.00000   42.95160   67.94760   53.48940    0.04450   61.92170  103.81020   87.59240    8.73210    3.83040   -5.33070    0.06980
 9382.50000   43.00440   68.87880   54.64400    0.03800   62.49240  104.21180   84.35180    8.73200    3.81400   -5.45320    0.07350
 9383.00000   44.34160   70.31130   58.15580    0.03140   62.91180  104.77320   80.55520    8.73200    3.80340   -3.50470    0.07050
 9383.50000   40.86570   65.72680   54.25010    0.02810   62.96990  105.09480   78.84700    8.72440    3.76070   -2.52190    0.06590
 9384.00000   38.37980   58.78300   49.93250    0.02810   62.98110  105.52010   85.55310    8.73190    3.77240   -4.52880    0.06880
 9384.50000   35.84980   51.83930   45.61490    0.03490   63.07330  105.57580   99.62490    8.73910    3.78410   -4.28830    0.07500
 9385.00000   39.44930   53.68650   43.01630    0.04320   63.03560  105.67140  112.33800    8.74070    3.79590   -5.62350    0.08810
 9385.50000   46.52840   66.02790   53.11590    0.04870   62.92930  105.90600  112.75620    8.74220    3.90000   -7.85820    0.09370
 9386.00000   46.66820   73.41600   61.19230    0.04320   63.02690  106.58960   96.93460    8.74440    3.92920   -7.60760    0.08580
 9386.50000   38.86910   64.05100   53.32660    0.03890   63.44900  107.19720   79.98830    8.74950    3.92650   -6.62760    0.07210
 9387.00000   32.76820   51.24440   42.56380    0.03760   63.94030  107.50060   71.09250    8.75250    3.88200   -5.39860    0.06490
 9387.50000   26.66720   38.43780   31.80110    0.03630   64.32660  107.80400   75.81050    8.75250    3.76430   -4.32680    0.06730
 9388.00000   23.60670   32.92720   26.97530    0.03690   63.94290  108.01590   84.02230    8.76670    3.66040   -4.78130    0.07150
 9388.50000   21.30640   29.24060   24.50490    0.04250   63.63160  107.45580   98.51910    8.78090    3.56540   -6.88560    0.08110
 9389.00000   21.30160   27.44870   23.55030    0.04870   63.23870  106.47250  114.77140    8.77320    3.50670   -6.11260    0.09360
 9389.50000   21.36860   28.28670   22.46270    0.04960   62.58720  105.63250  121.67870    8.77320    3.49160   -4.16450    0.10970
 9390.00000   22.45220   29.37810   27.39910    0.03990   61.26530  105.00730  101.26880    8.76780    3.55360   -4.39850    0.10170
 9390.50000   33.24820   87.31390   47.28500    0.03350   59.76330  103.68030   74.31050    8.76100    3.71010   -5.06520    0.07290
 9391.00000   57.04500  145.24970   78.52700    0.02790   57.98050  102.17780   55.12820    8.74430    3.86520   -5.59870    0.04410
 9391.50000   61.60990  185.30490  107.63280    0.02710   56.96030   97.67380   50.99430    8.73460    3.98220   -8.62670    0.03560
 9392.00000   63.20370  212.78940  112.71080    0.03000   55.82470   96.03950   52.01120    8.73680    4.04680  -11.81130    0.03190
 9392.50000   72.08840  262.21430  144.28310    0.02940   54.97050   94.70830   46.46610    8.73080    4.15260  -11.25070    0.02820
 9393.00000   95.01880  444.04200  212.17810    0.02550   54.48110   93.53980   43.23270    8.71010    4.28710   -9.59280    0.02480
 9393.50000  107.86650  785.61120  290.79970    0.02130   54.13520   92.61530   39.73990    8.71050    4.37520   -9.59380    0.02410
 9394.00000  113.83940 1930.25080  412.32690    0.01800   53.85780   91.23790   38.02230    8.73270    4.42330  -10.30240    0.02070
 9394.50000  118.97030 1930.25080  494.74530    0.01470   53.91560   92.54180   36.87890    8.73890    4.42330   -9.86300    0.01600
 9395.00000  121.71210 1787.49830  498.50200    0.00480   54.32480   93.84570   37.91610    8.74500    4.39290  -10.21920    0.01130
 9395.50000  120.78050 1308.02740  353.18880   -0.00120   55.48120   94.36000   39.64510    8.74130    4.35230   -8.35020    0.00720
 9396.00000  104.17090  726.74160  194.81670    0.00620   56.81790   95.69040   42.13600    8.72270    4.31990   -6.30360    0.00800
 9396.50000   82.58060  270.87070  114.89430    0.01540   57.99070   98.32910   44.23150    8.70420    4.26770   -6.16520    0.01580
 9397.00000   60.99040  120.25870   81.21810    0.02350   59.64130  100.96780   50.38310    8.70940    4.15450   -6.90940    0.02440
 9397.50000   39.40020   57.78390   60.04960    0.02960   61.91490  103.14020   64.55240    8.72050    3.78480   -7.82590    0.03580
 9398.00000   27.28170   42.59870   38.88120    0.04510   63.58020  106.09820   86.60990    8.73170    3.63800   -9.34500    0.06640
