~Version ---------------------------------------------------
VERS.   2.0 : CWLS log ASCII Standard -VERSION 2.0
WRAP.    NO : One line per depth step
DLM . SPACE : Column Data Section Delimiter
~Well ------------------------------------------------------
STRT .FT               8270.0 : START DEPTH
STOP .FT              10155.0 : STOP DEPTH
STEP .FT                  0.5 : STEP
NULL .               -9999.25 : NULL VALUE
COMP .                        : COMPANY
WELL .                        : WELL
FLD  .                        : FIELD
LOC  .                        : LOCATION
PROV .                        : PROVINCE
CNTY .                        : COUNTY
STAT .                        : STATE
CTRY .                        : COUNTRY
SRVC .                        : SERVICE COMPANY
DATE .                        : DATE
UWI  .                        : UNIQUE WELL ID
API  .                        : API NUMBER
SLAT .WGS84 6.047817939891701 : SURFACE LATITUDE
SLON .WGS84 2.741473395528601 : SURFACE LONGITUDE
DATUM.F                1152.0 : DEPTH DATUM ELEV
~Curve Information -----------------------------------------
DEPT   .FT    : 
AT10   .OHMM  : ARRAY INDUCTION TWO FOOT RESISTIVITY A10
AT30   .OHMM  : ARRAY INDUCTION TWO FOOT RESISTIVITY A30
AT90   .OHMM  : ARRAY INDUCTION TWO FOOT RESISTIVITY A90
DPHZ_LS.DEC   : HGRD STANDARD RESOLUTION DENSITY POROSITY
DTCO   .US/F  : DELTA-T COMPRESSIONAL
DTSM   .US/F  : DELTA-T SHEAR
ECGRS  .GAPI  : ENVIRONMENTALLY CORRECTED GAMMA RAY FROM SONIC LOG
HCALR  .IN    : HRCC CALIPER CALIBRATED FROM RESISTIVITY LOG
PEFZ   .B/E   : HRDD STANDARD RESOLUTION FORMATION PHOTOELECTRIC FACTOR
SPR    .MV    : SPONTANEOUS POTENTIAL FROM RESISTIVITY LOG
TNPH_LS.DEC   : THERMAL NEUTRON POROSITY [LIMESTONE]
~Params ----------------------------------------------------
~Other -----------------------------------------------------
~ASCII -----------------------------------------------------
# ...
 9734.00000  121.04700 1960.11540  261.70720   -0.02870   51.44990  118.30620   34.62020    8.93770    4.42260  -87.26010    0.01090
 9734.50000  121.36860   -9999.25  300.07660   -0.02480   51.08580  113.80180   34.15770    8.92990    4.39150  -87.20350    0.01280
 9735.00000  121.10410   -9999.25  342.10510   -0.01850   50.63590  109.29750   34.28350    8.92210    4.36700  -87.23650    0.01400
 9735.50000  119.15690   -9999.25  398.16410   -0.01290   50.50800  105.23520   35.26680    8.93240    4.43440  -86.73150    0.01280
 9736.00000  117.66520   -9999.25  396.72460   -0.00940   50.48990  102.81680   37.65770    8.95570    4.54340  -86.25200    0.01140
 9736.50000  114.69840   -9999.25  351.09030   -0.01220   50.47190  100.74250   36.09300    8.93460    4.66400  -84.69990    0.01100
 9737.00000  112.52360   -9999.25  335.41360   -0.01660   50.45380  100.13850   31.87320    8.92740    4.73690  -85.03500    0.01060
 9737.50000  112.07640   -9999.25  327.72630   -0.01880   50.43940   97.00210   30.09410    8.92010    4.78570  -85.36030    0.00900
 9738.00000  111.62930   -9999.25  332.90340   -0.01860   50.63650   92.01720   32.17060    8.91950    4.78570  -85.94940    0.00720
 9738.50000  111.28030   -9999.25  324.44460   -0.01570   50.85740   93.17540   36.07250    8.92050    4.79770  -86.81830    0.00700
 9739.00000  111.28030   -9999.25  304.33580   -0.01260   51.07830   96.40470   40.08090    8.92330    4.84470  -90.68010    0.00670
 9739.50000  111.28030   -9999.25  280.42580   -0.00540   51.30940   99.44630   37.36920    8.93120    4.89170  -88.60330    0.00650
 9740.00000  111.28030 1968.16040  250.13090   -0.00390  110.45370  102.20640   34.78780    9.06410    4.99890  -88.42510    0.00410
 9740.50000  111.35270 1957.75700  229.04990   -0.00760  103.81550  104.96640   31.68900    8.97210    5.12510  -88.37830    0.00360
 9741.00000  103.30670 1805.33270  207.06850   -0.01520  105.47490  107.70870   32.57290    9.02920    5.12490  -88.33150    0.00270
 9741.50000   91.33910 1261.54330  187.11310   -0.02340   98.63290  110.15230   34.68420    9.01950    4.95460  -89.92740    0.00380
 9742.00000   82.39480  615.93980  169.61740   -0.03040   92.27080  111.53470   37.10560    9.07220    4.77770  -89.63750    0.00730
 9742.50000   76.72280  404.75700  159.97210   -0.03210   88.99560  112.80590   38.37100    9.08090    4.60660  -88.37240    0.01110
 9743.00000   67.06440  296.30490  139.02070   -0.03130   94.44940  113.24760   36.78290    8.97890    4.37930  -87.05330    0.01570
 9743.50000   62.90410  246.07780  123.77290   -0.02600   93.32710  113.12980   35.77550    8.94470    4.32190  -86.42250    0.01760
 9744.00000   58.19000  202.65830  123.75650   -0.02080   92.87810  112.62910   35.77000    8.93420    4.25850  -86.93670    0.01990
 9744.50000   50.58010  157.99960  116.20070   -0.01480   98.43710  110.80550   37.31310    8.94960    4.20630  -87.59940    0.02230
 9745.00000   46.63590  120.65120  103.66810   -0.01290  103.77680  109.44000   39.44480    8.98250    4.14280  -88.45350    0.02470
 9745.50000   42.77800  101.70290   91.13540   -0.01000  102.44970  107.38900   41.77520    8.99250    4.11730  -90.53700    0.02480
 9746.00000   39.14800   84.49970   78.60270   -0.00520  100.79510  105.12510   43.07940    9.29180    4.11320  -89.48800    0.02650
 9746.50000   36.53140   74.27660   69.31750    0.00470  106.52130  109.31240   44.38360    8.75290    4.14920  -88.62480    0.02900
 9747.00000   35.88710   68.13770   60.84270    0.01020  107.30340  115.17410   44.22110    8.75260    4.16150  -88.94830    0.02930
 9747.50000   37.05570   72.51560   63.65160    0.00510  107.87850  104.92670   43.40850    8.75710    4.21550  -86.68060    0.03010
 9748.00000   41.15990   83.85100   73.05200   -0.00260  110.36590  103.39620   41.35020    8.76860    4.25960  -87.12740    0.02840
 9748.50000   45.10840   95.18650   82.45240   -0.00930  107.20320  102.92110   40.85300    8.78720    4.30360  -88.37000    0.02580
 9749.00000   49.45190  106.52190   92.06620   -0.01080  106.26130  102.44610   40.57610    8.81060    4.31740  -87.45710    0.02410
 9749.50000   57.44330  146.72640  108.56750   -0.01360  106.04400  101.69850   41.39600    8.82470    4.39390  -86.32820    0.02090
 9750.00000   67.06360  235.64000  165.75710   -0.01580  101.07320   99.76050   39.55740    8.83310    4.46470  -85.50580    0.01720
 9750.50000   73.84840  386.79130  200.07080   -0.01810   76.21950   96.60590   38.06490    8.84360    4.53170  -85.36890    0.01340
 9751.00000   70.42060  369.52500  182.12290   -0.02110   51.36580   94.96180   34.43110    8.85630    4.59890  -86.28640    0.01100
 9751.50000   67.90430  341.12100  164.17500   -0.01490   51.08820   94.86880   31.53570    8.85630    4.68150  -90.10140    0.00970
 9752.00000   65.78370  320.77410  150.58030   -0.01160   50.91070   94.79460   30.06200    8.85630    4.70300  -91.98510    0.01130
 9752.50000   63.88120  307.09160  158.62120   -0.01010   50.98860   94.77830   30.71770    8.85630    4.72710  -93.15790    0.01140
 9753.00000   61.59530  273.89490  155.42080   -0.00780   51.06650   94.93010   30.73330    8.85780    4.75120  -92.77300    0.01440
 9753.50000   61.65320  257.28150  150.29840   -0.00960   51.14430   96.05740   30.16790    8.85780    4.73190  -90.94350    0.01570
 9754.00000   61.71110  257.44580  146.50360   -0.01150   78.30740   97.78340   29.46120    8.85780    4.69960  -90.42500    0.01550
 9754.50000   61.76900  259.21860  145.39100   -0.02180  106.27070   99.21270   29.84430    8.85890    4.66330  -89.51300    0.01420
 9755.00000   61.82690  264.85750  165.36950   -0.02250  107.01440   99.54310   30.37960    8.84540    4.67350  -90.79850    0.01470
 9755.50000   61.88490  275.70000  170.52610   -0.01790  107.72140  100.02800   30.61910    8.85350    4.74660  -90.07660    0.01610
 9756.00000   62.51910  267.22610  153.90660   -0.01360  107.26620  101.34880   31.22080    8.86000    4.84700  -89.19620    0.01740
 9756.50000   64.40530  279.29080  162.86980   -0.01330  104.66330  102.71950   32.87310    8.85100    4.90170  -88.26130    0.01530
 9757.00000   66.97680  335.25460  173.10950   -0.01620   97.92440  103.34120   30.62940    8.85350    4.89810  -88.34040    0.01440
 9757.50000   68.84510  398.87580  170.99220   -0.01890   97.42990  103.60290   29.53320    8.85380    4.87700  -89.32130    0.01540
 9758.00000   70.71330  377.49930  170.30770   -0.02120   97.98820  102.65830   28.60950    8.84740    4.86030  -90.30230    0.01500
 9758.50000   73.60010  361.48870  168.92380   -0.02190   98.55910  100.93370   28.30140    8.84930    4.85160  -91.94980    0.01360
 9759.00000   72.76000  375.27080  171.06120   -0.02280   98.95930   -9999.25   27.99320    8.85120    4.83740  -90.88000    0.01310
 9759.50000   72.04140  364.64360  169.90720   -0.02690   98.87330   -9999.25   27.80830    8.86250    4.82320  -91.98330    0.01420
 9760.00000   69.14110  332.67030  164.61810   -0.02870   98.31760   -9999.25   30.26900    8.85380    4.75610  -91.82500    0.01730
 9760.50000   67.17060  303.53580  153.23160   -0.03040  101.79300   -9999.25   34.30850    8.84550    4.69720  -90.22610    0.02200
 9761.00000   65.18080  285.75660  149.39530   -0.03050  106.39290   -9999.25   35.10040    8.85630    4.65410  -88.62710    0.02250
 9761.50000   64.56080  267.59380  141.34030   -0.03700  107.10050   -9999.25   34.26720    8.85870    4.55460  -89.14740    0.02200
 9762.00000   62.97010  247.89670  129.73600   -0.04020  106.73570   -9999.25   33.00140    8.85910    4.51980  -89.29470    0.01900
 9762.50000   61.27540  232.13900  131.64410   -0.04720  106.33080   -9999.25   33.92480    8.85950    4.49840  -88.20350    0.01760
 9763.00000   61.63340  230.71650  141.12300   -0.04300  107.13320   -9999.25   34.66610    8.85200    4.53910  -89.68340    0.01760
 9763.50000   61.99140  233.67080  145.72760   -0.03450  106.59920   -9999.25   33.15230    8.83680    4.61650  -89.13670    0.01880
 9764.00000   64.98400  267.87740  151.19110   -0.02130  104.95320   -9999.25   31.38470    8.83650    4.61930  -88.28990    0.01780
