~Version ---------------------------------------------------
VERS.   2.0 : CWLS log ASCII Standard -VERSION 2.0
WRAP.    NO : One line per depth step
DLM . SPACE : Column Data Section Delimiter
~Well ------------------------------------------------------
STRT .FT               8270.0 : START DEPTH
STOP .FT              10155.0 : STOP DEPTH
STEP .FT                  0.5 : STEP
NULL .               -9999.25 : NULL VALUE
COMP .                        : COMPANY
WELL .                        : WELL
FLD  .                        : FIELD
LOC  .                        : LOCATION
PROV .                        : PROVINCE
CNTY .                        : COUNTY
STAT .                        : STATE
CTRY .                        : COUNTRY
SRVC .                        : SERVICE COMPANY
DATE .                        : DATE
UWI  .                        : UNIQUE WELL ID
API  .                        : API NUMBER
SLAT .WGS84 6.047817939891701 : SURFACE LATITUDE
SLON .WGS84 2.741473395528601 : SURFACE LONGITUDE
DATUM.F                1152.0 : DEPTH DATUM ELEV
~Curve Information -----------------------------------------
DEPT   .FT    : 
AT10   .OHMM  : ARRAY INDUCTION TWO FOOT RESISTIVITY A10
AT30   .OHMM  : ARRAY INDUCTION TWO FOOT RESISTIVITY A30
AT90   .OHMM  : ARRAY INDUCTION TWO FOOT RESISTIVITY A90
DPHZ_LS.DEC   : HGRD STANDARD RESOLUTION DENSITY POROSITY
DTCO   .US/F  : DELTA-T COMPRESSIONAL
DTSM   .US/F  : DELTA-T SHEAR
ECGRS  .GAPI  : ENVIRONMENTALLY CORRECTED GAMMA RAY FROM SONIC LOG
HCALR  .IN    : HRCC CALIPER CALIBRATED FROM RESISTIVITY LOG
PEFZ   .B/E   : HRDD STANDARD RESOLUTION FORMATION PHOTOELECTRIC FACTOR
SPR    .MV    : SPONTANEOUS POTENTIAL FROM RESISTIVITY LOG
TNPH_LS.DEC   : THERMAL NEUTRON POROSITY [LIMESTONE]
~Params ----------------------------------------------------
~Other -----------------------------------------------------
~ASCII -----------------------------------------------------
# ...
 8514.00000    6.30460    6.55700    6.88860    0.03280   72.04790  142.10460   47.63610    8.92780    4.48530  197.94500    0.15260
 8514.50000    6.20260    6.45080    6.85850    0.03370   72.20380  142.79690   47.23990    8.92780    4.49420  197.79900    0.15170
 8515.00000    6.12010    6.36510    6.70810    0.03250   72.26350  142.86290   46.75750    8.92780    4.44450  196.96900    0.15080
 8515.50000    6.02420    6.26530    6.55770    0.02580   72.23970  143.00100   46.84460    8.93500    4.35090  197.75220    0.15470
 8516.00000    5.92830    6.16560    6.40730    0.02100   72.30650  142.89980   48.15670    8.93030    4.28800  198.29360    0.16000
 8516.50000    5.83240    6.06590    6.25690    0.02140   72.25200  142.88980   50.06020    8.93590    4.24310  198.83500    0.16510
 8517.00000    5.53690    5.75850    5.93990    0.02220   72.15310  142.66710   50.86030    8.93990    4.21660  198.91350    0.16200
 8517.50000    5.38840    5.60410    5.78060    0.02760   71.85240  142.44440   49.04330    8.94290    4.24070  199.75190    0.16920
 8518.00000    5.23990    5.44970    5.62130    0.03520   71.93220  142.11870   47.95190    8.94600    4.29400  201.64120    0.17300
 8518.50000    5.21020    5.41880    5.58940    0.04120   71.95260  142.01340   49.58000    8.95890    4.33320  200.75670    0.17270
 8519.00000    5.29270    5.50460    5.67790    0.03900   71.85060  141.94180   51.06680    8.95320    4.37250  201.43270    0.17170
 8519.50000    5.49900    5.71910    5.89920    0.03750   71.79960  141.39200   50.86000    8.95950    4.41180  202.49480    0.16640
 8520.00000    5.70530    5.93370    6.12050    0.03570   71.04880  140.24310   48.38110    8.94430    4.43000  199.45780    0.16120
 8520.50000    5.91160    6.14820    6.34180    0.03300   70.87670  139.61810   44.96860    8.94340    4.43050  198.07480    0.15910
 8521.00000    6.08030    6.32370    6.52280    0.02530   70.90690  139.77960   43.73350    8.94240    4.37300  195.69060    0.16050
 8521.50000    6.09870    6.34290    6.54260    0.02150   70.88350  140.24030   46.00860    8.94140    4.37740  196.57800    0.15980
 8522.00000    6.11720    6.36200    6.56230    0.02630   70.88710  140.45010   47.40150    8.94040    4.46200  197.78710    0.16280
 8522.50000    6.13560    6.38120    6.58210    0.03280   70.83400  140.32640   49.15710    8.93950    4.49770  198.40420    0.16460
 8523.00000    6.07020    6.31320    6.51190    0.03520   70.93240  140.40270   50.96650    8.93850    4.51890  198.61410    0.16410
 8523.50000    5.98380    6.22340    6.41930    0.03550   70.81770  140.32250   51.28370    8.94070    4.49910  198.82390    0.16360
 8524.00000    5.89750    6.13360    6.32670    0.03610   70.57140  139.48650   48.86540    8.94500    4.50710  198.85220    0.15990
 8524.50000    5.81110    6.04370    6.23400    0.03820   70.39550  139.26290   44.83250    8.95250    4.52610  199.65940    0.15770
 8525.00000    5.72480    5.95390    6.14140    0.03960   70.33660  139.21830   43.96350    8.96050    4.54520  199.95620    0.16310
 8525.50000    5.65570    5.88210    6.06730    0.03830   70.33880  139.22750   46.58580    8.96540    4.55280  200.08680    0.17140
 8526.00000    5.76830    5.99920    6.18810    0.03480   70.36120  139.46740   50.04990    8.97030    4.53080  200.31300    0.16860
 8526.50000    6.04970    6.29180    6.48990    0.03190   70.33060  139.49110   50.10860    8.97510    4.51530  198.76410    0.15440
 8527.00000    6.33110    6.58450    6.79180    0.02930   70.37020  139.43750   48.42720    8.98000    4.49520  196.70310    0.14540
 8527.50000    6.20260    6.45080    6.65390    0.03030   70.33840  139.38380   47.66700    8.98490    4.46620  194.74540    0.14110
 8528.00000    6.08950    6.33320    6.53270    0.03090   70.35580  139.33010   48.73670    8.98970    4.42260  195.57170    0.13900
 8528.50000    5.97640    6.21570    6.41140    0.02910   70.32030  139.27640   48.05350    8.99460    4.39370  196.39580    0.14490
 8529.00000    5.86340    6.09810    6.29010    0.03230   70.36330  139.22270   47.96820    8.99950    4.44900  195.88500    0.15530
 8529.50000    5.80050    6.03270    6.22260    0.03790   70.53580  139.68490   48.13080    8.99520    4.50790  197.12060    0.16010
 8530.00000    5.93860    6.17630    6.37080    0.04340   71.12240  140.21870   48.33060    8.99980    4.51970  196.84140    0.16500
 8530.50000    6.07660    6.31990    6.51890    0.04330   71.21090  140.62800   48.57750    9.00440    4.50390  196.38520    0.16410
 8531.00000    5.91830    6.15520    6.34900    0.04320   70.72740  141.17350   48.14780    9.00900    4.47760  197.94210    0.16330
 8531.50000    5.74330    5.97320    6.16130    0.04560   70.37160  141.28290   48.76020    9.00550    4.44240  199.25130    0.17040
 8532.00000    5.56840    5.79130    5.97360    0.04570   70.37840  140.84760   48.27110    9.00200    4.41280  198.37690    0.17770
 8532.50000    5.48480    5.70440    5.88400    0.04200   70.31650  140.07750   47.70310    8.99970    4.38190  198.26700    0.17980
 8533.00000    5.76690    5.99770    6.18660    0.04100   70.12170  139.24040   47.21510    8.99910    4.38950  197.77600    0.17280
 8533.50000    6.04900    6.29110    6.48920    0.04400   69.92690  138.40330   46.37350    8.99850    4.43960  195.33640    0.16430
 8534.00000    6.33110    6.58450    6.79180    0.04880   69.07730  137.56080   46.69450    8.99800    4.49880  194.49360    0.16030
 8534.50000    6.59340    6.85740    7.07330    0.04740   68.79170  136.96130   47.11110    8.99740    4.51550  194.39050    0.15450
 8535.00000    6.87240    7.14750    7.37250    0.04420   68.64390  135.95390   48.05250    8.99680    4.53400  194.28740    0.15030
 8535.50000    6.93230    7.20980    7.43680    0.03680   67.85270  135.75170   48.07240    8.99620    4.49780  195.45500    0.14760
 8536.00000    6.99230    7.27220    7.50120    0.02820   67.01540  135.45020   45.85040    8.99560    4.43740  195.29400    0.15160
 8536.50000    7.05230    7.33450    7.56550    0.02020   67.87830  135.50370   44.00510    8.99510    4.37690  194.97740    0.15060
 8537.00000    7.11220    7.39690    7.62980    0.01620   68.09420  135.63350   42.60230    8.99450    4.35090  195.90050    0.15020
 8537.50000    7.23140    7.52090    7.87150    0.02750   68.93540  135.91730   44.06260    8.99390    4.44370  196.85120    0.15120
 8538.00000    7.58770    7.89140    8.82300    0.04190   69.96330  136.81520   45.85000    8.99330    4.59810  196.77260    0.15410
 8538.50000    7.94390    8.26190    9.77450    0.04500   70.71860  138.36510   47.43130    9.01280    4.74780  197.42670    0.15910
 8539.00000    8.01520    8.33600    9.86330    0.04410   71.11650  138.72430   48.23570    9.32870    4.70470  197.08400    0.16070
 8539.50000    7.45210    7.75040    8.58350    0.04890   72.05460  139.17870   47.84600    9.54160    4.61310  195.61780    0.16680
 8540.00000    6.65140    6.91760    7.30370    0.05300   72.26390  139.65690   46.88700    9.75110    4.49560  193.96710    0.17280
 8540.50000    6.49760    6.75770    6.97050    0.04750   72.48880  140.13520   45.45730    9.26250    4.37010  194.00270    0.17590
 8541.00000    6.73290    7.00240    7.22290    0.03960   72.60670  140.61340   44.54610    8.92330    4.34370  193.14270    0.17260
 8541.50000    6.73290    7.00240    7.22290    0.04350   72.59270  141.09160   45.91110    8.93250    4.40880  193.61520    0.16390
 8542.00000    6.60100    6.84800    7.06370    0.04700   71.84450  141.38590   47.40410    8.95060    4.45430  193.79370    0.16670
 8542.50000    6.27120    6.46220    6.66570    0.04460   70.99010  140.69540   48.47550    8.94030    4.43980  194.12590    0.16500
 8543.00000    6.13930    6.38500    6.65390    0.03980   70.92000  140.43470   50.76630    8.92330    4.41360  194.40280    0.16110
 8543.50000    6.45900    6.71760    6.92910    0.03500   70.81770  140.45190   49.47710    8.91430    4.41080  194.01400    0.15630
 8544.00000    6.66420    6.93090    7.14920    0.03040   70.63100  140.42470   50.20630    8.90540    4.38190  195.06040    0.15460
