~Version ---------------------------------------------------
VERS.   2.0 : CWLS log ASCII Standard -VERSION 2.0
WRAP.    NO : One line per depth step
DLM . SPACE : Column Data Section Delimiter
~Well ------------------------------------------------------
STRT .FT               8270.0 : START DEPTH
STOP .FT              10155.0 : STOP DEPTH
STEP .FT                  0.5 : STEP
NULL .               -9999.25 : NULL VALUE
COMP .                        : COMPANY
WELL .                        : WELL
FLD  .                        : FIELD
LOC  .                        : LOCATION
PROV .                        : PROVINCE
CNTY .                        : COUNTY
STAT .                        : STATE
CTRY .                        : COUNTRY
SRVC .                        : SERVICE COMPANY
DATE .                        : DATE
UWI  .                        : UNIQUE WELL ID
API  .                        : API NUMBER
SLAT .WGS84 6.047817939891701 : SURFACE LATITUDE
SLON .WGS84 2.741473395528601 : SURFACE LONGITUDE
DATUM.F                1152.0 : DEPTH DATUM ELEV
~Curve Information -----------------------------------------
DEPT   .FT    : 
AT10   .OHMM  : ARRAY INDUCTION TWO FOOT RESISTIVITY A10
AT30   .OHMM  : ARRAY INDUCTION TWO FOOT RESISTIVITY A30
AT90   .OHMM  : ARRAY INDUCTION TWO FOOT RESISTIVITY A90
DPHZ_LS.DEC   : HGRD STANDARD RESOLUTION DENSITY POROSITY
DTCO   .US/F  : DELTA-T COMPRESSIONAL
DTSM   .US/F  : DELTA-T SHEAR
ECGRS  .GAPI  : ENVIRONMENTALLY CORRECTED GAMMA RAY FROM SONIC LOG
HCALR  .IN    : HRCC CALIPER CALIBRATED FROM RESISTIVITY LOG
PEFZ   .B/E   : HRDD STANDARD RESOLUTION FORMATION PHOTOELECTRIC FACTOR
SPR    .MV    : SPONTANEOUS POTENTIAL FROM RESISTIVITY LOG
TNPH_LS.DEC   : THERMAL NEUTRON POROSITY [LIMESTONE]
~Params ----------------------------------------------------
~Other -----------------------------------------------------
~ASCII -----------------------------------------------------
# ...
 8636.00000    3.52460    3.71090    3.94540    0.08060   78.29020  157.12810   53.24920    8.91990    5.17140  166.98920    0.21950
 8636.50000    3.55880    3.74430    3.98130    0.06860   78.30130  156.97370   54.48680    8.95530    5.02430  165.77790    0.22750
 8637.00000    3.56150    3.77770    4.01730    0.06490   78.31820  157.05930   57.46800    9.03060    4.87200  166.69030    0.22450
 8637.50000    3.59100    3.81110    4.05320    0.06650   78.26640  157.06570   58.02550    9.03310    4.77490  165.27690    0.21400
 8638.00000    3.62050    3.84450    4.08910    0.06430   78.38070  156.95070   57.71000    8.98170    4.71260  162.13300    0.20520
 8638.50000    3.65000    3.88870    4.12500    0.06410   78.41710  156.93780   57.39460    8.96170    4.73400  162.25640    0.20650
 8639.00000    3.67950    3.89850    4.19320    0.05900   78.30810  157.06270   57.49130    8.96900    4.75800  160.88590    0.20890
 8639.50000    3.65810    3.90840    4.18220    0.05330   78.10520  157.60460   57.48830    8.98150    4.78560  160.63280    0.21130
 8640.00000    3.63660    3.91830    4.10860    0.05240   78.01500  158.42450   55.49700    8.98900    4.81320  161.27230    0.21550
 8640.50000    3.60200    3.91310    4.04220    0.05670   78.44590  158.59970   53.32190    8.98840    4.75560  162.70150    0.22100
 8641.00000    3.55860    3.84770    4.00510    0.05720   78.49630  158.72620   56.14650    8.98790    4.66680  164.02570    0.21800
 8641.50000    3.51510    3.78230    3.96800    0.05970   78.43540  158.61340   55.34950    8.98730    4.61310  163.59120    0.20990
 8642.00000    3.47170    3.73420    3.93080    0.05890   78.45710  158.67060   54.65840    8.98670    4.58470  162.54110    0.21050
 8642.50000    3.42830    3.74910    3.89370    0.06150   78.55830  158.63040   53.01440    8.98620    4.62950  164.87880    0.19980
 8643.00000    3.43840    3.74900    3.85660    0.06210   78.61860  158.62030   54.20060    8.98600    4.74760  164.06590    0.20240
 8643.50000    3.37060    3.70300    3.81940    0.06510   78.51330  158.32310   56.00570    9.04890    4.84630  163.89770    0.20240
 8644.00000    3.34610    3.73350    3.93190    0.06130   77.97130  157.35190   52.20270    9.02970    4.82370  164.68780    0.20530
 8644.50000    3.72520    4.00180    4.12770    0.06120   77.16940  156.38060   49.46230    8.96710    4.80100  161.79340    0.20640
 8645.00000    4.10430    4.30490    4.44030    0.05470   77.22180  156.06880   49.64150    8.96250    4.72910  161.43800    0.19790
 8645.50000    4.25650    4.42670    4.56600    0.05350   77.31790  155.97510   54.01060    8.93770    4.58340  160.60800    0.19180
 8646.00000    4.01090    4.17130    4.30250    0.07840   77.27830  156.34510   57.19880    8.95540    4.60620  160.91780    0.19010
 8646.50000    3.76080    3.91120    4.03420    0.12330   76.93560  155.76060   55.83020    8.99290    5.16950  161.06380    0.20390
 8647.00000    3.51070    3.65100    3.76590    0.13940   77.06420  153.22200   50.40320    9.00250    5.73290  162.04420    0.21540
 8647.50000    3.36120    3.49560    3.60560    0.10620   69.93050  146.69760   46.12640    9.40850    6.29620  163.26850    0.22700
 8648.00000    3.55110    3.69310    4.19790    0.06340   69.19650  141.47250   42.61790    9.51210    6.83510  163.62580    0.24380
 8648.50000    4.19910    5.40230    5.53700    0.03770   69.36640  139.92930   45.09510    9.60460    6.89270  164.39620    0.20260
 8649.00000    6.93000    8.01340    9.63250    0.01550   69.69680  140.07510   46.67970    8.98380    6.52130  166.31430    0.14580
 8649.50000   12.61510   17.61400   22.01450   -0.00110   70.45100  140.11790   48.35190    8.83150    5.89360  165.66680    0.09790
 8650.00000   14.29980   18.99660   22.10650    0.00250   71.41660  140.31260   46.45030    8.84490    5.42570  165.87050    0.06750
 8650.50000    8.77610    9.01580   15.15000    0.01700   72.62580  140.41540   44.70860    8.85720    5.42090  165.89710    0.08030
 8651.00000    5.43500    6.11270    6.58770    0.01370   72.53170  140.33180   49.25860    8.86480    5.39890  162.04500    0.12600
 8651.50000    4.11610    4.46860    4.61160    0.01270   72.11720  141.84740   57.45630    8.87250    5.25560  157.97620    0.16900
 8652.00000    3.85200    4.02380    4.17320    0.02470   72.55590  142.55960   63.22370    9.10210    5.11780  154.68960    0.19680
 8652.50000    3.89890    4.05480    4.30060    0.04510   68.47790  136.54390   65.94820    8.89440    5.01300  157.19720    0.20570
 8653.00000    4.33360    4.50690    4.77670    0.05720   67.92010  131.25980   64.86040    8.74470    5.12330  160.51540    0.20970
 8653.50000    4.87700    5.07200    5.25290    0.05850   67.89110  130.31660   59.71980    8.80210    5.11230  158.96480    0.20330
 8654.00000    6.01120    6.25160    7.52830    0.04780   67.80740  130.34560   52.12210    9.03910    4.99240  160.31270    0.16970
 8654.50000    8.38750    8.72280   10.25370    0.02710   67.89340  130.21270   47.89630    8.87940    4.83390  160.93940    0.12710
 8655.00000    9.00860    9.36890   10.65430    0.01320   67.87970  130.01490   48.43220    8.83460    4.71980  160.07540    0.11350
 8655.50000    7.45370    7.75180    8.96330    0.00810   67.67230  130.25200   49.73610    8.83490    4.65370  160.44320    0.10870
 8656.00000    6.77950    7.05060    7.27230    0.00650   66.94530  129.88180   50.66120    8.83630    4.58150  162.73710    0.12020
 8656.50000    6.51870    7.05060    7.27230    0.00540   66.99050  128.87580   50.88620    8.83840    4.51850  162.70880    0.13460
 8657.00000    6.80110    7.45270    7.89250    0.01190   66.98950  128.09700   49.09770    8.84030    4.51150  162.47420    0.14350
 8657.50000    7.37740    7.67240    8.52700    0.01890   67.15920  127.95930   47.71420    8.84410    4.58330  161.02280    0.15240
 8658.00000    6.81020    7.08250    7.76800    0.02050   67.00090  128.18660   47.31420    8.84800    4.65240  157.91920    0.15770
 8658.50000    6.27810    6.52910    6.92950    0.00890   66.62940  128.38840   49.95890    8.89690    4.67570  156.79030    0.14910
 8659.00000    6.77220    7.04300    7.51230    0.00800   66.19490  128.40820   50.62790    8.86120    4.64430  156.92780    0.13810
 8659.50000    7.59580    7.89950    8.24090    0.00780   66.05140  128.26940   50.03320    8.85050    4.64180  157.86890    0.12780
 8660.00000    7.97760    8.29660    8.56990    0.01380   66.02550  128.02470   45.86540    8.84170    4.63930  158.59780    0.12130
 8660.50000    7.85180    8.16570    8.46580    0.01640   66.01140  127.78000   43.73350    8.83470    4.56290  159.42920    0.12610
 8661.00000    7.72590    8.03480    8.36160    0.01860   66.06200  127.55130   43.73350    8.90130    4.47630  160.43700    0.12980
 8661.50000    7.67700    7.98400    8.25750    0.02070   65.84940  127.21810   46.47580    8.87700    4.40820  160.56200    0.12520
 8662.00000    7.79080    8.10230    8.35710    0.02720   65.65600  127.06550   47.94150    8.86330    4.41980  160.97410    0.12190
 8662.50000    7.93120    8.24830    8.50780    0.03370   65.54600  127.41310   47.62620    8.88480    4.52900  161.67910    0.11890
 8663.00000    7.92870    8.24570    8.50500    0.02920   65.55470  127.48350   47.43720    8.86680    4.63580  160.95660    0.12080
 8663.50000    7.81100    8.12340    8.37880    0.02620   65.54300  127.30250   45.29490    8.92490    4.74260  160.23420    0.12400
 8664.00000    8.81920    9.17180    9.46030    0.02570   65.65900  127.12940   42.26060    9.19530    4.86290  159.51170    0.11610
 8664.50000   11.04820   11.48960   11.85140    0.02920   65.94690  127.52860   39.68400    8.87860    4.91840  156.87780    0.10590
 8665.00000   10.33980   10.75330   11.09150    0.03040   66.47630  128.04900   41.74230    8.99240    4.87900  154.92760    0.10540
 8665.50000    8.45120    8.78910    9.06560    0.02690   66.71610  127.88820   44.50950    9.10620    4.79000  156.14550    0.11120
 8666.00000    8.12080    8.44550    8.71110    0.03030   66.75300  127.73620   47.08920    8.88630    4.70090  157.15340    0.11640
