~Version ---------------------------------------------------
VERS.   2.0 : CWLS log ASCII Standard -VERSION 2.0
WRAP.    NO : One line per depth step
DLM . SPACE : Column Data Section Delimiter
~Well ------------------------------------------------------
STRT .FT               8270.0 : START DEPTH
STOP .FT              10155.0 : STOP DEPTH
STEP .FT                  0.5 : STEP
NULL .               -9999.25 : NULL VALUE
COMP .                        : COMPANY
WELL .                        : WELL
FLD  .                        : FIELD
LOC  .                        : LOCATION
PROV .                        : PROVINCE
CNTY .                        : COUNTY
STAT .                        : STATE
CTRY .                        : COUNTRY
SRVC .                        : SERVICE COMPANY
DATE .                        : DATE
UWI  .                        : UNIQUE WELL ID
API  .                        : API NUMBER
SLAT .WGS84 6.047817939891701 : SURFACE LATITUDE
SLON .WGS84 2.741473395528601 : SURFACE LONGITUDE
DATUM.F                1152.0 : DEPTH DATUM ELEV
~Curve Information -----------------------------------------
DEPT   .FT    : 
AT10   .OHMM  : ARRAY INDUCTION TWO FOOT RESISTIVITY A10
AT30   .OHMM  : ARRAY INDUCTION TWO FOOT RESISTIVITY A30
AT90   .OHMM  : ARRAY INDUCTION TWO FOOT RESISTIVITY A90
DPHZ_LS.DEC   : HGRD STANDARD RESOLUTION DENSITY POROSITY
DTCO   .US/F  : DELTA-T COMPRESSIONAL
DTSM   .US/F  : DELTA-T SHEAR
ECGRS  .GAPI  : ENVIRONMENTALLY CORRECTED GAMMA RAY FROM SONIC LOG
HCALR  .IN    : HRCC CALIPER CALIBRATED FROM RESISTIVITY LOG
PEFZ   .B/E   : HRDD STANDARD RESOLUTION FORMATION PHOTOELECTRIC FACTOR
SPR    .MV    : SPONTANEOUS POTENTIAL FROM RESISTIVITY LOG
TNPH_LS.DEC   : THERMAL NEUTRON POROSITY [LIMESTONE]
~Params ----------------------------------------------------
~Other -----------------------------------------------------
~ASCII -----------------------------------------------------
 8270.00000   -9999.25   -9999.25   -9999.25   -9999.25   -9999.25   -9999.25   70.45990   -9999.25   -9999.25   -9999.25    0.45980
 8270.50000   -9999.25   -9999.25   -9999.25   -9999.25   -9999.25   -9999.25   75.52440   -9999.25   -9999.25   -9999.25    0.45170
 8271.00000   -9999.25   -9999.25   -9999.25   -9999.25   -9999.25   -9999.25   80.04100   -9999.25   -9999.25   -9999.25    0.43940
 8271.50000   -9999.25   -9999.25   -9999.25   -9999.25   -9999.25   -9999.25   83.41550   -9999.25   -9999.25   -9999.25    0.43420
 8272.00000   -9999.25   -9999.25   -9999.25   -9999.25   -9999.25   -9999.25   81.07410   -9999.25   -9999.25   -9999.25    0.43020
 8272.50000   -9999.25   -9999.25   -9999.25   -9999.25   -9999.25   -9999.25   75.85220   -9999.25   -9999.25   -9999.25    0.42150
 8273.00000   -9999.25   -9999.25   -9999.25   -9999.25   -9999.25   -9999.25   65.71490   -9999.25   -9999.25   -9999.25    0.41110
 8273.50000   -9999.25   -9999.25   -9999.25   -9999.25   -9999.25   -9999.25   58.33000   -9999.25   -9999.25   -9999.25    0.40710
 8274.00000   -9999.25   -9999.25   -9999.25   -9999.25   -9999.25   -9999.25   53.57790   -9999.25   -9999.25   -9999.25    0.39080
 8274.50000   -9999.25   -9999.25   -9999.25   -9999.25   -9999.25   -9999.25   52.58450   -9999.25   -9999.25   -9999.25    0.37390
 8275.00000   -9999.25   -9999.25   -9999.25   -9999.25   -9999.25   -9999.25   51.72420   -9999.25   -9999.25   -9999.25    0.35860
 8275.50000   -9999.25   -9999.25   -9999.25   -9999.25   -9999.25   -9999.25   48.96310   -9999.25   -9999.25   -9999.25    0.29790
 8276.00000   -9999.25   -9999.25   -9999.25   -9999.25   -9999.25   -9999.25   45.25050   -9999.25   -9999.25   -9999.25    0.22920
 8276.50000   -9999.25   -9999.25   -9999.25   -9999.25   -9999.25   -9999.25   41.61910   -9999.25   -9999.25   -9999.25    0.18420
 8277.00000   -9999.25   -9999.25   -9999.25   -9999.25   -9999.25   -9999.25   40.59880   -9999.25   -9999.25   -9999.25    0.17180
 8277.50000   -9999.25   -9999.25   -9999.25   -9999.25   -9999.25   -9999.25   38.58730   -9999.25   -9999.25   -9999.25    0.18290
 8278.00000   -9999.25   -9999.25   -9999.25   -9999.25   -9999.25   -9999.25   39.29450   -9999.25   -9999.25   -9999.25    0.17060
 8278.50000   -9999.25   -9999.25   -9999.25   -9999.25   -9999.25   -9999.25   39.37080   -9999.25   -9999.25   -9999.25    0.16000
 8279.00000   -9999.25   -9999.25   -9999.25   -9999.25   -9999.25   -9999.25   39.29870   -9999.25   -9999.25   -9999.25    0.14010
 8279.50000   -9999.25   -9999.25   -9999.25   -9999.25   -9999.25   -9999.25   37.79230   -9999.25   -9999.25   -9999.25    0.13090
 8280.00000   -9999.25   -9999.25   -9999.25   -9999.25   -9999.25   -9999.25   37.95340   -9999.25   -9999.25   -9999.25    0.12160
 8280.50000   -9999.25   -9999.25   -9999.25   -9999.25   -9999.25   -9999.25   39.74220   -9999.25   -9999.25   -9999.25    0.10580
 8281.00000   -9999.25   -9999.25   -9999.25   -9999.25   -9999.25   -9999.25   42.82850   -9999.25   -9999.25   -9999.25    0.07940
 8281.50000   -9999.25   -9999.25   -9999.25   -9999.25   -9999.25   -9999.25   43.54890   -9999.25   -9999.25   -9999.25    0.05920
 8282.00000    1.70180   18.19070    3.13770   -0.10080   49.85160  102.96130   44.24950    8.83780    9.97810  241.02470    0.04850
 8282.50000    2.42230   25.82950    6.05150   -0.10120   49.46970  101.58450   44.51460    8.95910    9.84560  240.02630    0.06000
 8283.00000    2.66920   19.96380    4.11680   -0.10150   49.38970  102.35170   43.78970    9.00920    8.76460  241.59480    0.05780
 8283.50000    2.25400   10.18620    3.00650   -0.10180   49.74970  109.37580   42.80920    8.87680    7.69010  241.25680    0.02190
 8284.00000    0.90960    2.57170    0.75830   -0.07500   52.22670  106.44270   44.34410    8.71410    6.51890  239.44770   -0.00210
 8284.50000    1.37870    5.12110    1.94610   -0.00880   56.88920  103.83970   53.77820    8.71410    5.66190  237.03910   -0.00390
 8285.00000    1.86690    9.72280    2.95110   -0.00040   56.75660   98.30970   74.84000    8.71410    5.37260  234.48360   -0.00080
 8285.50000    2.45590   11.37700    3.16100    0.00880   59.06170  111.11540  100.22550    8.71410    5.38270  234.05680    0.00380
 8286.00000    2.84010    7.49300    3.74030    0.03720   59.53910  115.76840  112.34010    8.72820    5.63710  235.20590    0.00850
 8286.50000    2.86240    7.45000    4.75360    0.06570   71.19440  117.08020  108.47480    8.89630    6.07050  234.90000    0.02120
 8287.00000    3.32360    8.53960    5.77490    0.09410   99.08520  119.39170  104.29230    9.28480    6.50400  235.32600    0.03320
 8287.50000    4.17930    6.65690    5.90940    0.12620   94.76960  140.51020  100.80240    8.76710    6.70220  235.64190    0.11560
 8288.00000    4.35030    4.94010    4.72990    0.15990   92.72100  142.17800  101.93990    9.34280    6.68600  235.95770    0.26880
 8288.50000    4.50720    4.25360    3.78640    0.17310   92.60090  142.00800   87.29430    9.81970    6.62250  236.14100    0.36520
 8289.00000    4.78920    4.51090    4.31620    0.15430   92.59850  141.99890   74.62000    9.34990    6.55890  236.02960    0.30160
 8289.50000    5.09820    4.66550    4.38630    0.13330   92.82540  141.98970   71.24920    9.58270    6.56550  237.60810    0.19170
 8290.00000    5.03620    4.70580    4.33620    0.08680   92.73270  141.98910   77.48010    9.59870    6.59510  236.35770    0.10670
 8290.50000    5.05910    4.86080    5.44550    0.08740   92.80110  142.14660   82.52560    9.55020    6.74550  234.19290    0.04450
 8291.00000    7.60270    9.38520   10.58920    0.14470   93.73870  142.47770   90.04750    8.76950    7.10180  233.81450    0.05010
 8291.50000   10.18350   12.96040   17.35600    0.27070   94.81960  153.00220   98.35760    8.93830    7.53930  233.22340    0.07150
 8292.00000    7.53130   10.18550   13.15460    0.29980   95.09520  162.36770  110.22780    9.96910    7.81890  232.63230    0.15620
 8292.50000    4.87900    5.70860    7.24360    0.29980   95.20700  172.11760  115.56890   10.98750    7.64490  233.32990    0.29850
 8293.00000    3.33970    3.68390    4.21570    0.27090   94.81350  176.76590  111.17190   12.40170    7.26220  233.56030    0.47070
 8293.50000    3.46980    4.26610    4.50440    0.23020   91.91460  182.53020  108.80710   11.92470    6.93390  235.07120    0.39010
 8294.00000    3.46990    4.58850    4.73290    0.22220   90.05300  188.29450  112.33480   11.49570    6.92240  234.51640    0.36520
 8294.50000    3.44630    4.52120    4.66350    0.22330   89.64390  188.96360  108.83690   11.17650    7.08660  233.94190    0.36000
 8295.00000    3.41980    4.67870    4.87380    0.24730   89.62200  189.16780  106.48830   11.67530    7.33560  234.33810    0.36040
 8295.50000    3.43200    4.87560    5.13670    0.28450   88.80930  187.28430  106.14030   11.93470    7.63230  235.46400    0.34200
 8296.00000    3.50890    5.07240    5.39970    0.29980   87.80040  182.02330  110.73590   10.88380    8.00230  236.23920    0.38000
 8296.50000    3.43220    5.00770    5.60010    0.29970   86.59320  179.72940  114.17750   11.03680    8.37230  237.01450    0.37610
 8297.00000    3.09910    4.59080    5.08430    0.29960   86.13850  179.63020  113.08970   10.38830    8.64910  235.89800    0.38280
 8297.50000    2.90290    4.17390    4.43970    0.29950   86.03830  179.62340  109.50270   11.20640    8.59570  233.38640    0.37220
 8298.00000    2.89610    3.75700    4.41110    0.29940   85.92810  179.84370  106.51640   11.29620    8.39480  231.83910    0.36010
 8298.50000    3.28670    4.79780    5.20720    0.23510   86.25920  187.90930  105.69580    9.94930    8.00910  230.47490    0.36290
 8299.00000    3.50240    5.00570    5.68460    0.19430   89.24450  189.96850  106.06100   10.71750    7.45390  230.11320    0.36470
 8299.50000    3.06810    4.79120    5.10390    0.19360   91.26380  186.00940  104.15350   10.03910    7.15070  230.07250    0.36980
 8300.00000    2.95310    4.47840    4.75680    0.22840   91.06640  185.89140  105.83510   10.58460    7.01830  232.06570    0.39120
