~Version ---------------------------------------------------
VERS.   2.0 : CWLS log ASCII Standard -VERSION 2.0
WRAP.    NO : One line per depth step
DLM . SPACE : Column Data Section Delimiter
~Well ------------------------------------------------------
STRT .FT               8270.0 : START DEPTH
STOP .FT              10155.0 : STOP DEPTH
STEP .FT                  0.5 : STEP
NULL .               -9999.25 : NULL VALUE
COMP .                        : COMPANY
WELL .                        : WELL
FLD  .                        : FIELD
LOC  .                        : LOCATION
PROV .                        : PROVINCE
CNTY .                        : COUNTY
STAT .                        : STATE
CTRY .                        : COUNTRY
SRVC .                        : SERVICE COMPANY
DATE .                        : DATE
UWI  .                        : UNIQUE WELL ID
API  .                        : API NUMBER
SLAT .WGS84 6.047817939891701 : SURFACE LATITUDE
SLON .WGS84 2.741473395528601 : SURFACE LONGITUDE
DATUM.F                1152.0 : DEPTH DATUM ELEV
~Curve Information -----------------------------------------
DEPT   .FT    : 
AT10   .OHMM  : ARRAY INDUCTION TWO FOOT RESISTIVITY A10
AT30   .OHMM  : ARRAY INDUCTION TWO FOOT RESISTIVITY A30
AT90   .OHMM  : ARRAY INDUCTION TWO FOOT RESISTIVITY A90
DPHZ_LS.DEC   : HGRD STANDARD RESOLUTION DENSITY POROSITY
DTCO   .US/F  : DELTA-T COMPRESSIONAL
DTSM   .US/F  : DELTA-T SHEAR
ECGRS  .GAPI  : ENVIRONMENTALLY CORRECTED GAMMA RAY FROM SONIC LOG
HCALR  .IN    : HRCC CALIPER CALIBRATED FROM RESISTIVITY LOG
PEFZ   .B/E   : HRDD STANDARD RESOLUTION FORMATION PHOTOELECTRIC FACTOR
SPR    .MV    : SPONTANEOUS POTENTIAL FROM RESISTIVITY LOG
TNPH_LS.DEC   : THERMAL NEUTRON POROSITY [LIMESTONE]
~Params ----------------------------------------------------
~Other -----------------------------------------------------
~ASCII -----------------------------------------------------
# ...
 9246.00000   40.94130   68.97640   58.88720    0.05400   63.18640  105.31760   92.47300    8.74350    3.12770   25.09470    0.08480
 9246.50000   42.88380   65.62230   58.99220    0.04880   62.67940  105.13990   92.93550    8.74380    3.22540   26.09260    0.08220
 9247.00000   41.09720   64.75490   59.09720    0.03810   62.24140  104.88200  100.26590    8.74420    3.42480   26.18610    0.07640
 9247.50000   41.23080   68.71520   61.50880    0.03080   62.00220  104.71850  112.51880    8.76480    3.61910   23.82360    0.07280
 9248.00000   43.87690   74.87540   67.38020    0.02950   61.89050  104.77390  122.93140    8.77400    3.80860   21.36220    0.08150
 9248.50000   46.20550   74.84120   67.35200    0.02570   61.80510  105.13960  115.82070    8.77010    3.96520   20.01670    0.09030
 9249.00000   47.71350   81.40410   63.76000    0.01880   61.98300  105.50530  102.80650    8.75750    4.11280   20.14840    0.08780
 9249.50000   48.92780   88.47000   62.30430    0.01510   62.36700  105.56530   93.75060    8.74480    4.24620   24.31550    0.07380
 9250.00000   47.34780   91.27980   64.71360    0.01390   62.83630  106.20320   95.77800    8.74860    4.24050   25.22300    0.06470
 9250.50000   45.52010   84.09780   61.99010    0.01890   63.19240  106.68040  101.04770    8.75650    4.12710   25.51210    0.06600
 9251.00000   43.40880   73.07590   57.65090    0.02520   63.75170  107.23280  119.03800    8.78920    4.01380   24.84450    0.07970
 9251.50000   49.37580   70.81250   55.48680    0.03530   64.38230  107.81320  137.58130    8.80360    3.91270   24.47270    0.09170
 9252.00000   58.24670   94.82120   67.47340    0.04440   64.92470  108.33580  148.36490    8.77770    3.90520   26.08060    0.09990
 9252.50000   62.27220  124.14850   86.01740    0.04790   65.59010  108.45870  144.97430    8.75180    3.84260   27.23490    0.09960
 9253.00000   55.73610  129.01790   92.18260    0.04980   65.90410  108.58150  139.66520    8.74140    3.76750   27.29690    0.10020
 9253.50000   52.85740  111.63160   85.23860    0.04610   65.90660  108.90550  134.72410    8.75460    3.66450   29.13870    0.10150
 9254.00000   51.48160   92.36070   77.44150    0.05080   65.90910  109.13440  132.48340    8.74110    3.55110   27.54280    0.10580
 9254.50000   50.94360   83.07990   69.72830    0.05760   65.91160  109.28490  128.30140    8.74110    3.47720   20.24960    0.11170
 9255.00000   49.10400   74.72960   62.07110    0.06590   65.86020  108.88870  120.57590    8.74110    3.51010   21.05340    0.11040
 9255.50000   43.81070   67.25420   54.11080    0.06110   65.64470  108.50760  107.73610    8.74110    3.56310   22.16340    0.10400
 9256.00000   36.76630   56.99150   45.94850    0.05120   65.02360  108.25060  102.50320    8.74110    3.61610   21.51270    0.09760
 9256.50000   30.54870   46.39790   37.78630    0.04000   64.40250  108.25050  101.34020    8.74110    3.65810   21.89430    0.09420
 9257.00000   28.63680   42.62370   33.65660    0.03700   63.62280  107.31310   98.59870    8.76070    3.65610   22.45460    0.09410
 9257.50000   30.87300   47.44940   35.89890    0.03250   62.75830  105.93990   90.15570    8.74280    3.61560   21.72250    0.09250
 9258.00000   33.65660   59.78950   49.82250    0.02580   61.04850  104.43230   80.58370    8.74190    3.61440   23.38480    0.09150
 9258.50000   42.32070   63.13690   53.90030    0.01900   60.59970  103.24740   73.63960    8.74110    3.68200   25.01510    0.08310
 9259.00000   47.32420   72.89640   58.32940    0.01830   60.43950  102.26980   66.15870    8.74020    3.83750   24.55510    0.06430
 9259.50000   52.36170   80.70410   63.28570    0.01390   60.82250  102.22090   55.75580    8.73930    4.00090   25.04590    0.04820
 9260.00000   56.78200   80.70410   66.22420    0.00930   61.36070  103.01070   48.77130    8.75040    4.00090   22.78570    0.03720
 9260.50000   47.77240   72.29640   59.69660    0.00930   62.48680  103.40560   55.11900    8.74760    3.89980   20.88740    0.03070
 9261.00000   39.19790   63.58380   52.98130    0.01800   63.10620  103.93620   68.28940    8.74370    3.76980   18.49980    0.04000
 9261.50000   35.59290   50.90710   46.26590    0.03220   64.71800  105.03780   88.18970    8.74920    3.60830   19.05480    0.05940
 9262.00000   32.38690   44.16550   39.55060    0.04380   67.09520  109.22840  106.12730    8.75480    3.43660   18.88730    0.08370
 9262.50000   31.17330   41.05580   34.17830    0.05740   68.28760  111.21680  115.24100    8.76040    3.36600   17.63600    0.10980
 9263.00000   30.22080   37.90640   33.03540    0.06570   68.62060  112.27370  113.37800    8.76370    3.33850   19.24130    0.12150
 9263.50000   27.46310   34.59820   31.89250    0.06430   69.25200  113.11190  108.43170    8.76370    3.33100   20.02860    0.11830
 9264.00000   25.93300   31.29010   28.00300    0.05530   69.49670  114.25360  108.52260    8.76410    3.30220   17.98130    0.10910
 9264.50000   23.50440   29.08070   24.60040    0.04520   69.65200  115.61960  109.62070    8.77320    3.27040   17.44780    0.10370
 9265.00000   20.47690   24.27020   21.29220    0.04290   69.74620  115.91560  111.06080    8.76210    3.29240   18.42210    0.11130
 9265.50000   17.44940   19.34500   18.36170    0.05000   69.82650  116.21160  115.54810    8.75830    3.31440   19.53570    0.12090
 9266.00000   16.33360   19.49440   17.91290    0.06310   69.74420  116.50760  122.43580    8.75450    3.35880   19.49400    0.12640
 9266.50000   18.22130   22.41050   20.49650    0.06740   69.53040  116.87910  126.16010    8.74430    3.37940   18.71360    0.12790
 9267.00000   20.58100   24.93440   23.37880    0.06880   68.76320  116.70730  119.03650    8.75400    3.35190   14.91890    0.12550
 9267.50000   20.73150   24.25640   23.58960    0.06770   68.07180  116.84700  109.68970    8.74780    3.29750   14.51170    0.12160
 9268.00000   19.87120   22.56130   21.62400    0.07000   67.85550  117.02070  100.86170    8.75020    3.24190   13.55810    0.11550
 9268.50000   19.34500   21.71070   20.89160    0.06860   67.19320  117.27580   94.18080    8.74320    3.23550   14.37080    0.11210
 9269.00000   22.03740   26.56030   24.24810    0.06520   66.64350  117.21100   94.12480    8.73890    3.26730   16.32100    0.10570
 9269.50000   26.02490   31.98900   29.30240    0.06240   67.11490  116.85160   96.46000    8.73470    3.28640   17.12520    0.09290
 9270.00000   28.41740   35.79260   32.08900    0.06100   67.82790  116.49220   99.10240    8.73050    3.29540   17.25210    0.08320
 9270.50000   24.59250   33.33660   27.98220    0.05850   68.19100  116.13280  104.97660    8.74260    3.25890   18.12010    0.08080
 9271.00000   19.64050   26.47630   22.34760    0.05450   67.87580  115.77350  110.95170    8.74540    3.21100   16.06240    0.09250
 9271.50000   14.68840   19.61590   16.71300    0.05570   67.96690  115.41410  117.45910    8.75000    3.16310   17.30140    0.11200
 9272.00000   14.80850   16.87620   16.11350    0.05980   67.96000  114.57770  112.59730    8.74270    3.14280   19.57880    0.13150
 9272.50000   17.53310   20.53860   19.74540    0.06250   67.25960  113.02590  108.31830    8.74180    3.12070   20.10100    0.13240
 9273.00000   20.25770   24.20100   23.37720    0.05700   67.15750  112.85080  106.91770    8.74090    3.07990   19.84320    0.11380
 9273.50000   22.98220   27.86340   27.00900    0.05580   66.75060  111.91470  106.08310    8.74000    3.08260   17.21050    0.09920
 9274.00000   26.16470   31.18870   30.64080    0.06010   65.41390  110.17940  104.48100    8.73920    3.12410   14.73340    0.08870
 9274.50000   29.46160   42.03290   34.27260    0.06340   64.63920  107.99330   98.17200    8.73830    3.16210   14.16550    0.08410
 9275.00000   38.31810   57.88980   43.98820    0.06050   64.19890  105.93250   86.80680    8.73190    3.21460   15.05250    0.08020
 9275.50000   46.51720   73.74660   58.57250    0.05130   64.07960  105.20580   79.55780    8.71700    3.25050   15.88390    0.07370
 9276.00000   51.90760   82.00290   68.05990    0.04570   64.11200  104.57070   75.37170    8.72930    3.27980   16.95950    0.06750
