~Version ---------------------------------------------------
VERS.   2.0 : CWLS log ASCII Standard -VERSION 2.0
WRAP.    NO : One line per depth step
DLM . SPACE : Column Data Section Delimiter
~Well ------------------------------------------------------
STRT .FT               8270.0 : START DEPTH
STOP .FT              10155.0 : STOP DEPTH
STEP .FT                  0.5 : STEP
NULL .               -9999.25 : NULL VALUE
COMP .                        : COMPANY
WELL .                        : WELL
FLD  .                        : FIELD
LOC  .                        : LOCATION
PROV .                        : PROVINCE
CNTY .                        : COUNTY
STAT .                        : STATE
CTRY .                        : COUNTRY
SRVC .                        : SERVICE COMPANY
DATE .                        : DATE
UWI  .                        : UNIQUE WELL ID
API  .                        : API NUMBER
SLAT .WGS84 6.047817939891701 : SURFACE LATITUDE
SLON .WGS84 2.741473395528601 : SURFACE LONGITUDE
DATUM.F                1152.0 : DEPTH DATUM ELEV
~Curve Information -----------------------------------------
DEPT   .FT    : 
AT10   .OHMM  : ARRAY INDUCTION TWO FOOT RESISTIVITY A10
AT30   .OHMM  : ARRAY INDUCTION TWO FOOT RESISTIVITY A30
AT90   .OHMM  : ARRAY INDUCTION TWO FOOT RESISTIVITY A90
DPHZ_LS.DEC   : HGRD STANDARD RESOLUTION DENSITY POROSITY
DTCO   .US/F  : DELTA-T COMPRESSIONAL
DTSM   .US/F  : DELTA-T SHEAR
ECGRS  .GAPI  : ENVIRONMENTALLY CORRECTED GAMMA RAY FROM SONIC LOG
HCALR  .IN    : HRCC CALIPER CALIBRATED FROM RESISTIVITY LOG
PEFZ   .B/E   : HRDD STANDARD RESOLUTION FORMATION PHOTOELECTRIC FACTOR
SPR    .MV    : SPONTANEOUS POTENTIAL FROM RESISTIVITY LOG
TNPH_LS.DEC   : THERMAL NEUTRON POROSITY [LIMESTONE]
~Params ----------------------------------------------------
~Other -----------------------------------------------------
~ASCII -----------------------------------------------------
# ...
 8880.00000    3.44540    3.58300    3.69560    0.09820   84.22170  167.42960   81.11070    9.15480    5.24320  120.57040    0.25430
 8880.50000    3.49460    3.63420    3.74840    0.09990   82.83510  165.19410   80.31010    9.36430    5.23230  116.24350    0.26040
 8881.00000    3.55380    3.69570    3.81190    0.09810   81.48140  161.80290   76.96340    9.30900    5.29870  114.06290    0.25310
 8881.50000    3.56570    3.70820    3.82470    0.09370   81.32360  159.79320   76.01100    9.15280    5.30990  114.70390    0.24630
 8882.00000    3.57760    3.72060    3.83750    0.06900   81.10550  159.60880   75.80300    9.15420    5.31010  115.99810    0.24200
 8882.50000    3.66390    3.81030    3.93010    0.04260   81.12710  159.42450   78.02350    9.09490    5.16890  114.93090    0.25150
 8883.00000    4.17490    4.34170    4.47820    0.02400   80.89880  159.24010   80.52060    9.32440    5.01920  115.00330    0.23330
 8883.50000    4.68580    4.87310    5.02620    0.01890   80.91840  159.12940   81.65110    9.00100    4.96170  115.21620    0.21250
 8884.00000    4.65070    4.83660    4.98860    0.02880   80.72600  159.39440   82.53960    9.15650    4.91320  114.81460    0.19450
 8884.50000    4.58750    4.77080    4.92080    0.03400   78.78060  160.24940   77.64490    9.33440    4.87340  116.76890    0.19090
 8885.00000    4.52430    4.70510    4.85300    0.03590   79.13620  160.92900   75.36240    9.21470    4.81580  117.52280    0.19020
 8885.50000    4.51190    4.69230    4.83980    0.04370   79.04290  158.53680   75.15680    9.30840    4.68740  118.14450    0.18930
 8886.00000    4.51190    4.69230    4.83980    0.05230   79.14680  157.02970   76.23430    9.03510    4.57570  120.07450    0.18890
 8886.50000    4.51190    4.69230    4.83980    0.05710   79.17240  157.08120   76.08780    9.10490    4.54180  118.42810    0.19140
 8887.00000    4.51190    4.69230    4.83980    0.05940   79.17180  157.21140   75.61520    9.03510    4.56260  115.15480    0.19280
 8887.50000    4.51190    4.69230    4.83980    0.06060   79.26000  156.95640   76.11460    9.00510    4.58420  113.18910    0.19800
 8888.00000    4.51190    4.69230    4.83980    0.06240   79.47260  156.95850   78.40320    9.01290    4.60650  111.97960    0.19940
 8888.50000    4.40350    4.57950    4.72350    0.06470   79.51530  156.96060   75.45040    9.03890    4.70360  112.15050    0.20930
 8889.00000    4.21570    4.38420    4.52210    0.07120   79.53660  156.96270   79.00820    9.05500    4.87020  112.32130    0.21810
 8889.50000    4.18400    4.35130    4.48820    0.07540   79.55070  156.96480   79.60830    9.18470    5.03690  114.11230    0.22480
 8890.00000    4.22090    4.38960    4.52770    0.07560   79.96740  157.33250   78.86250    9.08500    5.20350  114.08860    0.22570
 8890.50000    4.28180    4.45300    4.59310    0.06850   80.38410  158.24840   76.74620    9.23470    5.28830  114.02540    0.21240
 8891.00000    4.34280    4.51640    4.65850    0.05770   80.47510  158.60390   78.85230    9.12490    5.23150  115.65660    0.20040
 8891.50000    4.40370    4.57980    4.72380    0.04870   80.49420  158.69430   80.18850    9.11490    5.08780  116.99120    0.19850
 8892.00000    4.33190    4.50510    4.64680    0.04950   80.52230  158.70140   82.22980    9.29450    4.95870  117.19740    0.19940
 8892.50000    4.21740    4.38610    4.52400    0.05790   80.33930  158.70860   79.89000    9.05570    4.88970  116.43890    0.20860
 8893.00000    4.13740    4.30280    4.43810    0.06760   80.33450  158.49450   76.43670    9.15290    4.85730  114.72080    0.21030
 8893.50000    4.08930    4.25280    4.38660    0.06240   80.34130  157.39530   74.83140    9.10500    4.87800  114.16230    0.22220
 8894.00000    4.41590    4.59250    4.73690    0.05300   80.21970  157.09200   71.22530    9.18480    4.83670  113.27130    0.21750
 8894.50000    4.42180    4.59860    4.74320    0.05230   79.81460  156.74420   70.51540    9.00780    4.72660  111.76650    0.21290
 8895.00000    4.42760    4.60470    4.74950    0.06210   79.81460  156.57870   72.25010    9.07070    4.63000  112.26240    0.19930
 8895.50000    4.43350    4.61080    4.75580    0.06180   79.81460  156.58910   74.74550    9.01760    4.59280  113.80290    0.20150
 8896.00000    4.43940    4.61690    4.76210    0.05580   79.81460  156.26840   75.64500    9.00660    4.63480  115.14870    0.20050
 8896.50000    4.44530    4.62300    4.76840    0.04610   79.70570  156.61050   76.85430    8.99810    4.67060  116.36860    0.21020
 8897.00000    4.45000    4.62790    4.77350    0.04790   79.65130  156.44840   79.66250    9.04510    4.63010  115.28060    0.20770
 8897.50000    4.52260    4.70340    4.85130    0.04310   79.65130  156.43840   82.34360    9.10500    4.55250  115.58810    0.19950
 8898.00000    4.59520    4.77890    4.92920    0.04840   79.14350  155.88840   82.03930    9.00520    4.47490  114.91210    0.19230
 8898.50000    4.53540    4.71680    4.86520    0.05360   78.50870  155.33850   81.08230    8.98520    4.50370  115.24060    0.19510
 8899.00000    4.40200    4.57800    4.72200    0.05680   78.49680  155.16290   80.17300    8.98520    4.56510  117.03250    0.19250
 8899.50000    4.39110    4.56670    4.71040    0.05300   78.48190  155.43570   80.87120    9.00520    4.52180  115.24140    0.19740
 8900.00000    4.46210    4.64050    4.78650    0.05350   78.51840  155.46160   80.86830    9.06510    4.42870  113.27270    0.20660
 8900.50000    4.51890    4.69960    4.84740    0.05590   78.45900  155.38660   81.19560    9.01000    4.28490  111.85660    0.21490
 8901.00000    4.51080    4.69110    4.83870    0.05820   78.60390  155.32780   80.89780    9.02060    4.17600  109.03180    0.21830
 8901.50000    4.50060    4.68060    4.82780    0.05430   78.57740  155.39420   78.91730    9.01410    4.16330  109.60740    0.20950
 8902.00000    4.49050    4.67000    4.81690    0.05850   78.66510  155.35200   78.77730    8.99830    4.26820  112.72770    0.21070
 8902.50000    4.48040    4.65950    4.80610    0.05950   78.92250  155.50690   76.45360    9.13640    4.42330  113.29650    0.20670
 8903.00000    4.47020    4.64900    4.79520    0.06070   78.53230  155.07950   75.46200    9.01520    4.55970  114.08210    0.20840
 8903.50000    4.46010    4.63840    4.78430    0.06070   78.05850  153.80360   73.03820    9.13490    4.68340  114.07710    0.21140
 8904.00000    4.45000    4.62790    4.77350    0.05770   78.02280  153.40540   70.22320    9.01120    4.71260  113.97230    0.21480
 8904.50000    4.45000    4.62790    4.77350    0.05510   78.02280  153.30340   69.21590    9.22470    4.68410  115.07610    0.21620
 8905.00000    4.45000    4.62790    4.77350    0.05200   78.04000  153.34130   69.68480    9.02310    4.57830  116.29380    0.21720
 8905.50000    4.45000    4.62790    4.77350    0.05200   78.04500  153.40700   71.76120    9.04040    4.52140  115.40690    0.21830
 8906.00000    4.47610    4.65510    4.80150    0.05440   78.02820  153.17090   74.43820    9.01710    4.53680  116.13430    0.21030
 8906.50000    4.60690    4.79120    4.94180    0.04990   78.14520  152.78840   77.11520    8.99380    4.58100  113.71390    0.20280
 8907.00000    4.73780    4.92720    5.08220    0.04360   78.17940  152.72410   78.67350    9.08000    4.60640  111.65090    0.19800
 8907.50000    4.84240    5.03600    5.19440    0.03950   78.32440  153.34980   78.83600    9.01520    4.61710  111.41520    0.19470
 8908.00000    4.78720    4.97860    5.13520    0.04170   78.08920  153.92060   77.61720    9.04510    4.48040  111.54590    0.19870
 8908.50000    4.74190    4.93150    5.08660    0.04930   77.97870  153.89740   73.31080    8.98670    4.34280  111.58170    0.20520
 8909.00000    4.69660    4.88440    5.03800    0.06040   77.98710  154.12190   72.66080    9.06200    4.32030  112.50140    0.20500
 8909.50000    4.65120    4.83720    4.98940    0.06680   78.18880  154.37810   75.12140    9.02510    4.49220  114.25180    0.20300
 8910.00000    4.60590    4.79010    4.94080    0.05510   78.37380  152.72550   75.91470    9.09920    4.80770  114.10520    0.19790
