~Version ---------------------------------------------------
VERS.   2.0 : CWLS log ASCII Standard -VERSION 2.0
WRAP.    NO : One line per depth step
DLM . SPACE : Column Data Section Delimiter
~Well ------------------------------------------------------
STRT .FT               8270.0 : START DEPTH
STOP .FT              10155.0 : STOP DEPTH
STEP .FT                  0.5 : STEP
NULL .               -9999.25 : NULL VALUE
COMP .                        : COMPANY
WELL .                        : WELL
FLD  .                        : FIELD
LOC  .                        : LOCATION
PROV .                        : PROVINCE
CNTY .                        : COUNTY
STAT .                        : STATE
CTRY .                        : COUNTRY
SRVC .                        : SERVICE COMPANY
DATE .                        : DATE
UWI  .                        : UNIQUE WELL ID
API  .                        : API NUMBER
SLAT .WGS84 6.047817939891701 : SURFACE LATITUDE
SLON .WGS84 2.741473395528601 : SURFACE LONGITUDE
DATUM.F                1152.0 : DEPTH DATUM ELEV
~Curve Information -----------------------------------------
DEPT   .FT    : 
AT10   .OHMM  : ARRAY INDUCTION TWO FOOT RESISTIVITY A10
AT30   .OHMM  : ARRAY INDUCTION TWO FOOT RESISTIVITY A30
AT90   .OHMM  : ARRAY INDUCTION TWO FOOT RESISTIVITY A90
DPHZ_LS.DEC   : HGRD STANDARD RESOLUTION DENSITY POROSITY
DTCO   .US/F  : DELTA-T COMPRESSIONAL
DTSM   .US/F  : DELTA-T SHEAR
ECGRS  .GAPI  : ENVIRONMENTALLY CORRECTED GAMMA RAY FROM SONIC LOG
HCALR  .IN    : HRCC CALIPER CALIBRATED FROM RESISTIVITY LOG
PEFZ   .B/E   : HRDD STANDARD RESOLUTION FORMATION PHOTOELECTRIC FACTOR
SPR    .MV    : SPONTANEOUS POTENTIAL FROM RESISTIVITY LOG
TNPH_LS.DEC   : THERMAL NEUTRON POROSITY [LIMESTONE]
~Params ----------------------------------------------------
~Other -----------------------------------------------------
~ASCII -----------------------------------------------------
# ...
 8758.00000    3.13820    3.26370    3.36630    0.10170   53.59750  120.62320   66.29110    9.03010    5.35190  135.59270    0.24650
 8758.50000    3.48330    3.67090    5.77250    0.09230   53.41710  120.29770   60.48170    9.26450    5.47850  135.63410    0.23340
 8759.00000    4.84320    5.32630    8.81240    0.07720   54.23120  119.99070   46.16100    9.13480    5.50700  134.35130    0.21900
 8759.50000    6.60330    7.43660   11.85230    0.04960   59.01420  119.80300   34.02410    9.35430    5.34170  135.53410    0.19200
 8760.00000    9.96450   11.17140   14.89230    0.01850   58.13780  119.12390   27.25090    9.01510    5.17630  136.20510    0.15580
 8760.50000   12.24820   14.48940   17.93220   -0.00290   57.36400  115.95770   25.60850    8.85550    5.01100  136.87610    0.09770
 8761.00000   14.77100   16.46840   18.95790   -0.01680   54.83470  108.59210   25.80550    8.83000    4.87870  137.15710    0.07710
 8761.50000   18.73010   24.10220   28.78140   -0.01780   54.05860  103.73130   25.16380    8.81320    4.86770  137.34060    0.05440
 8762.00000   22.23640   31.73600   38.34220   -0.01210   54.05410  105.01480   24.99130    8.80750    4.90160  137.63850    0.04330
 8762.50000   20.86730   35.51040   46.85270   -0.00600   54.25270  105.26180   25.06100    8.80580    4.94400  135.75000    0.04000
 8763.00000   20.40190   36.71180   45.43470   -0.00230   54.95980  106.01870   26.59270    8.82870    4.99990  133.73280    0.04790
 8763.50000   24.34830   35.05780   39.88370   -0.00560   55.37880  106.97670   26.77430    8.82420    4.99990  133.30230    0.04670
 8764.00000   22.90800   29.92190   32.92390   -0.01000   55.84710  107.19430   26.66380    8.79720    4.99990  131.72500    0.04530
 8764.50000   20.12270   24.82840   25.96410   -0.01380   60.58200  111.87650   28.65660    8.80410    4.98890  131.90020    0.04390
 8765.00000   22.40790   23.72660   31.64460   -0.01830   72.31730  117.52090   33.67790    8.78710    4.87870  133.40340    0.04970
 8765.50000   16.62670   24.43180   31.77610   -0.01830   72.73280  129.58380   46.16100    8.77520    4.71330  133.60460    0.06870
 8766.00000   11.12550   12.61790   16.50270   -0.01310   72.67250  126.98600   59.13570    8.80920    4.54800  133.80050    0.09900
 8766.50000    8.18990    9.15960   10.06800    0.00320   72.66810  125.21060   65.92760    8.83880    4.33710  135.67010    0.12580
 8767.00000    6.62080    6.94310    7.41140    0.03070   73.06470  124.88610   66.90460    8.84520    4.04090  135.71050    0.14230
 8767.50000    5.93390    6.22300    6.65550    0.07840   73.43890  124.88810   65.20440    8.85160    3.99680  135.92810    0.14360
 8768.00000    5.72130    6.22300    6.70930    0.10670   73.03490  124.78130   64.00290    8.91270    4.10330  137.52010    0.15190
 8768.50000    5.53480    6.12810    7.02330    0.11480   74.86960  124.78350   56.62220    9.03510    4.20990  135.34820    0.17010
 8769.00000    5.18560    5.58180    6.31370    0.10880   82.66560  124.35020   43.72350    9.34710    4.31650  131.37520    0.20680
 8769.50000    4.97610    5.17510    6.13570    0.08820   82.23450  107.73790   35.95380    9.80060    4.11200  131.18110    0.21230
 8770.00000    6.25640    6.90970    7.61130    0.06340   81.56330   84.36920   32.88300   10.08270    3.85640  130.18470    0.19560
 8770.50000    7.35930    8.86900    9.52980    0.03430   80.98500   83.60610   34.12710    8.92500    3.64370  130.37280    0.16400
 8771.00000    7.93380   11.22210   12.88240    0.01470   80.65180   81.21080   34.88300    8.84470    3.67650  131.76390    0.11250
 8771.50000   13.93100   16.70150   29.71530    0.01190   80.24560   87.82000   38.46080    8.82670    3.74230  133.86270    0.06100
 8772.00000   23.78150   28.96650   51.28000    0.01150   81.60450  129.51910   60.17030    8.81350    3.75300  135.42710    0.02980
 8772.50000   17.99750   23.23600   32.78570    0.02300   83.39870  126.70490   87.65030    8.82580    3.81890  133.84600    0.02650
 8773.00000    9.56460   10.79590   15.84720    0.07300   84.53990  128.53400  117.72470    8.83040    4.28720  134.45830    0.04000
 8773.50000    4.75840    6.23060    9.03810    0.13550   89.01370  157.63230  133.56010    8.86290    4.86590  136.15630    0.08080
 8774.00000    2.78480    2.87490    4.76130    0.16820   93.48740  185.96900  136.44590    9.67610    5.44460  136.08690    0.15020
 8774.50000    2.61680    2.87370    3.18760    0.19640   94.40810  185.19970  138.84080   10.47940    5.88220  136.02040    0.23360
 8775.00000    2.73750    2.98490    3.31740    0.19820   94.27040  184.49180  135.23250    9.72040    5.99000  133.91410    0.30030
 8775.50000    2.50730    2.73570    2.83150    0.23320   94.38500  184.03320  124.27680   10.45550    5.77730  131.96200    0.32280
 8776.00000    2.24230    2.35000    2.40530    0.24360   94.51160  183.54440  114.27450   10.80790    5.51140  130.62670    0.33360
 8776.50000    2.06700    2.20280    2.27210    0.24100   94.53550  183.59140  106.73830   11.38180    5.24560  129.07070    0.34090
 8777.00000    1.86960    1.97200    2.03400    0.22590   95.23950  182.68210  104.98320   11.36080    5.09010  129.21080    0.34770
 8777.50000    1.67220    1.73900    1.79370    0.23100  102.97480  181.58210  102.90700   11.63000    5.18600  131.10510    0.36750
 8778.00000    1.64590    1.71170    1.76560    0.26920  105.35400  178.42880   80.60820   11.85520    5.59400  132.03970    0.39050
 8778.50000    1.85820    2.27330    4.30260    0.29940   99.79330  144.62710   50.20720   11.35620    6.18790  133.28570    0.38700
 8779.00000    3.10470    3.64270    6.83970    0.29920   95.34430  104.00360   24.79850   11.58540    6.72100  134.30610    0.37170
 8779.50000    5.17210    6.45780    7.04790    0.29890   95.34280   95.27240   16.38600   11.13630    7.02380  134.67880    0.38580
 8780.00000    5.39530    5.93180    7.77190    0.25260   94.39830   94.78860   14.95540   10.76050    6.83820  136.41290    0.30000
 8780.50000    7.38340    9.76720   13.20960    0.05870   52.21280   94.58290   14.60500    8.78570    6.38770  136.37730    0.05890
 8781.00000   17.06150   69.21250   24.10740    0.01130   51.80090   94.72290   13.09050    8.78700    5.82450  135.80700    0.03170
 8781.50000   27.44470  141.44090   30.88250   -0.00470   51.48160   95.37510   12.25770    8.78830    5.49340  136.99470    0.00940
 8782.00000   29.79180  220.27490   26.38230   -0.00700   51.47520   94.90720   13.29900    8.78960    5.30240  131.68110    0.00810
 8782.50000   34.65490  171.19330   18.74220   -0.00680   50.76590   92.51670   16.73610    8.78740    5.23410  129.05550    0.00790
 8783.00000   31.84630  114.64000   21.77190   -0.00350   50.46990   94.74710   20.74770    8.79390    5.18650  127.39730    0.00720
 8783.50000   56.66570  177.63760   25.21420   -0.00390   50.71760   95.83890   20.80180    8.77700    5.12710  128.10700    0.00520
 8784.00000  144.21070  124.73140   24.90470   -0.00220   51.16140   95.60600   20.57360    8.76780    5.06760  128.76320    0.00090
 8784.50000  161.11170   56.33530   32.83860   -0.00010   52.29760   95.70590   21.58990    8.76760    5.06680  128.82840   -0.00170
 8785.00000   61.10520   22.71510   34.92220    0.00200   49.99590   96.58850   25.26650    8.76730    5.13290  130.49670   -0.00330
 8785.50000   28.53740   12.27890   21.81640    0.00200   46.94380  112.60590   29.87150    8.76710    5.15390  130.51530   -0.00240
 8786.00000   38.27790   10.17630   14.76990    0.00420   45.24990  132.90590   35.29020    8.76400    5.12670  130.30340    0.00460
 8786.50000   43.63840   10.19160    7.34050    0.02040   44.79970  132.87680   55.79860    8.75900    5.11220  132.04620    0.03040
 8787.00000   18.97110    8.41180    6.15290    0.05650   44.80270  132.77760   75.08950    8.75970    5.25400  132.61050    0.05580
 8787.50000    5.74050    5.40740    3.87560    0.10220   44.80780  132.80370   87.34150    8.77080    5.39580  132.47360    0.05270
 8788.00000    3.05720    2.91300    2.64200    0.15020   45.16100  132.53510   84.37960    9.17970    5.53760  133.05160    0.10120
