~Version ---------------------------------------------------
VERS.   2.0 : CWLS log ASCII Standard -VERSION 2.0
WRAP.    NO : One line per depth step
DLM . SPACE : Column Data Section Delimiter
~Well ------------------------------------------------------
STRT .F                3218.0 : START DEPTH
STOP .F               10687.0 : STOP DEPTH
STEP .F                   0.5 : STEP
NULL .               -9999.25 : NULL VALUE
COMP .                        : COMPANY
WELL .                        : WELL
FLD  .                        : FIELD
LOC  .                        : LOCATION
PROV .                        : PROVINCE
CNTY .                        : COUNTY
STAT .                        : STATE
CTRY .                        : COUNTRY
SRVC .                        : SERVICE COMPANY
DATE .                        : DATE
UWI  .                        : UNIQUE WELL ID
API  .                        : API NUMBER
SLAT .WGS84 2.171705607876305 : SURFACE LATITUDE
SLON .WGS84 6.152736122890005 : SURFACE LONGITUDE
DATUM.F                   nan : DEPTH DATUM ELEV
~Curve Information -----------------------------------------
DEPT   .F     : 1 MEASURED DEPTH
GR_EDTC.GAPI  : GAMMA RAY
DTCO   .US/F  : DELTA-T COMPRESSIONAL
DTSM   .US/F  : DELTA-T SHEAR
HCALR  .IN    : HRCC CALIPER CALIBRATED FROM RESISTIVITY LOG
RLA3   .OHMM  : APPARENT RESISTIVITY FROM COMPUTED FOCUSING MODE 3
RLA4   .OHMM  : APPARENT RESISTIVITY FROM COMPUTED FOCUSING MODE 4
RLA5   .OHMM  : APPARENT RESISTIVITY FROM COMPUTED FOCUSING MODE 5
~Params ----------------------------------------------------
~Other -----------------------------------------------------
~ASCII -----------------------------------------------------
# ...
 9203.00000  116.98100   80.27150  145.71280    8.03610    7.95450    7.83550    7.39180
 9203.50000  115.18490   80.13250  145.47190    8.02470    7.87160    7.77370    7.28400
 9204.00000  110.73730   81.16860  145.85510    8.01380    8.05860    7.90540    7.40620
 9204.50000  105.69180   81.94290  147.42830    8.00250   10.82100    9.93290    8.67720
 9205.00000  103.23950   82.71720  149.39400    7.97080   15.87820   14.13940   12.22940
 9205.50000  104.50690   83.49160  151.35970    7.93910   20.15660   19.87280   14.51380
 9206.00000  112.87670   84.26590  153.87930    7.90860   14.81350   12.48230   11.33610
 9206.50000  122.70190   84.48300  156.07570    7.94470    8.56710    7.49500    7.04520
 9207.00000  130.25170   84.97450  157.79970    8.09670    6.64740    6.29730    6.01240
 9207.50000  134.14890   86.09790  159.94930    8.12810    7.53560    7.13400    6.71010
 9208.00000  130.58040   86.28410  160.01810    8.11370    7.77070    7.05290    6.75490
 9208.50000  126.86690   86.76890  161.49250    8.11580    7.06640    6.67900    6.52600
 9209.00000  124.66000   87.25370  160.04280    8.15020    6.98880    6.71750    6.51690
 9209.50000  123.59760   87.73850  158.08380    8.14100    7.17870    6.82710    6.57040
 9210.00000  121.61050   88.22330  158.02590    8.16510    7.40040    7.05250    6.87870
 9210.50000  118.36710   88.70810  158.04240    8.18900    7.49230    7.18240    6.96200
 9211.00000  115.72450   89.19290  158.05890    8.23340    7.12620    6.84610    6.59300
 9211.50000  115.15280   89.67770  158.07530    8.24520    6.93440    6.60380    6.28960
 9212.00000  119.16910   90.37510  157.65780    8.19380    8.11950    7.70320    7.18010
 9212.50000  128.39190   90.85560  156.74590    7.97400    7.82650    7.30920    6.63810
 9213.00000  138.38180   90.45570  156.21370    7.95300    7.39570    6.86300    6.32360
 9213.50000  142.64450   90.01490  155.55690    7.96700    9.60250    8.85730    7.91350
 9214.00000  139.92950   89.21880  153.81070    7.98100   12.99490   11.98800   10.69090
 9214.50000  130.68040   87.89490  148.91820    7.99490   15.06100   14.80770   13.92620
 9215.00000  121.27400   85.51190  146.21520    8.00090   15.25250   15.00030   14.03680
 9215.50000  111.93490   83.44160  143.51220    7.99470   12.05060   10.45810    9.15020
 9216.00000  105.15060   82.92700  141.95150    7.98850    9.32860    9.21260    8.84100
 9216.50000   97.34590   82.31280  140.58020    7.98230   10.79300   10.12270    9.77440
 9217.00000   92.44270   81.56600  140.05710    7.97600   12.98930   12.56360   12.26510
 9217.50000   91.49220   81.29070  139.94230    7.96980   15.42320   13.57660   13.42460
 9218.00000   94.67840   81.01750  139.56190    7.96360   23.88170   19.69280   18.32130
 9218.50000   98.83310   80.94940  139.21590    7.95740   29.55260   25.39500   24.96840
 9219.00000  100.77530   80.08250  139.93870    7.95120   19.94360   17.09090   15.40630
 9219.50000  100.45680   80.72560  139.97880    7.95270   11.23380   10.00270    9.62110
 9220.00000   98.37970   81.00350  140.55660    7.96470    8.78190    8.57240    8.21110
 9220.50000   97.35170   80.90120  141.78220    7.97670    8.70460    8.49740    8.18520
 9221.00000   98.60860   80.42160  140.94580    7.98870    9.49680    9.24760    9.08410
 9221.50000  100.12040   80.06770  141.08110    8.00070   10.59210   10.22560    9.90360
 9222.00000  100.23490   80.42730  141.78160    8.01270   11.22180   11.08220   10.71280
 9222.50000  100.27500   79.98450  141.64720    8.02470   10.94690   10.69490   10.29350
 9223.00000  103.66580   79.97800  141.25100    8.03890   10.28270   10.15030    9.93350
 9223.50000  108.47950   79.16540  139.90690    8.05340   10.32520   10.18560   10.02890
 9224.00000  111.41100   79.75730  139.45260    8.06800   10.33590   10.19500    9.70150
 9224.50000  112.42160   78.77950  138.30520    8.08250    9.99640    9.83060    9.38800
 9225.00000  112.19880   77.32110  137.49640    8.09710    9.95150    9.79720    9.45320
 9225.50000  110.06050   77.05590  136.82090    8.11160   10.24540   10.11620    9.68880
 9226.00000  106.46330   77.40790  136.13490    8.12280    9.65280    9.26970    9.01980
 9226.50000  105.81590   77.80920  136.61300    8.12950    8.76900    8.64420    8.56040
 9227.00000  107.44360   76.61930  137.06030    8.11520   11.22740   10.72850   10.02490
 9227.50000  109.60430   77.00160  137.38540    8.06670   12.03800   11.66770   11.52120
 9228.00000  111.98610   78.47800  139.32350    8.06340   24.15590   19.61880   16.47690
 9228.50000  115.04250   79.86740  140.86210    8.06240   28.54970   23.71950   19.48910
 9229.00000  121.98630   80.27640  141.58360    8.06080   13.28870   10.74960    8.81740
 9229.50000  127.39170   82.49560  142.56670    8.05910    9.76050    9.62510    9.28560
 9230.00000  128.74720   84.57070  146.31200    8.12220    9.52570    9.18170    7.86150
 9230.50000  128.43090   85.88980  152.48410    8.17060    7.47350    7.17040    6.81420
 9231.00000  127.97960   87.20900  154.40700    8.23720    7.07870    6.98810    6.77230
 9231.50000  128.52200   88.52810  155.82580    8.24990    7.01250    6.91710    6.50850
 9232.00000  129.51920   88.99920  155.39450    8.24840    6.48230    6.29280    5.47090
 9232.50000  130.36730   89.04920  154.07420    8.28520    7.44930    7.03170    6.08460
 9233.00000  130.98070   89.81000  153.85140    8.35950    8.19040    8.02780    7.82470
 9233.50000  129.84410   89.71600  152.42700    8.18470   10.23330    9.56710    8.24870
 9234.00000  123.81940   87.73460  151.47250    8.00120   14.49700   12.64510   10.49390
 9234.50000  118.07470   86.55830  150.70750    7.97490   19.07300   17.17080   13.18540
 9235.00000  117.08470   85.66060  148.53720    7.99110   13.37610   11.54790   10.44950
 9235.50000  120.41020   83.98240  147.00900    8.00720    8.66530    8.06970    7.26960
 9236.00000  121.69690   82.83260  145.97370    8.02340    7.82460    7.71800    7.26260
 9236.50000  119.67210   81.27450  143.63840    8.03560    7.96180    7.86130    7.54030
 9237.00000  115.19210   81.08330  140.78970    8.02640    7.88850    7.71560    7.34910
 9237.50000  113.17840   81.03780  140.03980    8.01720    7.30730    7.21100    6.94220
 9238.00000  112.79110   80.98520  139.51880    8.00810    9.61450    8.72010    7.36480
 9238.50000  112.07400   80.24150  139.90720    7.99890   11.04880   10.89500    9.50570
 9239.00000  111.32410   79.77800  139.33290    7.99110    9.95320    9.56570    8.84570
 9239.50000  110.01430   79.34150  137.69930    7.98390    8.90810    8.79470    8.50170
 9240.00000  107.66580   78.04770  135.73590    7.97670    9.04820    8.92960    8.77540
 9240.50000  105.41120   77.12210  135.70730    7.96730    9.02160    8.72220    8.45930
 9241.00000  102.98870   77.91130  135.70730    7.86450    8.10530    7.97080    7.47670
 9241.50000  101.46030   77.70320  135.70730    7.87850   11.84870   10.02190    7.35320
 9242.00000  102.90970   77.99150  136.69750    7.90800   15.80460   15.39740   12.97040
 9242.50000  106.38010   78.38870  137.93970    7.81430   16.12320   15.16210   13.95670
 9243.00000  108.79500   79.04780  138.66660    7.84520   10.91710    9.82110    9.57530
 9243.50000  107.67740   79.79770  139.39350    7.87670   10.59640   10.28730    9.64950
 9244.00000  105.43530   80.05260  140.23460    7.91630   11.18230   11.10300   10.53470
 9244.50000  107.14420   80.03680  141.77430    7.95580   11.27330   11.07190   10.59770
 9245.00000  111.98470   80.10910  143.31390    7.96520    9.99580    9.60270    9.21030
 9245.50000  116.61840   82.57440  144.85360    7.95560    8.79830    8.64720    7.90480
 9246.00000  117.44160   84.06800  148.77680    7.94590    8.82430    8.69180    8.20040
 9246.50000  117.44500   84.08730  150.63510    7.93630    9.10470    8.96820    8.77480
 9247.00000  118.96640   84.40220  151.69330    7.94970    9.39400    9.25320    8.82470
 9247.50000  122.19710   84.85040  151.91690    7.98680    9.39850    9.25800    8.85390
