~Version ---------------------------------------------------
VERS.   2.0 : CWLS log ASCII Standard -VERSION 2.0
WRAP.    NO : One line per depth step
DLM . SPACE : Column Data Section Delimiter
~Well ------------------------------------------------------
STRT .F                3218.0 : START DEPTH
STOP .F               10687.0 : STOP DEPTH
STEP .F                   0.5 : STEP
NULL .               -9999.25 : NULL VALUE
COMP .                        : COMPANY
WELL .                        : WELL
FLD  .                        : FIELD
LOC  .                        : LOCATION
PROV .                        : PROVINCE
CNTY .                        : COUNTY
STAT .                        : STATE
CTRY .                        : COUNTRY
SRVC .                        : SERVICE COMPANY
DATE .                        : DATE
UWI  .                        : UNIQUE WELL ID
API  .                        : API NUMBER
SLAT .WGS84 2.171705607876305 : SURFACE LATITUDE
SLON .WGS84 6.152736122890005 : SURFACE LONGITUDE
DATUM.F                   nan : DEPTH DATUM ELEV
~Curve Information -----------------------------------------
DEPT   .F     : 1 MEASURED DEPTH
GR_EDTC.GAPI  : GAMMA RAY
DTCO   .US/F  : DELTA-T COMPRESSIONAL
DTSM   .US/F  : DELTA-T SHEAR
HCALR  .IN    : HRCC CALIPER CALIBRATED FROM RESISTIVITY LOG
RLA3   .OHMM  : APPARENT RESISTIVITY FROM COMPUTED FOCUSING MODE 3
RLA4   .OHMM  : APPARENT RESISTIVITY FROM COMPUTED FOCUSING MODE 4
RLA5   .OHMM  : APPARENT RESISTIVITY FROM COMPUTED FOCUSING MODE 5
~Params ----------------------------------------------------
~Other -----------------------------------------------------
~ASCII -----------------------------------------------------
# ...
 10635.50000   24.72880   86.06250   88.19300    7.79890   50.23380   47.50930   43.13650
 10636.00000   25.61750   87.04720   88.74700    7.82680   44.84520   44.28190   42.94460
 10636.50000   28.31240   87.26200   88.83010    7.81310   48.83970   44.17150   42.94460
 10637.00000   32.61360   87.29260   88.91320    7.78630   85.48160   72.54160   52.30510
 10637.50000   -9999.25   86.60940   88.99620    7.75950  158.25570  133.77790   99.81890
 10638.00000   -9999.25   85.92630   89.07930    7.73270  191.71460  189.18670  178.06390
 10638.50000   -9999.25   85.24310   89.11700    7.71370  217.84670  197.05450  177.61570
 10639.00000   -9999.25   84.56000   88.82990    7.70970  314.43940  284.44740  241.13030
 10639.50000   -9999.25   83.87680   88.13400    7.70570  481.80660  410.59880  360.55290
 10640.00000   -9999.25   83.21120   86.47020    7.70170  620.74840  606.90450  539.12080
 10640.50000   -9999.25   83.11670   84.84440    7.69770  678.48550  650.36770  614.68370
 10641.00000   -9999.25   82.93540   84.94870    7.69360  795.35380  760.57100  703.02730
 10641.50000   -9999.25   82.75400   85.05300    7.68960  843.29700  832.09460  744.47030
 10642.00000   -9999.25   82.57260   85.15730    7.68560  696.76530  638.64460  533.09190
 10642.50000   -9999.25   82.39130   85.26160    7.68160  504.99170  462.72330  397.01150
 10643.00000   -9999.25   82.20990   85.05580    7.67760  408.83220  400.72520  366.44650
 10643.50000   -9999.25   82.18750   84.77570    7.67350  247.01850  176.00390  157.78170
 10644.00000   -9999.25   82.21750   84.49560    7.66950  214.20420  187.70140  155.69060
 10644.50000   -9999.25   82.24750   84.21540    7.66550  336.96780  306.31860  252.11270
 10645.00000   -9999.25   82.27760   85.18350    7.66360  374.40560  343.75360  296.41620
 10645.50000   -9999.25   82.35050   86.15160    7.66410  253.83720  225.42080  207.96660
 10646.00000   -9999.25   83.00770   87.11970    7.66450  179.61050  167.53340  159.80440
 10646.50000   -9999.25   83.66490   87.96060    7.66500  139.22650  129.91970  123.94640
 10647.00000   -9999.25   84.32210   88.27780    7.66540  107.92260   94.50740   86.31370
 10647.50000   -9999.25   84.97930   88.59490    7.66590   67.63110   57.18420   52.27260
 10648.00000   -9999.25   85.48380   88.91210    7.66630   60.07650   50.49650   43.49560
 10648.50000   -9999.25   85.91500   89.22930    7.66680  121.81920  111.36220   73.29410
 10649.00000   -9999.25   86.34620   89.54640    7.66720  112.12330   98.09980   85.53050
 10649.50000   -9999.25   86.77750   89.33990    7.65930   71.33060   62.08600   56.08960
 10650.00000   -9999.25   86.51740   89.00770    7.64970  140.69440   88.04300   64.26970
 10650.50000   -9999.25   86.02940   88.67560    7.64020  572.58090  510.37550  373.85350
 10651.00000   -9999.25   85.54130   88.34350    7.63060  673.58440  629.66170  575.81790
 10651.50000   -9999.25   85.01550   87.93270    7.62100  663.92930  610.00270  569.99220
 10652.00000   -9999.25   84.45370   87.45890    7.62550  580.47520  548.11460  520.32100
 10652.50000   -9999.25   83.89190   86.96850    7.63370  507.08390  491.31930  476.70590
 10653.00000   -9999.25   83.44170   86.32260    7.64190  445.02030  439.85290  420.12060
 10653.50000   -9999.25   83.09640   85.67670    7.65010  390.82330  359.36980  310.03060
 10654.00000   -9999.25   82.75110   85.22830    7.65830  337.09990  313.64900  295.02760
 10654.50000   -9999.25   82.40580   84.83390    7.66650  357.18550  330.85670  297.82240
 10655.00000   -9999.25   81.94120   84.43950    7.67470  426.25280  376.14540  340.55910
 10655.50000   -9999.25   81.43990   84.04510    7.68280  498.61770  427.63310  389.42840
 10656.00000   -9999.25   80.93870   83.84960    7.69100  536.27610  482.27630  418.06560
 10656.50000   -9999.25   80.63530   83.88850    7.69920  485.00980  441.82360  354.28510
 10657.00000   -9999.25   80.60530   83.92740    7.70490  402.03140  344.93360  281.30660
 10657.50000   -9999.25   80.77940   83.96630    7.71320  344.49740  320.80040  317.87410
 10658.00000   -9999.25   81.06950   84.00520    7.71590  367.75160  338.04480  329.80200
 10658.50000   -9999.25   81.82150   84.21260    7.73420  409.10590  384.78590  374.66400
 10659.00000   -9999.25   83.02150   84.53060    7.74450  454.51000  440.39580  414.46820
 10659.50000   -9999.25   83.42740   84.84860    7.72410  495.80470  418.47390  350.55020
 10660.00000   -9999.25   83.54780   85.16760    7.68560  274.23810  235.00760  202.70150
 10660.50000   -9999.25   83.58160   85.51240    7.66490  192.11720  173.53500  160.08560
 10661.00000   -9999.25   83.55160   85.85720    7.68000  203.81710  185.89500  178.27170
 10661.50000   -9999.25   83.52160   86.20200    7.69510  216.64670  201.61810  187.53320
 10662.00000   -9999.25   83.49150   86.54690    7.68810  193.44870  185.63880  175.20110
 10662.50000   -9999.25   83.46140   86.89170    7.66900  173.54130  168.76260  163.13330
 10663.00000   -9999.25   83.43130   87.23650    7.71760  157.82030  154.29130  151.81150
 10663.50000   -9999.25   83.40130   87.58130    7.79450  146.21140  141.23940  127.95710
 10664.00000   -9999.25   84.02350   87.92610    7.79160  129.24080   97.38380   75.34570
 10664.50000   -9999.25   84.70250   88.27100    7.78870   79.84250   56.20430   50.70460
 10665.00000   -9999.25   85.20540   88.39340    7.77550   78.20110   61.02730   48.35880
 10665.50000   -9999.25   85.23380   88.35220    7.74670  159.10390  141.29210  102.08220
 10666.00000   -9999.25   85.31560   88.31110    7.71790  308.39520  221.68010  204.62620
 10666.50000   -9999.25   85.44620   88.29920    7.69150  321.24930  301.12740  278.61290
 10667.00000   -9999.25   85.58120   88.30520    7.69660  352.43290  316.26280  297.66870
 10667.50000   -9999.25   -9999.25   -9999.25    7.70170  353.11520  338.19680  331.16350
 10668.00000   -9999.25   -9999.25   -9999.25    7.70680  369.60700  361.65190  356.40730
 10668.50000   -9999.25   -9999.25   -9999.25    7.71180  444.91670  390.33120  381.22450
 10669.00000   -9999.25   -9999.25   -9999.25    7.71690  447.41260  441.05780  413.82410
 10669.50000   -9999.25   -9999.25   -9999.25    7.72200  545.02490  498.37660  483.71220
 10670.00000   -9999.25   -9999.25   -9999.25    7.72030  911.77160  697.65860  617.53530
 10670.50000   -9999.25   -9999.25   -9999.25    7.71680  735.49830  624.31870  540.44690
 10671.00000   -9999.25   -9999.25   -9999.25    7.71340  570.18310  535.62150  452.84100
 10671.50000   -9999.25   -9999.25   -9999.25    7.70990  757.73950  647.99240  578.04000
 10672.00000   -9999.25   -9999.25   -9999.25    7.70640  616.80820  509.58760  444.42040
 10672.50000   -9999.25   -9999.25   -9999.25    7.70300  472.43690  441.90440  427.79720
 10673.00000   -9999.25   -9999.25   -9999.25    7.69950  588.77900  502.06910  458.41290
 10673.50000   -9999.25   -9999.25   -9999.25    7.69600  389.36280  315.40980  262.90790
 10674.00000   -9999.25   -9999.25   -9999.25    7.69260  462.65550  381.66300  320.16050
 10674.50000   -9999.25   -9999.25   -9999.25    7.68910  568.51000  561.06160  482.43100
 10675.00000   -9999.25   -9999.25   -9999.25    7.68560  510.39340  456.26070  423.14540
 10675.50000   -9999.25   -9999.25   -9999.25    7.68320  353.16330  302.09720  271.73700
 10676.00000   -9999.25   -9999.25   -9999.25    7.68320  286.09450  268.63850  189.32340
 10676.50000   -9999.25   -9999.25   -9999.25    7.68320  410.91670  361.67910  244.33180
 10677.00000   -9999.25   -9999.25   -9999.25    7.68320  543.62850  513.94030  479.77240
 10677.50000   -9999.25   -9999.25   -9999.25    7.68320  527.16280  499.25130  446.37340
 10678.00000   -9999.25   -9999.25   -9999.25    7.68320  540.50330  512.76120  463.46280
 10678.50000   -9999.25   -9999.25   -9999.25    7.68320  653.94110  620.50780  598.59720
 10679.00000   -9999.25   -9999.25   -9999.25    7.71750  791.18660  750.89480  696.42800
 10679.50000   -9999.25   -9999.25   -9999.25    7.79370  882.22100  836.68760  755.93510
