~Version ---------------------------------------------------
VERS.   2.0 : CWLS log ASCII Standard -VERSION 2.0
WRAP.    NO : One line per depth step
DLM . SPACE : Column Data Section Delimiter
~Well ------------------------------------------------------
STRT .F                3218.0 : START DEPTH
STOP .F               10687.0 : STOP DEPTH
STEP .F                   0.5 : STEP
NULL .               -9999.25 : NULL VALUE
COMP .                        : COMPANY
WELL .                        : WELL
FLD  .                        : FIELD
LOC  .                        : LOCATION
PROV .                        : PROVINCE
CNTY .                        : COUNTY
STAT .                        : STATE
CTRY .                        : COUNTRY
SRVC .                        : SERVICE COMPANY
DATE .                        : DATE
UWI  .                        : UNIQUE WELL ID
API  .                        : API NUMBER
SLAT .WGS84 2.171705607876305 : SURFACE LATITUDE
SLON .WGS84 6.152736122890005 : SURFACE LONGITUDE
DATUM.F                   nan : DEPTH DATUM ELEV
~Curve Information -----------------------------------------
DEPT   .F     : 1 MEASURED DEPTH
GR_EDTC.GAPI  : GAMMA RAY
DTCO   .US/F  : DELTA-T COMPRESSIONAL
DTSM   .US/F  : DELTA-T SHEAR
HCALR  .IN    : HRCC CALIPER CALIBRATED FROM RESISTIVITY LOG
RLA3   .OHMM  : APPARENT RESISTIVITY FROM COMPUTED FOCUSING MODE 3
RLA4   .OHMM  : APPARENT RESISTIVITY FROM COMPUTED FOCUSING MODE 4
RLA5   .OHMM  : APPARENT RESISTIVITY FROM COMPUTED FOCUSING MODE 5
~Params ----------------------------------------------------
~Other -----------------------------------------------------
~ASCII -----------------------------------------------------
# ...
 6368.00000   26.66640   54.43600   99.31530    8.51540  124.69100  118.92580  107.85280
 6368.50000   24.82790   54.41990   99.49710    8.51150  118.31410  111.61210   95.43950
 6369.00000   23.43650   54.11950   99.50710    8.50740  120.93850  118.88180   98.43250
 6369.50000   22.33440   53.51060   99.51710    8.50320  127.35490  122.86540  108.94110
 6370.00000   22.10610   53.79530   98.59610    8.49900  135.77400  125.33170  113.72700
 6370.50000   22.05200   53.46440   97.65880    8.49730  154.78270  145.93880  121.02230
 6371.00000   22.34660   52.64850   97.53610    8.53860  166.15330  160.74750  154.79760
 6371.50000   22.77020   52.59910   97.33500    8.56550  171.26930  152.67130  125.82310
 6372.00000   23.20630   52.45150   96.52040    8.56560  169.29090  146.40110  129.28740
 6372.50000   22.97340   51.61550   95.70570    8.56130  167.47490  150.73030  149.26770
 6373.00000   23.00690   51.61510   94.89110    8.55700  171.40810  151.61730  135.68260
 6373.50000   24.14240   51.61470   94.07650    8.55330  212.86710  200.51540  171.13600
 6374.00000   25.65150   50.98090   93.26180    8.58230  269.31790  238.14150  217.82840
 6374.50000   26.51740   50.72890   92.72240    8.65350  343.81640  301.99020  258.78130
 6375.00000   25.16960   50.75560   92.74910    8.67080  445.15690  385.22700  342.95140
 6375.50000   23.65310   50.78230   92.77570    8.68520  578.01080  476.69280  448.60050
 6376.00000   23.06050   50.80890   92.76690    8.69960  614.78430  568.10940  540.86570
 6376.50000   22.86420   50.73810   92.51720    8.71390  583.93930  564.77400  542.80600
 6377.00000   22.51780   50.21160   91.44480    8.72740  504.22800  482.15560  455.16420
 6377.50000   21.79780   50.35100   91.01210    8.74080  435.08830  398.97390  381.67290
 6378.00000   21.10590   50.82300   90.92090    8.74510  467.82130  409.91430  386.29940
 6378.50000   20.49410   50.96140   90.95760    8.74510  530.71620  478.71010  470.06070
 6379.00000   20.89600   51.72970   91.18210    8.69240  509.37590  478.71030  470.06070
 6379.50000   21.64650   52.49530   91.27490    8.61740  454.01200  432.29280  401.50730
 6380.00000   21.71480   53.33870   91.36770    8.51230  377.52110  359.56830  333.93860
 6380.50000   21.28950   53.22200   91.46050    8.39290  315.37880  280.05430  257.12270
 6381.00000   19.98970   52.90840   91.55330    8.38500  300.57010  286.23330  273.78170
 6381.50000   18.70960   52.83430   91.64610    8.40090  322.52030  277.01970  252.54940
 6382.00000   18.43520   52.76220   91.73890    8.41440  294.88640  219.03150  177.12980
 6382.50000   19.89150   52.70600   91.78170    8.42360  297.09600  245.08710  209.73460
 6383.00000   21.38160   52.65870   91.69790    8.42670  324.32980  315.89980  295.09650
 6383.50000   22.93610   52.61150   91.14640    8.42650  328.41320  324.26980  318.09600
 6384.00000   25.83910   52.26700   91.33860    8.42310  321.60080  309.06280  295.54310
 6384.50000   31.13570   51.51150   90.57540    8.42190  307.34260  274.88820  266.73400
 6385.00000   35.19930   51.46130   90.03140    8.40450  337.70330  317.87340  299.90210
 6385.50000   36.26630   51.41120   90.24980    8.41780  341.70480  318.28780  279.91860
 6386.00000   34.11180   51.36120   90.42310    8.43310  285.50370  176.33480  156.25480
 6386.50000   32.97290   51.29630   90.83990    8.42070  323.73030  263.92180  193.50990
 6387.00000   36.54550   51.21010   90.60530    8.40130  688.72610  427.82590  419.98640
 6387.50000   41.73290   51.05190   90.32740    8.38050  603.47390  423.18490  414.02000
 6388.00000   44.92040   50.45420   90.24210    8.35960  314.70830  232.23120  144.98310
 6388.50000   44.77900   50.21700   90.08600    8.33870  113.46980   96.85740   76.09160
 6389.00000   40.40440   50.05860   89.37270    8.33370  107.38090   73.16850   62.81100
 6389.50000   33.58490   50.00850   89.21110    8.34790  204.76430  126.91100   95.50430
 6390.00000   28.76010   50.01860   89.26540    8.36660  615.46030  366.02870  196.98250
 6390.50000   28.72010   50.05530   89.05040    8.38440 1284.25960  902.83890  737.89820
 6391.00000   30.40380   50.05080   88.16080    8.40220 1432.92530  998.31220  704.66840
 6391.50000   29.33660   50.04630   87.55460    8.42000  753.11590  650.72880  355.50220
 6392.00000   28.55150   50.04280   87.94600    8.43780  677.16820  193.26470  164.33780
 6392.50000   27.23360   50.04280   89.24360    8.45560  571.80840  372.03910  274.62390
 6393.00000   26.53020   50.04280   89.24360    8.45940  848.26570  546.38530  456.17250
 6393.50000   28.52230   50.04280   89.24360    8.44050  545.70870  506.66840  376.84070
 6394.00000   31.32250   50.09960   89.20330    8.41790  721.33120  451.77460  364.77940
 6394.50000   32.65970   50.35080   88.94470    8.39660  705.49670  545.08950  535.15450
 6395.00000   32.97040   50.76110   88.88220    8.37600  525.23120  494.93520  438.08820
 6395.50000   33.98530   51.17130   89.20530    8.32780  377.54140  332.98460  273.10660
 6396.00000   36.92000   51.58160   89.56100    8.26570  254.27590  242.10210  222.90140
 6396.50000   39.60540   52.54710   89.91680    8.20360  366.07350  257.38130  242.97290
 6397.00000   38.65930   53.02920   90.36140    8.13840  286.78310  218.77200  186.88840
 6397.50000   35.21840   52.63240   91.64560    8.07650  168.92590  150.69520  132.17320
 6398.00000   34.49990   52.14440   92.92980    8.07810  330.19880  232.64640  166.42020
 6398.50000   38.46070   52.68460   93.25840    8.09520  265.48400  219.30260  178.58730
 6399.00000   42.96560   52.44250   93.03110    8.12440  155.81340  124.61710  119.41690
 6399.50000   44.87370   52.18810   92.37730    8.11310  175.10710  137.89390  134.90730
 6400.00000   44.28010   51.96010   91.72350    8.10010  146.99790  134.38840  110.96850
 6400.50000   43.12310   51.44920   91.06970    8.08710   98.06560   66.96580   65.74310
 6401.00000   44.89590   51.03570   90.41590    8.04350  189.02250   91.38100   73.24640
 6401.50000   47.97370   50.29180   90.49770    8.01180  216.22150  170.99360  167.90380
 6402.00000   48.99990   49.85210   91.04000    8.03670  159.21870  146.31220  130.18310
 6402.50000   43.87690   49.55150   91.09940    8.07120  116.17140  105.80990   92.64830
 6403.00000   34.48610   49.27760   91.16620    8.11890  119.58360   90.64950   91.69480
 6403.50000   23.38360   49.48940   91.18940    8.18630  230.93900  100.64000  157.55910
 6404.00000   14.97840   48.88310   91.50630    8.23160  405.81900  269.99080  325.74050
 6404.50000   11.39350   48.11140   91.85740    8.27230  384.57430  325.59570  306.96940
 6405.00000   10.29000   47.86540   92.20860    8.32870  299.45000  236.40880  199.45050
 6405.50000   10.56530   47.77690   92.55970    8.42450  296.57360  219.69850  177.20950
 6406.00000   11.13390   48.69540   93.00430    8.54040  297.46320  278.54980  263.85970
 6406.50000   12.61290   50.75770   94.78090    8.63860  272.94740  254.54230  231.39190
 6407.00000   13.28540   55.27540   96.55750    8.60450  212.04510  198.75530  180.23430
 6407.50000   13.29750   57.56690   98.31270    8.61260  171.65700  166.57150  159.16820
 6408.00000   13.30960   58.64280  100.11670    8.71360  134.77630  110.66460   82.19540
 6408.50000   14.11960   59.70280  101.16840    9.13290   97.94310   77.01990   71.48910
 6409.00000   15.37000   59.86150  101.16840    9.52200  115.78470  111.95840  102.20950
 6409.50000   19.07370   60.01930  101.16840    8.68450  132.94720  127.49120  120.34070
 6410.00000   27.36140   58.16150  101.15410    8.75830  223.52120  184.38350  144.51470
 6410.50000   39.64350   54.63150  100.84220    8.58840  536.09690  383.35150  308.31630
 6411.00000   54.96500   54.06660   98.99700    8.39620  855.42620  637.45400  489.13160
 6411.50000   66.94550   54.01980   95.67670    8.23070  743.50150  673.59000  392.50690
 6412.00000   70.09560   53.97750   94.56190    8.07010  357.80610  264.83830  184.50420
 6412.50000   65.25980   53.99760   91.37030    7.99710  246.80920  218.32980  192.56560
