~Version ---------------------------------------------------
VERS.   2.0 : CWLS log ASCII Standard -VERSION 2.0
WRAP.    NO : One line per depth step
DLM . SPACE : Column Data Section Delimiter
~Well ------------------------------------------------------
STRT .F                3218.0 : START DEPTH
STOP .F               10687.0 : STOP DEPTH
STEP .F                   0.5 : STEP
NULL .               -9999.25 : NULL VALUE
COMP .                        : COMPANY
WELL .                        : WELL
FLD  .                        : FIELD
LOC  .                        : LOCATION
PROV .                        : PROVINCE
CNTY .                        : COUNTY
STAT .                        : STATE
CTRY .                        : COUNTRY
SRVC .                        : SERVICE COMPANY
DATE .                        : DATE
UWI  .                        : UNIQUE WELL ID
API  .                        : API NUMBER
SLAT .WGS84 2.171705607876305 : SURFACE LATITUDE
SLON .WGS84 6.152736122890005 : SURFACE LONGITUDE
DATUM.F                   nan : DEPTH DATUM ELEV
~Curve Information -----------------------------------------
DEPT   .F     : 1 MEASURED DEPTH
GR_EDTC.GAPI  : GAMMA RAY
DTCO   .US/F  : DELTA-T COMPRESSIONAL
DTSM   .US/F  : DELTA-T SHEAR
HCALR  .IN    : HRCC CALIPER CALIBRATED FROM RESISTIVITY LOG
RLA3   .OHMM  : APPARENT RESISTIVITY FROM COMPUTED FOCUSING MODE 3
RLA4   .OHMM  : APPARENT RESISTIVITY FROM COMPUTED FOCUSING MODE 4
RLA5   .OHMM  : APPARENT RESISTIVITY FROM COMPUTED FOCUSING MODE 5
~Params ----------------------------------------------------
~Other -----------------------------------------------------
~ASCII -----------------------------------------------------
# ...
 4928.00000   54.24710   65.09790  109.48530    8.22750   84.41790   70.86520   56.86480
 4928.50000   53.34760   64.71690  109.05070    8.19070   70.26740   62.70630   53.58930
 4929.00000   55.82920   64.72290  108.06820    8.18640  117.34190   93.16680   83.57630
 4929.50000   57.75520   64.74760  106.96150    8.18030  114.18810  107.46800   94.65360
 4930.00000   56.87120   64.21660  106.23640    8.15870  108.85960   97.76940   88.98360
 4930.50000   54.90090   62.91220  105.40250    8.13090  103.99460  100.33960   89.07670
 4931.00000   53.44200   63.12920  105.26530    8.10310   92.16960   70.63580   59.86980
 4931.50000   54.24910   63.14100  105.33290    8.07530  121.50420   81.69180   71.82680
 4932.00000   58.00770   63.98020  106.52570    8.05990  164.34510  147.69240  129.17070
 4932.50000   61.32060   64.72140  108.43870    8.09800  155.95810  139.59460  124.45300
 4933.00000   64.88030   66.30240  110.06430    8.12760  113.01230  102.68170   91.02140
 4933.50000   70.01660   68.30670  111.95580    8.14450  111.57010  133.53230  112.06080
 4934.00000   76.69100   69.32500  113.46930    8.16000  152.99970  144.65410  138.78490
 4934.50000   84.03530   70.09060  114.72630    8.18210  120.66360  103.22990   81.00110
 4935.00000   89.31560   70.09060  115.14330    8.21850   64.96550   59.01700   57.17900
 4935.50000   89.25410   70.09060  115.17040    8.21620   56.22940   54.68570   49.52950
 4936.00000   86.05430   70.09060  115.00570    8.22000   52.16850   49.83730   48.95600
 4936.50000   79.81890   70.06490  114.89140    8.21550   50.62580   49.53490   46.95310
 4937.00000   74.89860   69.89900  114.11570    8.20880   46.71260   45.30950   43.28280
 4937.50000   70.19790   69.10810  113.27590    8.20930   52.44000   44.61530   59.54830
 4938.00000   65.42600   68.26740  113.20060    8.22940  101.33090   72.48190   74.51710
 4938.50000   60.47300   66.86820  113.12540    8.23150   77.14230   64.70570   61.81010
 4939.00000   60.44490   66.71370  112.66960    8.23210   75.93260   53.85360   61.57270
 4939.50000   64.84940   67.88120  113.27550    8.23290  109.13880   90.83550   84.07790
 4940.00000   70.20720   68.31850  114.65910    8.23360   99.51990   85.96550   79.98190
 4940.50000   72.76710   69.09150  115.42060    8.23430   71.03800   65.86150   58.70890
 4941.00000   74.53480   70.06280  115.97730    8.23520   55.47050   54.33510   53.18010
 4941.50000   76.99350   71.09050  117.02660    8.24190   56.75170   56.06340   54.17920
 4942.00000   80.60350   71.58430  117.90000    8.28580   54.05470   51.51220   45.57680
 4942.50000   84.88250   71.64470  118.65710    8.41920   32.60850   29.33530   28.61710
 4943.00000   89.93810   71.03750  118.99790    8.40490   28.97490   24.68840   23.95160
 4943.50000   94.17590   71.73990  118.46260    8.34500   32.29130   36.28320   35.53170
 4944.00000   95.13650   71.70040  117.71830    8.33950   38.69140   36.45380   33.22050
 4944.50000   93.38290   70.96860  117.00300    8.40520   38.65610   36.55320   33.96010
 4945.00000   92.01820   70.49510  116.92990    8.41370   38.49960   36.90990   35.32050
 4945.50000   91.45350   69.71110  115.62420    8.33020   38.59020   46.68740   36.36850
 4946.00000   90.52860   68.44720  115.11640    8.30450   52.33060   47.65190   41.79810
 4946.50000   85.93700   67.98260  114.07450    8.30110   47.40580   42.00180   39.05710
 4947.00000   81.34670   66.93630  112.49570    8.29990   44.81020   41.81400   39.57930
 4947.50000   77.66480   65.54590  111.27180    8.30210   44.84630   48.89820   45.88900
 4948.00000   76.80790   65.06390  111.09480    8.30440   46.16150   59.08710   53.67060
 4948.50000   71.21900   64.97890  111.00820    8.31100   53.86000   62.57630   61.34960
 4949.00000   63.74200   64.86890  110.98350    8.32810   63.69750   57.13010   55.78210
 4949.50000   55.80150   64.16880  110.66370    8.34520   80.56030   74.87060   66.94470
 4950.00000   48.97340   64.01800  110.21220    8.34690  104.69250   99.48640   89.04020
 4950.50000   47.10560   64.02810  109.99810    8.33620  106.50100  105.22620  103.32650
 4951.00000   46.82900   64.03810  109.81050    8.32540   97.46340   91.73330   78.73460
 4951.50000   45.06810   64.04810  109.25400    8.35050   96.56030   74.27250   67.91290
 4952.00000   43.74800   64.05810  108.76190    8.35010   96.89760   84.13290   76.66330
 4952.50000   44.54690   64.07110  108.11140    8.34840  103.21880   94.15620   82.40220
 4953.00000   46.66270   64.08880  108.27470    8.29040  119.47500  112.51260  100.12810
 4953.50000   48.10800   64.10640  108.87990    8.28380  127.31150  108.82920  102.41250
 4954.00000   46.28540   63.37000  108.63650    8.27720  110.60730   91.85910   85.86420
 4954.50000   43.11270   62.23640  108.11800    8.27020  100.09300   84.12500   76.63820
 4955.00000   42.69180   62.88740  108.77180    8.25570  120.51710  110.42790   99.85630
 4955.50000   45.51930   63.84940  108.62280    8.23260  127.63700  121.46890  116.14370
 4956.00000   49.53450   63.78750  108.28230    8.24110  122.16750  117.54280  101.05170
 4956.50000   51.19900   63.50980  108.82700    8.25050   86.45050   74.43400   69.54430
 4957.00000   53.48560   63.54050  109.25510    8.25990   88.13150   83.50670   78.17390
 4957.50000   54.31670   63.95660  109.61280    8.26190   98.24260   95.72410   90.30500
 4958.00000   52.43470   64.04780  109.30550    8.24310   97.19980   95.57880   90.20810
 4958.50000   47.31790   64.06410  109.32770    8.23170   82.40530   70.54030   62.36620
 4959.00000   42.27230   64.06410  109.23440    8.23070   79.50500   68.95130   63.12450
 4959.50000   42.94230   64.06410  109.14510    8.23160   94.78600   89.53560   80.35620
 4960.00000   46.40840   63.10200  109.12580    8.23250  106.94160  102.90150  101.01960
 4960.50000   48.94710   62.20140  109.11830    8.23280  106.45400  103.79060   92.56420
 4961.00000   47.55420   62.75940  108.62880    8.23620   84.96300   71.37450   61.60580
 4961.50000   44.81560   62.96220  108.03630    8.24420   84.35550   71.73460   62.59220
 4962.00000   43.66550   63.16500  107.97110    8.23710  101.68570   97.66550   84.95730
 4962.50000   44.56120   63.36790  107.96740    8.25240  123.64560  115.92050   96.16950
 4963.00000   47.10740   63.28170  107.96740    8.26390  133.64910  127.06560  117.55260
 4963.50000   48.53850   62.94570  107.96740    8.26600  127.16550  110.00500   94.13190
 4964.00000   49.02520   63.71260  108.20340    8.26810  116.45160  110.87350  104.31990
 4964.50000   49.37540   63.96780  108.59090    8.27020   95.07060   86.18160   69.96290
 4965.00000   48.72380   63.99950  108.77110    8.27180   77.80560   61.68820   55.83100
 4965.50000   46.85300   64.37640  108.93700    8.27210   88.80560   82.89060   73.12710
 4966.00000   45.32220   64.95400  108.96770    8.27280   88.36250   83.48250   81.32510
 4966.50000   43.30780   64.95400  109.34090    8.27190   77.70990   70.90010   68.72340
 4967.00000   46.45170   64.95400  110.62490    8.26800   87.35240   80.45210   75.46770
 4967.50000   51.36820   64.95400  110.70810    8.24450   93.94090   90.40020   88.72600
 4968.00000   56.10210   64.95400  110.95960    8.23870   89.94720   87.55390   75.23150
 4968.50000   59.44180   64.98040  111.02750    8.25520   65.06730   58.19640   52.08110
 4969.00000   61.03020   65.17910  112.27720    8.26290   68.72200   62.19640   57.80350
 4969.50000   62.70130   65.92520  112.58680    8.27060   62.88100   55.76760   52.45780
 4970.00000   63.61140   66.98370  112.48910    8.27410   54.31890   49.34810   47.35100
 4970.50000   64.41940   67.99790  113.41580    8.27240   52.91820   46.41660   42.86480
 4971.00000   63.41070   67.79360  114.13840    8.27320   52.06030   46.97670   43.71900
 4971.50000   61.63460   67.07720  114.75570    8.28670   52.50280   49.88050   49.05370
 4972.00000   59.92090   67.71850  114.76450    8.28640   53.91840   43.66100   38.79350
 4972.50000   58.22490   67.94920  114.93370    8.28400   55.68920   48.17190   42.23210
