~Version ---------------------------------------------------
VERS.   2.0 : CWLS log ASCII Standard -VERSION 2.0
WRAP.    NO : One line per depth step
DLM . SPACE : Column Data Section Delimiter
~Well ------------------------------------------------------
STRT .F                3218.0 : START DEPTH
STOP .F               10687.0 : STOP DEPTH
STEP .F                   0.5 : STEP
NULL .               -9999.25 : NULL VALUE
COMP .                        : COMPANY
WELL .                        : WELL
FLD  .                        : FIELD
LOC  .                        : LOCATION
PROV .                        : PROVINCE
CNTY .                        : COUNTY
STAT .                        : STATE
CTRY .                        : COUNTRY
SRVC .                        : SERVICE COMPANY
DATE .                        : DATE
UWI  .                        : UNIQUE WELL ID
API  .                        : API NUMBER
SLAT .WGS84 2.171705607876305 : SURFACE LATITUDE
SLON .WGS84 6.152736122890005 : SURFACE LONGITUDE
DATUM.F                   nan : DEPTH DATUM ELEV
~Curve Information -----------------------------------------
DEPT   .F     : 1 MEASURED DEPTH
GR_EDTC.GAPI  : GAMMA RAY
DTCO   .US/F  : DELTA-T COMPRESSIONAL
DTSM   .US/F  : DELTA-T SHEAR
HCALR  .IN    : HRCC CALIPER CALIBRATED FROM RESISTIVITY LOG
RLA3   .OHMM  : APPARENT RESISTIVITY FROM COMPUTED FOCUSING MODE 3
RLA4   .OHMM  : APPARENT RESISTIVITY FROM COMPUTED FOCUSING MODE 4
RLA5   .OHMM  : APPARENT RESISTIVITY FROM COMPUTED FOCUSING MODE 5
~Params ----------------------------------------------------
~Other -----------------------------------------------------
~ASCII -----------------------------------------------------
# ...
 9698.00000   98.80460   79.20780  139.97340    8.04200   34.24500   23.32900   20.22160
 9698.50000  112.29290   79.18970  140.07470    8.02490   32.60470   31.13390   26.21340
 9699.00000  126.82130   80.87890  143.22560    8.03650   22.09190   18.94610   17.08230
 9699.50000  135.20270   83.66230  146.37650    8.05070   13.41640   11.91070   10.43990
 9700.00000  138.90430   86.58720  149.75680    8.06490    9.91130    9.74720    9.15350
 9700.50000  142.41170   89.07250  151.80610    8.09270    9.66940    9.53970    9.15380
 9701.00000  148.63130   89.74120  149.54030    8.12750    9.48730    9.36010    9.07790
 9701.50000  154.85090   89.96430  148.38000    8.16000    8.99850    8.81250    8.32100
 9702.00000  152.63560   90.44480  148.29940    8.15310    8.14070    7.79650    7.47830
 9702.50000  129.90040   89.72400  146.65770    8.14140    7.16100    7.01310    6.72520
 9703.00000  103.29230   76.65710  134.63150    8.10120    9.01930    7.91670    6.81340
 9703.50000   71.95230   59.24500  120.63180    8.06100   18.63590   14.63280   12.41420
 9704.00000   43.65550   51.24560  107.16330    8.02090  126.25390   68.18170   32.74470
 9704.50000   20.34730   50.21530  100.17280    7.98070 1832.30140  843.51560  293.54050
 9705.00000   16.37970   49.89260   97.30560    7.94510 5200.26370 4337.39010 3806.28930
 9705.50000   19.28380   49.53490   94.46800    7.95490 3260.89920 2672.81880 2159.13840
 9706.00000   22.20430   49.53150   91.59260    7.96460  814.63280  503.34740  363.67310
 9706.50000   22.16640   49.67760   90.15570    7.97440  270.19980  200.31720  162.55720
 9707.00000   19.07510   49.82370   90.30170    7.98420 3531.67160  995.93320  614.94900
 9707.50000   15.86330   49.96980   90.10240    7.99390 5274.42770 4996.09080 4953.40770
 9708.00000   15.96110   49.99870   90.00310    8.00370 7293.34860 5999.50290 5502.76610
 9708.50000   19.76380   50.06580   90.10550    8.00310 11323.04390 9189.79300 6082.53760
 9709.00000   23.54420   51.02260   92.69180    7.99410 4364.49070 1507.58170 1124.58860
 9709.50000   26.72290   52.57150   95.62650    7.98510  451.10620  289.37110  182.39480
 9710.00000   28.42550   54.01420   97.74820    7.97610  787.64900  473.37910  221.90550
 9710.50000   28.92450   55.19370  102.19740    7.96710 1219.77080 1086.48410  445.09530
 9711.00000   27.81460   55.49760  104.12330    7.95810  795.02640  362.68440   85.28990
 9711.50000   24.19780   56.25920  104.09830    7.94910   56.50990   38.77410   17.98160
 9712.00000   21.07940   56.93690  104.83460    7.94020   43.18750   16.71560   15.59820
 9712.50000   19.78210   57.05230  106.19350    7.93120  842.95220  685.94210  236.45790
 9713.00000   21.83920   57.28140  106.91000    7.92220  727.25980  616.17870  250.52990
 9713.50000   24.53640   58.18640  106.96460    7.91720  258.63930  188.31600   96.35950
 9714.00000   27.66720   58.97900  106.52890    7.91980   92.96870   63.76370   56.12660
 9714.50000   37.19330   58.26070  106.18770    7.92250  338.28450  212.88530   97.30670
 9715.00000   59.46180   58.58440  106.16010    7.92510 1420.18270  667.10970  486.29940
 9715.50000   86.96340   58.97500  106.04160    7.92770  317.74990  171.44100  112.94670
 9716.00000   94.36160   59.00710  106.02910    7.93030   29.41220   14.73380    9.34810
 9716.50000   76.80510   58.94910  106.00840    7.93300   17.23220   11.19110    8.52960
 9717.00000   51.41620   58.09240  105.36190    7.93560   68.57100   45.30910   13.97530
 9717.50000   53.55930   57.09710  104.16720    7.93820  475.97870  338.64370  188.38250
 9718.00000   64.17330   56.18380  102.78340    7.94080  483.21400  457.17840  270.20110
 9718.50000   67.88440   54.60170   99.94420    7.94350  245.62790  186.89890  147.57340
 9719.00000   61.63990   53.74850   98.46430    7.94610   88.04180   71.05390   48.65330
 9719.50000   45.82590   53.05610   96.57110    7.94870   64.99570   54.00180   48.49490
 9720.00000   35.36380   53.05330   94.67800    7.95130  154.45610  122.73450   76.79270
 9720.50000   29.60400   53.05890   94.85390    7.95400  429.15430  322.59750  184.03410
 9721.00000   27.00340   53.75440   96.71070    7.95660 1272.42480  945.11540  526.03310
 9721.50000   26.88050   54.61240   98.95400    7.95520 1173.35560  908.39470  597.98100
 9722.00000   35.82930   55.58400  101.17290    7.95360  528.66820  335.35820  325.15390
 9722.50000   53.41110   56.16710  101.81120    7.95200  345.03790  284.01310  275.35590
 9723.00000   72.15400   56.70970  101.96160    7.95050  285.54800  182.27930  137.48030
 9723.50000   92.64170   56.97280  102.92230    7.94890  108.64400   60.44890   46.63930
 9724.00000  106.08820   57.07550  103.98580    7.94920   42.72260   33.30310   29.67110
 9724.50000   96.30040   57.82440  103.94640    7.95120   30.02050   22.48560   17.85130
 9725.00000   73.60710   57.92170  103.88800    7.95130   63.27250   49.80130   41.35110
 9725.50000   45.99830   57.70050  102.58500    7.95080   72.38190   68.94820   67.92300
 9726.00000   28.03830   57.40490  100.23620    7.95030   69.69810   66.48790   64.40130
 9726.50000   23.03840   56.81010   98.24580    7.94980   66.73810   64.24420   62.64120
 9727.00000   20.73870   55.87400   97.49040    7.95020   65.77960   64.17460   62.12360
 9727.50000   19.94890   55.72310   96.73930    7.95240   69.05990   68.44880   67.53290
 9728.00000   21.21350   55.87890   96.95850    7.95460   63.67680   59.66820   57.10030
 9728.50000   22.95280   56.11310   97.81580    7.95680   53.24040   51.02760   50.54360
 9729.00000   25.78830   56.75260   98.19540    7.95900   53.05340   49.83620   48.86730
 9729.50000   30.94040   56.98080   99.52030    7.96120   44.29130   41.67460   38.68840
 9730.00000   38.08110   56.87060   99.97700    7.96340   35.34990   33.27830   29.56970
 9730.50000   48.35210   56.25750   99.83880    7.96560   32.30650   28.41440   27.36220
 9731.00000   55.00550   55.29920   99.54130    7.96780   44.46240   42.20190   36.39240
 9731.50000   58.04910   55.03660   99.77320    7.97000   43.69750   41.75680   37.47490
 9732.00000   53.53190   54.48610   98.77680    7.97220   51.64250   44.02910   37.25020
 9732.50000   43.58410   52.06590   97.88180    7.97440  140.88410   88.55390   71.68480
 9733.00000   33.46370   51.98330   97.12910    7.97660  777.98750  460.57390  356.64970
 9733.50000   26.89970   51.64470   96.08820    7.97880 1597.51940 1327.56320  957.60020
 9734.00000   27.68500   50.87980   95.04730    7.98100 1211.23740  919.55710  783.85440
 9734.50000   44.49370   50.84780   94.00640    7.98320  659.46960  475.78560  429.73350
 9735.00000   66.81680   50.89840   93.02900    7.98540  408.39930  357.35270  342.79570
 9735.50000   93.13470   50.94910   93.00360    7.98760  329.66230  284.99740  273.44600
 9736.00000  118.89910   51.30690   92.98380    7.98710  270.92240  239.44770  232.35310
 9736.50000  149.07960   51.96320   92.97800    7.97790  258.65840  213.49360  211.26530
 9737.00000  153.57060   51.77910   92.97220    7.96860  258.25990  213.35910  211.51350
 9737.50000  142.73310   51.01850   92.96640    7.95940  258.02690  215.73840  211.35510
 9738.00000  125.93890   50.98540   92.96050    7.95440  206.15100  190.05650  167.50590
 9738.50000  105.86250   50.96520   92.95470    7.95490  236.02740  210.59040  168.12960
 9739.00000   87.56350   50.81850   92.94890    7.95530  286.04180  277.28840  246.38160
 9739.50000   67.43510   50.18280   92.94310    7.95390  306.82930  299.97810  275.49100
 9740.00000   55.32270   50.75230   92.93730    7.95250  558.89500  382.75870  309.80460
 9740.50000   47.12860   51.12410   92.95750    7.95110  745.65120  655.38770  649.63340
 9741.00000   46.78690   51.50000   92.99800    7.94970  640.76540  558.63510  529.60090
 9741.50000   47.57420   51.87600   93.78780    7.94830  600.20400  509.69870  487.68100
 9742.00000   48.07140   52.25200   94.30510    7.94690  790.34140  647.40470  619.73680
 9742.50000   46.89980   52.62790   96.03680    7.94550  788.85500  640.26610  587.04160
