~Version ---------------------------------------------------
VERS.   2.0 : CWLS log ASCII Standard -VERSION 2.0
WRAP.    NO : One line per depth step
DLM . SPACE : Column Data Section Delimiter
~Well ------------------------------------------------------
STRT .F                3218.0 : START DEPTH
STOP .F               10687.0 : STOP DEPTH
STEP .F                   0.5 : STEP
NULL .               -9999.25 : NULL VALUE
COMP .                        : COMPANY
WELL .                        : WELL
FLD  .                        : FIELD
LOC  .                        : LOCATION
PROV .                        : PROVINCE
CNTY .                        : COUNTY
STAT .                        : STATE
CTRY .                        : COUNTRY
SRVC .                        : SERVICE COMPANY
DATE .                        : DATE
UWI  .                        : UNIQUE WELL ID
API  .                        : API NUMBER
SLAT .WGS84 2.171705607876305 : SURFACE LATITUDE
SLON .WGS84 6.152736122890005 : SURFACE LONGITUDE
DATUM.F                   nan : DEPTH DATUM ELEV
~Curve Information -----------------------------------------
DEPT   .F     : 1 MEASURED DEPTH
GR_EDTC.GAPI  : GAMMA RAY
DTCO   .US/F  : DELTA-T COMPRESSIONAL
DTSM   .US/F  : DELTA-T SHEAR
HCALR  .IN    : HRCC CALIPER CALIBRATED FROM RESISTIVITY LOG
RLA3   .OHMM  : APPARENT RESISTIVITY FROM COMPUTED FOCUSING MODE 3
RLA4   .OHMM  : APPARENT RESISTIVITY FROM COMPUTED FOCUSING MODE 4
RLA5   .OHMM  : APPARENT RESISTIVITY FROM COMPUTED FOCUSING MODE 5
~Params ----------------------------------------------------
~Other -----------------------------------------------------
~ASCII -----------------------------------------------------
# ...
 5873.00000   32.13770   54.98650  101.52120    8.26580   38.15290   30.02470   27.03460
 5873.50000   23.78690   54.78370  101.63150    8.25770  126.11210   43.13950   38.52870
 5874.00000   27.30950   55.08080  101.70870    8.20620  812.28110  636.14760  285.58940
 5874.50000   38.04830   56.64870  102.13370    8.23950  970.36770  910.60810  883.09750
 5875.00000   48.39580   57.14750  103.46410    8.34150  966.49040  895.96250  547.36850
 5875.50000   61.77010   58.11750  104.90920    8.35030  342.11910  244.52460  150.80730
 5876.00000   71.13100   58.86820  105.51640    8.35100  107.08680   83.76280   57.69740
 5876.50000   77.00580   61.49500  105.55080    8.36110   45.28600   40.13850   33.40960
 5877.00000   79.39740   63.57420  107.60190    8.42520   28.32970   25.09890   21.36850
 5877.50000   79.65300   65.21860  108.98130    8.47930   19.47690   18.15680   16.32400
 5878.00000   78.07150   64.84340  110.39060    8.55700   14.87790   13.87150   12.47040
 5878.50000   76.12630   66.75060  111.36660    8.63660   12.36530   11.91990   11.62140
 5879.00000   74.88980   67.73620  112.30470    8.70150   12.03310   11.82980   11.62140
 5879.50000   74.71000   68.04540  113.56650    8.75730   12.33590   12.14310   11.85830
 5880.00000   75.85810   67.99520  114.59660    8.79820   12.83030   12.63000   12.33300
 5880.50000   79.51970   67.95330  116.22410    8.84760   12.93260   12.77770   12.54680
 5881.00000   84.02300   67.99650  115.30480    8.88220   12.86340   12.63400   12.26720
 5881.50000   85.78220   68.03970  115.69470    8.90720   11.59650   10.75150    9.58360
 5882.00000   83.47710   68.36690  117.44060    8.96180    8.65300    8.09790    7.78970
 5882.50000   80.59230   69.22740  118.54120    9.01690    7.69820    7.53670    7.13150
 5883.00000   79.52830   69.78600  119.09310    9.08310    7.52570    7.39410    7.09880
 5883.50000   80.53710   70.04960  119.48410    9.10140    8.21500    8.00550    7.64620
 5884.00000   83.90250   70.13480  119.65720    9.08280    8.78900    8.66290    7.72160
 5884.50000   90.25190   70.49470  121.18300    9.06990    9.01860    8.91000    7.56520
 5885.00000   95.36790   71.06240  122.05460    9.29760    9.06210    8.95300    7.24970
 5885.50000   98.13280   71.69990  122.79810    9.24680    8.97280    8.85800    7.20330
 5886.00000   98.69740   72.08490  123.50470    9.26070    8.49430    8.32130    7.20750
 5886.50000   97.22350   72.08490  124.67310    9.31360    7.96240    7.80010    7.02380
 5887.00000   90.69280   72.08490  125.06090    9.35860    7.46590    7.31150    6.58920
 5887.50000   82.36350   72.08490  125.13020    9.39970    7.03490    6.90850    6.16040
 5888.00000   77.94600   72.08490  125.08730    9.43250    6.90130    6.78580    5.85020
 5888.50000   78.11270   72.08490  125.13350    9.42050    6.87410    6.76850    5.79990
 5889.00000   80.98680   72.08490  125.18300    9.42110    6.85880    6.80290    5.90020
 5889.50000   83.71170   72.08490  125.18480    9.42170    7.26680    6.82820    5.84330
 5890.00000   83.60160   72.21140  125.18190    9.42220    7.56420    6.59550    5.55160
 5890.50000   79.95230   72.78110  125.23550    9.42230    7.56330    6.21640    5.24750
 5891.00000   78.06570   73.02980  125.89780    9.42170    7.56230    6.02150    5.08180
 5891.50000   80.29720   73.06180  126.98890    9.42110    7.57490    6.20660    5.23970
 5892.00000   85.72220   73.09530  126.29530    9.41320    7.58850    6.27080    5.43500
 5892.50000   88.97340   73.12980  126.90690    9.40470    7.60220    6.27080    5.44700
 5893.00000   88.94160   73.30360  126.86430    9.39100    7.61590    6.27080    5.37240
 5893.50000   87.01940   73.66790  126.92640    9.38250    7.62420    6.40050    5.33040
 5894.00000   85.66170   73.18240  126.75250    9.38100    7.63140    6.54090    5.59390
 5894.50000   85.02730   73.64880  127.05140    9.38250    7.63860    6.68430    5.72080
 5895.00000   85.73720   73.22370  127.48670    9.38250    7.64580    6.77600    5.81520
 5895.50000   85.44700   73.76820  127.46340    9.38260    7.63870    6.71240    5.81110
 5896.00000   83.34660   74.20630  127.44020    9.38160    7.60180    6.55240    5.63300
 5896.50000   81.22900   74.21970  127.41690    9.37680    7.27690    6.20960    5.09820
 5897.00000   80.88570   74.23310  127.39370    9.34800    6.85750    5.93890    4.87960
 5897.50000   81.16700   74.24640  127.37040    9.34960    6.45130    5.90970    4.92470
 5898.00000   81.58050   74.25980  126.97630    9.36460    6.29240    5.88100    5.05690
 5898.50000   81.96510   73.94130  126.12180    9.36480    6.24300    5.85530    5.15400
 5899.00000   82.41690   73.28800  125.38220    9.35550    6.23160    5.93190    5.25300
 5899.50000   82.08340   72.65620  125.21170    9.36740    6.28500    6.00720    5.35390
 5900.00000   80.47680   71.69180  124.12990    9.37670    6.50040    6.10030    5.47540
 5900.50000   79.14950   71.26390  123.32980    9.38590    6.72120    6.26190    5.60740
 5901.00000   79.95760   71.19120  121.92400    9.39370    6.94950    6.51100    5.74260
 5901.50000   81.99460   71.11840  121.45410    9.40090    7.23860    6.79110    5.99370
 5902.00000   82.85810   71.00140  121.12840    9.38750    7.67930    7.10450    6.43050
 5902.50000   82.56180   71.12750  119.64240    9.34150    8.14690    7.72360    7.32300
 5903.00000   81.17670   71.18850  119.71310    9.30780    8.71300    8.04090    7.89510
 5903.50000   79.66470   71.06490  120.03530    9.28930    8.61290    7.97590    7.80310
 5904.00000   78.40480   70.42930  119.68950    9.28220    8.39020    7.40060    7.32030
 5904.50000   77.80570   70.31470  119.27510    9.27510    8.17330    6.59440    6.78770
 5905.00000   77.93670   70.20010  119.23390    9.26810    7.96200    6.13230    6.34880
 5905.50000   78.23920   70.18570  118.47050    9.22860    7.75980    6.13230    6.26980
 5906.00000   78.08500   70.15010  118.27000    9.16990    7.83950    6.13230    6.28110
 5906.50000   77.34590   69.34720  118.22200    9.18570    8.01980    6.22510    6.37400
 5907.00000   76.52900   69.21170  117.61840    9.13310    8.29090    6.41740    7.04130
 5907.50000   77.52960   69.43580  117.25900    9.05380    8.75460    7.84900   10.13390
 5908.00000   79.13800   70.11890  116.91300    8.98620    8.87670    8.08660    9.28320
 5908.50000   80.18830   70.30140  118.06010    8.98620    8.51740    7.62450    7.37610
 5909.00000   80.68850   70.95770  119.11600    9.01290    8.09650    7.10110    6.86930
 5909.50000   81.79200   70.37280  118.39960    9.06810    7.38180    6.66080    6.52450
 5910.00000   83.60800   69.89190  117.65530    9.12330    6.67010    6.49630    6.36380
 5910.50000   84.61890   69.22690  116.73200    9.14690    6.68860    6.44910    6.33260
 5911.00000   80.78110   68.28790  115.20420    9.14790    6.85000    6.48130    6.33760
 5911.50000   73.68800   67.51630  115.13670    9.14890    7.26950    6.70400    6.55580
 5912.00000   66.35220   67.08630  113.46270    9.14990    8.66700    7.31960    6.98810
 5912.50000   61.13300   66.60190  110.98450    9.03870    9.65830    8.53520    7.80910
 5913.00000   62.08070   66.33740  111.18250    8.89320   18.49680   10.75890   12.12370
 5913.50000   69.60660   66.12920  112.36480    8.80290   28.45020   22.75170   32.80290
 5914.00000   77.46900   67.24040  113.05590    8.76460   25.88570   22.89370   27.53330
 5914.50000   82.44940   68.40230  113.30940    8.77430   21.83630   19.25490   23.76490
 5915.00000   86.52250   69.20420  115.04860    8.81420   18.70160   17.00170   20.51230
 5915.50000   91.76120   70.12220  116.55450    8.86780   16.54580   15.75890   18.80290
 5916.00000   97.56080   70.33860  118.37950    8.88460   15.25440   15.07170   17.25460
 5916.50000  102.14080   71.11990  119.87620    8.90270   15.85680   15.48620   17.15990
 5917.00000  105.30300   71.17670  120.37250    8.94240   17.17560   16.77380   18.10890
 5917.50000  109.10460   71.18390  119.93580    8.94960   18.60410   18.16830   19.51020
