~Version ---------------------------------------------------
VERS.   2.0 : CWLS log ASCII Standard -VERSION 2.0
WRAP.    NO : One line per depth step
DLM . SPACE : Column Data Section Delimiter
~Well ------------------------------------------------------
STRT .F                3218.0 : START DEPTH
STOP .F               10687.0 : STOP DEPTH
STEP .F                   0.5 : STEP
NULL .               -9999.25 : NULL VALUE
COMP .                        : COMPANY
WELL .                        : WELL
FLD  .                        : FIELD
LOC  .                        : LOCATION
PROV .                        : PROVINCE
CNTY .                        : COUNTY
STAT .                        : STATE
CTRY .                        : COUNTRY
SRVC .                        : SERVICE COMPANY
DATE .                        : DATE
UWI  .                        : UNIQUE WELL ID
API  .                        : API NUMBER
SLAT .WGS84 2.171705607876305 : SURFACE LATITUDE
SLON .WGS84 6.152736122890005 : SURFACE LONGITUDE
DATUM.F                   nan : DEPTH DATUM ELEV
~Curve Information -----------------------------------------
DEPT   .F     : 1 MEASURED DEPTH
GR_EDTC.GAPI  : GAMMA RAY
DTCO   .US/F  : DELTA-T COMPRESSIONAL
DTSM   .US/F  : DELTA-T SHEAR
HCALR  .IN    : HRCC CALIPER CALIBRATED FROM RESISTIVITY LOG
RLA3   .OHMM  : APPARENT RESISTIVITY FROM COMPUTED FOCUSING MODE 3
RLA4   .OHMM  : APPARENT RESISTIVITY FROM COMPUTED FOCUSING MODE 4
RLA5   .OHMM  : APPARENT RESISTIVITY FROM COMPUTED FOCUSING MODE 5
~Params ----------------------------------------------------
~Other -----------------------------------------------------
~ASCII -----------------------------------------------------
# ...
 6818.00000   29.45750   57.89750   99.52760    7.95690  233.73810  271.71720  357.70140
 6818.50000   29.18200   57.88320   99.26730    7.98590  288.62290  351.70190  302.42690
 6819.00000   28.35940   57.13090   99.15850    8.00870  356.70880  308.30410  207.33080
 6819.50000   26.87420   57.83910   99.15440    7.99120  319.47440  309.30890  247.31380
 6820.00000   25.96590   57.02140   98.10840    7.97380  349.40910  273.14830  313.48810
 6820.50000   27.52470   57.13400   97.15210    7.95630  592.32510  343.18450  341.32650
 6821.00000   31.73340   57.40870   97.31260    7.93880  653.80400  611.82340  598.88150
 6821.50000   37.17340   57.50580   97.79870    7.91940  641.78630  600.87820  574.61410
 6822.00000   38.40900   57.49040   99.04770    7.89880  591.11700  512.38700  476.05970
 6822.50000   37.54640   57.63230   98.71830    7.87820  501.26490  333.30220  233.05570
 6823.00000   35.84180   57.43630   99.00150    7.85760  491.72890  250.21400  218.11300
 6823.50000   33.80440   57.94710   99.03770    7.84940  931.46290  495.19340  462.93490
 6824.00000   32.29300   58.21660   99.06650    7.84470  685.93840  490.05050  397.10520
 6824.50000   32.53150   58.69800   99.07530    7.83790  390.87070  229.56810  203.78900
 6825.00000   35.60780   58.07740   99.10240    7.83970  415.77470  301.65010  249.43720
 6825.50000   37.92860   58.38550   99.13960    7.87300  727.55010  422.23880  391.86740
 6826.00000   38.39410   59.14810   99.41460    7.93110  585.08230  425.64840  410.83640
 6826.50000   37.31840   59.53630   99.27180    7.98860  209.27050  175.82120  150.89850
 6827.00000   35.79970   59.51500  100.91280    7.98860  461.47190  250.58780  217.96670
 6827.50000   36.84170   59.16960  100.86250    7.88710  280.03090  261.30770  237.50050
 6828.00000   39.05680   58.99560  100.76310    7.87690  299.16690  253.05030  205.05690
 6828.50000   39.83070   58.56820  100.23570    7.87690  805.29520  389.44420  369.53920
 6829.00000   37.43620   58.25450   99.11260    7.86930  556.67650  389.61440  329.99960
 6829.50000   34.84390   58.08020  100.04930    7.84590  316.80000  206.08190  194.24020
 6830.00000   35.82270   58.15460  101.07540    7.85410  327.06150  298.26890  262.22680
 6830.50000   40.50880   58.80750  101.00840    7.91370  506.79220  324.34740  312.71910
 6831.00000   41.62770   58.56180   99.86220    7.90660  604.33150  427.38130  397.09760
 6831.50000   39.98130   58.26830  100.23340    7.89210  524.16110  364.84290  300.70020
 6832.00000   38.49010   58.08900  101.17100    7.87750  340.88190  211.10530  188.55680
 6832.50000   39.32890   58.15170  100.35280    7.86890  407.17760  375.25400  331.66450
 6833.00000   41.36350   58.04860   99.44210    7.86890  655.60720  446.39050  434.03180
 6833.50000   40.07660   57.67390   99.28160    7.89140  591.04330  442.29240  429.75330
 6834.00000   36.37990   57.06200   99.18320    7.96630  273.84030  199.42150  173.58940
 6834.50000   35.56320   57.10210  100.12070    7.97260  491.60020  405.20130  274.73160
 6835.00000   39.08790   58.38010  100.88350    7.97260  682.75260  525.40420  512.01070
 6835.50000   43.43760   59.37990  101.04400    7.97210  516.27020  494.41030  476.90360
 6836.00000   44.90330   59.07280  101.15880    7.96440  597.66070  505.18940  495.35930
 6836.50000   45.52090   59.41790  101.20840    7.95660  570.86750  471.88530  434.78920
 6837.00000   45.04690   59.82110  102.46890    7.94890  321.79500  257.45370  190.30520
 6837.50000   43.28320   59.92980  103.08400    7.96220  250.89350  235.42360  191.38190
 6838.00000   39.62040   60.03860  103.14690    7.97600  247.95230  231.71630  211.59300
 6838.50000   37.59420   60.04780  103.12030    7.98860  183.20990  158.20440  140.42540
 6839.00000   39.41720   60.01920  102.52610    7.98850  257.34570  200.33760  141.91630
 6839.50000   41.03900   59.55360  101.66020    7.98850  525.70480  385.25390  367.64470
 6840.00000   38.94800   59.39630  101.07990    7.98840  479.97160  389.15720  381.91490
 6840.50000   37.35780   58.63200  101.05180    7.98840  220.10160  127.62210  125.27840
 6841.00000   42.37690   58.36950  102.58200    7.98830  361.98680  277.86580  194.87910
 6841.50000   49.50380   59.30570  103.09440    7.98830  520.34740  454.40390  446.18790
 6842.00000   47.57180   59.99910  103.60630    8.00230  511.65160  449.60070  422.94200
 6842.50000   43.10030   60.78620  104.73110    8.02580  204.75870  113.95850  111.85810
 6843.00000   43.14570   60.84830  105.20510    8.10260  170.29010  151.28210  127.91060
 6843.50000   51.48240   60.93610  106.25620    8.13230  248.74090  232.37310  196.49740
 6844.00000   62.39400   60.73510  107.41760    8.12460  252.41260  249.25610  244.54450
 6844.50000   67.72240   60.85400  107.48570    8.11700  250.59230  247.42390  242.70510
 6845.00000   62.73530   60.93390  107.40540    8.11130  240.78880  234.76150   80.95470
 6845.50000   55.00180   61.01370  108.37280    8.12650   57.87870   55.43930   47.53250
 6846.00000   48.18230   61.07720  109.55740    8.15180   80.00440   69.48490   61.76280
 6846.50000   43.89430   61.43010  110.80020    8.16990  148.57790  126.65770   99.43660
 6847.00000   41.60650   62.19750  111.23270    8.18790  156.25970  154.34240  151.36140
 6847.50000   41.64510   62.75790  112.47750    8.21040  151.69130  113.48400  101.63120
 6848.00000   44.58280   63.48870  113.18520    8.19700  127.90410  125.14090  119.74380
 6848.50000   51.30090   64.25670  113.24470    8.19500  111.00740  101.57700   94.75850
 6849.00000   59.25990   65.01240  114.58110    8.19140  114.10990  111.39130  109.37590
 6849.50000   69.78190   65.05550  115.13270    8.20800  105.56670   81.19020   57.66410
 6850.00000   78.77010   65.15190  116.24750    8.22630   58.25350   49.13740   44.56600
 6850.50000   80.52520   64.76970  117.24620    8.24550   43.87570   41.44100   32.30080
 6851.00000   78.20250   63.97770  115.80810    8.27490   39.31180   35.35690   30.79530
 6851.50000   70.25310   63.33310  114.48390    8.31740   35.67170   32.03700   30.94590
 6852.00000   62.07590   63.09270  113.67260    8.29750   35.80560   34.10050   31.93950
 6852.50000   54.23380   63.37050  111.37710    8.27790   42.20510   40.39940   37.78370
 6853.00000   48.47220   62.74800  110.76050    8.27260   58.55920   54.00160   47.44710
 6853.50000   45.65720   62.16790  110.37710    8.26720   62.24260   60.80740   59.12440
 6854.00000   50.93950   62.07840  110.19270    8.26090   75.82280   69.29030   64.51340
 6854.50000   59.66700   62.07650  110.22210    8.23560  147.13890  113.68860  101.80100
 6855.00000   65.52440   62.07650  110.78240    8.19760  135.06950  114.96650   95.33560
 6855.50000   62.75760   62.07650  111.15900    8.15470   64.77340   31.99750   26.62330
 6856.00000   56.37360   62.72840  111.19200    8.13990   47.23630   37.37110   39.44260
 6856.50000   50.36700   64.32190  111.19200    8.12500   70.61970   52.89910   85.70950
 6857.00000   49.70120   64.88660  111.19200    8.11860   89.30820   84.64000   79.35490
 6857.50000   51.63640   63.71490  111.19200    8.11210   65.66790   55.78370   45.38720
 6858.00000   52.24270   62.66460  110.57700    8.13560   56.26630   52.30830   48.74970
 6858.50000   52.50350   61.51090  108.58170    8.16640   65.30050   56.69640   62.46940
 6859.00000   54.63350   61.07830  107.42150    8.16640   99.05520   75.04560   89.18380
 6859.50000   56.64670   60.37240  105.88840    8.16640   95.85500   70.64100   44.97910
 6860.00000   55.51530   60.06700  104.16290    8.14560   54.12340   47.48660   42.34720
 6860.50000   52.27940   59.75850  103.09360    8.08390   79.69810   61.68460   91.76200
 6861.00000   48.29820   58.71730  102.45390    8.00690  162.52140   91.24950  247.21560
 6861.50000   44.59370   58.04750  101.48200    8.00510  242.48460  187.27090  180.52530
 6862.00000   43.30040   57.57290  101.06520    8.00330  298.11930  237.38880  288.66220
 6862.50000   43.77690   57.13350  100.21500    8.00160  376.83510  403.29340  402.50820
