~Version ---------------------------------------------------
VERS.   2.0 : CWLS log ASCII Standard -VERSION 2.0
WRAP.    NO : One line per depth step
DLM . SPACE : Column Data Section Delimiter
~Well ------------------------------------------------------
STRT .F                3218.0 : START DEPTH
STOP .F               10687.0 : STOP DEPTH
STEP .F                   0.5 : STEP
NULL .               -9999.25 : NULL VALUE
COMP .                        : COMPANY
WELL .                        : WELL
FLD  .                        : FIELD
LOC  .                        : LOCATION
PROV .                        : PROVINCE
CNTY .                        : COUNTY
STAT .                        : STATE
CTRY .                        : COUNTRY
SRVC .                        : SERVICE COMPANY
DATE .                        : DATE
UWI  .                        : UNIQUE WELL ID
API  .                        : API NUMBER
SLAT .WGS84 2.171705607876305 : SURFACE LATITUDE
SLON .WGS84 6.152736122890005 : SURFACE LONGITUDE
DATUM.F                   nan : DEPTH DATUM ELEV
~Curve Information -----------------------------------------
DEPT   .F     : 1 MEASURED DEPTH
GR_EDTC.GAPI  : GAMMA RAY
DTCO   .US/F  : DELTA-T COMPRESSIONAL
DTSM   .US/F  : DELTA-T SHEAR
HCALR  .IN    : HRCC CALIPER CALIBRATED FROM RESISTIVITY LOG
RLA3   .OHMM  : APPARENT RESISTIVITY FROM COMPUTED FOCUSING MODE 3
RLA4   .OHMM  : APPARENT RESISTIVITY FROM COMPUTED FOCUSING MODE 4
RLA5   .OHMM  : APPARENT RESISTIVITY FROM COMPUTED FOCUSING MODE 5
~Params ----------------------------------------------------
~Other -----------------------------------------------------
~ASCII -----------------------------------------------------
# ...
 8258.00000   66.37000   73.20180  132.01450    8.70870   19.47670   19.20450   19.02740
 8258.50000   65.36620   73.45550  132.21990    8.72230   20.14540   19.83990   19.63570
 8259.00000   67.29840   73.97020  133.09820    8.72370   20.67210   20.41490   20.24300
 8259.50000   69.15130   74.35420  133.71640    8.72210   19.42610   18.64930   18.14620
 8260.00000   71.31990   74.65530  135.48040    8.72060   16.81540   16.59170   16.43900
 8260.50000   73.29580   74.95640  137.03700    8.71260   16.76150   16.53490   16.39550
 8261.00000   74.50640   75.25740  137.03640    8.64850   16.70780   16.28780   15.95030
 8261.50000   75.38630   75.55850  137.03580    8.64560   15.10100   14.63820   14.17070
 8262.00000   77.03600   75.85230  137.76890    8.66380   14.01840   13.82350   12.85300
 8262.50000   79.48700   76.13870  138.29760    8.68200   14.64180   14.33990   13.74880
 8263.00000   80.28100   76.42510  139.08440    8.67890   14.96090   14.77480   14.35170
 8263.50000   79.45920   76.72940  138.79150    8.67020   13.76280   13.21570   12.99850
 8264.00000   79.45530   77.33410  139.83420    8.66150   13.14930   12.98570   12.64990
 8264.50000   81.08460   77.82800  140.37840    8.65280   14.87350   14.23810   13.41750
 8265.00000   82.92170   77.72300  140.92260    8.64400   15.57890   15.30330   14.33640
 8265.50000   82.37970   78.45800  141.46680    8.64700   14.52260   14.17970   13.95100
 8266.00000   78.84960   79.08780  142.01100    8.64690   13.47340   13.17390   12.97420
 8266.50000   76.57520   79.08780  142.41630    8.62590   12.71840   12.55720   12.36800
 8267.00000   77.32900   79.08780  143.10320    8.61320   13.65880   13.13780   12.42240
 8267.50000   82.21670   79.08780  143.17740    8.60560   13.52820   13.34780   12.88680
 8268.00000   88.04790   78.97510  142.79350    8.59800   12.73130   12.50970   12.27600
 8268.50000   89.44910   78.31830  142.22150    8.59040   11.91230   11.68460   11.57340
 8269.00000   86.79260   77.88740  142.22150    8.58280   11.62940   11.48210   11.38360
 8269.50000   80.49510   77.37040  142.22150    8.57530   11.58990   11.44570   11.34930
 8270.00000   77.42350   76.85340  141.50560    8.56770   11.85810   11.68720   11.57330
 8270.50000   76.96840   76.33640  140.05160    8.56110   12.14300   11.99120   11.88980
 8271.00000   78.86940   75.81950  139.49550    8.55780   12.07290   11.91620   11.81200
 8271.50000   78.07910   75.30250  139.22050    8.55450   11.90330   11.74910   11.55470
 8272.00000   77.61960   75.05940  138.71390    8.55120   11.92800   11.74960   11.24350
 8272.50000   78.28710   75.03640  138.20730    8.54790   12.30620   12.12240   11.73720
 8273.00000   80.74820   75.03640  138.05560    8.54170   12.69590   12.50690   12.25260
 8273.50000   82.09330   75.03640  137.13910    8.52410   12.97590   12.81340   12.60950
 8274.00000   81.22600   75.03640  137.09960    8.51600   12.71650   12.50490   12.22270
 8274.50000   79.69060   75.03640  137.07990    8.51410   12.19230   11.98950   11.75900
 8275.00000   79.53320   75.03640  137.06020    8.48530   11.71550   11.56670   11.31290
 8275.50000   79.99290   75.03910  136.94300    8.48860   11.80270   11.63560   11.24480
 8276.00000   80.76550   75.17590  136.26190    8.46770   12.11560   11.94390   11.65950
 8276.50000   81.96610   76.07630  136.14510    8.46200   12.52810   12.26050   12.06880
 8277.00000   83.26550   77.14720  136.79930    8.46200   12.98230   12.58540   12.47230
 8277.50000   81.27710   78.18850  137.06650    8.46370   13.45300   13.03030   12.59090
 8278.00000   78.51080   78.54440  136.63940    8.46550   13.94080   13.50940   12.91120
 8278.50000   81.49720   78.94530  136.15030    8.43900   14.42610   13.91310   13.44360
 8279.00000   90.38770   78.08820  135.14460    8.41710   14.24680   13.87170   13.46360
 8279.50000  101.90830   77.78570  134.11690    8.40160   13.81080   13.39790   12.88290
 8280.00000  102.90100   76.62000  130.46550    8.39710   12.80130   12.29890   11.25230
 8280.50000   93.84120   74.73550  124.76560    8.40400   10.49390    9.88580    9.60510
 8281.00000   76.12920   71.28820  120.54150    8.55760   10.73490    9.56310    8.87000
 8281.50000   57.61510   69.95390  117.86870    8.42000   19.36130   15.72950   13.00910
 8282.00000   50.45900   68.36160  116.68610    8.32750   45.91270   34.72450   29.76180
 8282.50000   45.36600   66.24730  115.76610    8.32120   52.49790   49.90300   43.53520
 8283.00000   45.22550   64.23630  113.86680    8.31490   42.95340   40.57620   38.77880
 8283.50000   46.98390   63.72280  112.13150    8.31210   37.65210   36.26550   35.14470
 8284.00000   48.58310   64.35940  111.99750    8.32090   52.23000   46.28940   41.41220
 8284.50000   49.59210   64.90230  111.98040    8.32980   53.95320   52.54320   47.78820
 8285.00000   50.43630   64.34270  111.44270    8.34090   48.07760   46.53780   43.98420
 8285.50000   51.36420   64.03260  112.33550    8.35030   45.24540   44.68010   44.30260
 8286.00000   52.39030   64.40330  113.37870    8.35120   51.73740   46.44910   44.79250
 8286.50000   54.17250   64.99760  114.00920    8.35390   57.85470   57.08380   50.99050
 8287.00000   53.66560   64.99760  114.03450    8.36890   52.77940   49.99040   46.09900
 8287.50000   52.28710   65.37030  114.05970    8.38530   43.27490   40.97830   40.08350
 8288.00000   52.05280   65.87520  114.89790    8.39340   41.47150   40.75520   39.85200
 8288.50000   54.90280   66.42300  115.75520    8.39340   43.36240   42.61360   41.66320
 8289.00000   57.80370   66.98440  115.95560    8.39340   43.46550   42.88040   41.07690
 8289.50000   60.10380   66.99760  115.98250    8.39340   39.93220   39.26620   37.48740
 8290.00000   61.32920   67.07230  116.47420    8.39350   46.26190   44.30180   41.89080
 8290.50000   60.30370   67.71470  117.21330    8.39370   47.80960   47.04540   44.43910
 8291.00000   61.31360   69.03480  118.70320    8.39370   44.66410   43.80630   43.23780
 8291.50000   64.74310   70.03240  122.07450    8.41640   41.43880   38.35050   36.41190
 8292.00000   69.42870   71.51900  124.22380    8.41960   31.32590   29.95960   29.08550
 8292.50000   74.62670   73.56800  126.37320    8.46620   27.59750   26.99750   26.68610
 8293.00000   81.34510   74.09710  127.98630    8.50400   26.27800   25.78870   23.49350
 8293.50000   86.51920   74.78730  128.28250    8.53990   21.77850   20.37280   18.81940
 8294.00000   87.19300   75.22720  128.91640    8.57570   17.37840   16.36990   15.07520
 8294.50000   84.63250   75.96000  128.40920    8.59890   14.37110   13.24780   12.21850
 8295.00000   79.71380   74.69240  127.84790    8.62570   12.78090   12.15310   11.83350
 8295.50000   74.04840   72.78180  125.93030    8.63590   12.45180   12.03250   11.76270
 8296.00000   68.33680   70.84100  122.06550    8.63270   13.45630   12.64460   11.94310
 8296.50000   61.65310   69.75950  119.20760    8.61900   18.14250   16.09730   13.76770
 8297.00000   55.28090   67.32070  116.95070    8.60520   25.59330   24.47510   20.26690
 8297.50000   47.82440   65.50440  115.96460    8.59600   29.97440   28.67010   26.00700
 8298.00000   44.86510   64.95110  115.08040    8.59900   34.57640   33.31730   30.09770
 8298.50000   47.49230   63.79330  115.16970    8.59620   39.37950   37.93840   35.46700
 8299.00000   56.58570   63.75270  115.91470    8.58290   55.99120   43.20040   42.15710
 8299.50000   65.55380   64.48640  115.14310    8.52160  112.46840   87.21580   67.86200
 8300.00000   73.57410   65.50050  116.62170    8.45750  115.72550   56.31630   32.47280
 8300.50000   74.73640   66.66570  117.82060    8.44360   34.21330   26.62800   24.05800
 8301.00000   73.21380   68.98600  118.26570    8.54510   22.48680   21.39180   20.84980
 8301.50000   70.42090   69.88120  118.87900    8.56470   22.39640   21.90930   21.66030
 8302.00000   69.35320   69.96190  118.61270    8.61420   24.20540   23.62780   23.24970
 8302.50000   68.56630   69.39650  117.91830    8.67210   25.00250   24.68910   24.47950
