~Version ---------------------------------------------------
VERS.   2.0 : CWLS log ASCII Standard -VERSION 2.0
WRAP.    NO : One line per depth step
DLM . SPACE : Column Data Section Delimiter
~Well ------------------------------------------------------
STRT .F                3218.0 : START DEPTH
STOP .F               10687.0 : STOP DEPTH
STEP .F                   0.5 : STEP
NULL .               -9999.25 : NULL VALUE
COMP .                        : COMPANY
WELL .                        : WELL
FLD  .                        : FIELD
LOC  .                        : LOCATION
PROV .                        : PROVINCE
CNTY .                        : COUNTY
STAT .                        : STATE
CTRY .                        : COUNTRY
SRVC .                        : SERVICE COMPANY
DATE .                        : DATE
UWI  .                        : UNIQUE WELL ID
API  .                        : API NUMBER
SLAT .WGS84 2.171705607876305 : SURFACE LATITUDE
SLON .WGS84 6.152736122890005 : SURFACE LONGITUDE
DATUM.F                   nan : DEPTH DATUM ELEV
~Curve Information -----------------------------------------
DEPT   .F     : 1 MEASURED DEPTH
GR_EDTC.GAPI  : GAMMA RAY
DTCO   .US/F  : DELTA-T COMPRESSIONAL
DTSM   .US/F  : DELTA-T SHEAR
HCALR  .IN    : HRCC CALIPER CALIBRATED FROM RESISTIVITY LOG
RLA3   .OHMM  : APPARENT RESISTIVITY FROM COMPUTED FOCUSING MODE 3
RLA4   .OHMM  : APPARENT RESISTIVITY FROM COMPUTED FOCUSING MODE 4
RLA5   .OHMM  : APPARENT RESISTIVITY FROM COMPUTED FOCUSING MODE 5
~Params ----------------------------------------------------
~Other -----------------------------------------------------
~ASCII -----------------------------------------------------
# ...
 3488.00000   47.54260   54.73000  105.08160    8.65400   37.43260   34.67980   29.61050
 3488.50000   49.78220   54.91240  105.72180    8.64270   38.50770   36.84180   32.35180
 3489.00000   49.90180   55.01890  105.68750    8.68460   37.38850   36.15490   31.56610
 3489.50000   45.62340   55.01890  106.46890    8.83320   40.69610   36.52290   32.93230
 3490.00000   34.90580   56.12120  106.97700    8.89860   49.37470   38.66730   36.66460
 3490.50000   27.87050   57.05470  107.07240    8.90080   38.56060   33.93130   31.19140
 3491.00000   24.13600   57.05720  106.91270    8.91360   29.86260   28.53500   25.27500
 3491.50000   22.76400   57.05970  106.35230    8.94500   28.62540   26.82940   24.80820
 3492.00000   22.81820   56.98730  106.17110    8.96460   28.65210   26.24980   25.22420
 3492.50000   23.76180   56.43090  105.96330    8.96460   31.84370   28.71240   21.33680
 3493.00000   26.52040   55.35050  105.09200    8.97520   45.14830   44.24820   28.16900
 3493.50000   28.55700   55.10160  104.53770    9.11200   47.93130   46.77260   40.98550
 3494.00000   28.40640   54.72340  103.52100    9.00070   52.02870   50.77180   43.39370
 3494.50000   25.25210   54.04490  101.59490    8.95810   57.48360   54.21580   48.62240
 3495.00000   23.38410   54.02030  100.40840    8.97980   63.43120   52.40590   54.48120
 3495.50000   24.78760   53.76710  100.51820    8.87690   61.75300   49.10020   53.26930
 3496.00000   29.55080   54.10910  100.20950    8.88460   60.01450   61.09800   47.52850
 3496.50000   35.23280   54.45110  100.15770    8.98460   69.31240   91.86360   88.30140
 3497.00000   39.03770   54.79310  100.15770    8.98470   81.26370   89.37870   80.32550
 3497.50000   41.38090   54.93270  100.15770    8.97100   70.71420   61.76550   55.74450
 3498.00000   43.42550   55.03240   99.37650    8.97100   50.74100   47.19630   44.94190
 3498.50000   45.25760   55.05710   98.61430    8.97100   46.23800   45.40310   40.29200
 3499.00000   47.14260   55.05710   98.25100    8.96840   47.04850   45.65520   40.59040
 3499.50000   49.91930   55.05710   99.23750    8.95680   48.72110   47.28370   43.86530
 3500.00000   51.98630   54.94900  100.13640    8.94520   46.85670   44.93750   43.30560
 3500.50000   54.19240   54.49400  100.18730    8.93740   43.28700   41.65020   38.02350
 3501.00000   54.81530   53.74830  101.78700    8.93310   44.54040   41.89030   38.69200
 3501.50000   54.91760   54.14860  102.58680    8.95390   44.71000   42.05030   39.13030
 3502.00000   55.03140   54.86510  104.35780    8.97420   39.38240   37.55490   33.94680
 3502.50000   54.77840   55.01770  105.72960    8.90770   34.91640   34.49810   31.97880
 3503.00000   53.77320   55.27280  106.77850    8.87160   37.90500   36.15110   32.59420
 3503.50000   50.41290   55.94650  109.20720    8.89270   57.68130   50.19840   39.08150
 3504.00000   44.77120   56.37320  111.19640    8.91180   76.01060   72.82490   63.86600
 3504.50000   37.04570   57.52150  111.73940    8.94380   74.27330   71.10910   64.85360
 3505.00000   32.89950   58.26660  112.83470    8.97900   58.22430   53.58590   45.59940
 3505.50000   30.46750   57.68080  113.98040    8.97640   41.00010   34.91440   30.02630
 3506.00000   30.41800   58.39190  113.79640    8.97390   39.00940   36.41970   33.48550
 3506.50000   31.35440   58.73630  113.86400    8.98120   44.49530   42.43840   38.34860
 3507.00000   33.33610   58.99690  113.94410    9.14430   49.18130   46.30200   40.85660
 3507.50000   37.32410   59.00710  113.98080    9.45840   49.41100   45.69440   42.09190
 3508.00000   41.98980   59.00630  112.57660    9.20720   47.97270   45.33070   39.60330
 3508.50000   45.65940   58.98590  110.73210    8.93040   46.49110   43.62730   40.29200
 3509.00000   47.84240   58.96350  109.06430    8.81450   40.35970   38.19580   31.34750
 3509.50000   48.14770   58.71000  107.00790    8.78580   34.37940   32.89020   29.47830
 3510.00000   45.41890   58.35740  104.98820    8.76730   31.90380   30.78960   28.37830
 3510.50000   42.25540   58.01880  103.75830    8.78100   29.09500   27.64970   25.65870
 3511.00000   41.24800   57.39790  103.27140    8.81040   32.04230   29.87690   25.97600
 3511.50000   41.39750   57.08860  102.60040    8.84530   33.41150   28.74250   27.82360
 3512.00000   41.86360   57.22890  101.57960    8.90710   33.21170   28.11290   27.04010
 3512.50000   42.44240   57.83690  101.16830    8.92630   35.39940   31.89470   28.76610
 3513.00000   45.03870   57.85870  101.78530    8.89660   35.47780   31.27220   30.16800
 3513.50000   51.56400   57.11330  100.75440    8.86490   32.41200   31.69350   27.72200
 3514.00000   55.71370   57.06280  100.14550    8.84290   33.74580   33.05470   28.08030
 3514.50000   52.47830   56.75720  100.14550    8.83500   36.31180   35.42940   31.71370
 3515.00000   47.68330   56.14950  100.14550    8.83930   39.35230   38.43860   34.11050
 3515.50000   43.22380   55.54400  100.14550    8.81040   43.50820   42.21850   37.81140
 3516.00000   39.27530   55.05900  100.14550    8.78540   50.24820   47.02130   44.13430
 3516.50000   35.60360   55.05900  100.14550    8.78080   55.87220   50.40240   48.81920
 3517.00000   31.72570   55.05900  100.14550    8.77500   57.20010   53.94610   51.57610
 3517.50000   28.95730   55.05900  100.44930    8.76920   56.28150   53.61930   50.70650
 3518.00000   28.54630   55.05900  100.82830    8.76340   59.57290   53.22830   50.54340
 3518.50000   28.53880   55.05900  101.95720    8.76130   60.07390   53.94070   51.67840
 3519.00000   30.95160   55.05900  102.13580    8.80030   49.79760   48.63930   45.00770
 3519.50000   35.84700   55.05900  102.14940    8.88970   48.83130   46.80920   42.58710
 3520.00000   41.89690   56.09010  102.16920    8.97920   49.03450   45.61770   42.28830
 3520.50000   47.49190   57.21100  102.20270    8.99890   47.00750   43.84360   40.13940
 3521.00000   52.87350   58.04580  102.57290    9.00250   41.19100   38.20830   36.19620
 3521.50000   53.64600   57.83090  102.92790    9.00800   34.85270   31.97470   29.39580
 3522.00000   50.83170   57.06270  103.47300    9.13740   36.26900   32.38770   29.12030
 3522.50000   44.68330   57.01590  103.77080    9.17230   43.34880   38.85380   35.60330
 3523.00000   38.34070   57.51870  104.02600    9.20720   44.57680   41.05690   40.31520
 3523.50000   33.29020   57.47160  104.04610    9.21980   38.79490   36.79650   35.08610
 3524.00000   30.07980   58.46390  104.04610    9.18780   34.52710   32.62100   29.67650
 3524.50000   36.14060   58.73280  104.22080    9.16350   35.52290   32.93650   29.46730
 3525.00000   47.37960   58.98960  104.91990    9.21130   41.03760   38.05280   32.05410
 3525.50000   56.10210   58.98960  104.99410    9.23490   41.08520   39.26470   37.89340
 3526.00000   57.40430   58.98960  105.36760    9.25690   37.38010   32.44950   25.52190
 3526.50000   53.29720   58.98960  105.66890    9.27780   29.06000   20.58870   17.21970
 3527.00000   51.35390   58.98960  104.33800    9.25610   30.91360   24.08080   19.55580
 3527.50000   54.05700   58.98960  103.02750    9.17710   33.91570   29.19590   26.93100
 3528.00000   56.92130   58.16620  101.22840    9.07280   29.53310   27.63570   26.00280
 3528.50000   57.46250   56.95660   99.99250    8.96840   26.22830   23.56610   21.36980
 3529.00000   55.19880   56.76890   99.48900    8.89150   31.23410   27.70970   23.37900
 3529.50000   49.37150   55.87390   98.14640    8.87790   49.64530   41.62030   32.27700
 3530.00000   43.56650   55.22590   97.52190    8.85350   74.25410   62.24090   46.43960
 3530.50000   40.74780   55.14450   96.48570    8.84500  108.97700   91.86790   66.81660
 3531.00000   45.52410   55.07550   95.86580    8.84130  155.45100  136.75650  107.05470
 3531.50000   53.53000   55.00650   95.13140    8.83930  155.63280  140.18870  133.04110
 3532.00000   56.89910   54.96700   95.97150    8.83840  117.49840   87.10670   61.33680
 3532.50000   52.95950   55.00320   96.75310    8.83750   46.93710   35.80130   31.69780
