~Version ---------------------------------------------------
VERS.   2.0 : CWLS log ASCII Standard -VERSION 2.0
WRAP.    NO : One line per depth step
DLM . SPACE : Column Data Section Delimiter
~Well ------------------------------------------------------
STRT .F                3218.0 : START DEPTH
STOP .F               10687.0 : STOP DEPTH
STEP .F                   0.5 : STEP
NULL .               -9999.25 : NULL VALUE
COMP .                        : COMPANY
WELL .                        : WELL
FLD  .                        : FIELD
LOC  .                        : LOCATION
PROV .                        : PROVINCE
CNTY .                        : COUNTY
STAT .                        : STATE
CTRY .                        : COUNTRY
SRVC .                        : SERVICE COMPANY
DATE .                        : DATE
UWI  .                        : UNIQUE WELL ID
API  .                        : API NUMBER
SLAT .WGS84 2.171705607876305 : SURFACE LATITUDE
SLON .WGS84 6.152736122890005 : SURFACE LONGITUDE
DATUM.F                   nan : DEPTH DATUM ELEV
~Curve Information -----------------------------------------
DEPT   .F     : 1 MEASURED DEPTH
GR_EDTC.GAPI  : GAMMA RAY
DTCO   .US/F  : DELTA-T COMPRESSIONAL
DTSM   .US/F  : DELTA-T SHEAR
HCALR  .IN    : HRCC CALIPER CALIBRATED FROM RESISTIVITY LOG
RLA3   .OHMM  : APPARENT RESISTIVITY FROM COMPUTED FOCUSING MODE 3
RLA4   .OHMM  : APPARENT RESISTIVITY FROM COMPUTED FOCUSING MODE 4
RLA5   .OHMM  : APPARENT RESISTIVITY FROM COMPUTED FOCUSING MODE 5
~Params ----------------------------------------------------
~Other -----------------------------------------------------
~ASCII -----------------------------------------------------
# ...
 7763.00000   71.86410   73.21780  130.66910    8.26000   25.66740   25.21490   24.65980
 7763.50000   72.75600   73.59500  131.56520    8.23310   26.97180   26.15650   24.98790
 7764.00000   73.96720   74.53170  132.87800    8.23390   27.76500   27.40630   26.70520
 7764.50000   76.17430   75.27090  134.57150    8.23470   27.10520   24.94590   23.81390
 7765.00000   75.41790   75.42900  136.26500    8.24440   23.20880   22.63440   22.01840
 7765.50000   77.07310   76.10070  137.45830    8.24890   22.48390   22.18880   21.38320
 7766.00000   82.33050   76.61410  138.36140    8.24970   21.88080   21.55280   21.23100
 7766.50000   90.96760   76.38350  140.41100    8.25180   21.18360   20.62440   19.92390
 7767.00000   94.84290   77.00940  140.43430    8.25160   19.11240   18.30000   17.76970
 7767.50000   95.53910   76.94280  140.27040    8.25150   16.64830   16.23600   15.96370
 7768.00000   94.90620   76.91250  140.02240    8.25180   15.68470   15.44070   15.08660
 7768.50000   94.18490   77.08130  139.60000    8.25260   15.02510   14.66000   13.87700
 7769.00000   91.60790   76.63150  140.32270    8.27340   13.30990   12.83270   12.28780
 7769.50000   87.03660   76.34420  140.53070    8.25170   13.43790   12.55090   12.19980
 7770.00000   85.96780   75.79730  138.45920    8.25200   16.34450   15.38050   14.15400
 7770.50000   85.70620   75.63560  138.41880    8.25230   16.64010   16.25290   15.67340
 7771.00000   85.64890   75.47510  138.49690    8.28380   15.44610   14.96700   14.65290
 7771.50000   83.55420   75.45180  138.27880    8.29230   13.85520   13.44580   12.47290
 7772.00000   80.72820   75.42750  137.56170    8.31290   14.75710   14.17510   12.59890
 7772.50000   79.13430   75.37000  137.53830    8.31200   16.53750   16.29080   15.60540
 7773.00000   78.43190   74.97880  137.51500    8.30430   16.36280   16.02840   15.60670
 7773.50000   77.06830   75.01630  137.49160    8.29440   15.62430   15.25050   14.90420
 7774.00000   75.25520   75.05390  137.46820    8.25510   16.99340   16.48840   15.65400
 7774.50000   72.37780   75.09150  137.44480    8.23030   17.35040   17.12090   16.33750
 7775.00000   72.01830   75.12910  137.42150    8.21810   18.20280   17.81750   16.82810
 7775.50000   73.67300   75.16660  137.39810    8.20750   18.56250   18.29560   17.40220
 7776.00000   74.96620   75.20420  137.37470    8.19550   17.62300   17.20490   17.04190
 7776.50000   77.58170   75.21790  137.33250    8.20710   17.06740   16.83250   16.67610
 7777.00000   78.74290   75.19450  137.26630    8.23680   16.69850   16.39440   16.15940
 7777.50000   79.03820   75.17110  136.69350    8.24970   15.83760   15.53540   15.08090
 7778.00000   78.34210   74.70540  135.05970    8.24260   16.04170   15.76800   15.02470
 7778.50000   76.94480   73.68940  132.63850    8.24460   16.06520   15.85900   15.19210
 7779.00000   73.84410   73.36680  131.54250    8.23910   15.87880   15.67510   14.76110
 7779.50000   69.82260   73.17090  130.27760    8.23360   15.22030   14.91300   13.95270
 7780.00000   66.79800   72.57830  130.18140    8.22810   14.55800   14.36590   13.09630
 7780.50000   64.53340   71.57540  129.47060    8.21230   19.03320   17.48140   13.58020
 7781.00000   63.87010   70.78880  128.22090    8.19360   23.97640   23.58800   18.76500
 7781.50000   63.68340   70.14240  126.92470    8.17480   23.54780   22.83750   22.35360
 7782.00000   63.80560   70.07440  126.19560    8.15320   22.89390   22.60520   21.78500
 7782.50000   63.39620   70.51460  126.20600    8.13390   23.00150   22.71530   22.11090
 7783.00000   62.46860   70.12410  126.24000    8.13240   22.45070   21.84360   21.20290
 7783.50000   60.32000   70.65830  126.44320    8.13100   20.48250   19.92990   19.63890
 7784.00000   59.71140   71.05460  126.19360    8.13160   20.31240   19.72610   18.38490
 7784.50000   64.33650   71.06820  127.58630    8.14090   29.26050   28.81390   18.66530
 7785.00000   69.77210   71.06820  128.12610    8.14910   27.73280   23.57670   23.29180
 7785.50000   72.93770   71.11150  128.22380    8.16380   22.89620   22.56310   22.09040
 7786.00000   74.43970   71.41750  128.03990    8.17060   21.32840   20.78410   19.54870
 7786.50000   74.51980   71.27830  128.11320    8.17150   22.95220   22.40960   20.90880
 7787.00000   72.70750   71.19870  128.14570    8.16890   21.82120   20.99550   19.66060
 7787.50000   70.74420   71.11900  128.16950    8.16540   19.44750   18.79080   18.11750
 7788.00000   70.32810   71.47830  128.18470    8.15750   25.05560   23.72140   19.31520
 7788.50000   72.57160   72.02950  128.18470    8.13730   24.75510   23.28710   21.68780
 7789.00000   75.41640   71.41960  128.18470    8.13730   20.04190   19.75920   18.52990
 7789.50000   77.82210   71.09500  128.18470    8.13270   24.47850   23.11330   19.04630
 7790.00000   78.69910   71.08550  127.20690    8.12990   25.50650   25.17020   20.44340
 7790.50000   78.41250   70.82840  125.78110    8.13000   21.93810   20.61010   19.13140
 7791.00000   75.12390   70.08660  125.85290    8.13010   18.02960   17.80290   16.21500
 7791.50000   68.85090   69.14910  125.54800    8.14220   19.71250   18.93370   16.66370
 7792.00000   62.51980   69.25690  125.06790    8.14290   22.53880   21.75750   20.33430
 7792.50000   57.75250   69.78700  124.94030    8.13560   25.73660   24.74040   21.05470
 7793.00000   55.84700   69.77430  124.24020    8.16390   28.79280   28.32040   26.71030
 7793.50000   56.98320   69.89660  124.05070    8.19850   29.33410   28.96900   27.62110
 7794.00000   61.35050   69.21900  124.01640    8.23310   30.67460   29.85300   28.24280
 7794.50000   64.58400   69.82420  124.01290    8.25240   31.41440   31.02340   29.65270
 7795.00000   66.35760   69.96740  124.01290    8.27210   28.27810   27.20810   25.41570
 7795.50000   66.15930   69.98900  124.01290    8.29550   22.64010   21.10770   18.76010
 7796.00000   62.80040   70.01060  124.01290    8.22140   19.71710   18.75920   17.64640
 7796.50000   60.54450   70.58020  123.03400    8.14730   25.70630   23.92980   20.57910
 7797.00000   61.65350   70.47510  122.24470    8.07470   31.91350   30.38360   27.85330
 7797.50000   55.55580   69.98910  120.19500    8.03930   33.25820   32.75920   30.83180
 7798.00000   54.58770   68.47750  119.41300    8.02880   34.61560   33.62340   31.64800
 7798.50000   56.94660   65.96680  117.96600    8.01820   41.41560   40.15960   36.56470
 7799.00000   57.95420   65.11010  116.80610    8.00770   42.19080   40.39680   38.10750
 7799.50000   53.48090   65.03280  115.75340    7.99710   33.41720   30.92530   27.15180
 7800.00000   46.42880   65.01330  114.78870    7.98740   24.90510   22.88750   20.05180
 7800.50000   42.03100   65.01610  114.17960    7.97840   51.08560   38.81160   20.16620
 7801.00000   45.63160   65.01890  114.27850    7.96930  142.63320  108.37370   61.70570
 7801.50000   50.03600   65.02170  114.20950    7.96030  171.47320  169.32930  140.03890
 7802.00000   54.57390   65.02450  114.12640    7.96950  137.29360  103.73910   55.67000
 7802.50000   57.24580   65.02730  114.58870    8.06070   50.11120   47.33960   40.62530
 7803.00000   54.86230   65.03010  114.88490    8.15570   40.55560   37.98840   36.34330
 7803.50000   50.19740   65.03290  114.85160    8.18460   31.95140   30.39760   27.35020
 7804.00000   46.02040   65.03570  114.63430    8.18280   35.53660   32.94000   29.57970
 7804.50000   42.94780   64.85560  113.41380    8.15170   47.01260   43.57180   37.44190
 7805.00000   42.28550   63.80470  112.41430    8.12510   61.14480   57.63520   53.99140
 7805.50000   42.27420   63.78020  112.16680    8.10200   61.46050   60.64010   58.01610
 7806.00000   43.04630   63.42220  112.10560    8.07890   60.76290   60.00690   57.28570
 7806.50000   43.09950   63.29170  112.15920    8.05580   61.92670   61.06350   58.67310
 7807.00000   42.52870   63.27160  112.27580    8.03270   61.65830   60.72050   58.58600
 7807.50000   41.52090   63.46340  113.74170    8.00960   57.88650   57.11100   54.01810
