~Version ---------------------------------------------------
VERS.   2.0 : CWLS log ASCII Standard -VERSION 2.0
WRAP.    NO : One line per depth step
DLM . SPACE : Column Data Section Delimiter
~Well ------------------------------------------------------
STRT .F                3218.0 : START DEPTH
STOP .F               10687.0 : STOP DEPTH
STEP .F                   0.5 : STEP
NULL .               -9999.25 : NULL VALUE
COMP .                        : COMPANY
WELL .                        : WELL
FLD  .                        : FIELD
LOC  .                        : LOCATION
PROV .                        : PROVINCE
CNTY .                        : COUNTY
STAT .                        : STATE
CTRY .                        : COUNTRY
SRVC .                        : SERVICE COMPANY
DATE .                        : DATE
UWI  .                        : UNIQUE WELL ID
API  .                        : API NUMBER
SLAT .WGS84 2.171705607876305 : SURFACE LATITUDE
SLON .WGS84 6.152736122890005 : SURFACE LONGITUDE
DATUM.F                   nan : DEPTH DATUM ELEV
~Curve Information -----------------------------------------
DEPT   .F     : 1 MEASURED DEPTH
GR_EDTC.GAPI  : GAMMA RAY
DTCO   .US/F  : DELTA-T COMPRESSIONAL
DTSM   .US/F  : DELTA-T SHEAR
HCALR  .IN    : HRCC CALIPER CALIBRATED FROM RESISTIVITY LOG
RLA3   .OHMM  : APPARENT RESISTIVITY FROM COMPUTED FOCUSING MODE 3
RLA4   .OHMM  : APPARENT RESISTIVITY FROM COMPUTED FOCUSING MODE 4
RLA5   .OHMM  : APPARENT RESISTIVITY FROM COMPUTED FOCUSING MODE 5
~Params ----------------------------------------------------
~Other -----------------------------------------------------
~ASCII -----------------------------------------------------
# ...
 4433.00000   38.16220   52.58530   96.53810    8.18650  516.11210  479.92730  368.31740
 4433.50000   39.10870   52.62030   96.63300    8.18920  454.22460  415.35340  357.09870
 4434.00000   37.23620   53.17840   96.72790    8.17190  487.20520  455.83080  425.95360
 4434.50000   32.47860   53.95670   96.82280    8.18540  481.46210  446.61680  414.59130
 4435.00000   28.87300   53.98970   96.84640    8.19890  378.96050  292.22950  250.35950
 4435.50000   27.93360   54.35200   96.78870    8.19930  337.55580  318.70130  301.46400
 4436.00000   29.17870   54.94610   96.73110    8.19270  396.54180  316.54610  275.35290
 4436.50000   30.74680   54.94610   96.67340    8.18620  283.75500  229.30460  224.57630
 4437.00000   31.23590   54.94610   96.44820    8.17960  243.98400  237.92200  218.12860
 4437.50000   29.39320   54.94610   96.42440    8.17300  192.02260  171.24950  147.62360
 4438.00000   26.60600   54.94610   96.69880    8.16830  169.63750  167.27040  143.82070
 4438.50000   25.23740   54.94610   96.44270    8.17200  172.37930  169.70740  150.23540
 4439.00000   26.38630   54.94610   95.94360    8.17560  189.14580  178.89570  164.22610
 4439.50000   29.45150   54.94610   95.44460    8.17930  181.85660  172.14520  153.27490
 4440.00000   33.47950   54.94720   94.94560    8.18300  173.30390  170.88280  163.12030
 4440.50000   37.81870   54.97230   94.44660    8.18670  174.84810  172.26270  169.63680
 4441.00000   38.23550   55.01520   93.94760    8.19030  169.00650  166.24250  150.21370
 4441.50000   35.54330   55.23620   93.44850    8.19400  139.54530  120.34890  109.15040
 4442.00000   32.79720   55.49110   93.04710    8.19670  147.03650  132.65020  120.32930
 4442.50000   31.65430   55.93280   93.46660    8.19540  147.17070  136.12400  130.42830
 4443.00000   33.29660   55.20480   93.20470    8.19410  141.36230  130.89290  119.50550
 4443.50000   34.34150   55.03890   93.04840    8.19270  143.67160  169.27040  235.08370
 4444.00000   34.06520   54.54300   93.01610    8.19140  170.66720  242.29090  207.63950
 4444.50000   33.12840   54.05930   93.01610    8.19000  260.16570  226.80730  190.38940
 4445.00000   32.64030   53.90060   93.01610    8.18870  220.02020  198.37580  180.01510
 4445.50000   32.47050   53.19780   93.01610    8.18740  219.75810  200.84770  187.12980
 4446.00000   31.55400   52.95630   93.01610    8.18490  271.43870  264.67940  236.59970
 4446.50000   30.90260   52.72210   93.33320    8.17810  309.02990  286.84310  253.95520
 4447.00000   31.99210   52.61070   94.30970    8.17180  410.13400  380.81310  277.45980
 4447.50000   33.10030   52.85130   95.12520    8.18180  458.57120  428.22230  340.57250
 4448.00000   32.38020   53.02240   95.94080    8.19790  409.31050  382.39120  313.02330
 4448.50000   31.05300   52.91380   96.75630    8.22510  354.54890  320.99630  299.25740
 4449.00000   29.25230   52.27480   97.07930    8.26210  331.79470  318.60110  300.97960
 4449.50000   30.03250   52.04600   97.27740    8.30050  333.02100  322.76000  300.48530
 4450.00000   30.92750   52.52250   97.33730    8.31520  360.03340  334.89360  308.40590
 4450.50000   29.71040   53.60720   97.23360    8.32980  396.48960  372.41920  347.36080
 4451.00000   28.11540   53.00990   97.02460    8.33380  411.78880  388.74170  373.08510
 4451.50000   26.73310   52.16460   96.96940    8.31620  395.57990  370.24470  303.81620
 4452.00000   26.73730   53.17280   96.45850    8.29910  391.10830  342.70310  261.58440
 4452.50000   27.96130   52.94920   96.84890    8.29080  420.39450  399.41950  345.75600
 4453.00000   28.52140   53.35050   97.00510    8.29100  432.02770  394.20700  342.80590
 4453.50000   28.72160   53.95640   96.82400    8.29130  407.32200  277.33570  251.95480
 4454.00000   28.25400   53.70950   95.83660    8.29160  350.99060  278.40660  264.31790
 4454.50000   27.20610   53.80410   94.48010    8.29180  284.00640  274.94600  260.47400
 4455.00000   27.89950   53.88350   93.12360    8.29400  278.00370  254.08270  237.03360
 4455.50000   30.04100   53.96300   92.61390    8.29670  294.08520  282.44950  257.80390
 4456.00000   32.53910   54.02020   92.46520    8.29950  369.12380  304.95540  273.61520
 4456.50000   34.52310   54.00120   93.51150    8.30230  330.28730  298.58490  278.93330
 4457.00000   35.54320   53.73340   94.50520    8.30510  294.78400  282.81370  276.56320
 4457.50000   34.90680   53.07500   95.47650    8.30780  280.32240  267.50780  257.65300
 4458.00000   33.29800   53.02050   96.10380    8.31060  313.20980  240.43540  219.16700
 4458.50000   30.47730   52.98000   95.80800    8.31220  308.66280  224.63580  225.38040
 4459.00000   27.58970   52.37210   95.51230    8.31210  361.90110  256.19740  293.14690
 4459.50000   24.48800   52.04760   95.07310    8.31210  534.85750  369.75310  413.17260
 4460.00000   23.06240   52.36270   94.54300    8.31200  743.99190  605.49680  366.43590
 4460.50000   22.44820   52.78080   94.54150    8.31190  804.43570  680.79990  425.10850
 4461.00000   22.99410   53.19890   94.81570    8.31180  453.81460  388.99170  301.22570
 4461.50000   23.54790   53.61700   95.85570    8.31170  357.04300  214.47210  201.38210
 4462.00000   24.73690   54.03510   96.89570    8.31160  336.24710  267.63310  197.25580
 4462.50000   27.46230   54.45320   97.03480    8.31160  207.82030  186.50170  181.92850
 4463.00000   31.44540   54.87130   97.05650    8.31080  196.83420  188.68400  186.72230
 4463.50000   36.59770   55.22770   97.08690    8.30970  191.68680  171.00650  151.77490
 4464.00000   41.44930   55.99470   98.33230    8.30870  143.42640  136.62530  126.39710
 4464.50000   42.38100   56.06420   99.63480    8.30770  137.26740  131.32540  127.10120
 4465.00000   40.66470   56.28450  100.90250    8.30670  136.62710  131.14270  124.04190
 4465.50000   39.23120   57.11990  100.96610    8.30580  125.01740   87.86700   66.89850
 4466.00000   39.62890   57.84130  101.02960    8.30480  123.71220   73.92060   65.57090
 4466.50000   41.11460   58.05750  101.09320    8.30390  142.71400  123.73680   73.58720
 4467.00000   41.70020   58.62600  101.25750    8.25720  140.96340  124.94950  116.35080
 4467.50000   41.27970   58.35890  102.95830    8.24190  123.29390  110.66410   89.22250
 4468.00000   39.45470   58.13300  103.00220    8.23930   74.06100   67.78150   59.44160
 4468.50000   36.42080   58.77740  102.96870    8.22160   82.79200   73.36010   68.83830
 4469.00000   34.44000   59.29150  102.93510    8.21980   83.59240   74.86550   71.97600
 4469.50000   37.66280   59.97360  102.90160    8.24170   76.50040   50.70580   44.82010
 4470.00000   42.38980   59.79480  102.86800    8.22210  129.01760   97.95660   72.69920
 4470.50000   45.04950   59.18210  102.84300    8.17760  183.86610  103.80170  101.84570
 4471.00000   44.14840   58.98750  102.82440    8.15630   90.81480   61.84150   50.78290
 4471.50000   42.29910   58.96540  102.80580    8.13500   64.75230   56.62650   55.64860
 4472.00000   42.10180   58.94540  101.12010    8.13710   76.53140   63.43040   58.64070
 4472.50000   41.89950   58.57580  102.23820    8.21620   71.43720   64.39890   57.91910
 4473.00000   42.15720   57.83810  102.85800    8.26460   67.31090   64.86020   59.20570
 4473.50000   43.99390   56.78700  102.06300    8.30930   72.89990   68.84980   62.31920
 4474.00000   45.05220   55.82860  100.70760    8.34750   94.18830   86.20360   75.30370
 4474.50000   42.57850   55.05150  100.14940    8.39270  135.20960  121.61650  106.16730
 4475.00000   36.91500   54.40470   98.80440    8.43620  126.78600  108.00470   87.42500
 4475.50000   30.05300   54.91230   98.84670    8.44790   87.46590   61.53420   55.17260
 4476.00000   28.91390   54.94360   98.88900    8.45150  237.65320  170.70480  107.55970
 4476.50000   29.71090   54.61780   98.35880    8.39710  302.28460  298.66390  283.83140
 4477.00000   32.11480   54.95660   96.99490    8.33150  311.36220  304.15620  286.23410
 4477.50000   33.93390   54.98220   96.81760    8.27770  346.41010  313.66150  294.96690
