~Version ---------------------------------------------------
VERS.   2.0 : CWLS log ASCII Standard -VERSION 2.0
WRAP.    NO : One line per depth step
DLM . SPACE : Column Data Section Delimiter
~Well ------------------------------------------------------
STRT .F                3218.0 : START DEPTH
STOP .F               10687.0 : STOP DEPTH
STEP .F                   0.5 : STEP
NULL .               -9999.25 : NULL VALUE
COMP .                        : COMPANY
WELL .                        : WELL
FLD  .                        : FIELD
LOC  .                        : LOCATION
PROV .                        : PROVINCE
CNTY .                        : COUNTY
STAT .                        : STATE
CTRY .                        : COUNTRY
SRVC .                        : SERVICE COMPANY
DATE .                        : DATE
UWI  .                        : UNIQUE WELL ID
API  .                        : API NUMBER
SLAT .WGS84 2.171705607876305 : SURFACE LATITUDE
SLON .WGS84 6.152736122890005 : SURFACE LONGITUDE
DATUM.F                   nan : DEPTH DATUM ELEV
~Curve Information -----------------------------------------
DEPT   .F     : 1 MEASURED DEPTH
GR_EDTC.GAPI  : GAMMA RAY
DTCO   .US/F  : DELTA-T COMPRESSIONAL
DTSM   .US/F  : DELTA-T SHEAR
HCALR  .IN    : HRCC CALIPER CALIBRATED FROM RESISTIVITY LOG
RLA3   .OHMM  : APPARENT RESISTIVITY FROM COMPUTED FOCUSING MODE 3
RLA4   .OHMM  : APPARENT RESISTIVITY FROM COMPUTED FOCUSING MODE 4
RLA5   .OHMM  : APPARENT RESISTIVITY FROM COMPUTED FOCUSING MODE 5
~Params ----------------------------------------------------
~Other -----------------------------------------------------
~ASCII -----------------------------------------------------
# ...
 8753.00000   39.20730   60.93380  104.14030    8.09430  126.71310  124.85900  103.39780
 8753.50000   36.06540   60.11220  104.37070    8.15430  181.31040  156.85540  121.34660
 8754.00000   35.06320   60.13060  105.00430    8.17770  262.69810  233.74030  213.81850
 8754.50000   33.44850   60.13080  105.12380    8.27110  247.61670  236.64680  228.21110
 8755.00000   30.66640   60.95890  104.95450    8.25440  246.19690  235.33960  227.08070
 8755.50000   30.53660   60.10660  104.29650    8.20180  375.11110  338.18180  287.03990
 8756.00000   32.85500   60.04580  104.13570    8.20100  384.59790  322.29570  294.45420
 8756.50000   37.82510   60.16640  104.13570    8.16520  302.41710  266.20350  251.88090
 8757.00000   41.20820   60.46480  104.13570    8.12790  400.01540  366.65700  335.44160
 8757.50000   40.40030   60.26440  104.13570    8.09070  340.01490  318.90190  297.18250
 8758.00000   38.84450   60.53610  104.13570    8.07070  268.54810  239.14160  220.88710
 8758.50000   38.31600   60.29300  104.13570    8.06350  172.58110  159.12640  149.69570
 8759.00000   41.48010   60.18640  104.13570    8.04430  176.81220  155.30140  147.99530
 8759.50000   45.12830   60.09610  104.13570    8.02380  287.01610  250.36130  199.29420
 8760.00000   46.93370   60.37090  104.13870    8.02190  261.45390  239.59140  216.99920
 8760.50000   45.57720   60.29700  104.13500    8.02000  208.42620  197.77580  180.97090
 8761.00000   43.59600   60.05770  104.12350    8.02430  172.01630  167.74390  156.14330
 8761.50000   39.41810   60.03360  104.11210    8.03000  194.80010  179.95750  160.41410
 8762.00000   37.76530   59.99850  104.37000    8.03570  201.71060  194.57230  167.75990
 8762.50000   36.67320   59.97520  105.86160    8.04150  180.98950  171.10260  166.76180
 8763.00000   39.36720   60.63180  105.87150    8.04720  244.06890  220.38930  207.46070
 8763.50000   42.98280   60.41820  106.03590    8.05300  298.50970  276.20820  273.72220
 8764.00000   45.47880   60.96070  105.73350    8.06170  255.57390  238.40560  226.94670
 8764.50000   46.00420   61.69280  106.16840    8.06680  195.30840  180.55060  171.23840
 8765.00000   44.65030   62.17490  106.31590    8.05370  146.08270  135.07750  128.11770
 8765.50000   44.70020   62.89880  106.62040    8.05390  113.78150  111.09810  106.90840
 8766.00000   47.06680   63.10140  107.44130    8.05680  106.05100  104.29020   98.95300
 8766.50000   51.45620   62.98570  106.47210    8.05980  102.07280  100.49230   97.40120
 8767.00000   55.14320   62.77890  106.64360    8.06270  100.05600   98.79490   88.75260
 8767.50000   56.53400   61.90980  106.44670    8.08680   90.39130   86.47730   82.38930
 8768.00000   54.34670   61.33620  106.61660    8.08790   87.76040   86.63550   85.38960
 8768.50000   48.68350   61.90070  106.92870    8.08830   88.56050   87.45860   84.80160
 8769.00000   43.76970   61.29530  107.17890    8.08870   88.87880   87.76480   83.38490
 8769.50000   39.46690   61.03330  107.22140    8.08910   89.31750   88.20320   83.11820
 8770.00000   39.86580   61.47910  107.19630    8.08950   90.39250   89.07810   85.86190
 8770.50000   45.54060   61.62920  107.55310    8.08990   99.41760   96.27820   89.27030
 8771.00000   51.32680   61.62790  108.18150    8.09000  108.17530  106.80550   98.08460
 8771.50000   54.31610   61.99550  108.81010    8.08940  106.33350  100.92660   95.89470
 8772.00000   52.54160   62.21990  109.43860    8.08550   87.53680   80.16330   73.31530
 8772.50000   48.43420   62.44430  110.06710    8.08150   63.49610   58.36010   48.70560
 8773.00000   46.97260   62.49260  110.10240    8.08310   55.67980   50.95030   48.96780
 8773.50000   49.31490   62.46190  110.12600    8.09080   78.39880   70.71420   64.81400
 8774.00000   53.30980   62.81400  110.13570    8.09060   78.50420   77.17950   74.74910
 8774.50000   56.66540   63.06910  110.75770    8.09050   78.60960   76.48260   71.55340
 8775.00000   57.55870   63.52390  112.02780    8.10090   74.28870   65.43680   59.62280
 8775.50000   55.94070   64.41350  112.10010    8.11230   45.96730   43.55510   40.65910
 8776.00000   53.69900   64.94510  112.14610    8.12370   54.57050   51.84000   47.51320
 8776.50000   51.22220   64.83920  112.03100    8.12980   58.35280   57.53880   55.67820
 8777.00000   51.29240   63.84680  111.32360    8.12980   56.68760   55.82680   54.89890
 8777.50000   52.64560   62.91880  111.00790    8.12980   55.17900   54.45040   53.96390
 8778.00000   53.82260   62.27510  111.11130    8.11980   53.69710   52.38790   51.32170
 8778.50000   54.09790   62.42700  112.02460    8.09240   49.04420   48.31180   46.50360
 8779.00000   51.27030   62.31650  112.31700    8.06500   48.61830   47.92780   45.37410
 8779.50000   47.32310   63.04490  112.60930    8.03760   52.51340   51.27280   48.46630
 8780.00000   43.83680   63.54150  114.61860    8.02000   57.46280   55.89390   52.06110
 8780.50000   44.72710   64.09820  116.15930    8.02370   81.11120   73.02650   58.63980
 8781.00000   51.78090   64.89500  116.18790    8.02740  105.02960   97.16560   84.85490
 8781.50000   59.60030   65.13100  119.18830    8.04130   88.73060   81.32220   66.98600
 8782.00000   65.58610   67.61580  121.45810    8.05580   53.03600   45.38040   37.62640
 8782.50000   70.84430   69.69900  125.27410    8.07620   34.96240   34.03750   32.21610
 8783.00000   72.59920   70.69600  126.59850    8.14120   33.06400   32.64210   31.86840
 8783.50000   74.01550   71.36220  128.78960    8.16370   33.41610   32.98480   32.15830
 8784.00000   75.53470   72.44330  130.82960    8.18320   33.84450   32.26400   28.86750
 8784.50000   77.10490   73.12190  132.33430    8.21460   28.24440   26.85050   24.85920
 8785.00000   79.23760   73.89810  133.73910    8.24600   23.50790   22.34530   20.90580
 8785.50000   81.67260   74.22860  133.94430    8.26820   19.65160   19.06270   18.30550
 8786.00000   83.19550   74.51210  133.77740    8.29070   17.72020   17.19090   16.00100
 8786.50000   83.86770   74.05160  132.15560    8.31370   15.94380   15.43560   14.59400
 8787.00000   83.59220   72.33680  130.73590    8.33240   14.46320   14.26410   14.00170
 8787.50000   82.72210   71.04790  128.42460    8.30800   15.09930   14.73720   13.95260
 8788.00000   79.85010   70.99860  128.02220    8.28410   16.32280   15.93090   14.84990
 8788.50000   75.11370   70.94030  127.36150    8.29040   17.68950   17.25410   16.03170
 8789.00000   68.60170   70.36240  126.59880    8.27800   19.17690   18.70610   17.47450
 8789.50000   60.96770   70.03970  125.86350    8.23480   21.23120   20.56310   19.09120
 8790.00000   56.85440   69.98570  125.66010    8.20200   23.71710   22.97050   20.48220
 8790.50000   54.83710   70.03750  126.36830    8.18030   26.94500   25.96250   23.38470
 8791.00000   56.85940   70.67780  126.91170    8.15870   30.73320   29.61320   28.65250
 8791.50000   61.97970   70.98530  126.17430    8.13700   34.20280   33.73390   31.54670
 8792.00000   67.07790   70.91900  125.53430    8.13120   34.96690   34.45450   32.24780
 8792.50000   73.41940   70.41650  123.53740    8.12970   31.18890   29.60000   27.72070
 8793.00000   77.30550   69.37820  121.69060    8.12810   25.32590   23.91230   20.77580
 8793.50000   73.56820   69.05020  120.50150    8.12870   20.54230   19.39750   16.38950
 8794.00000   64.38790   67.90140  118.93310    8.13040   16.79690   16.55580   15.93400
 8794.50000   54.40970   66.74480  116.86710    8.12800   16.73830   16.52790   15.93490
 8795.00000   46.96770   65.71030  114.48870    8.12020   17.40820   16.94500   16.28600
 8795.50000   44.38780   65.07700  112.38970    8.09620   32.14740   24.64300   17.16290
 8796.00000   44.08610   64.66370  111.36070    8.07100  109.70530   72.36560   51.88210
 8796.50000   45.24230   64.06790  111.58930    8.05600  197.39000  194.87370  155.46660
 8797.00000   48.44790   64.51730  111.89790    8.04100  176.16880  165.82350  152.81590
 8797.50000   53.22360   64.96670  112.76650    8.02590  134.60180  119.46550   96.24770
