~Version ---------------------------------------------------
VERS.   2.0 : CWLS log ASCII Standard -VERSION 2.0
WRAP.    NO : One line per depth step
DLM . SPACE : Column Data Section Delimiter
~Well ------------------------------------------------------
STRT .F                3218.0 : START DEPTH
STOP .F               10687.0 : STOP DEPTH
STEP .F                   0.5 : STEP
NULL .               -9999.25 : NULL VALUE
COMP .                        : COMPANY
WELL .                        : WELL
FLD  .                        : FIELD
LOC  .                        : LOCATION
PROV .                        : PROVINCE
CNTY .                        : COUNTY
STAT .                        : STATE
CTRY .                        : COUNTRY
SRVC .                        : SERVICE COMPANY
DATE .                        : DATE
UWI  .                        : UNIQUE WELL ID
API  .                        : API NUMBER
SLAT .WGS84 2.171705607876305 : SURFACE LATITUDE
SLON .WGS84 6.152736122890005 : SURFACE LONGITUDE
DATUM.F                   nan : DEPTH DATUM ELEV
~Curve Information -----------------------------------------
DEPT   .F     : 1 MEASURED DEPTH
GR_EDTC.GAPI  : GAMMA RAY
DTCO   .US/F  : DELTA-T COMPRESSIONAL
DTSM   .US/F  : DELTA-T SHEAR
HCALR  .IN    : HRCC CALIPER CALIBRATED FROM RESISTIVITY LOG
RLA3   .OHMM  : APPARENT RESISTIVITY FROM COMPUTED FOCUSING MODE 3
RLA4   .OHMM  : APPARENT RESISTIVITY FROM COMPUTED FOCUSING MODE 4
RLA5   .OHMM  : APPARENT RESISTIVITY FROM COMPUTED FOCUSING MODE 5
~Params ----------------------------------------------------
~Other -----------------------------------------------------
~ASCII -----------------------------------------------------
# ...
 7313.00000   43.88900   65.13050  109.94070    7.89450   80.90850   76.09210   68.32020
 7313.50000   40.86900   64.77010  109.05600    7.88480  100.03280   95.00410   87.26020
 7314.00000   37.97170   64.40970  109.26540    7.87520  123.43940  117.42240  108.84460
 7314.50000   37.06280   64.04930  109.03400    7.86720  137.10330  134.91810  128.14140
 7315.00000   37.09110   63.98350  108.88840    7.86650  129.62740  121.92650  115.65150
 7315.50000   37.39380   63.98350  108.27480    7.85040  147.50830  135.56770  121.96350
 7316.00000   37.63510   63.97220  108.00460    7.80840  203.92610  186.87660  162.02790
 7316.50000   38.08230   63.59720  108.67990    7.78340  212.50600  208.85550  202.35030
 7317.00000   38.19700   63.25030  107.21050    7.77690  170.54990  155.42070  146.06870
 7317.50000   37.32270   63.17650  107.29680    7.76990  135.78110  130.01170  119.02810
 7318.00000   34.77620   63.51270  107.09940    7.76300  113.53940  107.86480   89.98860
 7318.50000   32.14980   63.76770  106.80560    7.75610  112.07800  106.51850   91.37630
 7319.00000   31.38410   63.98350  106.92470    7.74920  133.86290  125.01870  106.67010
 7319.50000   33.83010   63.98350  107.14640    7.74850  208.96070  184.32240  134.56360
 7320.00000   37.45590   63.44110  107.18450    7.74780  265.30380  260.60960  230.28650
 7320.50000   38.94980   63.10210  106.96160    7.74570  261.36820  242.33600  224.52600
 7321.00000   39.05220   63.77080  107.47180    7.74770  185.40730  161.63780  139.66080
 7321.50000   38.11150   63.98370  108.86800    7.75930   97.46200   95.85750   90.98820
 7322.00000   37.79120   64.00530  108.73460    7.75010  249.08320  169.35940  115.05680
 7322.50000   37.90760   64.04740  108.58180    7.75740  343.27290  338.99860  244.97310
 7323.00000   37.15900   64.11930  108.52880    7.77770  235.89620  201.43610  143.98980
 7323.50000   36.41440   64.19130  108.99110    7.79820  174.57080  144.58270  127.13960
 7324.00000   35.63800   64.30910  108.38310    7.80840  216.65080  202.30190  169.67100
 7324.50000   35.26110   63.98120  108.81130    7.78580  189.95830  176.72370  151.23090
 7325.00000   36.06340   63.76820  108.89770    7.78470  152.99220  142.25660  134.01180
 7325.50000   39.22230   63.04070  108.82870    7.78360  217.39330  201.22330  156.63960
 7326.00000   43.20320   63.30710  107.67910    7.78500  169.19320  148.02350  122.30990
 7326.50000   43.81780   63.07190  107.11220    7.78420  113.79140   95.20280   88.39580
 7327.00000   38.08120   63.44830  107.81580    7.77200   94.81050   80.14160   74.36800
 7327.50000   31.39760   63.53360  107.84250    7.76590  248.02150  199.33300  103.89690
 7328.00000   32.01100   63.06660  106.85060    7.78260  483.28060  417.92030  272.66350
 7328.50000   38.73480   63.08510  106.92820    7.77110  603.50870  591.58380  524.58110
 7329.00000   44.46590   63.05860  106.20630    7.75960  607.46790  583.95620  516.65800
 7329.50000   44.92650   62.37900  106.02450    7.74800  218.09540  181.10610  167.12100
 7330.00000   41.62890   62.47690  105.82990    7.74490  302.86700  250.98280  168.42610
 7330.50000   38.13140   63.17220  105.59760    7.74680  318.99260  289.03960  244.64910
 7331.00000   33.39340   63.03780  105.85790    7.75170  257.55210  207.86720  190.32640
 7331.50000   29.55760   62.69280  106.40840    7.75670  362.96520  355.43760  238.14480
 7332.00000   30.53220   62.10090  106.21920    7.76170  470.53400  351.92480  346.89350
 7332.50000   35.40990   62.41440  105.92430    7.76670  915.58220  858.11050  359.27450
 7333.00000   40.03780   63.05870  106.14880    7.77540  824.40310  605.47450  490.60130
 7333.50000   40.62600   63.18850  106.79940    7.78370  286.04340  223.54810  159.45900
 7334.00000   39.44920   63.66630  106.76860    7.76310  209.05600  156.32280  114.23450
 7334.50000   38.84850   63.58390  106.65280    7.74710  527.23410  465.57200  157.45240
 7335.00000   41.35490   63.24150  106.16260    7.74670  625.43740  593.91170  496.17410
 7335.50000   42.64690   62.24910  105.40090    7.74620  613.37180  484.19570  343.41430
 7336.00000   41.57620   61.73660  104.69990    7.74580  267.64040  204.10930  166.31950
 7336.50000   39.64900   62.14870  104.47240    7.74540  447.11700  338.50430  183.78160
 7337.00000   38.05230   61.34160  104.38550    7.74500  572.70750  483.89700  401.99540
 7337.50000   35.60380   60.39150  103.88610    7.74480  611.93160  521.67250  450.42910
 7338.00000   33.00480   60.86620  104.31500    7.74450  312.40220  252.54220  202.76820
 7338.50000   30.83980   61.95740  104.29390    7.74440  441.81530  398.70260  211.53930
 7339.00000   32.17340   62.10470  104.24380    7.74440  725.57850  608.27950  508.53570
 7339.50000   34.37400   62.33750  104.19370    7.74440  758.96810  658.98390  553.92220
 7340.00000   38.20430   62.57020  105.01940    7.75700  350.42280  276.03780  230.73970
 7340.50000   40.73710   62.80300  106.22450    7.79100  296.36590  257.60310  194.31140
 7341.00000   40.30140   63.03580  106.13460    7.82500  338.43680  280.14410  211.01900
 7341.50000   36.12330   63.05010  106.13460    7.85670  158.03910   79.71600   72.95890
 7342.00000   32.47570   62.90380  106.13460    7.84980  145.52310  102.49220   75.82800
 7342.50000   33.39810   62.05480  106.21520    7.82640  443.23580  311.41590  148.63030
 7343.00000   38.32480   62.08200  106.21920    7.82340  472.31270  466.22710  447.87950
 7343.50000   40.97260   62.10910  105.64030    7.80820  470.01920  456.48140  411.86730
 7344.00000   38.07790   62.68520  105.78220    7.79300  353.77430  308.83740  248.54900
 7344.50000   32.02270   62.66890  105.54690    7.78050  275.65190  233.77600  219.50820
 7345.00000   30.39960   62.07040  105.87330    7.77100  437.60600  347.42350  285.45070
 7345.50000   32.80600   62.72420  105.95030    7.77370 1048.18160  832.00780  538.33060
 7346.00000   35.10820   63.10080  106.24030    7.78380 1324.13130 1235.38850 1055.43270
 7346.50000   36.17480   63.11710  106.53030    7.79390  831.55480  587.04800  399.32430
 7347.00000   33.45780   63.06600  106.82030    7.80400  268.49630  230.29330  220.61010
 7347.50000   30.10770   63.05010  107.11030    7.81410  290.08060  263.72410  219.50370
 7348.00000   31.70290   63.15710  107.40030    7.82460  687.50290  545.31250  364.67810
 7348.50000   36.91060   63.76110  107.60470    7.83610  829.76950  776.79940  670.66320
 7349.00000   41.69630   63.93590  107.50130    7.84760  617.02770  536.55620  445.78050
 7349.50000   42.49770   63.54790  107.39790    7.85910  362.02690  303.16280  242.73880
 7350.00000   39.58900   63.04590  107.29450    7.86920  219.76040  189.21900  157.53790
 7350.50000   37.93620   63.03650  107.66970    7.85250  410.98800  340.98070  214.62700
 7351.00000   39.98720   63.02720  107.94550    7.81930  720.45430  581.55490  439.67520
 7351.50000   40.80880   63.01780  108.02750    7.79010  708.66150  594.60990  504.65340
 7352.00000   40.49220   63.00840  108.07250    7.78500  439.69640  342.69170  243.18560
 7352.50000   40.68460   63.07390  108.06800    7.78540  311.05650  261.00600  237.96400
 7353.00000   41.49220   63.62560  108.12390    7.78570  551.73280  484.77100  373.07440
 7353.50000   40.71260   63.65590  108.15450    7.78610  391.18390  301.60630  208.88500
 7354.00000   38.06110   64.26730  108.81000    7.78650  234.29390  153.96640  141.13180
 7354.50000   36.73540   64.99160  109.08650    7.78690  360.44780  333.56610  274.07270
 7355.00000   40.83730   64.91920  108.79390    7.78510  586.23070  526.40860  464.93320
 7355.50000   47.33270   64.08220  108.17010    7.78970  596.83280  588.55630  547.64780
 7356.00000   49.93980   62.62960  107.73370    7.80090  478.00600  341.81630  272.69060
 7356.50000   46.57650   62.17060  106.00780    7.81830   97.53520   96.22060   89.71700
 7357.00000   42.12780   62.47840  105.79720    7.84330  226.29120  173.61880  135.03910
 7357.50000   38.75710   62.30360  105.79720    7.87050  334.06260  329.80380  231.79260
