~Version ---------------------------------------------------
VERS.   2.0 : CWLS log ASCII Standard -VERSION 2.0
WRAP.    NO : One line per depth step
DLM . SPACE : Column Data Section Delimiter
~Well ------------------------------------------------------
STRT .F                3218.0 : START DEPTH
STOP .F               10687.0 : STOP DEPTH
STEP .F                   0.5 : STEP
NULL .               -9999.25 : NULL VALUE
COMP .                        : COMPANY
WELL .                        : WELL
FLD  .                        : FIELD
LOC  .                        : LOCATION
PROV .                        : PROVINCE
CNTY .                        : COUNTY
STAT .                        : STATE
CTRY .                        : COUNTRY
SRVC .                        : SERVICE COMPANY
DATE .                        : DATE
UWI  .                        : UNIQUE WELL ID
API  .                        : API NUMBER
SLAT .WGS84 2.171705607876305 : SURFACE LATITUDE
SLON .WGS84 6.152736122890005 : SURFACE LONGITUDE
DATUM.F                   nan : DEPTH DATUM ELEV
~Curve Information -----------------------------------------
DEPT   .F     : 1 MEASURED DEPTH
GR_EDTC.GAPI  : GAMMA RAY
DTCO   .US/F  : DELTA-T COMPRESSIONAL
DTSM   .US/F  : DELTA-T SHEAR
HCALR  .IN    : HRCC CALIPER CALIBRATED FROM RESISTIVITY LOG
RLA3   .OHMM  : APPARENT RESISTIVITY FROM COMPUTED FOCUSING MODE 3
RLA4   .OHMM  : APPARENT RESISTIVITY FROM COMPUTED FOCUSING MODE 4
RLA5   .OHMM  : APPARENT RESISTIVITY FROM COMPUTED FOCUSING MODE 5
~Params ----------------------------------------------------
~Other -----------------------------------------------------
~ASCII -----------------------------------------------------
# ...
 3983.00000   23.29370   51.09020   91.04590    8.72610   96.87190   94.16510   73.37720
 3983.50000   22.07550   50.91730   90.93850    8.72850  107.12960  104.08850   95.32050
 3984.00000   20.80690   50.75540   90.76090    8.73170  119.40010  115.49130  103.48520
 3984.50000   19.67990   50.76300   89.89500    8.73430  130.61040  120.14490  114.64560
 3985.00000   17.96130   50.78470   89.02910    8.73670  130.75650  124.55890  122.27690
 3985.50000   15.60780   50.77050   89.46470    8.73910  125.15480  121.91530  114.59720
 3986.00000   14.56200   50.72960   89.97560    8.76370  114.59510  105.78890   98.31470
 3986.50000   13.98850   50.68860   90.48650    8.75140  111.66890  105.66310   94.37820
 3987.00000   13.97450   50.64760   90.99740    8.76490  121.60900  110.02190  102.39820
 3987.50000   14.89640   50.60670   91.10690    8.78200  114.56240  107.74650  101.87870
 3988.00000   16.89910   51.04800   91.31440    8.78090  111.40360  105.03700   93.23520
 3988.50000   18.85560   51.44770   91.50930    8.81280  147.42600  118.39130   98.58970
 3989.00000   19.52690   51.41420   92.14500    8.83750  121.09890  110.15960   98.16880
 3989.50000   19.05320   51.38060   92.41770    8.85100   95.28580   85.90070   75.38610
 3990.00000   17.88210   51.83760   92.44760    8.87580   72.70790   60.64270   52.61480
 3990.50000   16.94190   52.41620   92.60350    8.93030   90.77550   80.42100   67.56560
 3991.00000   16.87310   52.38840   93.30670    8.98990  152.68120  132.96700  104.35960
 3991.50000   16.86710   52.36070   93.37750    8.99850  240.03390  207.08450  181.77340
 3992.00000   17.73430   52.33290   94.07290    8.99600  205.15050  188.26720  172.39430
 3992.50000   19.80830   52.32890   94.88300    9.00760  146.96910  121.99190  104.99430
 3993.00000   21.95710   52.55620   95.69320    9.08580   86.87090   76.71380   55.15250
 3993.50000   22.20850   53.41660   96.50330    9.16750   42.50410   40.09630   38.60180
 3994.00000   21.41890   54.12920   97.31340    9.20480   49.47250   43.52070   39.10280
 3994.50000   21.06940   54.26860   97.49100    9.24110   59.77580   50.94640   46.73300
 3995.00000   20.95630   54.59680   99.23020    9.29300   60.46330   51.86200   49.76480
 3995.50000   19.51840   55.10600   99.35340    9.35730   52.90050   50.58390   49.12110
 3996.00000   17.83290   55.09440   99.81470    9.42000   53.69850   49.76970   48.21280
 3996.50000   16.89590   55.60310  100.97050    9.48200   51.67300   48.42750   46.63940
 3997.00000   16.68470   56.03470  101.23130    9.52480   50.36320   46.05600   40.43590
 3997.50000   16.30420   55.21000  101.23680    9.56770   51.76500   48.44110   42.92480
 3998.00000   16.46860   54.84580  101.24240    9.65080   54.63170   48.80870   44.83460
 3998.50000   17.79010   55.04810  102.25200    9.70040   59.35640   54.82800   44.24060
 3999.00000   20.00180   54.96200  103.18690    9.69400   80.45470   74.30040   54.76900
 3999.50000   23.16260   54.24010  101.84780    9.71220  108.48700  100.68850   76.65830
 4000.00000   27.41490   54.24070  101.17120    9.72030  117.93650  106.72030   99.72930
 4000.50000   28.84270   54.66570  101.15530    9.72840  110.94230  100.98950   98.96230
 4001.00000   28.11860   55.02970  101.15800    9.69440   97.11410   87.33800   76.86870
 4001.50000   25.80970   55.07000  101.16080    9.59670   70.04960   62.84500   55.28060
 4002.00000   24.11040   55.10230  101.16360    9.57700   57.06470   48.71640   45.87950
 4002.50000   23.53170   55.03770  100.97770    9.54480   68.78000   57.32970   50.55470
 4003.00000   24.56360   54.85890  101.07330    9.51270   86.22100   72.74800   70.01980
 4003.50000   24.01610   54.92040  101.02840    9.48090   78.31220   70.86010   67.30690
 4004.00000   21.89690   54.83530  101.21070    9.46930   72.03990   65.24560   58.05770
 4004.50000   20.38530   54.86220  100.99730    9.46930   68.26130   63.27310   57.57560
 4005.00000   20.41490   55.14790  100.29750    9.46860   66.60020   62.94500   57.58670
 4005.50000   21.07730   55.21150  100.69240    9.46060   73.75760   64.70330   61.72880
 4006.00000   22.22050   54.74840  100.30750    9.43600   86.28360   70.14170   67.48280
 4006.50000   24.38390   54.22960   99.87110    9.40370   92.98150   71.87510   70.56960
 4007.00000   24.14030   54.23890   99.43460    9.35200   77.25280   68.76230   60.44870
 4007.50000   22.55490   54.24820   98.86620    9.30140   64.69350   58.75180   48.91980
 4008.00000   21.06490   53.84650   97.79050    9.25530   62.55740   58.86040   49.45020
 4008.50000   20.48920   52.81970   95.86560    9.20810   64.22760   61.80710   53.32930
 4009.00000   20.65740   52.61390   95.51820    9.16080   68.77520   64.29980   57.21200
 4009.50000   19.67140   52.40800   94.98560    9.07960   73.20340   66.89290   58.36150
 4010.00000   17.78760   51.83610   94.45300    8.99910   84.35650   75.33980   66.25670
 4010.50000   16.25640   51.31050   94.48640    8.99400   96.47010   81.09370   72.98420
 4011.00000   15.63040   51.34140   94.62230    9.02190   73.69310   69.81630   60.37370
 4011.50000   15.70200   51.37240   94.75820    9.05740   68.91750   68.03230   59.32060
 4012.00000   17.10980   51.61070   94.89410    9.09540  104.99390   92.36280   76.57680
 4012.50000   18.76190   52.51640   95.03000    9.13350  159.71960  150.72460  117.93320
 4013.00000   20.68280   53.07730   95.16590    9.17070  163.94900  149.52210  136.73790
 4013.50000   22.31580   53.85410   95.30180    9.19590  144.52080  120.08660  108.22890
 4014.00000   22.47510   53.55210   95.43770    9.22390   90.54490   79.16140   64.59310
 4014.50000   21.85700   53.61950   95.58340    9.22580   60.82740   50.93160   46.81020
 4015.00000   19.35240   54.18810   95.79260    9.22690   58.14240   52.94980   47.53640
 4015.50000   17.25300   54.62980   96.07290    9.22790   60.17240   56.46090   48.82250
 4016.00000   15.46730   54.69910   96.45780    9.22590   62.68880   60.09710   51.25730
 4016.50000   13.69400   54.73580   96.84280    9.22270   67.89470   63.83770   56.67510
 4017.00000   11.88520   54.77250   97.22780    9.20460   82.70390   70.75140   66.37450
 4017.50000   10.46580   54.80920   97.61270    9.18610   96.23830   81.97310   77.73370
 4018.00000   10.11460   54.84580   98.72220    9.22190   97.01090   82.21020   80.72210
 4018.50000   10.54250   54.88250   99.88500    9.25770   94.59780   81.75940   80.20080
 4019.00000   11.60640   54.91920   99.88440    9.30820   87.22460   78.50800   76.25970
 4019.50000   13.13070   54.95590   99.88390    9.35110   78.87770   71.51450   68.30680
 4020.00000   16.38320   55.58180   99.88330    9.38480   74.32070   65.42390   63.17060
 4020.50000   20.76840   56.02430   99.88280    9.40890   66.31040   60.61780   58.42050
 4021.00000   23.21640   56.30060   99.88220    9.42590   62.27930   56.77220   46.50580
 4021.50000   23.65660   56.71570   99.88170    9.43340   71.40290   54.83210   50.69380
 4022.00000   22.81470   56.38930   99.88110    9.44690   69.81390   55.75990   53.52860
 4022.50000   21.04360   55.27440   99.77500    9.47390   60.72490   54.93440   52.05450
 4023.00000   19.51620   55.73910   99.10710    9.50090   58.24340   54.08970   43.04900
 4023.50000   17.56620   55.17710   98.03700    9.51070   57.85120   54.75200   43.08400
 4024.00000   15.71630   53.73980   97.15650    9.51080   59.45140   56.03090   48.64500
 4024.50000   14.11820   52.72900   96.27610    9.45570   73.59170   66.98740   58.07930
 4025.00000   13.39320   52.47620   95.39560    9.38830  118.08420   99.60270   83.86090
 4025.50000   13.13440   51.73520   94.51510    9.29030  139.75930  132.53390  116.27490
 4026.00000   12.35650   51.95680   93.51760    9.21720  152.18190  137.12790  126.45160
 4026.50000   11.83660   51.54320   92.36220    9.21310  171.50420  161.71410  138.41330
 4027.00000   11.33020   52.06860   92.32540    9.29460  176.81330  164.96800  145.88670
 4027.50000   11.55680   52.26610   93.46410    9.38850  141.84570  129.80300  103.72420
