~Version ---------------------------------------------------
VERS.   2.0 : CWLS log ASCII Standard -VERSION 2.0
WRAP.    NO : One line per depth step
DLM . SPACE : Column Data Section Delimiter
~Well ------------------------------------------------------
STRT .F                3218.0 : START DEPTH
STOP .F               10687.0 : STOP DEPTH
STEP .F                   0.5 : STEP
NULL .               -9999.25 : NULL VALUE
COMP .                        : COMPANY
WELL .                        : WELL
FLD  .                        : FIELD
LOC  .                        : LOCATION
PROV .                        : PROVINCE
CNTY .                        : COUNTY
STAT .                        : STATE
CTRY .                        : COUNTRY
SRVC .                        : SERVICE COMPANY
DATE .                        : DATE
UWI  .                        : UNIQUE WELL ID
API  .                        : API NUMBER
SLAT .WGS84 2.171705607876305 : SURFACE LATITUDE
SLON .WGS84 6.152736122890005 : SURFACE LONGITUDE
DATUM.F                   nan : DEPTH DATUM ELEV
~Curve Information -----------------------------------------
DEPT   .F     : 1 MEASURED DEPTH
GR_EDTC.GAPI  : GAMMA RAY
DTCO   .US/F  : DELTA-T COMPRESSIONAL
DTSM   .US/F  : DELTA-T SHEAR
HCALR  .IN    : HRCC CALIPER CALIBRATED FROM RESISTIVITY LOG
RLA3   .OHMM  : APPARENT RESISTIVITY FROM COMPUTED FOCUSING MODE 3
RLA4   .OHMM  : APPARENT RESISTIVITY FROM COMPUTED FOCUSING MODE 4
RLA5   .OHMM  : APPARENT RESISTIVITY FROM COMPUTED FOCUSING MODE 5
~Params ----------------------------------------------------
~Other -----------------------------------------------------
~ASCII -----------------------------------------------------
# ...
 5378.00000   44.09250   58.75150   99.75790    7.84910  686.36480  595.11840  446.54250
 5378.50000   43.61990   58.82170   99.84900    7.89930  302.91560  254.03980  218.45150
 5379.00000   43.45630   59.07990  100.66430    7.95530  294.53990  261.18790  227.46750
 5379.50000   44.03230   59.77520  100.05300    8.00680  369.69450  343.02240  323.21990
 5380.00000   41.88970   59.94920  100.45670    7.92640  360.93430  341.29970  297.82870
 5380.50000   38.62190   60.08410  101.60010    7.84980  276.95910  204.32680  200.61130
 5381.00000   36.94470   60.72480  101.86320    7.86380  426.11740  341.50380  252.55730
 5381.50000   37.29650   60.93530  101.92350    7.86100  676.48940  551.03170  508.12940
 5382.00000   40.10670   61.79590  102.46110    7.85810  602.89770  494.25050  416.12820
 5382.50000   45.01920   62.13010  103.49010    7.87040  439.60350  350.52500  330.39440
 5383.00000   54.78090   62.49990  103.84040    7.94080  687.43570  675.84570  542.17610
 5383.50000   63.38270   62.73990  102.73510    7.98120  689.32830  680.97260  663.96400
 5384.00000   60.08440   62.46780  103.23150    7.98000  551.84450  396.37900  240.38970
 5384.50000   51.93630   61.98540  103.75780    7.97620  178.77190  112.14620  108.76350
 5385.00000   44.88310   61.85850  103.16450    7.97620  159.84810  144.12450  109.32790
 5385.50000   42.26840   61.09210  102.42390    7.95510  220.24800  410.45810  269.95130
 5386.00000   42.24040   60.81080  101.67010    7.94540  314.13190  490.31130  481.44410
 5386.50000   44.02550   60.01890  101.54150    7.98220  291.75160  434.07680  304.53940
 5387.00000   47.85800   60.60020  101.15760    8.02590  283.32340  319.67020  305.77010
 5387.50000   51.32920   61.33830  102.08350    8.03500  555.52030  939.46660  922.37630
 5388.00000   50.70100   62.46110  104.59580    8.00730  808.27230  944.37740  544.31180
 5388.50000   48.97050   63.68240  107.45510    7.97950  404.29670  257.63210  252.05150
 5389.00000   55.32700   64.65330  108.99990    7.91620  513.08780  377.81240  268.14430
 5389.50000   74.92960   65.79870  109.31050    7.85140  718.94570  590.02080  973.80600
 5390.00000   86.04800   66.61170  110.07800    7.81410  694.36460  549.55930  390.75890
 5390.50000   92.75720   67.24770  111.07110    7.78660  257.36060  197.89610  142.75010
 5391.00000   84.94930   67.16100  111.63840    7.79880  112.57250   94.69980   90.06860
 5391.50000   72.11920   67.07430  111.79230    7.83650   98.56460   85.02840   83.23670
 5392.00000   60.47720   66.92390  111.05830    7.86160   98.71380  115.73160   94.76530
 5392.50000   54.54150   66.37580  110.83100    7.86700  146.98270  257.59880  187.50290
 5393.00000   53.64410   65.96360  110.08730    7.87230  272.01070  581.55110  423.46980
 5393.50000   53.62630   65.19830  110.16840    7.90760  636.18910  676.60190  663.61670
 5394.00000   53.92680   65.08960  110.27320    7.91390  711.58530  630.60240  354.58150
 5394.50000   54.94180   66.73090  110.85220    7.92020  586.77640  458.94470  358.36440
 5395.00000   57.55260   68.21510  111.90010    8.12850  669.71210  635.70180  594.71040
 5395.50000   60.76920   68.81590  112.48640    8.08310  614.28430  533.43330  363.57500
 5396.00000   65.97100   68.85770  112.88990    7.96440  256.93150  188.55970  142.06510
 5396.50000   72.41340   68.80150  112.84720    7.95310  135.04630  143.60580  141.74430
 5397.00000   79.37150   67.67520  112.02590    7.95930  144.97410  160.09980  173.95370
 5397.50000   75.92860   66.98330  111.66710    7.95950  150.95750  170.42510  157.60900
 5398.00000   67.18370   65.82770  110.59340    7.95970  132.05360  119.04650  105.07850
 5398.50000   55.22540   63.80180  108.72090    7.95990  108.34760  144.71130  108.99490
 5399.00000   48.54910   62.39770  106.61650    7.96010  152.47230  251.90070  223.19650
 5399.50000   44.89060   61.38850  105.22020    7.96030  262.02460  386.62850  371.14580
 5400.00000   41.21890   59.78760  102.70630    7.96050  386.37960  359.33480  319.94190
 5400.50000   37.73590   58.63120  100.58790    7.96190  291.73430  284.87870  276.91750
 5401.00000   34.54630   58.62160  100.07480    7.96410  383.33450  328.31590  282.34500
 5401.50000   35.20830   58.61200   99.63940    7.96620  663.19090  608.81230  481.59800
 5402.00000   38.17400   58.66820   99.62330    7.96830  667.46330  659.40520  647.59130
 5402.50000   40.27160   59.06670   99.65270    7.97050  642.67830  600.86200  542.79770
 5403.00000   41.42630   60.20770   99.68220    7.97260  492.89810  461.02340  416.41180
 5403.50000   44.02830   60.06700   99.71160    7.97470  409.68440  379.83740  338.52400
 5404.00000   49.48640   59.69110   99.73300    7.97690  466.46820  424.24540  399.64340
 5404.50000   51.77850   59.36620  100.10310    7.97900  444.28210  402.56810  365.83030
 5405.00000   51.45930   59.03670  100.49660    7.98110  323.19900  269.13700  263.73840
 5405.50000   48.94300   58.91350  100.62410    7.98330  296.88960  546.73790  398.65520
 5406.00000   45.15230   58.80610  100.75160    7.98150  560.82390  607.21720  596.06070
 5406.50000   41.44900   58.79100  100.76930    7.97750  711.89790  441.41460  349.62310
 5407.00000   39.84700   58.81090  100.15440    7.97360  684.64200  550.82940  422.74650
 5407.50000   41.15600   58.83090   99.88790    7.96960  618.71220 1110.41360  851.59670
 5408.00000   42.34740   58.85090   99.86960    7.96570  496.30080 1453.19360 1036.81160
 5408.50000   41.72020   58.87090   99.88060    7.96180  420.30700  627.52430  488.87490
 5409.00000   40.31360   58.89090   99.90060    7.96980  411.39930  395.16430  330.65660
 5409.50000   40.80970   58.91090   99.92060    7.98520  573.42140  865.45390  747.16030
 5410.00000   42.02070   59.40270  100.41560    7.96540  964.97040  879.95290  863.08920
 5410.50000   42.70730   59.90510  100.90720    7.94710  962.45260  848.08500  822.66430
 5411.00000   42.75600   59.96030  101.11330    7.95260  585.86840  341.24520  329.05350
 5411.50000   45.05770   60.03040  101.90550    7.96220  507.04960  728.29740  606.67270
 5412.00000   48.25680   60.10310  101.97800    7.96730  860.52630  765.84720  751.99380
 5412.50000   50.82740   60.07310  101.99780    7.97340  779.68790  736.46600  584.17520
 5413.00000   51.84910   60.51090  102.62870    7.98030  492.01920  330.19910  310.88280
 5413.50000   52.89330   60.78370  103.89110    7.98640  371.08040  696.68380  414.95590
 5414.00000   52.59500   60.73300  103.50390    7.98560  814.29830  708.49660  687.47200
 5414.50000   51.39040   59.96880  102.33120    7.98520  425.32950  250.39510  244.86390
 5415.00000   51.76900   59.96880  102.92810    7.98520  330.43050  550.43910  356.72050
 5415.50000   54.71400   59.96880  101.97140    7.98520  880.72380  916.36410  899.49160
 5416.00000   58.11150   59.64460  100.69500    7.96440  967.71360  896.30190  711.20180
 5416.50000   57.28710   58.96860   99.96410    7.96060  568.42880  500.22550  393.63050
 5417.00000   53.39030   58.96860   99.93710    8.02380  387.25900  374.73290  366.58760
 5417.50000   47.28860   58.96860   99.83300    8.08050  443.91670  475.49840  663.02020
 5418.00000   40.67600   58.52870   98.71440    8.15400  733.98050  587.87040 1040.67100
 5418.50000   36.51880   57.71710   98.30730    8.11330  804.15410  661.40390  683.48190
 5419.00000   35.62520   57.79590   99.85160    8.07970 1575.71730  745.11680 1803.69310
 5419.50000   36.55680   57.90660   99.93080    8.03790 1602.53670 1523.09380 1513.83400
 5420.00000   39.59980   57.42740   99.96330    8.08500 1468.28220 1143.14900  946.52880
 5420.50000   41.42360   56.91820   99.93670    8.03670 1413.26160 1040.74880  927.75070
 5421.00000   42.94940   56.96390   99.91010    8.05170 1656.77780 1609.04870 1471.39210
 5421.50000   44.00770   56.97090  100.15570    8.06670 1616.10960 1592.35880 1557.13430
 5422.00000   44.13970   56.97090  100.45050    8.07940 1415.71920  874.77470  812.82530
 5422.50000   42.26870   56.99980  100.27010    8.08690 1195.06400  997.11540 1140.79990
