~Version ---------------------------------------------------
VERS.   2.0 : CWLS log ASCII Standard -VERSION 2.0
WRAP.    NO : One line per depth step
DLM . SPACE : Column Data Section Delimiter
~Well ------------------------------------------------------
STRT .F                3218.0 : START DEPTH
STOP .F               10687.0 : STOP DEPTH
STEP .F                   0.5 : STEP
NULL .               -9999.25 : NULL VALUE
COMP .                        : COMPANY
WELL .                        : WELL
FLD  .                        : FIELD
LOC  .                        : LOCATION
PROV .                        : PROVINCE
CNTY .                        : COUNTY
STAT .                        : STATE
CTRY .                        : COUNTRY
SRVC .                        : SERVICE COMPANY
DATE .                        : DATE
UWI  .                        : UNIQUE WELL ID
API  .                        : API NUMBER
SLAT .WGS84 2.171705607876305 : SURFACE LATITUDE
SLON .WGS84 6.152736122890005 : SURFACE LONGITUDE
DATUM.F                   nan : DEPTH DATUM ELEV
~Curve Information -----------------------------------------
DEPT   .F     : 1 MEASURED DEPTH
GR_EDTC.GAPI  : GAMMA RAY
DTCO   .US/F  : DELTA-T COMPRESSIONAL
DTSM   .US/F  : DELTA-T SHEAR
HCALR  .IN    : HRCC CALIPER CALIBRATED FROM RESISTIVITY LOG
RLA3   .OHMM  : APPARENT RESISTIVITY FROM COMPUTED FOCUSING MODE 3
RLA4   .OHMM  : APPARENT RESISTIVITY FROM COMPUTED FOCUSING MODE 4
RLA5   .OHMM  : APPARENT RESISTIVITY FROM COMPUTED FOCUSING MODE 5
~Params ----------------------------------------------------
~Other -----------------------------------------------------
~ASCII -----------------------------------------------------
# ...
 10146.50000   59.06500   56.50210   95.83590    7.68650 2773.19730 2605.71800 2499.29270
 10147.00000   82.87640   58.21530   97.92800    7.68830 2215.73900 1835.89390 1459.22200
 10147.50000  108.83720   59.75570   99.45740    7.68830  742.25240  633.12450  536.29640
 10148.00000  131.10610   60.39050  101.26790    7.68830  389.31560  341.08540  253.45250
 10148.50000  142.75330   61.09570  101.61330    7.69350  198.05500  183.75420  125.47910
 10149.00000  144.77710   60.97200  103.12630    7.69770  109.99500   98.99460   81.26220
 10149.50000  140.66980   60.94290  103.12630    7.69980   83.92590   82.84220   78.07010
 10150.00000  123.72140   60.54450  102.12440    7.70190 1601.72140  497.23100  228.35510
 10150.50000  104.46380   59.99440  101.07260    7.70390 3443.51200 3434.17110 3272.91670
 10151.00000   82.45560   58.94450  100.73960    7.70600 7539.39110 6371.11130 6317.47850
 10151.50000   67.91130   58.26470   97.63750    7.70670 8967.19240 8759.69340 8619.92480
 10152.00000   63.89570   57.74970   96.79150    7.70370 8659.14450 6088.94870 4730.34080
 10152.50000   63.75310   57.17030   97.04110    7.70940 2269.89940 2101.53660 2065.17750
 10153.00000   66.48620   58.37260   97.43990    7.70940 2104.71850 2078.53300 2061.03660
 10153.50000   73.75850   59.03360   98.18060    7.71530 1475.31090 1184.47440 1021.99550
 10154.00000   86.39340   59.99130  100.09870    7.73780  666.59540  535.08950  440.31920
 10154.50000  102.28990   62.05760  102.72970    7.74440  361.48540  305.46130  281.25390
 10155.00000  119.64070   63.23540  104.66640    7.73750  307.99120  292.19080  276.21830
 10155.50000  133.63360   64.24920  107.09750    7.73520  723.34170  491.38000  376.95240
 10156.00000  150.10680   65.91730  110.18030    7.73390 2417.66770 3830.69510 1549.64010
 10156.50000  166.57990   68.94220  113.38850    7.73460 10443.78610 7170.01030 5517.03710
 10157.00000  181.73700   70.67980  115.91270    7.73540 11055.49410 10904.95510 10804.54590
 10157.50000  195.88300   71.66520  118.35060    7.73710 10341.29690 9860.03320 8534.40140
 10158.00000  205.69210   72.15740  120.41360    7.74560 5445.75050 4405.08740 3817.69870
 10158.50000  202.79850   72.87080  121.15960    7.74970 2435.22440 2563.55000 2191.52540
 10159.00000  191.03000   73.19820  121.51720    7.73940 1045.96390  722.01270  565.35190
 10159.50000  178.14430   72.66140  121.15480    7.73620  340.63780  268.92430  229.16600
 10160.00000  163.56740   64.60090  119.15460    7.73430  146.59980  119.41950  104.01490
 10160.50000  145.91740   55.99800  116.08320    7.73330   91.08780   84.17500   74.73740
 10161.00000  124.66960   52.96110  111.02640    7.72600  254.18860  201.08660  144.10640
 10161.50000   89.61290   53.27730  106.97770    7.71920  246.35030  234.79680  215.94750
 10162.00000   60.42040   53.95820  104.46840    7.71690  280.23350  222.05530  208.70600
 10162.50000   38.51340   53.97850  100.17520    7.71460  954.27250  689.65380  554.42810
 10163.00000   20.78870   53.90320   96.14050    7.71220 6733.04200 3627.02080 1890.41830
 10163.50000   14.49090   51.99510   94.19800    7.70990 14165.29300 17685.84570 16115.46970
 10164.00000   12.73670   50.57870   92.25550    7.70750 15054.49510 17270.88870 16098.19140
 10164.50000   12.08940   50.27820   91.13210    7.70220 12675.11820 16690.13280 15799.11330
 10165.00000   13.77970   50.96520   90.79260    7.69330 12529.92770 16736.92770 15921.84770
 10165.50000   16.12530   51.00140   90.52040    7.68440 13287.16020 18993.85350 17377.34960
 10166.00000   19.55730   51.38250   90.10700    7.67550 14906.62790 21555.14450 19204.07420
 10166.50000   23.61260   52.50390   90.24870    7.66660 12703.30270 22482.92970 20775.62110
 10167.00000   29.32930   53.55760   91.10910    7.65780 8686.27730 15027.52640 11970.14060
 10167.50000   38.65510   53.98260   91.10910    7.65450 12115.32130 13128.72950 9745.44040
 10168.00000   51.06130   54.44580   90.90050    7.65660 26779.44730 22247.02340 19489.60550
 10168.50000   65.02360   55.01940   90.64120    7.65870 14505.01170 8463.81740 6689.15140
 10169.00000   72.51030   54.98590   90.98780    7.66080 7771.49560 6390.95260 5493.65620
 10169.50000   74.79510   54.62550   90.94330    7.66280 10644.18650 10443.47660 9645.21290
 10170.00000   71.57770   54.04340   91.10810    7.66490 8855.95900 7657.69480 6806.24660
 10170.50000   62.54780   53.54080   90.80120    7.65600 5527.64160 5458.86670 5412.91360
 10171.00000   50.79530   53.04030   91.02520    7.65710 11938.66600 9203.87890 7586.57320
 10171.50000   42.08650   52.79170   91.07320    7.65060 26268.88870 22083.60350 18966.09570
 10172.00000   39.49480   52.10000   91.10720    7.65650 31291.79490 25601.39840 23287.13090
 10172.50000   46.22370   52.02990   91.11110    7.66230 11902.97360 8577.93070 6874.10450
 10173.00000   52.38810   52.02990   91.11110    7.66820 3796.39770 3584.93870 2745.27290
 10173.50000   51.04600   52.02990   91.11110    7.67400 3731.50420 3470.28760 3076.56740
 10174.00000   43.41270   52.02990   91.11110    7.67990 8803.10940 7001.95610 5992.48540
 10174.50000   35.96850   52.02990   91.11110    7.68150 23413.21480 16516.71290 14134.73340
 10175.00000   35.60970   52.02990   91.11110    7.68190 27122.19340 22202.58790 18467.49410
 10175.50000   45.77150   52.07300   90.96500    7.68230 13634.93550 11399.67290 9501.15820
 10176.00000   52.64080   52.37550   89.60090    7.68270 5409.91310 4119.99370 3184.87940
 10176.50000   52.08250   52.23790   90.71690    7.68310 7973.97270 5429.48490 4135.57520
 10177.00000   42.82840   52.15900   90.87270    7.68350 26784.44530 20417.51170 11738.12300
 10177.50000   34.98040   52.08010   90.13950    7.68350 14400.15430 10636.54590 4428.60990
 10178.00000   33.94730   52.02990   90.10900    7.68100 7469.14650 4298.43460 3691.35160
 10178.50000   42.94410   51.92240   89.99480    7.67440 26492.52540 12803.05570 7864.98830
 10179.00000   52.59170   51.31890   89.26740    7.66790 9399.85550 6606.07760 4500.69970
 10179.50000   60.65710   51.05880   89.30310    7.66280 4143.38570 3627.33350 2785.08690
 10180.00000   61.17780   51.01770   90.75480    7.66490 6448.13230 5677.00050 5083.46190
 10180.50000   50.59000   51.03710   90.11760    7.68420 10034.88770 8884.85550 8189.28370
 10181.00000   38.82710   51.08950   90.18780    7.68330 12507.39940 12171.47950 11936.13570
 10181.50000   29.44650   51.83200   90.83860    7.68330 12513.26460 12357.57520 12253.56740
 10182.00000   28.78110   52.84530   91.53720    7.68370 12620.43160 12459.66020 12352.31150
 10182.50000   31.89820   54.06720   91.99570    7.68410 12751.30370 12588.67090 12480.08790
 10183.00000   42.46670   54.93860   94.84480    7.68660 17495.37500 15849.58590 14819.98930
 10183.50000   64.70520   56.29500   96.27470    7.69140 32475.45120 30746.03710 26981.91210
 10184.00000  101.31910   58.00010   98.21380    7.69620 28149.76760 25462.18750 23087.68750
 10184.50000  128.73570   59.98490  100.22310    7.70100 19362.99410 17711.00980 16973.39650
 10185.00000  145.84710   62.99740  102.23240    7.70580 14937.65920 14017.00000 13430.31150
 10185.50000  140.48730   64.02160  105.80520    7.71060 11174.75000 9836.94140 9023.33010
 10186.00000  128.18230   62.96620  106.49800    7.71540 6767.95850 5743.44780 5138.29740
 10186.50000  120.79810   61.20970  105.15330    7.72020 3783.42110 1876.56800 1521.30130
 10187.00000  121.41490   60.56870  104.60670    7.72010  798.88400  586.08650  474.34370
 10187.50000  118.22440   60.09280  105.06340    7.71670  442.10570  372.40610  342.47120
 10188.00000  104.63400   59.00780  102.94570    7.71480 1143.46910  747.85960  606.37840
 10188.50000   85.58360   56.59190   99.66530    7.71510 6028.12650 4443.96040 3617.45800
 10189.00000   66.35070   54.25270   98.71850    7.71540 8613.56250 7203.94140 5426.98730
 10189.50000   56.43660   52.65540   97.39260    7.71570 1888.53770 1487.64940 1268.03650
 10190.00000   51.24570   52.08640   96.27760    7.71600 1195.52330  887.30590  802.13600
