~Version ---------------------------------------------------
VERS.   2.0 : CWLS log ASCII Standard -VERSION 2.0
WRAP.    NO : One line per depth step
DLM . SPACE : Column Data Section Delimiter
~Well ------------------------------------------------------
STRT .F                   10.0 : START DEPTH
STOP .F                 2700.0 : STOP DEPTH
STEP .F                    0.5 : STEP
NULL .                -9999.25 : NULL VALUE
COMP .                         : COMPANY
WELL .                         : WELL
FLD  .                         : FIELD
LOC  .                         : LOCATION
PROV .                         : PROVINCE
CNTY .                         : COUNTY
STAT .                         : STATE
CTRY .                         : COUNTRY
SRVC .                         : SERVICE COMPANY
DATE .                         : DATE
UWI  .                         : UNIQUE WELL ID
API  .                         : API NUMBER
SLAT .WGS84 1.2937547740626982 : SURFACE LATITUDE
SLON .WGS84 6.0420300676849905 : SURFACE LONGITUDE
DATUM.F                2709.08 : DEPTH DATUM ELEV
~Curve Information -----------------------------------------
DEPT.F     : 1 MEASURED DEPTH
DTCO.US/F  : DELTA-T COMPRESSIONAL
DTSM.US/F  : DELTA-T SHEAR
GRD .GAPI  : GAMMA RAY FROM DENSITY LOG
NPHI.DEC   : NEUTRON POROSITY
PEF .B/E   : PHOTOELECTRIC FACTOR
CALD.IN    : CALIPER FROM DENSITY LOG
DPHI.DEC   : DENSITY POROSITY
DRHO.G/C3  : BULK DENSITY CORRECTION
RHOB.G/C3  : BULK DENSITY
~Params ----------------------------------------------------
~Other -----------------------------------------------------
~ASCII -----------------------------------------------------
# ...
 2090.50000   70.71350  129.68890   54.02530    0.12500    3.28920   11.58940    0.03250    0.00070    2.65350
 2091.00000   70.43120  129.89700   44.70820    0.08320    3.20850   11.68320    0.02900   -0.00030    2.65900
 2091.50000   69.59430  129.89770   35.36410    0.03860    3.11710   11.78040    0.02010   -0.00330    2.67120
 2092.00000   67.70020  124.68700   29.74730    0.03790    2.95980   11.88620    0.01470   -0.00280    2.68600
 2092.50000   66.20890  120.37640   27.85770    0.06390    2.74660   11.98220    0.02800    0.00000    2.66440
 2093.00000   66.06320  122.10650   28.50520    0.10990    2.55530   12.07520    0.07230    0.00610    2.62840
 2093.50000   66.19460  123.45830   28.87100    0.15930    2.45010   12.19400    0.11320    0.01020    2.55350
 2094.00000   66.64240  123.37300   28.52320    0.18270    2.40480   12.31690    0.15290    0.00910    2.45620
 2094.50000   69.08900  125.50720   28.11830    0.19010    2.37930   12.46020    0.17330    0.00390    2.42750
 2095.00000   73.05710  140.21750   28.43180    0.19850    2.29850   12.57990    0.18770   -0.00140    2.40460
 2095.50000   78.04420  144.52030   29.09080    0.22050    2.18420   12.70800    0.20240   -0.00500    2.38120
 2096.00000   82.18420  148.51250   29.48640    0.24350    2.12490   12.77370    0.21970   -0.00540    2.35780
 2096.50000   83.40530  152.38690   30.78970    0.24700    2.09740   12.83560    0.23360   -0.00430    2.33430
 2097.00000   84.62640  156.03210   31.68630    0.22960    2.18100   12.87900    0.23610   -0.00270    2.32570
 2097.50000   85.00340  167.24520   31.74880    0.20500    2.28270   12.90460    0.22460   -0.00100    2.34330
 2098.00000   84.39990  179.95350   30.21050    0.19870    2.26470   12.93120    0.20890    0.00220    2.36850
 2098.50000   82.13510  196.88500   28.28040    0.21120    2.19650   12.96100    0.20400    0.00590    2.37800
 2099.00000   82.13510  198.82590   28.13380    0.23930    2.13090   13.00590    0.22640    0.00650    2.36530
 2099.50000   82.66240  198.56590   29.48100    0.25060    2.09820   13.04840    0.25010    0.00120    2.31910
 2100.00000   85.83180  198.55410   31.12880    0.26020    2.15970   13.07160    0.26890    0.00400    2.27300
 2100.50000   88.83240  198.54950   32.61840    0.26700    2.24530   13.09450    0.26480    0.00810    2.27480
 2101.00000   89.47760  198.59000   33.60540    0.27870    2.26300   13.19060    0.25790    0.01350    2.29430
 2101.50000   89.47760  198.57920   35.11810    0.29870    2.22980   13.26260    0.25960    0.01470    2.29290
 2102.00000   89.66030  198.56040   36.20300    0.31590    2.19040   13.31680    0.27090    0.01020    2.27560
 2102.50000   90.34580  198.54800   36.13540    0.30610    2.14260   13.34980    0.28090    0.00480    2.25710
 2103.00000   91.10090  198.62930   34.49090    0.30450    2.08200   13.38280    0.28710    0.00050    2.24590
 2103.50000   91.70010  199.43380   32.22690    0.32920    2.00910   13.43160    0.29320    0.00080    2.23500
 2104.00000   91.95780  203.89430   31.60380    0.35070    1.98230   13.41570    0.30370    0.00160    2.22480
 2104.50000   93.19330  209.13280   31.75930    0.35110    1.96550   13.43350    0.30920    0.00120    2.21550
 2105.00000   94.82080  213.58210   33.14830    0.33590    1.96720   13.42360    0.31350    0.00120    2.20620
 2105.50000   96.44840  213.98030   33.57460    0.32080    1.98070   13.42110    0.31720    0.00090    2.19690
 2106.00000   96.75560  213.98030   33.60270    0.31840    1.98730   13.38150    0.32080    0.00090    2.19130
 2106.50000   96.82000  213.98030   33.58360    0.32380    2.00760   13.32410    0.32250    0.00140    2.18950
 2107.00000   96.67700  213.98030   34.07360    0.33380    2.02860   13.20190    0.32240    0.00070    2.19020
 2107.50000   96.50080  213.97130   35.75370    0.32550    2.07180   13.11210    0.31800    0.00050    2.19620
 2108.00000   96.50080  213.92990   38.00020    0.31050    2.13950   13.02110    0.31060    0.00160    2.20450
 2108.50000   97.53550  213.88850   39.48580    0.28840    2.17400   12.93860    0.30560    0.00630    2.21270
 2109.00000   98.85240  213.84720   40.52400    0.28120    2.19770   12.89250    0.30570    0.00970    2.21810
 2109.50000   99.68510  213.80580   41.65570    0.29640    2.20900   12.87700    0.30840    0.01040    2.21810
 2110.00000   98.08500  213.76440   43.05130    0.31940    2.21080   12.86820    0.31250    0.00910    2.21340
 2110.50000   95.86230  213.72290   43.88360    0.33220    2.20330   12.86240    0.31500    0.00770    2.19830
 2111.00000   95.86230  213.68150   43.51600    0.33020    2.18930   12.85470    0.31440    0.00860    2.20200
 2111.50000   96.38830  213.66110   43.60650    0.32480    2.18460   12.84470    0.30800    0.01400    2.21100
 2112.00000   94.84540  208.27930   46.27760    0.32280    2.18530   12.84550    0.29930    0.01870    2.21990
 2112.50000   90.94510  199.41220   49.43860    0.33280    2.18310   12.87340    0.29730    0.02110    2.22750
 2113.00000   87.04480  193.35600   50.46290    0.34540    2.16940   12.89760    0.29540    0.01740    2.23230
 2113.50000   84.68900  187.47010   49.79460    0.34050    2.14640   12.97010    0.29230    0.01510    2.23690
 2114.00000   84.68900  186.80410   49.21130    0.32230    2.09140   12.95070    0.28950    0.01280    2.24010
 2114.50000   84.68900  186.78110   49.37970    0.30550    2.07750   12.91660    0.28820    0.00950    2.24330
 2115.00000   72.50010  146.50300   50.16040    0.30150    2.04810   12.88180    0.28740    0.00530    2.24650
 2115.50000   58.58310  113.30300   50.68930    0.29750    2.03070   12.82740    0.28440    0.00370    2.24970
 2116.00000   63.91360  115.09550   51.20300    0.29130    2.01760   12.76940    0.27980    0.00260    2.25380
 2116.50000   79.05390  153.76000   54.08090    0.28430    1.98550   12.71100    0.27380    0.00140    2.26620
 2117.00000   90.03500  178.16650   60.64260    0.27540    1.99580   12.67810    0.25990    0.00030    2.28450
 2117.50000   91.22490  178.89740   67.97310    0.25490    2.10360   12.63060    0.23860   -0.00220    2.32090
 2118.00000   90.72430  179.87690   71.85610    0.24600    2.21140   12.56930    0.21380   -0.00720    2.36000
 2118.50000   89.47020  180.85640   72.37820    0.23950    2.30080   12.50100    0.19320   -0.00940    2.39910
 2119.00000   88.27630  181.74580   69.46090    0.24470    2.34270   12.45630    0.18230   -0.00850    2.40940
 2119.50000   87.69530  184.11330   62.85880    0.24310    2.36910   12.41580    0.18160   -0.00560    2.41370
 2120.00000   86.76240  184.82160   53.61480    0.22740    2.38680   12.37980    0.18250   -0.00190    2.41790
 2120.50000   85.34970  185.48040   45.54460    0.19970    2.43480   12.32860    0.18150    0.00030    2.42160
 2121.00000   83.88850  185.76050   44.21080    0.18450    2.43210   12.27300    0.17610    0.00250    2.42360
 2121.50000   83.33480  187.50650   48.03300    0.18650    2.37290   12.23820    0.17390    0.00150    2.42570
 2122.00000   81.96170  186.76210   55.02450    0.20400    2.33150   12.20770    0.18020    0.00070    2.42060
 2122.50000   80.58860  183.76330   60.90250    0.21570    2.32510   12.17210    0.18880    0.00070    2.40760
 2123.00000   80.59040  181.61090   65.94860    0.22600    2.36750   12.11100    0.19460   -0.00100    2.39630
 2123.50000   81.32520  179.84100   68.66580    0.23550    2.42930   12.07350    0.19500   -0.00450    2.39390
 2124.00000   82.27450  178.00230   69.43730    0.23150    2.47460   12.02800    0.18960   -0.00780    2.39930
 2124.50000   82.57020  175.27520   70.14100    0.21720    2.50710   11.99510    0.18070   -0.01020    2.41400
 2125.00000   82.60520  171.96700   70.94760    0.19820    2.53670   11.96900    0.16550   -0.01050    2.43960
 2125.50000   82.70370  170.74990   71.06750    0.18510    2.56990   11.92450    0.14980   -0.00990    2.46530
 2126.00000   82.86290  169.15000   69.80570    0.19290    2.62720   11.88860    0.13970   -0.00770    2.48990
 2126.50000   82.99410  167.32270   68.62460    0.20740    2.61970   11.83160    0.14070   -0.00520    2.48710
