~Version ---------------------------------------------------
VERS.   2.0 : CWLS log ASCII Standard -VERSION 2.0
WRAP.    NO : One line per depth step
DLM . SPACE : Column Data Section Delimiter
~Well ------------------------------------------------------
STRT .F                   10.0 : START DEPTH
STOP .F                 2700.0 : STOP DEPTH
STEP .F                    0.5 : STEP
NULL .                -9999.25 : NULL VALUE
COMP .                         : COMPANY
WELL .                         : WELL
FLD  .                         : FIELD
LOC  .                         : LOCATION
PROV .                         : PROVINCE
CNTY .                         : COUNTY
STAT .                         : STATE
CTRY .                         : COUNTRY
SRVC .                         : SERVICE COMPANY
DATE .                         : DATE
UWI  .                         : UNIQUE WELL ID
API  .                         : API NUMBER
SLAT .WGS84 1.2937547740626982 : SURFACE LATITUDE
SLON .WGS84 6.0420300676849905 : SURFACE LONGITUDE
DATUM.F                2709.08 : DEPTH DATUM ELEV
~Curve Information -----------------------------------------
DEPT.F     : 1 MEASURED DEPTH
DTCO.US/F  : DELTA-T COMPRESSIONAL
DTSM.US/F  : DELTA-T SHEAR
GRD .GAPI  : GAMMA RAY FROM DENSITY LOG
NPHI.DEC   : NEUTRON POROSITY
PEF .B/E   : PHOTOELECTRIC FACTOR
CALD.IN    : CALIPER FROM DENSITY LOG
DPHI.DEC   : DENSITY POROSITY
DRHO.G/C3  : BULK DENSITY CORRECTION
RHOB.G/C3  : BULK DENSITY
~Params ----------------------------------------------------
~Other -----------------------------------------------------
~ASCII -----------------------------------------------------
# ...
 2309.50000   56.60130  102.80260   52.05870    0.12240    3.24840    7.63710    0.00860   -0.00210    2.69580
 2310.00000   56.49880  102.64470   51.98330    0.12560    3.18520    7.63760    0.01660   -0.00180    2.68960
 2310.50000   56.32480  102.49450   46.39840    0.12810    3.15210    7.63800    0.02570   -0.00160    2.67420
 2311.00000   56.07300  102.74530   40.37920    0.12920    3.13500    7.63850    0.03500   -0.00120    2.65700
 2311.50000   56.23980  103.18350   36.70380    0.13240    3.00090    7.63900    0.04320   -0.00190    2.63980
 2312.00000   56.64320  103.27390   35.48260    0.13450    2.84960    7.63940    0.05230   -0.00250    2.62760
 2312.50000   57.04660  103.09640   35.98880    0.13590    2.78030    7.63990    0.05700   -0.00330    2.62040
 2313.00000   57.28650  102.76370   40.04370    0.13650    2.80250    7.64040    0.06010   -0.00480    2.61320
 2313.50000   57.38420  101.94730   47.35060    0.13750    2.80530    7.64090    0.06530   -0.00490    2.60310
 2314.00000   57.29210  102.39720   52.59180    0.14500    2.77310    7.64130    0.07320   -0.00490    2.59280
 2314.50000   58.56850  103.54960   54.57640    0.15510    2.70330    7.64180    0.08040   -0.00420    2.58360
 2315.00000   59.47250  105.34720   51.08530    0.16070    2.70850    7.64230    0.07650   -0.00150    2.58100
 2315.50000   60.85100  106.06340   46.49470    0.16170    2.77860    7.64280    0.06600    0.00150    2.58480
 2316.00000   61.77080  106.41920   46.11450    0.15540    2.87040    7.64320    0.05920    0.00290    2.59940
 2316.50000   62.45280  106.76910   47.91350    0.15070    2.91730    7.64370    0.05810    0.00190    2.61190
 2317.00000   62.70370  106.98450   52.28220    0.15220    2.92260    7.64420    0.05850    0.00030    2.61360
 2317.50000   62.95460  107.19670   55.06350    0.15880    2.92240    7.64460    0.05630   -0.00130    2.61530
 2318.00000   63.20540  107.36080   54.79460    0.16680    2.90790    7.64510    0.05450   -0.00290    2.61960
 2318.50000   63.35220  107.62740   53.49600    0.17550    2.90850    7.64560    0.05650   -0.00440    2.62060
 2319.00000   63.35380  107.92930   51.86980    0.18240    2.92290    7.64610    0.06200   -0.00650    2.61490
 2319.50000   63.35430  108.20050   51.17540    0.18900    2.99480    7.64650    0.06850   -0.00890    2.60070
 2320.00000   63.35470  107.70480   50.82950    0.20330    3.05490    7.64700    0.07980   -0.00760    2.58650
 2320.50000   63.26750  106.97840   50.05190    0.21510    3.10150    7.64750    0.09710   -0.00670    2.56320
 2321.00000   63.17070  107.11110   47.40300    0.23110    3.11780    7.64790    0.11190   -0.00240    2.53790
 2321.50000   63.07390  107.31590   43.60220    0.25000    3.05020    7.64840    0.11590    0.00410    2.51960
 2322.00000   62.76220  107.51830   39.77820    0.26140    3.03820    7.64890    0.10920    0.00650    2.52050
 2322.50000   62.34740  107.63100   37.58860    0.25630    3.02630    7.64940    0.09700    0.00690    2.53880
 2323.00000   60.73350  107.36940   35.60170    0.23180    3.01970    7.64980    0.07870    0.00400    2.57020
 2323.50000   59.11960  105.38080   31.69530    0.20340    3.03460    7.65030    0.05710    0.00050    2.60150
 2324.00000   57.08790  103.07160   26.14690    0.18080    3.11180    7.65080    0.03420   -0.00150    2.63290
 2324.50000   54.64560  100.62400   20.53110    0.16560    3.23090    7.65130    0.01270   -0.00270    2.66420
 2325.00000   52.20330   98.08510   19.11360    0.15900    3.39880    7.65170   -0.00680   -0.00280    2.69560
 2325.50000   49.76100   95.50340   20.09560    0.16400    3.51400    7.65200   -0.02390   -0.00280    2.72690
 2326.00000   48.35920   93.34370   21.08180    0.17500    3.52930    7.65150   -0.03350   -0.00200    2.75490
 2326.50000   48.14530   92.36090   21.58850    0.18800    3.53140    7.65110   -0.02590   -0.00050    2.75840
 2327.00000   48.51200   91.94720   21.72940    0.18900    3.53510    7.65070   -0.01060    0.00020    2.73620
 2327.50000   48.98610   91.82460   21.90340    0.17350    3.53550    7.65030    0.00210   -0.00190    2.71390
 2328.00000   49.44780   92.35140   21.49670    0.15590    3.55780    7.64980    0.00690   -0.00650    2.69640
 2328.50000   49.45630   92.89300   20.27330    0.15650    3.57940    7.64940    0.00550   -0.01060    2.69830
 2329.00000   49.46490   93.19820   18.73550    0.16310    3.58000    7.64900    0.00330   -0.01300    2.70420
 2329.50000   49.35230   93.29110   18.26510    0.16920    3.59960    7.64850    0.00420   -0.01260    2.70360
 2330.00000   49.22560   93.70600   21.08240    0.16590    3.52240    7.64810    0.01000   -0.00410    2.69800
 2330.50000   49.30500   94.28220   29.13310    0.16180    3.31560    7.64770    0.01940   -0.00040    2.67930
 2331.00000   49.63460   95.94680   41.53340    0.16030    3.07110    7.64730    0.03140   -0.00030    2.66070
 2331.50000   50.48830   98.02300   53.84670    0.16790    2.96540    7.64680    0.04350    0.00230    2.64200
 2332.00000   52.98540  100.22740   56.27910    0.17750    2.93950    7.64640    0.05290    0.00110    2.62340
 2332.50000   55.23220  102.61780   51.33850    0.18630    3.14650    7.64600    0.05740   -0.00010    2.61700
 2333.00000   55.83800  102.77040   40.92580    0.19520    3.58420    7.64550    0.05040   -0.00150    2.61830
 2333.50000   56.38260  102.42050   33.90170    0.20070    4.05450    7.64510    0.03590   -0.00360    2.63910
 2334.00000   54.90290  100.87310   29.98800    0.20160    3.97790    7.64470    0.02210   -0.00520    2.66440
 2334.50000   53.16000   99.00350   27.84210    0.19770    3.79240    7.64420    0.01700   -0.00640    2.67900
 2335.00000   50.97590   97.38730   27.70360    0.18350    3.67930    7.64380    0.01470   -0.00640    2.68310
 2335.50000   49.49930   95.77120   29.99500    0.15920    3.71210    7.64340    0.00970   -0.00400    2.68820
 2336.00000   49.34880   94.30350   35.13420    0.13480    3.73430    7.64300    0.00390   -0.00070    2.69700
 2336.50000   50.10620   94.28740   42.93620    0.11770    3.66480    7.64250    0.00250    0.00370    2.70570
 2337.00000   50.86370   95.12810   50.85600    0.10870    3.36450    7.64210    0.00980    0.00720    2.70310
 2337.50000   52.10690   96.72480   56.88780    0.11310    3.16530    7.64170    0.02340    0.00470    2.68060
 2338.00000   53.22090   98.27860   58.15430    0.12190    3.12510    7.64120    0.03370   -0.00210    2.65810
 2338.50000   54.61510   99.74160   56.47070    0.12920    3.17330    7.64080    0.03380   -0.00440    2.65480
 2339.00000   55.42250  101.10430   51.25600    0.12410    3.28360    7.64040    0.02380   -0.00460    2.66750
 2339.50000   55.95640  101.53100   45.97670    0.11270    3.32860    7.64000    0.01310   -0.00180    2.68370
 2340.00000   55.50330  101.18020   44.28250    0.10530    3.38860    7.63950    0.00360   -0.00020    2.69990
 2340.50000   54.69580   99.95740   42.83490    0.09850    3.52520    7.63910   -0.00430    0.00080    2.71610
 2341.00000   53.56290   98.73460   40.30700    0.08760    3.99640    7.63870   -0.01720    0.00240    2.73500
 2341.50000   52.87670   97.58430   34.05380    0.07160    4.85910    7.63820   -0.03790    0.00250    2.76400
 2342.00000   52.36020   96.84520   29.26990    0.06100    5.34470    7.63780   -0.06120    0.00190    2.79310
 2342.50000   51.81110   96.08500   26.79780    0.05350    5.34740    7.63740   -0.07860    0.00140    2.82210
 2343.00000   51.03420   95.13260   27.01600    0.05830    4.76400    7.63690   -0.08250    0.00180    2.84100
 2343.50000   51.33740   95.08350   27.86500    0.06620    4.12710    7.63650   -0.07550    0.00230    2.83350
 2344.00000   51.99820   95.88350   28.24000    0.07450    3.73190    7.63610   -0.06550    0.00150    2.81500
 2344.50000   53.18640   96.90620   28.90950    0.08080    3.50690    7.63570   -0.06190   -0.00040    2.80770
 2345.00000   54.22700   98.44130   30.15070    0.08740    3.27530    7.63520   -0.05830   -0.00070    2.80050
 2345.50000   55.05890   99.71700   31.03220    0.09010    3.21640    7.63480   -0.04860    0.00090    2.78360
