~Version ---------------------------------------------------
VERS.   2.0 : CWLS log ASCII Standard -VERSION 2.0
WRAP.    NO : One line per depth step
DLM . SPACE : Column Data Section Delimiter
~Well ------------------------------------------------------
STRT .F                   10.0 : START DEPTH
STOP .F                 2700.0 : STOP DEPTH
STEP .F                    0.5 : STEP
NULL .                -9999.25 : NULL VALUE
COMP .                         : COMPANY
WELL .                         : WELL
FLD  .                         : FIELD
LOC  .                         : LOCATION
PROV .                         : PROVINCE
CNTY .                         : COUNTY
STAT .                         : STATE
CTRY .                         : COUNTRY
SRVC .                         : SERVICE COMPANY
DATE .                         : DATE
UWI  .                         : UNIQUE WELL ID
API  .                         : API NUMBER
SLAT .WGS84 1.2937547740626982 : SURFACE LATITUDE
SLON .WGS84 6.0420300676849905 : SURFACE LONGITUDE
DATUM.F                2709.08 : DEPTH DATUM ELEV
~Curve Information -----------------------------------------
DEPT.F     : 1 MEASURED DEPTH
DTCO.US/F  : DELTA-T COMPRESSIONAL
DTSM.US/F  : DELTA-T SHEAR
GRD .GAPI  : GAMMA RAY FROM DENSITY LOG
NPHI.DEC   : NEUTRON POROSITY
PEF .B/E   : PHOTOELECTRIC FACTOR
CALD.IN    : CALIPER FROM DENSITY LOG
DPHI.DEC   : DENSITY POROSITY
DRHO.G/C3  : BULK DENSITY CORRECTION
RHOB.G/C3  : BULK DENSITY
~Params ----------------------------------------------------
~Other -----------------------------------------------------
~ASCII -----------------------------------------------------
# ...
 1616.00000   -9999.25   -9999.25   31.98590    0.24340    2.32230    9.90840    0.20930    0.00030    2.36970
 1616.50000   -9999.25   -9999.25   31.17060    0.24440    2.29790    9.90100    0.21140    0.00190    2.36770
 1617.00000   -9999.25   -9999.25   30.60920    0.23770    2.32540    9.88770    0.21100    0.00300    2.36840
 1617.50000   -9999.25   -9999.25   31.01130    0.22140    2.44920    9.87920    0.20160    0.00320    2.38270
 1618.00000   -9999.25   -9999.25   32.17330    0.20570    2.59360    9.85850    0.18410    0.00310    2.41350
 1618.50000   -9999.25   -9999.25   32.65970    0.20130    2.68190    9.83120    0.16690    0.00250    2.43810
 1619.00000   -9999.25   -9999.25   31.73570    0.19320    2.70340    9.78100    0.15790    0.00200    2.45330
 1619.50000   -9999.25   -9999.25   31.02710    0.15770    2.72570    9.66810    0.14860   -0.00160    2.46640
 1620.00000   -9999.25   -9999.25   31.99860    0.10790    2.79710    9.64010    0.11280   -0.00570    2.51890
 1620.50000   -9999.25   -9999.25   34.03010    0.04670    2.93170    9.61960    0.07890   -0.00800    2.58280
 1621.00000   -9999.25   -9999.25   35.82150    0.03280    3.11560    9.61500    0.03980   -0.00770    2.65090
 1621.50000   -9999.25   -9999.25   38.14980    0.03520    3.22310    9.61080    0.01340   -0.00520    2.69060
 1622.00000   -9999.25   -9999.25   40.31360    0.05030    3.38700    9.60870    0.00110   -0.00280    2.70220
 1622.50000   -9999.25   -9999.25   38.67080    0.05410    3.60400    9.61850   -0.00430   -0.00150    2.71440
 1623.00000   -9999.25   -9999.25   30.35640    0.03350    4.16430    9.64000   -0.02250   -0.00190    2.75700
 1623.50000   -9999.25   -9999.25   20.27420    0.00850    5.12600    9.70620   -0.06440   -0.00390    2.81870
 1624.00000   -9999.25   -9999.25   14.66580    0.00840    5.26560    9.72150   -0.11200   -0.00600    2.86900
 1624.50000   -9999.25   -9999.25   20.49800    0.03420    4.33810    9.73420   -0.10960   -0.00770    2.88050
 1625.00000   -9999.25   -9999.25   32.44690    0.06630    3.53720    9.76710   -0.06660   -0.00590    2.80010
 1625.50000   -9999.25   -9999.25   45.38830    0.08830    2.99010    9.82150   -0.00990   -0.00420    2.71280
 1626.00000   -9999.25   -9999.25   49.80160    0.08840    2.97110    9.88500    0.03230   -0.00410    2.65600
 1626.50000   -9999.25   -9999.25   49.99010    0.08570    3.08460    9.94410    0.05110   -0.00480    2.62490
 1627.00000   -9999.25   -9999.25   47.22830    0.09880    3.12050   10.00040    0.06390   -0.00550    2.60300
 1627.50000   -9999.25   -9999.25   44.79840    0.12000    3.01610   10.06430    0.08220   -0.00370    2.57800
 1628.00000   -9999.25   -9999.25   44.04050    0.13750    2.88140   10.13030    0.09900   -0.00190    2.54530
 1628.50000   -9999.25   -9999.25   44.83950    0.14790    2.78540   10.18770    0.10810   -0.00090    2.53170
 1629.00000   -9999.25   -9999.25   45.99970    0.13540    2.79160   10.23350    0.10680   -0.00080    2.53350
 1629.50000   -9999.25   -9999.25   46.43250    0.13620    2.78830   10.27300    0.10160    0.00040    2.54240
 1630.00000   -9999.25   -9999.25   46.28350    0.14520    2.72710   10.32580    0.10470    0.00190    2.54110
 1630.50000   -9999.25   -9999.25   46.06980    0.17460    2.61240   10.37850    0.11550    0.00270    2.52220
 1631.00000   -9999.25   -9999.25   45.91700    0.17590    2.59110   10.39060    0.12370    0.00240    2.50750
 1631.50000   -9999.25   -9999.25   46.48560    0.16430    2.67570   10.42370    0.11970    0.00310    2.51740
 1632.00000   -9999.25   -9999.25   48.68260    0.16000    2.78300   10.45670    0.10940    0.00260    2.53460
 1632.50000   -9999.25   -9999.25   52.24630    0.15860    2.80080   10.47840    0.10120   -0.00090    2.54370
 1633.00000   -9999.25   -9999.25   57.62850    0.15960    2.72610   10.50160    0.10080   -0.00090    2.54610
 1633.50000   -9999.25   -9999.25   63.58470    0.17320    2.69410   10.50600    0.10200    0.00070    2.54290
 1634.00000   -9999.25   -9999.25   70.84010    0.20010    2.74530   10.50680    0.10380    0.00240    2.53880
 1634.50000   -9999.25   -9999.25   78.90560    0.23770    2.86900   10.50760    0.10780   -0.00220    2.53420
 1635.00000   -9999.25   -9999.25   83.77300    0.27020    2.90840   10.50840    0.11100   -0.00520    2.53010
 1635.50000   -9999.25   -9999.25   85.13240    0.28690    2.86950   10.49100    0.11090   -0.00330    2.52880
 1636.00000   -9999.25   -9999.25   83.17130    0.28650    2.90230   10.47840    0.10720    0.00040    2.53390
 1636.50000   -9999.25   -9999.25   79.69630    0.27540    2.96520   10.47520    0.10230    0.00420    2.54280
 1637.00000   -9999.25   -9999.25   75.14910    0.26200    3.02320   10.47930    0.09940    0.00260    2.54630
 1637.50000   -9999.25   -9999.25   70.14150    0.24480    3.01640   10.47870    0.09810   -0.00130    2.54830
 1638.00000   -9999.25   -9999.25   64.96880    0.22320    2.96380   10.47810    0.09650   -0.00590    2.55120
 1638.50000   -9999.25   -9999.25   59.89540    0.19680    2.91340   10.47600    0.09190   -0.00750    2.55780
 1639.00000   -9999.25   -9999.25   54.76420    0.16560    2.87940   10.47110    0.08360   -0.00770    2.57130
 1639.50000   -9999.25   -9999.25   50.69160    0.13390    2.85020   10.46880    0.07320   -0.00640    2.58710
 1640.00000   -9999.25   -9999.25   48.87050    0.13200    2.85360   10.46320    0.06700   -0.00500    2.59810
 1640.50000   -9999.25   -9999.25   48.56180    0.15220    2.86020   10.45220    0.06660   -0.00380    2.60100
 1641.00000   -9999.25   -9999.25   50.72000    0.18400    2.83370   10.44340    0.08400   -0.00270    2.56950
 1641.50000   -9999.25   -9999.25   53.32250    0.18820    2.80780   10.44200    0.10530   -0.00170    2.54040
 1642.00000   -9999.25   -9999.25   53.70560    0.16210    2.84820   10.45860    0.11130    0.00060    2.52830
 1642.50000   -9999.25   -9999.25   51.45360    0.13890    2.95100   10.46260    0.09840    0.00300    2.54840
 1643.00000   -9999.25   -9999.25   48.31290    0.13030    3.00900   10.43360    0.07960    0.00590    2.57510
 1643.50000   -9999.25   -9999.25   47.51490    0.13960    2.96620   10.40050    0.07210    0.00890    2.59270
 1644.00000   -9999.25   -9999.25   48.19470    0.15350    2.86090   10.38170    0.07970    0.00890    2.58040
 1644.50000   -9999.25   -9999.25   50.13780    0.16660    2.78390   10.36640    0.09090    0.00660    2.56270
 1645.00000   -9999.25   -9999.25   53.16720    0.17740    2.74320   10.35080    0.10150    0.00260    2.54310
 1645.50000   -9999.25   -9999.25   58.23570    0.18540    2.71000   10.33570    0.11270   -0.00020    2.52720
 1646.00000   -9999.25   -9999.25   63.58120    0.19150    2.67130   10.34170    0.12300   -0.00280    2.50960
 1646.50000   -9999.25   -9999.25   68.65380    0.20490    2.55160   10.34600    0.13330   -0.00560    2.49290
 1647.00000   -9999.25   -9999.25   74.60450    0.23520    2.42740   10.34510    0.14420   -0.00980    2.47740
 1647.50000   -9999.25   -9999.25   79.05430    0.26350    2.31970   10.34890    0.15410   -0.00870    2.46040
 1648.00000   -9999.25   -9999.25   82.21330    0.27020    2.39870   10.35270    0.15640   -0.00330    2.45580
 1648.50000   -9999.25   -9999.25   83.60660    0.26420    2.49110   10.34800    0.15110    0.00420    2.46240
 1649.00000   -9999.25   -9999.25   83.49430    0.25600    2.60420   10.31650    0.14090    0.00720    2.47420
 1649.50000   -9999.25   -9999.25   82.69240    0.25350    2.68060   10.28050    0.12900    0.00750    2.49500
 1650.00000   -9999.25   -9999.25   81.00520    0.25070    2.66510   10.22840    0.11860    0.00820    2.50970
 1650.50000   -9999.25   -9999.25   79.42020    0.24660    2.64760   10.17810    0.11020    0.00890    2.52440
 1651.00000   -9999.25   -9999.25   77.57150    0.25580    2.53920   10.13840    0.11730    0.00660    2.51950
 1651.50000   -9999.25   -9999.25   74.85970    0.26660    2.53010   10.08550    0.13100    0.00190    2.49580
 1652.00000   -9999.25   -9999.25   71.34540    0.25520    2.56420   10.01160    0.14010    0.00170    2.48360
