~Version ---------------------------------------------------
VERS.   2.0 : CWLS log ASCII Standard -VERSION 2.0
WRAP.    NO : One line per depth step
DLM . SPACE : Column Data Section Delimiter
~Well ------------------------------------------------------
STRT .F                   10.0 : START DEPTH
STOP .F                 2700.0 : STOP DEPTH
STEP .F                    0.5 : STEP
NULL .                -9999.25 : NULL VALUE
COMP .                         : COMPANY
WELL .                         : WELL
FLD  .                         : FIELD
LOC  .                         : LOCATION
PROV .                         : PROVINCE
CNTY .                         : COUNTY
STAT .                         : STATE
CTRY .                         : COUNTRY
SRVC .                         : SERVICE COMPANY
DATE .                         : DATE
UWI  .                         : UNIQUE WELL ID
API  .                         : API NUMBER
SLAT .WGS84 1.2937547740626982 : SURFACE LATITUDE
SLON .WGS84 6.0420300676849905 : SURFACE LONGITUDE
DATUM.F                2709.08 : DEPTH DATUM ELEV
~Curve Information -----------------------------------------
DEPT.F     : 1 MEASURED DEPTH
DTCO.US/F  : DELTA-T COMPRESSIONAL
DTSM.US/F  : DELTA-T SHEAR
GRD .GAPI  : GAMMA RAY FROM DENSITY LOG
NPHI.DEC   : NEUTRON POROSITY
PEF .B/E   : PHOTOELECTRIC FACTOR
CALD.IN    : CALIPER FROM DENSITY LOG
DPHI.DEC   : DENSITY POROSITY
DRHO.G/C3  : BULK DENSITY CORRECTION
RHOB.G/C3  : BULK DENSITY
~Params ----------------------------------------------------
~Other -----------------------------------------------------
~ASCII -----------------------------------------------------
# ...
 1470.00000   -9999.25   -9999.25   64.54840    0.20780    2.60230   11.87110    0.15820   -0.00490    2.45440
 1470.50000   -9999.25   -9999.25   64.23270    0.22530    2.58460   11.86460    0.15180   -0.00240    2.46870
 1471.00000   -9999.25   -9999.25   63.46300    0.21570    2.63280   11.87470    0.14120    0.00070    2.48160
 1471.50000   -9999.25   -9999.25   63.25700    0.19850    2.74780   11.87980    0.13140    0.00220    2.49660
 1472.00000   -9999.25   -9999.25   63.12140    0.18830    2.79700   11.88000    0.12550   -0.00170    2.50460
 1472.50000   -9999.25   -9999.25   63.40580    0.19640    2.78230   11.88020    0.12500   -0.00620    2.50100
 1473.00000   -9999.25   -9999.25   65.27800    0.22150    2.70060   11.87970    0.12970   -0.00960    2.49370
 1473.50000   -9999.25   -9999.25   69.25450    0.25290    2.63560   11.88590    0.13680   -0.00930    2.48330
 1474.00000   -9999.25   -9999.25   71.34130    0.26680    2.64520   11.89540    0.14390   -0.00440    2.47380
 1474.50000   -9999.25   -9999.25   71.92480    0.26340    2.68150   11.91240    0.14750   -0.00030    2.47170
 1475.00000   -9999.25   -9999.25   73.05820    0.24970    2.75500   11.92190    0.14210    0.00180    2.48000
 1475.50000   -9999.25   -9999.25   74.15540    0.23230    2.83590   11.94360    0.13090    0.00300    2.49740
 1476.00000   -9999.25   -9999.25   73.04640    0.21020    2.86560   11.97310    0.12130    0.00240    2.51190
 1476.50000   -9999.25   -9999.25   70.04950    0.17460    2.86410   11.99310    0.11910    0.00110    2.51740
 1477.00000   -9999.25   -9999.25   64.27200    0.13660    2.76300   11.99430    0.12260   -0.00090    2.51160
 1477.50000   -9999.25   -9999.25   56.76790    0.08010    2.63160   12.04100    0.12910   -0.00130    2.49910
 1478.00000   -9999.25   -9999.25   48.68030    0.04930    2.53090   12.09560    0.13740   -0.00080    2.48580
 1478.50000   -9999.25   -9999.25   41.56370    0.02240    2.50840   12.16560    0.14800    0.00150    2.46640
 1479.00000   -9999.25   -9999.25   36.67740    0.01550    2.56650   12.24630    0.15990    0.00030    2.44970
 1479.50000   -9999.25   -9999.25   36.05000    0.01300    2.70530   12.27000    0.17040   -0.00130    2.43930
 1480.00000   -9999.25   -9999.25   38.00490    0.01380    2.83360   12.29630    0.17680   -0.00120    2.42720
 1480.50000   -9999.25   -9999.25   41.47280    0.01580    2.91960   12.31340    0.18020    0.00050    2.42000
 1481.00000   -9999.25   -9999.25   43.99890    0.02210    2.85410   12.31980    0.18070    0.00310    2.41570
 1481.50000   -9999.25   -9999.25   45.67770    0.03030    2.73630   12.31440    0.18070    0.00520    2.41570
 1482.00000   -9999.25   -9999.25   47.15270    0.03970    2.67540   12.29010    0.18010    0.00410    2.41690
 1482.50000   -9999.25   -9999.25   48.87660    0.04970    2.64230   12.24830    0.17860    0.00200    2.41990
 1483.00000   -9999.25   -9999.25   50.42320    0.06540    2.64550   12.20750    0.17600   -0.00010    2.42400
 1483.50000   -9999.25   -9999.25   51.53830    0.09080    2.61430   12.15980    0.17470   -0.00180    2.42580
 1484.00000   -9999.25   -9999.25   51.68550    0.12350    2.58200   12.10160    0.17520   -0.00270    2.42620
 1484.50000   -9999.25   -9999.25   51.84620    0.15360    2.58660   12.04210    0.17450   -0.00250    2.42770
 1485.00000   -9999.25   -9999.25   52.86910    0.17400    2.63290   11.98220    0.16900   -0.00100    2.43260
 1485.50000   -9999.25   -9999.25   54.82220    0.19190    2.64570   11.95720    0.16570    0.00050    2.43970
 1486.00000   -9999.25   -9999.25   56.41030    0.21160    2.57720   11.94580    0.17350    0.00260    2.42550
 1486.50000   -9999.25   -9999.25   57.54370    0.22780    2.46360   11.94220    0.18980    0.00480    2.39430
 1487.00000   -9999.25   -9999.25   58.59050    0.23720    2.40190   11.94840    0.20530    0.00560    2.37250
 1487.50000   -9999.25   -9999.25   59.13510    0.24260    2.36600   11.93300    0.21810    0.00350    2.35220
 1488.00000   -9999.25   -9999.25   58.97480    0.25470    2.33010   11.92370    0.22880   -0.00090    2.33640
 1488.50000   -9999.25   -9999.25   58.44160    0.26850    2.30590   11.91370    0.23660   -0.00640    2.32680
 1489.00000   -9999.25   -9999.25   58.64240    0.26800    2.28670   11.89330    0.23980   -0.00980    2.32080
 1489.50000   -9999.25   -9999.25   60.35500    0.26020    2.30490   11.87980    0.23730   -0.00990    2.32580
 1490.00000   -9999.25   -9999.25   61.95000    0.26190    2.37810   11.88460    0.23110   -0.00540    2.33470
 1490.50000   -9999.25   -9999.25   62.42120    0.26750    2.40140   11.89730    0.22640   -0.00090    2.34240
 1491.00000   -9999.25   -9999.25   61.01010    0.26750    2.38540   11.90690    0.22440    0.00370    2.34670
 1491.50000   -9999.25   -9999.25   59.72460    0.25730    2.36240   11.91160    0.22010    0.00600    2.35230
 1492.00000   -9999.25   -9999.25   58.89500    0.23440    2.34920   11.92230    0.21010    0.00580    2.36750
 1492.50000   -9999.25   -9999.25   59.15430    0.21590    2.39720   11.92020    0.19460    0.00460    2.39360
 1493.00000   -9999.25   -9999.25   61.27180    0.20020    2.42190   11.91870    0.17960    0.00220    2.41980
 1493.50000   -9999.25   -9999.25   65.18680    0.19300    2.43130   11.92430    0.16740   -0.00040    2.43880
 1494.00000   -9999.25   -9999.25   70.02250    0.19400    2.44800   11.92670    0.15870   -0.00230    2.45350
 1494.50000   -9999.25   -9999.25   74.78910    0.19760    2.51630   11.92130    0.14940   -0.00230    2.46630
 1495.00000   -9999.25   -9999.25   77.98180    0.20430    2.68000   11.90050    0.14410   -0.00070    2.47430
 1495.50000   -9999.25   -9999.25   80.95350    0.22430    2.89630   11.88410    0.14280    0.00040    2.47680
 1496.00000   -9999.25   -9999.25   82.04620    0.24260    2.97230   11.88420    0.14690   -0.00430    2.47160
 1496.50000   -9999.25   -9999.25   82.07380    0.25700    2.90010   11.89860    0.15010   -0.00510    2.46760
 1497.00000   -9999.25   -9999.25   80.09350    0.25150    2.83110   11.91290    0.14920   -0.00870    2.46790
 1497.50000   -9999.25   -9999.25   79.15990    0.24690    2.80650   11.92300    0.14680   -0.01060    2.46960
 1498.00000   -9999.25   -9999.25   81.52750    0.24430    2.80600   11.91680    0.14680   -0.01050    2.46930
 1498.50000   -9999.25   -9999.25   86.43680    0.24170    2.80540   11.91480    0.15060   -0.01030    2.46510
 1499.00000   -9999.25   -9999.25   89.16020    0.23840    2.80490   11.92340    0.15320   -0.00980    2.46000
 1499.50000   -9999.25   -9999.25   86.96140    0.23600    2.74290   11.93190    0.15150   -0.00890    2.45870
 1500.00000   -9999.25   -9999.25   83.77300    0.24820    2.74680   11.94050    0.14720   -0.00500    2.45740
 1500.50000   -9999.25   -9999.25   79.49870    0.26210    2.76270   11.94910    0.14600   -0.00290    2.47250
 1501.00000   -9999.25   -9999.25   78.14050    0.25260    2.77980   11.95740    0.14530   -0.00330    2.47400
 1501.50000   -9999.25   -9999.25   75.99290    0.22750    2.77560   11.96260    0.14050   -0.00340    2.48130
 1502.00000   -9999.25   -9999.25   72.93240    0.20900    2.71360   11.96620    0.12950   -0.00340    2.49710
 1502.50000   -9999.25   -9999.25   70.06810    0.21050    2.61850   11.97690    0.12020   -0.00260    2.51070
 1503.00000   -9999.25   -9999.25   69.47640    0.22430    2.56700   11.98750    0.12290   -0.00170    2.50850
 1503.50000   -9999.25   -9999.25   69.69970    0.23150    2.56340   12.01470    0.13630   -0.00430    2.49190
 1504.00000   -9999.25   -9999.25   70.14650    0.23880    2.56790   12.04490    0.15180   -0.00930    2.46450
 1504.50000   -9999.25   -9999.25   70.27540    0.24480    2.55130   12.07070    0.16570   -0.01080    2.44410
 1505.00000   -9999.25   -9999.25   70.12260    0.25240    2.38930   12.06230    0.17830   -0.01080    2.42320
 1505.50000   -9999.25   -9999.25   69.75270    0.25420    2.30470   12.09590    0.19240   -0.00750    2.40180
 1506.00000   -9999.25   -9999.25   69.23790    0.25550    2.24420   12.14840    0.20300   -0.00640    2.38230
