~Version ---------------------------------------------------
VERS.   2.0 : CWLS log ASCII Standard -VERSION 2.0
WRAP.    NO : One line per depth step
DLM . SPACE : Column Data Section Delimiter
~Well ------------------------------------------------------
STRT .F                   10.0 : START DEPTH
STOP .F                 2700.0 : STOP DEPTH
STEP .F                    0.5 : STEP
NULL .                -9999.25 : NULL VALUE
COMP .                         : COMPANY
WELL .                         : WELL
FLD  .                         : FIELD
LOC  .                         : LOCATION
PROV .                         : PROVINCE
CNTY .                         : COUNTY
STAT .                         : STATE
CTRY .                         : COUNTRY
SRVC .                         : SERVICE COMPANY
DATE .                         : DATE
UWI  .                         : UNIQUE WELL ID
API  .                         : API NUMBER
SLAT .WGS84 1.2937547740626982 : SURFACE LATITUDE
SLON .WGS84 6.0420300676849905 : SURFACE LONGITUDE
DATUM.F                2709.08 : DEPTH DATUM ELEV
~Curve Information -----------------------------------------
DEPT.F     : 1 MEASURED DEPTH
DTCO.US/F  : DELTA-T COMPRESSIONAL
DTSM.US/F  : DELTA-T SHEAR
GRD .GAPI  : GAMMA RAY FROM DENSITY LOG
NPHI.DEC   : NEUTRON POROSITY
PEF .B/E   : PHOTOELECTRIC FACTOR
CALD.IN    : CALIPER FROM DENSITY LOG
DPHI.DEC   : DENSITY POROSITY
DRHO.G/C3  : BULK DENSITY CORRECTION
RHOB.G/C3  : BULK DENSITY
~Params ----------------------------------------------------
~Other -----------------------------------------------------
~ASCII -----------------------------------------------------
# ...
  886.00000   -9999.25   -9999.25   77.29770    0.32510    2.45840   11.00330    0.16420    0.05190    2.45250
  886.50000   -9999.25   -9999.25   79.05270    0.34790    2.30350   11.07510    0.20240    0.04240    2.42980
  887.00000   -9999.25   -9999.25   78.95360    0.36510    2.21190   10.95950    0.26490    0.04010    2.36820
  887.50000   -9999.25   -9999.25   79.93190    0.35600    2.18780   10.76650    0.29990    0.04820    2.25150
  888.00000   -9999.25   -9999.25   83.53190    0.32880    2.40370   10.26880    0.30250    0.05490    2.20430
  888.50000   -9999.25   -9999.25   89.58260    0.29100    2.69150    9.49460    0.23830    0.03250    2.22920
  889.00000   -9999.25   -9999.25   93.64510    0.27480    2.84920    9.06380    0.17290    0.00840    2.33070
  889.50000   -9999.25   -9999.25   94.13140    0.25890    2.95490    8.96220    0.13770    0.00070    2.44880
  890.00000   -9999.25   -9999.25   93.73700    0.25450    3.02790    8.94980    0.13230    0.00070    2.48980
  890.50000   -9999.25   -9999.25   93.67870    0.25500    3.04900    8.95580    0.13750   -0.00080    2.48890
  891.00000   -9999.25   -9999.25   95.27050    0.26280    2.97550    8.98530    0.14460   -0.00130    2.48050
  891.50000   -9999.25   -9999.25   97.13970    0.27700    2.89060    8.96450    0.14980   -0.00150    2.47010
  892.00000   -9999.25   -9999.25   97.60940    0.28470    2.83240    8.96060    0.15120   -0.00130    2.46330
  892.50000   -9999.25   -9999.25   95.05810    0.27500    2.84140    8.97320    0.14930   -0.00070    2.46400
  893.00000   -9999.25   -9999.25   89.22770    0.25710    2.94030    8.98310    0.14460   -0.00090    2.46880
  893.50000   -9999.25   -9999.25   86.17120    0.24390    2.93760    8.98310    0.14240   -0.00050    2.47470
  894.00000   -9999.25   -9999.25   86.65960    0.24470    2.91070    8.98440    0.14440   -0.00020    2.47650
  894.50000   -9999.25   -9999.25   88.63330    0.25100    2.88080    9.00120    0.14680   -0.00020    2.47290
  895.00000   -9999.25   -9999.25   89.48160    0.25280    2.88780    8.96580    0.14750   -0.00080    2.46920
  895.50000   -9999.25   -9999.25   88.30290    0.25290    2.95430    8.95080    0.14530   -0.00190    2.47190
  896.00000   -9999.25   -9999.25   86.63360    0.25590    3.01090    8.93950    0.14330   -0.00450    2.47450
  896.50000   -9999.25   -9999.25   86.55740    0.26220    3.09540    8.95280    0.14330   -0.00770    2.47600
  897.00000   -9999.25   -9999.25   88.50220    0.27000    3.09950    8.96960    0.14410   -0.00890    2.47480
  897.50000   -9999.25   -9999.25   90.67040    0.27700    3.00060    8.97480    0.14540   -0.00900    2.47360
  898.00000   -9999.25   -9999.25   92.22790    0.27720    2.92220    8.97990    0.14600   -0.00810    2.47270
  898.50000   -9999.25   -9999.25   93.82640    0.27170    2.84420    8.98500    0.14620   -0.00680    2.47250
  899.00000   -9999.25   -9999.25   95.14510    0.25720    2.76970    8.99020    0.14520   -0.00620    2.47290
  899.50000   -9999.25   -9999.25   94.66180    0.24920    2.67350    8.99360    0.14190   -0.00560    2.47620
  900.00000   -9999.25   -9999.25   92.05280    0.24530    2.70710    8.99250    0.14050   -0.00370    2.48030
  900.50000   -9999.25   -9999.25   89.03930    0.24540    2.77420    8.99140    0.13680   -0.00170    2.48440
  901.00000   -9999.25   -9999.25   90.54600    0.24500    2.80470    8.99030    0.13270    0.00010    2.49210
  901.50000   -9999.25   -9999.25   93.32900    0.24410    2.76140    9.00660    0.13020    0.00080    2.49700
  902.00000   -9999.25   -9999.25   94.04020    0.24840    2.71850    9.00160    0.13130    0.00020    2.49540
  902.50000   -9999.25   -9999.25   92.78310    0.26270    2.70220    8.99220    0.13550   -0.00080    2.48940
  903.00000   -9999.25   -9999.25   91.03480    0.26300    2.75820    8.99850    0.14180   -0.00200    2.48010
  903.50000   -9999.25   -9999.25   89.73820    0.25480    2.81860    8.99750    0.14890   -0.00370    2.47020
  904.00000   -9999.25   -9999.25   88.63200    0.25460    2.83790    8.98840    0.15180   -0.00410    2.46290
  904.50000   -9999.25   -9999.25   87.09010    0.25820    2.80750    8.98630    0.14640   -0.00260    2.46820
  905.00000   -9999.25   -9999.25   83.65900    0.26580    2.73060    8.98900    0.13710    0.00000    2.48190
  905.50000   -9999.25   -9999.25   79.14550    0.25670    2.69850    8.98390    0.12540    0.00500    2.50300
  906.00000   -9999.25   -9999.25   74.03090    0.24020    2.68430    8.99030    0.11970    0.00620    2.51230
  906.50000   -9999.25   -9999.25   72.06320    0.22610    2.66420    8.99870    0.12110    0.00310    2.51050
  907.00000   -9999.25   -9999.25   72.82370    0.22530    2.62870    8.98970    0.12690   -0.00100    2.49850
  907.50000   -9999.25   -9999.25   74.44310    0.22700    2.60100    8.98200    0.13630   -0.00220    2.48340
  908.00000   -9999.25   -9999.25   73.45770    0.21800    2.60140    8.99240    0.14340   -0.00020    2.47280
  908.50000   -9999.25   -9999.25   71.40870    0.20530    2.61920    8.99410    0.14430   -0.00110    2.47830
  909.00000   -9999.25   -9999.25   70.06240    0.19970    2.64440    8.95670    0.13520   -0.00010    2.49110
  909.50000   -9999.25   -9999.25   70.60320    0.20810    2.63180    8.95110    0.12560    0.00060    2.50200
  910.00000   -9999.25   -9999.25   71.56990    0.21820    2.63730    8.94550    0.12530    0.00070    2.50190
  910.50000   -9999.25   -9999.25   72.46530    0.22380    2.65670    8.93990    0.13070    0.00050    2.49430
  911.00000   -9999.25   -9999.25   72.97930    0.22380    2.72380    8.95560    0.13720   -0.00260    2.48540
  911.50000   -9999.25   -9999.25   72.61260    0.22290    2.78510    8.97360    0.14100   -0.00560    2.48080
  912.00000   -9999.25   -9999.25   71.12040    0.21640    2.80510    8.92850    0.14130   -0.00740    2.47880
  912.50000   -9999.25   -9999.25   68.52960    0.20680    2.79310    8.91630    0.13950   -0.00740    2.48190
  913.00000   -9999.25   -9999.25   65.61770    0.18720    2.77410    8.90410    0.13460   -0.00630    2.48990
  913.50000   -9999.25   -9999.25   63.90260    0.17470    2.76940    8.89540    0.12430   -0.00270    2.50880
  914.00000   -9999.25   -9999.25   63.86090    0.17300    2.81740    8.87360    0.10990   -0.00220    2.53280
  914.50000   -9999.25   -9999.25   65.25030    0.17770    2.90690    8.84900    0.09650   -0.00170    2.55080
  915.00000   -9999.25   -9999.25   69.12780    0.18810    2.93560    8.81430    0.09880   -0.00380    2.54540
  915.50000   -9999.25   -9999.25   72.16010    0.20120    2.87080    8.81490    0.11610   -0.00910    2.51490
  916.00000   -9999.25   -9999.25   72.62350    0.21030    2.73870    8.81750    0.14040   -0.00900    2.48020
  916.50000   -9999.25   -9999.25   70.75070    0.21420    2.62320    8.81850    0.15740   -0.00870    2.45790
  917.00000   -9999.25   -9999.25   69.54370    0.21390    2.55820    8.81190    0.16040   -0.00810    2.45450
  917.50000   -9999.25   -9999.25   70.89070    0.21320    2.54340    8.80580    0.15450   -0.00700    2.45810
  918.00000   -9999.25   -9999.25   73.10030    0.21600    2.58220    8.80190    0.14860   -0.00510    2.46650
  918.50000   -9999.25   -9999.25   74.01930    0.22220    2.66200    8.79960    0.14550   -0.00340    2.47230
  919.00000   -9999.25   -9999.25   74.06550    0.22920    2.77740    8.79910    0.14320   -0.00360    2.47520
  919.50000   -9999.25   -9999.25   73.95010    0.23210    2.81480    8.79480    0.14100   -0.00590    2.47860
  920.00000   -9999.25   -9999.25   74.47410    0.22520    2.73800    8.77720    0.13990   -0.00730    2.47980
  920.50000   -9999.25   -9999.25   75.10790    0.21560    2.55260    8.77220    0.14080   -0.00670    2.48030
  921.00000   -9999.25   -9999.25   75.90830    0.20780    2.48050    8.77130    0.14070   -0.00290    2.48070
  921.50000   -9999.25   -9999.25   75.18640    0.20520    2.50490    8.75880    0.13860    0.00060    2.48370
  922.00000   -9999.25   -9999.25   73.88470    0.20130    2.62940    8.73800    0.13550   -0.00010    2.48730
