~Version ---------------------------------------------------
VERS.   2.0 : CWLS log ASCII Standard -VERSION 2.0
WRAP.    NO : One line per depth step
DLM . SPACE : Column Data Section Delimiter
~Well ------------------------------------------------------
STRT .F                   10.0 : START DEPTH
STOP .F                 2700.0 : STOP DEPTH
STEP .F                    0.5 : STEP
NULL .                -9999.25 : NULL VALUE
COMP .                         : COMPANY
WELL .                         : WELL
FLD  .                         : FIELD
LOC  .                         : LOCATION
PROV .                         : PROVINCE
CNTY .                         : COUNTY
STAT .                         : STATE
CTRY .                         : COUNTRY
SRVC .                         : SERVICE COMPANY
DATE .                         : DATE
UWI  .                         : UNIQUE WELL ID
API  .                         : API NUMBER
SLAT .WGS84 1.2937547740626982 : SURFACE LATITUDE
SLON .WGS84 6.0420300676849905 : SURFACE LONGITUDE
DATUM.F                2709.08 : DEPTH DATUM ELEV
~Curve Information -----------------------------------------
DEPT.F     : 1 MEASURED DEPTH
DTCO.US/F  : DELTA-T COMPRESSIONAL
DTSM.US/F  : DELTA-T SHEAR
GRD .GAPI  : GAMMA RAY FROM DENSITY LOG
NPHI.DEC   : NEUTRON POROSITY
PEF .B/E   : PHOTOELECTRIC FACTOR
CALD.IN    : CALIPER FROM DENSITY LOG
DPHI.DEC   : DENSITY POROSITY
DRHO.G/C3  : BULK DENSITY CORRECTION
RHOB.G/C3  : BULK DENSITY
~Params ----------------------------------------------------
~Other -----------------------------------------------------
~ASCII -----------------------------------------------------
# ...
 2674.50000   50.24110   93.24150   16.35000    0.10200    3.14220    7.41400    0.00480    0.00120    2.69850
 2675.00000   50.36250   94.01720   17.05480    0.07200    3.19330    7.42030    0.00530    0.00400    2.69460
 2675.50000   50.58870   93.86200   18.54820    0.05030    3.28270    7.42110   -0.00460    0.00510    2.71010
 2676.00000   50.68340   93.13200   21.85590    0.04470    3.38970    7.42140   -0.02600    0.00530    2.74320
 2676.50000   49.94140   92.84340   26.06440    0.04770    3.50900    7.42040   -0.04990    0.00660    2.77620
 2677.00000   49.84660   92.97650   29.92530    0.05410    3.62600    7.41460   -0.06310    0.00670    2.80920
 2677.50000   49.87970   92.95210   32.44860    0.05420    3.65030    7.40630   -0.06380    0.00450    2.81020
 2678.00000   49.84400   92.90510   35.69470    0.05100    3.54560    7.39300   -0.05650   -0.00040    2.80210
 2678.50000   49.54690   92.99590   39.48580    0.05320    3.37580    7.39240   -0.04990   -0.00290    2.79050
 2679.00000   49.57690   93.68690   46.96320    0.06080    3.21250    7.39180   -0.04870   -0.00370    2.78780
 2679.50000   50.00710   94.81940   -9999.25    0.06540    3.12040    7.40150   -0.05050   -0.00280    2.78770
 2680.00000   51.04900   96.99510   -9999.25    0.06400    3.17190    7.42230   -0.05010    0.00070    2.79000
 2680.50000   52.36240   99.16810   -9999.25    0.04940    3.26640    7.44320   -0.04780   -0.00140    2.78710
 2681.00000   53.67590  100.06170   -9999.25    0.05400    3.35090    7.42940   -0.04380   -0.00220    2.77970
 2681.50000   53.75330   98.50760   -9999.25    0.06700    3.32730    7.36000   -0.04710   -0.00010    2.77820
 2682.00000   51.70210   95.85900   -9999.25    0.08130    3.29880    7.27100   -0.05640    0.00400    2.79340
 2682.50000   50.05400   93.46510   -9999.25    0.08870    3.31170    7.24340   -0.06600    0.00560    2.81270
 2683.00000   49.73820   91.84170   -9999.25    0.08800    3.36280    7.23720   -0.06930    0.00730    2.81710
 2683.50000   49.36260   91.12130   -9999.25    0.08300    3.39290    7.24230   -0.06560    0.00990    2.81330
 2684.00000   49.31630   91.03130   -9999.25    0.07960    3.39180    7.24580   -0.06350    0.02080    2.81180
 2684.50000   49.26110   90.40650   -9999.25    0.07820    3.38590    7.24760   -0.06710    0.03650    2.81490
 2685.00000   49.22810   90.32250   -9999.25    0.07960    3.36690    7.24990   -0.06960    0.04500    2.81710
 2685.50000   49.24640   90.34030   -9999.25    0.10590    3.27830    7.25210   -0.05960    0.04280    2.80910
 2686.00000   49.26970   90.87620   -9999.25    0.13640    3.04120    7.25430   -0.04330    0.03020    2.78750
 2686.50000   49.32410   92.58550   -9999.25    0.16170    2.85530    7.25660   -0.03010    0.01640    2.76590
 2687.00000   49.37850   94.38940   -9999.25    0.18610    2.84010    7.25680   -0.02070    0.01250    2.74680
 2687.50000   49.71430   96.19330   -9999.25    0.19670    2.95980    7.25410   -0.00970    0.01060    2.73160
 2688.00000   51.28120   97.35850   -9999.25    0.19850    3.14620    7.23730   -0.00130    0.00870    2.71380
 2688.50000   52.66420   98.34040   -9999.25   -9999.25    3.29730    7.23010    0.00370    0.00730    2.70380
 2689.00000   54.10360   99.32240   -9999.25   -9999.25    3.24900    7.22940    0.00210    0.00830    2.70380
 2689.50000   55.27470   99.33720   -9999.25   -9999.25    3.04340    7.21770    0.00100    0.00910    2.70380
 2690.00000   56.37450   98.94020   -9999.25   -9999.25    2.92660    7.21100    0.00120    0.00960    2.70670
 2690.50000   56.84900   98.42270   -9999.25   -9999.25    3.05690    7.20940   -0.00170    0.00960    2.71160
 2691.00000   54.43310   97.44240   -9999.25   -9999.25    3.29100    7.19630   -0.00790    0.00740    2.71650
 2691.50000   52.65830   96.42770   -9999.25   -9999.25    3.43980    7.20490   -0.02110    0.00490    2.74040
 2692.00000   50.40320   95.74480   -9999.25   -9999.25    3.46100    7.18830   -0.03820    0.00410    2.76990
 2692.50000   49.03660   95.14820   -9999.25   -9999.25    3.45630    7.10840   -0.05050    0.00460    2.78450
 2693.00000   49.80240   94.55170   -9999.25   -9999.25    3.53760    6.82380   -0.05690    0.01250    2.79400
 2693.50000   50.59330   93.95510   -9999.25   -9999.25    3.67350    6.69170   -0.06540    0.02690    2.81400
 2694.00000   50.67060   93.39870   -9999.25   -9999.25    3.85780    6.72970   -0.08460    0.03720    2.83280
 2694.50000   50.66920   92.88630   -9999.25   -9999.25    3.84580    6.82910   -0.09420    0.03890    2.85160
 2695.00000   50.66320   92.37390   -9999.25   -9999.25    3.70960    6.70790   -0.09570    0.03290    2.85940
 2695.50000   50.65460   92.07190   -9999.25   -9999.25   -9999.25   -9999.25   -9999.25   -9999.25   -9999.25
 2696.00000   50.56360   92.07940   -9999.25   -9999.25   -9999.25   -9999.25   -9999.25   -9999.25   -9999.25
 2696.50000   50.59070   92.11970   -9999.25   -9999.25   -9999.25   -9999.25   -9999.25   -9999.25   -9999.25
 2697.00000   50.62620   92.25590   -9999.25   -9999.25   -9999.25   -9999.25   -9999.25   -9999.25   -9999.25
 2697.50000   50.66150   92.39210   -9999.25   -9999.25   -9999.25   -9999.25   -9999.25   -9999.25   -9999.25
 2698.00000   50.69680   92.41960   -9999.25   -9999.25   -9999.25   -9999.25   -9999.25   -9999.25   -9999.25
 2698.50000   50.72320   91.50930   -9999.25   -9999.25   -9999.25   -9999.25   -9999.25   -9999.25   -9999.25
 2699.00000   50.74400   91.14270   -9999.25   -9999.25   -9999.25   -9999.25   -9999.25   -9999.25   -9999.25
 2699.50000   50.76480   91.16910   -9999.25   -9999.25   -9999.25   -9999.25   -9999.25   -9999.25   -9999.25
 2700.00000   50.78560   91.23200   -9999.25   -9999.25   -9999.25   -9999.25   -9999.25   -9999.25   -9999.25
