~Version ---------------------------------------------------
VERS.   2.0 : CWLS log ASCII Standard -VERSION 2.0
WRAP.    NO : One line per depth step
DLM . SPACE : Column Data Section Delimiter
~Well ------------------------------------------------------
STRT .F                   10.0 : START DEPTH
STOP .F                 2700.0 : STOP DEPTH
STEP .F                    0.5 : STEP
NULL .                -9999.25 : NULL VALUE
COMP .                         : COMPANY
WELL .                         : WELL
FLD  .                         : FIELD
LOC  .                         : LOCATION
PROV .                         : PROVINCE
CNTY .                         : COUNTY
STAT .                         : STATE
CTRY .                         : COUNTRY
SRVC .                         : SERVICE COMPANY
DATE .                         : DATE
UWI  .                         : UNIQUE WELL ID
API  .                         : API NUMBER
SLAT .WGS84 1.2937547740626982 : SURFACE LATITUDE
SLON .WGS84 6.0420300676849905 : SURFACE LONGITUDE
DATUM.F                2709.08 : DEPTH DATUM ELEV
~Curve Information -----------------------------------------
DEPT.F     : 1 MEASURED DEPTH
DTCO.US/F  : DELTA-T COMPRESSIONAL
DTSM.US/F  : DELTA-T SHEAR
GRD .GAPI  : GAMMA RAY FROM DENSITY LOG
NPHI.DEC   : NEUTRON POROSITY
PEF .B/E   : PHOTOELECTRIC FACTOR
CALD.IN    : CALIPER FROM DENSITY LOG
DPHI.DEC   : DENSITY POROSITY
DRHO.G/C3  : BULK DENSITY CORRECTION
RHOB.G/C3  : BULK DENSITY
~Params ----------------------------------------------------
~Other -----------------------------------------------------
~ASCII -----------------------------------------------------
# ...
 1141.50000   -9999.25   -9999.25   80.20530    0.32910    2.50680   11.02880    0.21960    0.05140    2.33870
 1142.00000   -9999.25   -9999.25   86.76540    0.34970    2.55850   10.82230    0.18140    0.06660    2.40600
 1142.50000   -9999.25   -9999.25   91.47310    0.37280    2.60220   10.56670    0.16270    0.08030    2.44460
 1143.00000   -9999.25   -9999.25   95.90550    0.36330    2.64360   10.53150    0.15800    0.06130    2.45230
 1143.50000   -9999.25   -9999.25   96.10090    0.33470    2.60950   10.31670    0.15290    0.02310    2.46080
 1144.00000   -9999.25   -9999.25   90.62150    0.28090    2.60900   10.00830    0.14300    0.00540    2.47120
 1144.50000   -9999.25   -9999.25   83.83040    0.23510    2.66390    9.90670    0.13310    0.00010    2.48690
 1145.00000   -9999.25   -9999.25   78.92480    0.21870    2.73780    9.87650    0.12470   -0.00370    2.50160
 1145.50000   -9999.25   -9999.25   78.19100    0.21370    2.72870    9.86470    0.11970   -0.00310    2.51270
 1146.00000   -9999.25   -9999.25   81.69820    0.22270    2.67010    9.86800    0.12180   -0.00190    2.51280
 1146.50000   -9999.25   -9999.25   87.55200    0.24860    2.57130    9.86130    0.12700    0.00290    2.50240
 1147.00000   -9999.25   -9999.25   90.59110    0.27100    2.49500    9.87170    0.13070    0.00780    2.49960
 1147.50000   -9999.25   -9999.25   90.43680    0.28670    2.50890    9.90300    0.12540    0.01650    2.50200
 1148.00000   -9999.25   -9999.25   88.87580    0.28550    2.63500    9.93850    0.11680    0.01720    2.51620
 1148.50000   -9999.25   -9999.25   86.99300    0.28150    2.74350    9.97930    0.10920    0.01500    2.52950
 1149.00000   -9999.25   -9999.25   86.26560    0.27730    2.81870   10.02010    0.10530    0.01400    2.53580
 1149.50000   -9999.25   -9999.25   85.59120    0.26450    2.87210   10.01740    0.10150    0.01410    2.54130
 1150.00000   -9999.25   -9999.25   79.32320    0.23240    3.04010    9.88140    0.09480    0.01210    2.55340
 1150.50000   -9999.25   -9999.25   72.73910    0.17640    3.22860    9.78420    0.07870    0.00970    2.57410
 1151.00000   -9999.25   -9999.25   62.53390    0.15100    3.47250    9.76540    0.05010    0.00670    2.62770
 1151.50000   -9999.25   -9999.25   58.79030    0.17640    3.56170    9.75810    0.03030    0.00400    2.65610
 1152.00000   -9999.25   -9999.25   62.36540    0.22850    3.28830    9.76650    0.03880    0.00620    2.64650
 1152.50000   -9999.25   -9999.25   70.75010    0.27310    2.98760    9.76800    0.06310    0.01220    2.61660
 1153.00000   -9999.25   -9999.25   72.47290    0.25860    2.74860    9.77720    0.08020    0.01050    2.58410
 1153.50000   -9999.25   -9999.25   66.64750    0.20990    2.65500    9.79340    0.08240    0.00270    2.57420
 1154.00000   -9999.25   -9999.25   57.99310    0.13710    2.56190    9.79810    0.07730   -0.00010    2.58140
 1154.50000   -9999.25   -9999.25   51.64270    0.10420    2.57340    9.80030    0.06630   -0.00160    2.59760
 1155.00000   -9999.25   -9999.25   50.68220    0.08740    2.68140    9.79230    0.05420    0.00110    2.61840
 1155.50000   -9999.25   -9999.25   53.57070    0.09560    2.81070    9.79560    0.05050    0.00330    2.62360
 1156.00000   -9999.25   -9999.25   58.66820    0.12920    2.88790    9.79900    0.06260    0.00170    2.60760
 1156.50000   -9999.25   -9999.25   64.08720    0.17140    2.91770    9.81020    0.07900    0.00130    2.58270
 1157.00000   -9999.25   -9999.25   70.34720    0.21130    2.94880    9.84200    0.08980    0.00710    2.56580
 1157.50000   -9999.25   -9999.25   75.34220    0.27110    2.94030    9.87910    0.09730    0.01130    2.55190
 1158.00000   -9999.25   -9999.25   75.77090    0.33450    3.00140    9.94140    0.10840    0.01260    2.53640
 1158.50000   -9999.25   -9999.25   70.28360    0.33500    3.17690   10.00880    0.11750    0.01180    2.52230
 1159.00000   -9999.25   -9999.25   58.71990    0.27980    3.49210   10.02490    0.09960    0.00870    2.54310
 1159.50000   -9999.25   -9999.25   51.37640    0.24010    3.57150   10.06250    0.06520    0.00780    2.59060
 1160.00000   -9999.25   -9999.25   52.98150    0.25480    3.42890   10.05110    0.04000    0.01720    2.64350
 1160.50000   -9999.25   -9999.25   58.91250    0.28630    3.20950    9.97940    0.05330    0.02830    2.63540
 1161.00000   -9999.25   -9999.25   67.49490    0.30740    3.05360    9.89600    0.08460    0.03090    2.56820
 1161.50000   -9999.25   -9999.25   74.74770    0.31320    2.96980    9.83210    0.10970    0.01540    2.53040
 1162.00000   -9999.25   -9999.25   77.54650    0.30680    2.89230    9.80000    0.12090   -0.00090    2.51350
 1162.50000   -9999.25   -9999.25   77.90840    0.28920    2.84060    9.78140    0.11900   -0.00600    2.51550
 1163.00000   -9999.25   -9999.25   75.57400    0.26340    2.77700    9.76490    0.11360   -0.00660    2.52310
 1163.50000   -9999.25   -9999.25   71.20540    0.23130    2.67820    9.75350    0.10950   -0.00500    2.52970
 1164.00000   -9999.25   -9999.25   64.43520    0.17860    2.60020    9.75780    0.10540   -0.00330    2.53590
 1164.50000   -9999.25   -9999.25   56.16620    0.13490    2.55340    9.76220    0.09640   -0.00200    2.55320
 1165.00000   -9999.25   -9999.25   48.45890    0.09370    2.54100    9.76650    0.07570   -0.00000    2.57970
 1165.50000   -9999.25   -9999.25   46.66530    0.08600    2.56530    9.76830    0.05410    0.00070    2.61420
 1166.00000   -9999.25   -9999.25   51.91220    0.11020    2.65170    9.76440    0.04960   -0.00020    2.62780
 1166.50000   -9999.25   -9999.25   58.80120    0.14660    2.73330    9.76040    0.05830   -0.00110    2.61510
 1167.00000   -9999.25   -9999.25   65.81500    0.17970    2.71980    9.75650    0.07660   -0.00150    2.58870
 1167.50000   -9999.25   -9999.25   69.82540    0.18470    2.70440    9.75360    0.08880   -0.00090    2.56540
 1168.00000   -9999.25   -9999.25   71.52860    0.17160    2.68040    9.74510    0.09070   -0.00170    2.56080
 1168.50000   -9999.25   -9999.25   72.10480    0.16650    2.64960    9.74450    0.09040   -0.00270    2.56020
 1169.00000   -9999.25   -9999.25   72.85370    0.17740    2.62110    9.74530    0.09080   -0.00380    2.55960
 1169.50000   -9999.25   -9999.25   74.31880    0.20030    2.61630    9.76150    0.09620   -0.00490    2.55860
 1170.00000   -9999.25   -9999.25   77.91380    0.24380    2.65670    9.76280    0.10520   -0.00690    2.54670
 1170.50000   -9999.25   -9999.25   82.43680    0.28330    2.72790    9.76120    0.11330   -0.00930    2.53410
 1171.00000   -9999.25   -9999.25   86.44290    0.29460    2.82080    9.75020    0.11860   -0.00160    2.51960
 1171.50000   -9999.25   -9999.25   86.79340    0.26300    2.89430    9.74390    0.11890    0.00120    2.51650
 1172.00000   -9999.25   -9999.25   83.32820    0.22870    2.96830    9.73870    0.11240    0.00100    2.52120
 1172.50000   -9999.25   -9999.25   77.68460    0.20830    3.00270    9.73420    0.10170    0.00000    2.53480
 1173.00000   -9999.25   -9999.25   74.66520    0.21080    2.93160    9.72970    0.09080   -0.00150    2.55090
 1173.50000   -9999.25   -9999.25   75.33970    0.22140    2.86040    9.72060    0.08570   -0.00290    2.56360
 1174.00000   -9999.25   -9999.25   76.90980    0.23590    2.80450    9.72890    0.08570   -0.00480    2.56950
 1174.50000   -9999.25   -9999.25   77.60550    0.25840    2.77520    9.74200    0.09040   -0.00520    2.56570
 1175.00000   -9999.25   -9999.25   75.45200    0.27440    2.81990    9.74000    0.09660   -0.00520    2.55650
 1175.50000   -9999.25   -9999.25   71.31120    0.26830    2.91580    9.72240    0.09620   -0.00460    2.55060
 1176.00000   -9999.25   -9999.25   65.34550    0.22770    2.98170    9.69370    0.08630   -0.00500    2.55690
 1176.50000   -9999.25   -9999.25   58.86090    0.17260    2.99670    9.66780    0.07330   -0.00430    2.57390
 1177.00000   -9999.25   -9999.25   52.14260    0.12060    2.94230    9.64470    0.06480   -0.00360    2.59320
 1177.50000   -9999.25   -9999.25   46.18070    0.08500    2.89250    9.62240    0.05970   -0.00450    2.60570
