~Version ---------------------------------------------------
VERS.   2.0 : CWLS log ASCII Standard -VERSION 2.0
WRAP.    NO : One line per depth step
DLM . SPACE : Column Data Section Delimiter
~Well ------------------------------------------------------
STRT .F                   10.0 : START DEPTH
STOP .F                 2700.0 : STOP DEPTH
STEP .F                    0.5 : STEP
NULL .                -9999.25 : NULL VALUE
COMP .                         : COMPANY
WELL .                         : WELL
FLD  .                         : FIELD
LOC  .                         : LOCATION
PROV .                         : PROVINCE
CNTY .                         : COUNTY
STAT .                         : STATE
CTRY .                         : COUNTRY
SRVC .                         : SERVICE COMPANY
DATE .                         : DATE
UWI  .                         : UNIQUE WELL ID
API  .                         : API NUMBER
SLAT .WGS84 1.2937547740626982 : SURFACE LATITUDE
SLON .WGS84 6.0420300676849905 : SURFACE LONGITUDE
DATUM.F                2709.08 : DEPTH DATUM ELEV
~Curve Information -----------------------------------------
DEPT.F     : 1 MEASURED DEPTH
DTCO.US/F  : DELTA-T COMPRESSIONAL
DTSM.US/F  : DELTA-T SHEAR
GRD .GAPI  : GAMMA RAY FROM DENSITY LOG
NPHI.DEC   : NEUTRON POROSITY
PEF .B/E   : PHOTOELECTRIC FACTOR
CALD.IN    : CALIPER FROM DENSITY LOG
DPHI.DEC   : DENSITY POROSITY
DRHO.G/C3  : BULK DENSITY CORRECTION
RHOB.G/C3  : BULK DENSITY
~Params ----------------------------------------------------
~Other -----------------------------------------------------
~ASCII -----------------------------------------------------
# ...
 2565.00000   49.63360   96.35860   16.28260    0.20230    3.27510    7.69800    0.00440    0.00090    2.70210
 2565.50000   49.64430   96.88710   16.24090    0.21980    3.18070    7.68890    0.01710    0.00060    2.68330
 2566.00000   49.68000   97.97840   16.08300    0.22400    3.07440    7.68220    0.03330   -0.00090    2.65940
 2566.50000   50.32250   99.11450   15.40010    0.22130    3.00160    7.67940    0.04340   -0.00130    2.63860
 2567.00000   51.28970   99.60260   14.77080    0.22150    2.97530    7.67940    0.04770   -0.00240    2.62970
 2567.50000   52.55410  100.11840   14.11320    0.22890    2.95220    7.68520    0.05270   -0.00360    2.62260
 2568.00000   53.81850  101.17840   14.01600    0.23730    2.93790    7.69010    0.06090   -0.00270    2.61550
 2568.50000   54.17670  102.22890   14.56680    0.24080    2.97340    7.68110    0.06260   -0.00000    2.60600
 2569.00000   54.78210  102.55100   14.80610    0.24490    2.98170    7.65570    0.06300    0.00110    2.60600
 2569.50000   55.10910  102.49510   14.89690    0.25000    3.02180    7.62900    0.06200    0.00060    2.60670
 2570.00000   55.25460  101.52110   14.90430    0.25130    3.10650    7.61490    0.06240   -0.00100    2.60850
 2570.50000   55.38440  100.36710   14.79590    0.24750    3.18650    7.60360    0.06450   -0.00250    2.60770
 2571.00000   55.03240   99.74680   14.04630    0.23950    3.23210    7.60040    0.06440   -0.00370    2.60470
 2571.50000   54.71830   99.89900   12.58860    0.23080    3.26930    7.59450    0.06050   -0.00340    2.60540
 2572.00000   54.51670   99.44520   12.08680    0.22210    3.30030    7.59360    0.05370   -0.00230    2.61880
 2572.50000   54.41930   97.89920   11.88310    0.21080    3.27950    7.58390    0.04330    0.00030    2.63320
 2573.00000   54.38240   97.65580   11.85480    0.19410    3.36140    7.57560    0.03090    0.00480    2.64790
 2573.50000   54.06510   97.41240   11.82650    0.18420    3.47090    7.57590    0.01940    0.00610    2.67130
 2574.00000   53.64700   96.97990   11.70250    0.18280    3.52450    7.57510    0.01260    0.00490    2.68500
 2574.50000   53.22890   96.68060   11.57430    0.18200    3.52250    7.56960    0.01230    0.00350    2.68680
 2575.00000   52.12850   96.83600   11.36870    0.17280    3.42180    7.55700    0.01370    0.00180    2.68680
 2575.50000   51.90500   96.01300   11.14440    0.15650    3.31530    7.54410    0.00810    0.00070    2.68680
 2576.00000   51.57430   95.03860   11.19860    0.14960    3.32380    7.53950   -0.00580    0.00160    2.71480
 2576.50000   51.24350   94.31720   11.24280    0.15580    3.35660    7.56990   -0.02010    0.00470    2.74500
 2577.00000   50.56790   94.40060   11.12860    0.16940    3.38110    7.55440   -0.02190    0.00590    2.74790
 2577.50000   50.34160   94.76530   10.87810    0.18390    3.28120    7.55190   -0.01520    0.00540    2.73790
 2578.00000   50.31460   95.51850   10.87590    0.20700    3.13330    7.54640   -0.00440    0.00530    2.71780
 2578.50000   50.40290   96.30840   11.59490    0.22920    3.04090    7.54460    0.00740    0.00600    2.69760
 2579.00000   50.75480   97.16810   12.55480    0.25530    3.05590    7.54480    0.02270    0.00620    2.67000
 2579.50000   51.18700   97.96270   12.78140    0.27020    3.10300    7.54610    0.04090    0.00140    2.64240
 2580.00000   52.12070   98.74380   12.64870    0.27190    3.15360    7.54680    0.05520   -0.00470    2.61230
 2580.50000   53.16600   99.54010   12.61860    0.26740    3.22420    7.54880    0.06220   -0.01090    2.60780
 2581.00000   54.02330  100.33650   12.55390    0.25290    3.29890    7.55370    0.05880   -0.01030    2.61200
 2581.50000   54.04590  100.86500   12.31160    0.24180    3.31250    7.55300    0.05060   -0.00790    2.62090
 2582.00000   53.74980  100.44000   11.69320    0.23710    3.27400    7.55000    0.04580   -0.00770    2.63480
 2582.50000   53.22820  100.01500   10.53540    0.23330    3.26630    7.54900    0.04440   -0.00940    2.63490
 2583.00000   53.54220   99.59000    9.65670    0.22790    3.30700    7.55000    0.04410   -0.01000    2.63600
 2583.50000   54.06250   98.23540    9.47970    0.21880    3.39280    7.54940    0.04020   -0.00640    2.64120
 2584.00000   53.61720   97.99680    9.98350    0.21370    3.45760    7.53090    0.03230   -0.00410    2.65140
 2584.50000   53.15000   97.36610   11.03840    0.21280    3.51650    7.52510    0.02240   -0.00220    2.66940
 2585.00000   52.85910   97.06580   11.80300    0.21650    3.51730    7.52320    0.01500   -0.00070    2.68680
 2585.50000   52.25600   97.12220   12.14020    0.21720    3.49530    7.52700    0.01340    0.00120    2.68680
 2586.00000   51.65290   97.31280   12.41930    0.21550    3.45480    7.53090    0.01730    0.00390    2.68190
 2586.50000   51.68670   97.44260   12.50050    0.21350    3.42810    7.53410    0.02220    0.00350    2.67410
 2587.00000   52.15080   96.93420   12.51860    0.21300    3.43820    7.53560    0.02390    0.00140    2.67030
 2587.50000   52.61180   97.06580   12.60570    0.20860    3.44320    7.53710    0.02210   -0.00090    2.67300
 2588.00000   53.04490   97.26770   12.82280    0.19130    3.44120    7.52720    0.01590   -0.00060    2.68430
 2588.50000   52.88030   96.64530   13.02970    0.16980    3.44700    7.51660    0.00440    0.00020    2.69580
 2589.00000   52.55100   96.22050   13.00690    0.13770    3.47920    7.51130   -0.00980   -0.00050    2.72620
 2589.50000   52.03820   95.15620   13.19310    0.10500    3.52630    7.51810   -0.02470   -0.00080    2.75690
 2590.00000   50.22950   92.71620   14.77520    0.09170    3.55990    7.51800   -0.04400   -0.00070    2.78750
 2590.50000   48.91010   91.34140   17.50480    0.09830    3.57410    7.51780   -0.05870   -0.00010    2.80370
 2591.00000   48.82570   92.18020   22.28680    0.11660    3.46320    7.51760   -0.05620    0.00170    2.79870
 2591.50000   48.80360   93.83700   27.24670    0.13460    3.25270    7.51750   -0.04430    0.00230    2.77300
 2592.00000   49.42690   96.00340   31.33770    0.15020    3.12660    7.51730   -0.02450    0.00400    2.74730
 2592.50000   50.11940   97.66370   33.93320    0.15920    3.06410    7.51710   -0.01130    0.00720    2.72170
 2593.00000   51.53620   99.22150   34.42020    0.16240    3.07480    7.51690   -0.00210    0.00900    2.70880
 2593.50000   52.97720  100.77930   32.80480    0.16320    3.11130    7.51670    0.00660    0.00720    2.69670
 2594.00000   54.11470  101.15280   30.40270    0.16330    3.15940    7.51660    0.01470    0.00300    2.68690
 2594.50000   54.33350  100.32240   29.53520    0.16160    3.20550    7.51640    0.01700   -0.00070    2.68260
 2595.00000   54.64270   98.67030   30.39810    0.15680    3.20090    7.51620    0.01700   -0.00050    2.68230
 2595.50000   54.77240   98.36460   33.05950    0.14940    3.18560    7.51600    0.01450    0.00030    2.68550
 2596.00000   53.42150   97.90330   36.63220    0.14610    3.17580    7.51700    0.00940    0.00100    2.69380
 2596.50000   52.30430   97.10120   38.57700    0.14610    3.13620    7.51900    0.00280    0.00240    2.70220
 2597.00000   52.70810   96.29910   37.42220    0.15390    3.00080    7.52090    0.00080    0.00530    2.70500
 2597.50000   53.64270   96.12990   33.89660    0.16120    2.85460    7.52290    0.00520    0.00240    2.70090
 2598.00000   54.69170   98.83920   29.11650    0.16660    2.79860    7.52480    0.01100    0.00050    2.69300
 2598.50000   54.78120  102.30360   24.66390    0.16850    2.86110    7.52680    0.01310   -0.00080    2.68520
 2599.00000   54.78230  102.51470   21.22750    0.17180    3.01290    7.52880    0.01510   -0.00100    2.68440
 2599.50000   54.63720  101.71900   19.39460    0.17520    3.14980    7.53070    0.01980   -0.00130    2.67970
 2600.00000   54.28160   99.99820   19.80720    0.17150    3.17420    7.53270    0.02650   -0.00520    2.66840
 2600.50000   53.92600   98.27740   26.68350    0.16650    3.18060    7.53460    0.02390   -0.00880    2.66880
 2601.00000   51.84250   96.76840   31.81060    0.16080    3.15580    7.53660    0.01780   -0.00690    2.66990
