~Version ---------------------------------------------------
VERS.   2.0 : CWLS log ASCII Standard -VERSION 2.0
WRAP.    NO : One line per depth step
DLM . SPACE : Column Data Section Delimiter
~Well ------------------------------------------------------
STRT .F                   10.0 : START DEPTH
STOP .F                 2700.0 : STOP DEPTH
STEP .F                    0.5 : STEP
NULL .                -9999.25 : NULL VALUE
COMP .                         : COMPANY
WELL .                         : WELL
FLD  .                         : FIELD
LOC  .                         : LOCATION
PROV .                         : PROVINCE
CNTY .                         : COUNTY
STAT .                         : STATE
CTRY .                         : COUNTRY
SRVC .                         : SERVICE COMPANY
DATE .                         : DATE
UWI  .                         : UNIQUE WELL ID
API  .                         : API NUMBER
SLAT .WGS84 1.2937547740626982 : SURFACE LATITUDE
SLON .WGS84 6.0420300676849905 : SURFACE LONGITUDE
DATUM.F                2709.08 : DEPTH DATUM ELEV
~Curve Information -----------------------------------------
DEPT.F     : 1 MEASURED DEPTH
DTCO.US/F  : DELTA-T COMPRESSIONAL
DTSM.US/F  : DELTA-T SHEAR
GRD .GAPI  : GAMMA RAY FROM DENSITY LOG
NPHI.DEC   : NEUTRON POROSITY
PEF .B/E   : PHOTOELECTRIC FACTOR
CALD.IN    : CALIPER FROM DENSITY LOG
DPHI.DEC   : DENSITY POROSITY
DRHO.G/C3  : BULK DENSITY CORRECTION
RHOB.G/C3  : BULK DENSITY
~Params ----------------------------------------------------
~Other -----------------------------------------------------
~ASCII -----------------------------------------------------
# ...
 1360.50000   -9999.25   -9999.25   16.16980    0.50180    1.16640   21.86080    0.50140   -0.00010    1.17080
 1361.00000   -9999.25   -9999.25   18.86770    0.49860    1.29560   21.98900    0.50140   -0.00470    1.16710
 1361.50000   -9999.25   -9999.25   27.67660    0.44750    1.61570   22.01200    0.50140   -0.00810    1.30840
 1362.00000   -9999.25   -9999.25   37.51820    0.37080    2.19750   19.89980    0.50140   -0.00330    1.54600
 1362.50000   -9999.25   -9999.25   47.38730    0.33880    2.71880   16.84330    0.49800    0.01980    2.02670
 1363.00000   -9999.25   -9999.25   54.25170    0.33430    2.91750   13.48780    0.33950    0.04250    2.13730
 1363.50000   -9999.25   -9999.25   58.25930    0.33650    2.97320   12.77760    0.25290    0.05090    2.24340
 1364.00000   -9999.25   -9999.25   60.73510    0.33870    2.97380   12.54200    0.21970    0.03890    2.33820
 1364.50000   -9999.25   -9999.25   62.49530    0.34120    2.96650   12.45650    0.20960    0.02050    2.36440
 1365.00000   -9999.25   -9999.25   63.44370    0.34930    2.85440   12.38510    0.21160    0.01330    2.36950
 1365.50000   -9999.25   -9999.25   61.73720    0.36690    2.72590   12.34470    0.22160    0.01580    2.35980
 1366.00000   -9999.25   -9999.25   54.92660    0.38120    2.56420   12.53360    0.26230    0.01450    2.29940
 1366.50000   -9999.25   -9999.25   45.75710    0.36480    2.34590   12.88170    0.35190    0.01320    2.19650
 1367.00000   -9999.25   -9999.25   42.42210    0.33840    2.30790   13.39190    0.42220    0.02000    2.05240
 1367.50000   -9999.25   -9999.25   44.04370    0.30840    2.43740   13.67440    0.43590    0.02890    2.01140
 1368.00000   -9999.25   -9999.25   48.80530    0.29140    2.59370   13.47500    0.40180    0.02570    2.01230
 1368.50000   -9999.25   -9999.25   52.73170    0.28910    2.67790   13.14970    0.35320    0.01980    2.11970
 1369.00000   -9999.25   -9999.25   52.57170    0.31180    2.74760   12.91880    0.28840    0.02360    2.20210
 1369.50000   -9999.25   -9999.25   48.98780    0.33450    2.80810   12.77820    0.26900    0.02810    2.27080
 1370.00000   -9999.25   -9999.25   42.80820    0.39700    2.69640   12.77970    0.28140    0.02530    2.27270
 1370.50000   -9999.25   -9999.25   39.02900    0.44460    2.44910   12.85400    0.34850    0.01700    2.13160
 1371.00000   -9999.25   -9999.25   39.09750    0.42660    2.27630   13.29230    0.44780    0.01710    1.99050
 1371.50000   -9999.25   -9999.25   43.61410    0.36810    2.30280   13.64720    0.46410    0.02390    1.98940
 1372.00000   -9999.25   -9999.25   49.06720    0.33540    2.40090   13.41360    0.41460    0.03310    2.07690
 1372.50000   -9999.25   -9999.25   53.34890    0.35140    2.46250   13.11940    0.33530    0.04030    2.20610
 1373.00000   -9999.25   -9999.25   51.34380    0.36850    2.39550   13.18210    0.27370    0.03140    2.24830
 1373.50000   -9999.25   -9999.25   44.93700    0.38230    2.22680   13.63390    0.34960    0.01660    2.26050
 1374.00000   -9999.25   -9999.25   36.43670    0.39520    1.98900   15.91860    0.42550    0.00220    2.03900
 1374.50000   -9999.25   -9999.25   31.65180    0.39190    1.89360   18.44440    0.49410   -0.00560    1.85880
 1375.00000   -9999.25   -9999.25   29.77600    0.36650    1.94030   20.69220    0.50180   -0.00370    1.67860
 1375.50000   -9999.25   -9999.25   31.40270    0.32940    2.08500   19.75910    0.50180    0.00450    1.67310
 1376.00000   -9999.25   -9999.25   37.64650    0.29140    2.33150   15.67320    0.50180    0.02460    1.67680
 1376.50000   -9999.25   -9999.25   44.14600    0.27040    2.54790   14.45290    0.43140    0.04070    1.83690
 1377.00000   -9999.25   -9999.25   49.31980    0.25800    2.85670   13.33310    0.36520    0.03420    2.09010
 1377.50000   -9999.25   -9999.25   51.90660    0.26500    3.04680   12.75130    0.29240    0.01850    2.19420
 1378.00000   -9999.25   -9999.25   54.35990    0.27070    3.10270   12.47820    0.25130    0.00630    2.27060
 1378.50000   -9999.25   -9999.25   57.29540    0.26560    3.07630   12.37110    0.22560    0.00980    2.31910
 1379.00000   -9999.25   -9999.25   60.27400    0.26900    3.01500   12.31010    0.21340    0.02310    2.35190
 1379.50000   -9999.25   -9999.25   61.51680    0.28180    2.94120   12.29740    0.20680    0.03430    2.36600
 1380.00000   -9999.25   -9999.25   62.24850    0.29180    2.95200   12.27960    0.20890    0.02990    2.37750
 1380.50000   -9999.25   -9999.25   62.64760    0.30190    3.02930   12.25550    0.21320    0.02390    2.37480
 1381.00000   -9999.25   -9999.25   62.27490    0.29480    3.00110   12.22070    0.22090    0.01190    2.35800
 1381.50000   -9999.25   -9999.25   61.69640    0.29970    2.83460   12.21380    0.23650    0.00100    2.34200
 1382.00000   -9999.25   -9999.25   60.98610    0.32100    2.65650   12.34840    0.25120    0.00260    2.30930
 1382.50000   -9999.25   -9999.25   59.58400    0.33290    2.58620   12.72210    0.25650    0.00670    2.29250
 1383.00000   -9999.25   -9999.25   57.43210    0.33190    2.70170   13.24130    0.24240    0.01120    2.30180
 1383.50000   -9999.25   -9999.25   55.49920    0.33630    2.83140   13.23250    0.22830    0.01140    2.33370
 1384.00000   -9999.25   -9999.25   54.46890    0.34420    2.77760   12.75980    0.24600    0.01880    2.34490
 1384.50000   -9999.25   -9999.25   53.48570    0.34340    2.58970   12.37490    0.28610    0.04750    2.27090
 1385.00000   -9999.25   -9999.25   54.02440    0.32920    2.50300   12.30560    0.33500    0.06930    2.19410
 1385.50000   -9999.25   -9999.25   56.26520    0.30720    2.67980   12.30780    0.33630    0.05970    2.16570
 1386.00000   -9999.25   -9999.25   60.01700    0.29550    2.88630   12.25820    0.29610    0.02830    2.20280
 1386.50000   -9999.25   -9999.25   61.50790    0.27320    3.00720   12.19430    0.25880   -0.00320    2.27600
 1387.00000   -9999.25   -9999.25   62.20060    0.29180    2.86760   12.17730    0.27880   -0.01310    2.29030
 1387.50000   -9999.25   -9999.25   62.86990    0.34270    2.59990   12.20760    0.37290   -0.01770    2.00520
 1388.00000   -9999.25   -9999.25   65.00740    0.38060    2.42800   12.27610    0.45960   -0.01590    2.00460
 1388.50000   -9999.25   -9999.25   67.25410    0.38680    2.34510   12.38600    0.43970    0.01110    2.00720
 1389.00000   -9999.25   -9999.25   67.06420    0.37140    2.49800   12.47600    0.33890    0.02960    2.18710
 1389.50000   -9999.25   -9999.25   64.28680    0.34670    2.68880   12.48700    0.25100    0.03350    2.26890
 1390.00000   -9999.25   -9999.25   62.14820    0.33210    2.87870   12.51880    0.20370    0.01640    2.35070
 1390.50000   -9999.25   -9999.25   60.51750    0.32340    2.99190   12.60040    0.18080    0.00050    2.41580
 1391.00000   -9999.25   -9999.25   57.05510    0.30860    2.92960   12.98370    0.19380   -0.00490    2.41290
 1391.50000   -9999.25   -9999.25   49.34040    0.30230    2.82030   13.88310    0.24310   -0.01100    2.38100
 1392.00000   -9999.25   -9999.25   39.69960    0.31300    2.51150   15.36710    0.28570   -0.01430    2.16300
 1392.50000   -9999.25   -9999.25   29.69410    0.32880    2.28330   17.63730    0.47020   -0.00850    2.06190
 1393.00000   -9999.25   -9999.25   21.21870    0.34390    2.23500   19.17260    0.50010    0.00250    1.96080
 1393.50000   -9999.25   -9999.25   16.01060    0.36260    2.29150   18.66670    0.49700    0.00990    1.87020
 1394.00000   -9999.25   -9999.25   13.93120    0.40560    2.25070   17.51500    0.45420    0.00560    1.85290
 1394.50000   -9999.25   -9999.25   13.18050    0.48320    1.96440   15.93350    0.48110   -0.00190    1.94400
 1395.00000   -9999.25   -9999.25   12.70130    0.50070    1.83870   15.94500    0.50150   -0.00810    1.98500
 1395.50000   -9999.25   -9999.25   12.56660    0.50090    1.88410   15.97980    0.50150   -0.00360    1.72800
 1396.00000   -9999.25   -9999.25   12.50260    0.50100    1.96420   17.56290    0.50160    0.00110    1.62590
 1396.50000   -9999.25   -9999.25   11.99230    0.50110    1.53570   18.46350    0.50160    0.00350    1.52370
