~Version ---------------------------------------------------
VERS.   2.0 : CWLS log ASCII Standard -VERSION 2.0
WRAP.    NO : One line per depth step
DLM . SPACE : Column Data Section Delimiter
~Well ------------------------------------------------------
STRT .F                   10.0 : START DEPTH
STOP .F                 2700.0 : STOP DEPTH
STEP .F                    0.5 : STEP
NULL .                -9999.25 : NULL VALUE
COMP .                         : COMPANY
WELL .                         : WELL
FLD  .                         : FIELD
LOC  .                         : LOCATION
PROV .                         : PROVINCE
CNTY .                         : COUNTY
STAT .                         : STATE
CTRY .                         : COUNTRY
SRVC .                         : SERVICE COMPANY
DATE .                         : DATE
UWI  .                         : UNIQUE WELL ID
API  .                         : API NUMBER
SLAT .WGS84 1.2937547740626982 : SURFACE LATITUDE
SLON .WGS84 6.0420300676849905 : SURFACE LONGITUDE
DATUM.F                2709.08 : DEPTH DATUM ELEV
~Curve Information -----------------------------------------
DEPT.F     : 1 MEASURED DEPTH
DTCO.US/F  : DELTA-T COMPRESSIONAL
DTSM.US/F  : DELTA-T SHEAR
GRD .GAPI  : GAMMA RAY FROM DENSITY LOG
NPHI.DEC   : NEUTRON POROSITY
PEF .B/E   : PHOTOELECTRIC FACTOR
CALD.IN    : CALIPER FROM DENSITY LOG
DPHI.DEC   : DENSITY POROSITY
DRHO.G/C3  : BULK DENSITY CORRECTION
RHOB.G/C3  : BULK DENSITY
~Params ----------------------------------------------------
~Other -----------------------------------------------------
~ASCII -----------------------------------------------------
# ...
 1944.50000   55.63220   85.56390   59.93750    0.19100    2.95820   10.22840    0.08140    0.00430    2.57580
 1945.00000   55.57680   85.42220   62.03150    0.19840    3.04020   10.14410    0.07890    0.00260    2.58070
 1945.50000   55.45690   85.11610   64.12200    0.19980    3.14010   10.05640    0.07450    0.00460    2.58560
 1946.00000   55.22000   85.02020   64.39920    0.20470    3.15260    9.96860    0.07080    0.00020    2.59050
 1946.50000   55.04200   85.12970   63.78850    0.20910    3.11710    9.88090    0.06820    0.00350    2.59540
 1947.00000   55.37710   85.74100   60.84230    0.20520    3.12640    9.80880    0.06650    0.00080    2.60160
 1947.50000   55.71230   85.96190   55.45470    0.18060    3.29420    9.74490    0.05860   -0.00030    2.62050
 1948.00000   55.86020   85.92670   44.93690    0.13910    3.88710    9.68110    0.03470    0.00020    2.64030
 1948.50000   55.85640   84.85500   34.10840    0.10000    4.30820    9.65550    0.01190   -0.00010    2.66940
 1949.00000   55.85260   84.31130   26.76650    0.09390    4.35930    9.64020    0.00850    0.00100    2.69550
 1949.50000   55.81400   86.60150   23.73920    0.09360    4.03190    9.62010    0.02900    0.00450    2.68310
 1950.00000   55.63350   90.90810   20.36080    0.08840    3.93490    9.56970    0.05620    0.01620    2.65920
 1950.50000   55.45300   96.08980   15.98850    0.04350    4.12730    9.48800    0.04440    0.02940    2.63890
 1951.00000   55.32030   99.27110   11.15890    0.01990    4.53980    9.38250   -0.00140    0.02330    2.65100
 1951.50000   55.28610  101.10990    7.09430    0.00840    4.82180    9.33070   -0.06030    0.01020    2.75540
 1952.00000   54.90600  101.21310    5.06800   -0.00090    4.89340    9.26480   -0.09460    0.00420    2.83470
 1952.50000   54.79100  100.35480    3.54830   -0.00460    4.94440    9.20390   -0.13410    0.00150    2.89810
 1953.00000   54.79100   98.39150    2.77070   -0.00610    4.98530    9.16600   -0.14890    0.00120    2.94040
 1953.50000   54.79100   95.67830    2.51580   -0.00530    5.02240    9.15030   -0.15330    0.00500    2.95520
 1954.00000   54.79290   94.61440    2.42690   -0.00450    5.06490    9.14970   -0.15550    0.00860    2.95930
 1954.50000   54.80640   94.46130    2.30770   -0.00500    5.07370    9.13650   -0.15800    0.01040    2.96410
 1955.00000   55.29980   94.21400    2.35840   -0.00650    5.11190    9.13910   -0.16330    0.00790    2.97070
 1955.50000   55.62900   93.95770    2.43750   -0.00740    5.14180    9.13220   -0.16640    0.00430    2.97740
 1956.00000   55.63780   93.73210    2.53210   -0.00770    5.11100    9.13200   -0.16640    0.00040    2.97470
 1956.50000   55.53710   93.76050    2.78710   -0.00800    5.05030    9.13790   -0.16600   -0.00190    2.97780
 1957.00000   55.39830   93.83520    2.83650   -0.00820    4.94090    9.14350   -0.16750   -0.00180    2.98190
 1957.50000   55.81310   93.91000    2.69050   -0.00840    4.75180    9.15330   -0.16980   -0.00040    2.98500
 1958.00000   55.85850   93.43440    2.62770   -0.00780    4.59730    9.16440   -0.16950    0.00110    2.98290
 1958.50000   55.86550   91.82150    2.90530   -0.00700    4.56360    9.18690   -0.16810    0.00250    2.98090
 1959.00000   55.86880   89.41320    4.67250   -0.00360    4.69150    9.21790   -0.16600    0.00390    2.97680
 1959.50000   55.87200   87.80270    8.87390    0.00210    4.62520    9.24910   -0.15650    0.00440    2.96810
 1960.00000   55.82870   86.87670   17.42610    0.01510    4.10230    9.30360   -0.09820    0.00440    2.94250
 1960.50000   55.75560   84.60580   25.73680    0.03130    3.52270    9.36860   -0.07080    0.00440    2.84400
 1961.00000   55.36150   83.84600   32.55860    0.04740    3.15630    9.45710   -0.02100    0.00360    2.75960
 1961.50000   54.81950   83.50070   34.11910    0.05230    2.96730    9.54880    0.01760    0.00220    2.70110
 1962.00000   54.81690   83.45480   33.44690    0.04730    2.92420    9.63790    0.03340    0.00080    2.66380
 1962.50000   54.84380   83.43390   32.85330    0.05030    2.88510    9.70490    0.03900   -0.00070    2.64100
 1963.00000   54.87070   83.39850   37.29210    0.08510    2.77570    9.81550    0.05350   -0.00260    2.61270
 1963.50000   54.89760   83.36700   47.56900    0.13910    2.64930    9.91040    0.08230   -0.00500    2.58380
 1964.00000   54.92460   83.39940   60.98480    0.20020    2.56020   10.00480    0.12380   -0.00530    2.55090
 1964.50000   54.95150   83.34760   66.78470    0.23990    2.52560   10.09920    0.16090   -0.00280    2.45180
 1965.00000   54.97840   83.48480   72.17440    0.26030    2.50760   10.18460    0.17780    0.00000    2.41870
 1965.50000   55.00540   83.85740   74.63440    0.26120    2.52770   10.27400    0.17990    0.00330    2.41280
 1966.00000   55.11650   84.04670   74.99870    0.25340    2.56960   10.34710    0.17000    0.00550    2.41880
 1966.50000   55.39370   83.97180   74.81820    0.24220    2.67830   10.41720    0.15540    0.00420    2.44420
 1967.00000   54.94220   83.83250   74.33360    0.23180    2.65200   10.49680    0.14060    0.00180    2.46950
 1967.50000   55.16890   83.70870   72.26880    0.22950    2.52900   10.57130    0.14000    0.00020    2.48590
 1968.00000   55.04640   83.61340   67.06860    0.23190    2.41800   10.64900    0.15370    0.00000    2.46380
 1968.50000   54.63510   83.25340   60.43350    0.23380    2.36070   10.72910    0.17640    0.00020    2.43640
 1969.00000   54.61150   83.25450   54.05650    0.22630    2.36570   10.81670    0.19230    0.00120    2.40890
 1969.50000   54.76270   83.74560   50.25630    0.19380    2.41460   10.90530    0.19100    0.00250    2.39070
 1970.00000   55.29870   84.02640   48.25390    0.14410    2.53000   10.98140    0.15950    0.00170    2.41100
 1970.50000   55.66140   84.29710   48.08330    0.11690    2.67710   11.05850    0.12370   -0.00090    2.47490
 1971.00000   55.63660   84.46320   49.46920    0.11870    2.75040   11.13010    0.08860   -0.00400    2.53870
 1971.50000   55.36410   83.57810   52.61160    0.13930    2.73580   11.19070    0.07890   -0.00360    2.57710
 1972.00000   54.70020   83.21720   56.69380    0.16140    2.68920   11.25920    0.08890   -0.00370    2.57640
 1972.50000   54.45040   83.12440   59.83910    0.17430    2.60470   11.33170    0.10150   -0.00480    2.55920
 1973.00000   54.60670   83.49920   59.86390    0.18000    2.56940   11.41690    0.10680   -0.00690    2.54190
 1973.50000   54.93530   84.53370   59.67080    0.18560    2.55490   11.47460    0.10870   -0.00420    2.53400
 1974.00000   55.03410   84.94120   61.13290    0.19920    2.51010   11.53920    0.11870    0.00030    2.52670
 1974.50000   54.91540   84.95320   64.82080    0.22160    2.46830   11.61520    0.13880    0.00400    2.49750
 1975.00000   55.04420   84.96190   65.97080    0.23080    2.45490   11.71790    0.16090    0.00490    2.46860
 1975.50000   55.68890   84.93950   61.79510    0.22360    2.49860   11.81070    0.17250    0.00140    2.44820
 1976.00000   55.77180   84.71000   53.62640    0.21380    2.52050   11.86930    0.17070   -0.00230    2.43120
 1976.50000   55.73970   84.08920   46.07670    0.20760    2.51340   11.92430    0.16420   -0.00480    2.43410
 1977.00000   55.33550   83.62430   43.12570    0.19820    2.46690   11.97470    0.15900   -0.00590    2.44450
 1977.50000   54.81890   83.41250   42.87840    0.18710    2.39100   12.03450    0.15850   -0.00590    2.45490
 1978.00000   54.81520   83.53390   43.58880    0.19070    2.33200   12.13710    0.16210   -0.00170    2.45270
 1978.50000   54.77620   82.83760   43.78250    0.20860    2.27380   12.15010    0.17430    0.00180    2.44150
 1979.00000   54.78660   81.42010   42.16650    0.24020    2.20060   12.20400    0.19190    0.00450    2.42830
 1979.50000   54.79690   80.00270   40.44910    0.26940    2.19830   12.23030    0.20950    0.00530    2.39150
 1980.00000   54.89850   80.52930   39.29910    0.28840    2.15720   12.23100    0.22510    0.00730    2.35470
 1980.50000   55.05640   83.91440   38.96900    0.30340    2.17980   12.21400    0.24420    0.00750    2.31790
