~Version ---------------------------------------------------
VERS.   2.0 : CWLS log ASCII Standard -VERSION 2.0
WRAP.    NO : One line per depth step
DLM . SPACE : Column Data Section Delimiter
~Well ------------------------------------------------------
STRT .F                   10.0 : START DEPTH
STOP .F                 2700.0 : STOP DEPTH
STEP .F                    0.5 : STEP
NULL .                -9999.25 : NULL VALUE
COMP .                         : COMPANY
WELL .                         : WELL
FLD  .                         : FIELD
LOC  .                         : LOCATION
PROV .                         : PROVINCE
CNTY .                         : COUNTY
STAT .                         : STATE
CTRY .                         : COUNTRY
SRVC .                         : SERVICE COMPANY
DATE .                         : DATE
UWI  .                         : UNIQUE WELL ID
API  .                         : API NUMBER
SLAT .WGS84 1.2937547740626982 : SURFACE LATITUDE
SLON .WGS84 6.0420300676849905 : SURFACE LONGITUDE
DATUM.F                2709.08 : DEPTH DATUM ELEV
~Curve Information -----------------------------------------
DEPT.F     : 1 MEASURED DEPTH
DTCO.US/F  : DELTA-T COMPRESSIONAL
DTSM.US/F  : DELTA-T SHEAR
GRD .GAPI  : GAMMA RAY FROM DENSITY LOG
NPHI.DEC   : NEUTRON POROSITY
PEF .B/E   : PHOTOELECTRIC FACTOR
CALD.IN    : CALIPER FROM DENSITY LOG
DPHI.DEC   : DENSITY POROSITY
DRHO.G/C3  : BULK DENSITY CORRECTION
RHOB.G/C3  : BULK DENSITY
~Params ----------------------------------------------------
~Other -----------------------------------------------------
~ASCII -----------------------------------------------------
# ...
 1725.50000   -9999.25   -9999.25   13.83080    0.46170    1.31530   21.85360    0.50100   -0.00060    1.15520
 1726.00000   -9999.25   -9999.25   20.55790    0.40530    1.71800   21.55950    0.50100   -0.00870    1.25230
 1726.50000   -9999.25   -9999.25   27.47870    0.36560    2.19940   20.88330    0.50110   -0.01340    1.57520
 1727.00000   -9999.25   -9999.25   30.12010    0.41870    2.18020   18.59710    0.50110   -0.00910    1.83640
 1727.50000   -9999.25   -9999.25   26.61460    0.49030    1.83630   16.92110    0.50110   -0.00230    1.83270
 1728.00000   -9999.25   -9999.25   20.67630    0.50070    1.41980   18.27230    0.50110    0.00460    1.68900
 1728.50000   -9999.25   -9999.25   15.44730    0.50130    1.14840   19.89020    0.50110    0.00820    1.52070
 1729.00000   -9999.25   -9999.25   12.18580    0.50130    1.02090   21.50180    0.50110    0.00770    1.33840
 1729.50000   -9999.25   -9999.25   11.01710    0.50130    1.03800   22.00810    0.50110    0.00690    1.23790
 1730.00000   -9999.25   -9999.25   11.53800    0.50130    1.15390   22.07970    0.50110    0.00630    1.22750
 1730.50000   -9999.25   -9999.25   12.79530    0.50090    1.28690   22.09540    0.50110    0.00550    1.22880
 1731.00000   -9999.25   -9999.25   15.41290    0.50030    1.41980   21.99760    0.50120    0.00210    1.26530
 1731.50000   -9999.25   -9999.25   19.10950    0.48870    1.51100   21.69190    0.50120   -0.00140    1.34470
 1732.00000   -9999.25   -9999.25   20.20420    0.49960    1.42850   20.34350    0.50120   -0.00480    1.45650
 1732.50000   -9999.25   -9999.25   18.58760    0.50230    1.22710   18.64950    0.50120   -0.00670    1.45550
 1733.00000   -9999.25   -9999.25   14.63520    0.50230    1.05490   18.36790    0.50120   -0.00790    1.32110
 1733.50000   -9999.25   -9999.25   11.23690    0.50230    1.04040   19.17250    0.50120   -0.00590    1.23470
 1734.00000   -9999.25   -9999.25   10.64070    0.50230    1.17110   19.96360    0.50120   -0.00170    1.20070
 1734.50000   -9999.25   -9999.25   11.51240    0.50240    1.32060   19.98590    0.50120    0.00590    1.20970
 1735.00000   -9999.25   -9999.25   13.84870    0.50240    1.51320   19.20620    0.50120    0.00990    1.29090
 1735.50000   -9999.25   -9999.25   19.23550    0.43550    1.80570   18.52280    0.50120    0.00900    1.38870
 1736.00000   -9999.25   -9999.25   26.70660    0.32960    2.20430   18.17260    0.50130    0.00780    1.61690
 1736.50000   -9999.25   -9999.25   40.02620    0.27670    2.53230   16.13420    0.48270    0.01720    1.98320
 1737.00000   -9999.25   -9999.25   47.34680    0.23530    2.76900   15.84660    0.33440    0.02590    2.10750
 1737.50000   -9999.25   -9999.25   50.33300    0.20940    2.76900   15.35280    0.26090    0.01570    2.26380
 1738.00000   -9999.25   -9999.25   48.69370    0.20130    2.75050   14.96450    0.23370    0.00760    2.33670
 1738.50000   -9999.25   -9999.25   44.37440    0.20830    2.75380   15.95560    0.22160    0.01530    2.34790
 1739.00000   -9999.25   -9999.25   37.97600    0.18020    2.77980   16.00970    0.21450    0.04250    2.35910
 1739.50000   -9999.25   -9999.25   30.26290    0.11670    3.01700   16.00970    0.20520    0.06710    2.37790
 1740.00000   -9999.25   -9999.25   20.45280    0.04970    3.42460   15.89420    0.19570    0.06520    2.40360
 1740.50000   -9999.25   -9999.25   12.12870    0.00390    3.94300   14.77230    0.18400    0.04380    2.41830
 1741.00000   -9999.25   -9999.25    6.50250   -0.00900    4.25100   14.31090    0.17310    0.02370    2.42520
 1741.50000   -9999.25   -9999.25    3.49160   -0.01190    4.19220   14.16400    0.17100    0.01610    2.42770
 1742.00000   -9999.25   -9999.25    2.45930   -0.01140    4.00650   14.10020    0.17360    0.01290    2.42930
 1742.50000   -9999.25   -9999.25    1.77820   -0.00890    3.92940   14.03450    0.17230    0.01230    2.43040
 1743.00000   -9999.25   -9999.25    4.03570    0.00020    3.97360   13.94310    0.15730    0.01400    2.46350
 1743.50000   -9999.25   -9999.25    9.55550    0.02400    3.88770   13.83140    0.13490    0.02340    2.50170
 1744.00000   -9999.25   -9999.25   19.62640    0.07170    3.55240   13.72980    0.12360    0.03870    2.50470
 1744.50000   -9999.25   -9999.25   32.24870    0.10980    3.16100   13.66800    0.13880    0.04720    2.47970
 1745.00000   -9999.25   -9999.25   41.49160    0.11930    2.97510   13.71170    0.17550    0.04160    2.40140
 1745.50000   -9999.25   -9999.25   45.82300    0.10890    2.87700   13.82840    0.20110    0.02300    2.37800
 1746.00000   -9999.25   -9999.25   47.69270    0.10130    2.79620   13.91280    0.20490    0.00350    2.37430
 1746.50000   -9999.25   -9999.25   50.47700    0.12160    2.72320   13.98330    0.19920   -0.00330    2.38890
 1747.00000   -9999.25   -9999.25   55.34900    0.14840    2.71530   14.05380    0.19750   -0.00280    2.38940
 1747.50000   -9999.25   -9999.25   58.90580    0.16730    2.77030   14.14300    0.20380   -0.00210    2.36530
 1748.00000   -9999.25   -9999.25   55.83260    0.18310    2.74260   14.18430    0.22420   -0.00570    2.32080
 1748.50000   -9999.25   -9999.25   49.50310    0.21170    2.36210   14.23380    0.27730   -0.01070    2.22890
 1749.00000   -9999.25   -9999.25   40.54970    0.27580    2.02130   14.34810    0.36320   -0.01490    2.11510
 1749.50000   -9999.25   -9999.25   33.48500    0.33720    1.98910   15.46750    0.48120   -0.01350    2.02420
 1750.00000   -9999.25   -9999.25   28.04100    0.33740    2.12070   17.27640    0.50240   -0.00120    1.73020
 1750.50000   -9999.25   -9999.25   29.19340    0.28960    2.31770   17.93550    0.50240    0.01210    1.88570
 1751.00000   -9999.25   -9999.25   29.65620    0.34090    2.00710   16.50730    0.50240    0.02350    1.88980
 1751.50000   -9999.25   -9999.25   23.20410    0.39220    1.61990   15.93450    0.50240    0.02050    1.77080
 1752.00000   -9999.25   -9999.25   16.99740    0.49500    1.31410   15.95240    0.50240    0.01170    1.49870
 1752.50000   -9999.25   -9999.25   16.25650    0.49950    1.34220   18.68510    0.50240    0.00270    1.33280
 1753.00000   -9999.25   -9999.25   21.08020    0.43870    1.68720   20.81800    0.50240   -0.00280    1.33400
 1753.50000   -9999.25   -9999.25   27.11570    0.35480    2.08620   21.30550    0.50240   -0.00660    1.47810
 1754.00000   -9999.25   -9999.25   30.30960    0.35190    2.21640   19.55210    0.50240   -0.00530    1.66030
 1754.50000   -9999.25   -9999.25   28.41940    0.44710    1.98090   16.98590    0.50240    0.00160    1.76310
 1755.00000   -9999.25   -9999.25   26.52610    0.49490    1.79600   16.28000    0.50240    0.00730    1.65580
 1755.50000   -9999.25   -9999.25   29.10060    0.40640    2.03390   17.56440    0.50230    0.00920    1.70760
 1756.00000   -9999.25   -9999.25   34.88440    0.25120    2.49380   18.25230    0.49630    0.01000    2.01540
 1756.50000   -9999.25   -9999.25   39.52260    0.11200    2.88070   16.36410    0.38700    0.01120    2.24190
 1757.00000   -9999.25   -9999.25   40.54480    0.06980    2.82390   15.11600    0.25390    0.01810    2.28520
 1757.50000   -9999.25   -9999.25   38.91040    0.05480    2.59310   14.71010    0.23240    0.02260    2.32850
 1758.00000   -9999.25   -9999.25   37.78100    0.06130    2.55910   14.70430    0.22080    0.04120    2.34870
 1758.50000   -9999.25   -9999.25   38.38220    0.07380    2.62290   14.73810    0.20410    0.06960    2.37280
 1759.00000   -9999.25   -9999.25   41.40690    0.09470    2.75910   14.73110    0.18520    0.08330    2.41060
 1759.50000   -9999.25   -9999.25   45.10830    0.13150    2.89530   14.63470    0.17990    0.05250    2.41810
 1760.00000   -9999.25   -9999.25   48.21910    0.17990    2.96870   14.58750    0.18910    0.02100    2.40160
 1760.50000   -9999.25   -9999.25   50.94430    0.23230    2.87590   14.55960    0.19890    0.01090    2.38090
 1761.00000   -9999.25   -9999.25   51.37040    0.24290    2.77040   14.54830    0.20440    0.02490    2.38090
 1761.50000   -9999.25   -9999.25   50.49390    0.20070    2.72190   14.55550    0.20230    0.04720    2.38090
