~Version ---------------------------------------------------
VERS.   2.0 : CWLS log ASCII Standard -VERSION 2.0
WRAP.    NO : One line per depth step
DLM . SPACE : Column Data Section Delimiter
~Well ------------------------------------------------------
STRT .F                   10.0 : START DEPTH
STOP .F                 2700.0 : STOP DEPTH
STEP .F                    0.5 : STEP
NULL .                -9999.25 : NULL VALUE
COMP .                         : COMPANY
WELL .                         : WELL
FLD  .                         : FIELD
LOC  .                         : LOCATION
PROV .                         : PROVINCE
CNTY .                         : COUNTY
STAT .                         : STATE
CTRY .                         : COUNTRY
SRVC .                         : SERVICE COMPANY
DATE .                         : DATE
UWI  .                         : UNIQUE WELL ID
API  .                         : API NUMBER
SLAT .WGS84 1.2937547740626982 : SURFACE LATITUDE
SLON .WGS84 6.0420300676849905 : SURFACE LONGITUDE
DATUM.F                2709.08 : DEPTH DATUM ELEV
~Curve Information -----------------------------------------
DEPT.F     : 1 MEASURED DEPTH
DTCO.US/F  : DELTA-T COMPRESSIONAL
DTSM.US/F  : DELTA-T SHEAR
GRD .GAPI  : GAMMA RAY FROM DENSITY LOG
NPHI.DEC   : NEUTRON POROSITY
PEF .B/E   : PHOTOELECTRIC FACTOR
CALD.IN    : CALIPER FROM DENSITY LOG
DPHI.DEC   : DENSITY POROSITY
DRHO.G/C3  : BULK DENSITY CORRECTION
RHOB.G/C3  : BULK DENSITY
~Params ----------------------------------------------------
~Other -----------------------------------------------------
~ASCII -----------------------------------------------------
# ...
 2200.00000   46.40650   88.14630   27.83230    0.02560    3.52030    7.67690   -0.10390    0.00780    2.87430
 2200.50000   47.02720   88.28110   34.51660    0.02850    3.56110    7.67450   -0.09320    0.00550    2.85730
 2201.00000   47.87150   88.76190   37.42590    0.02890    3.69610    7.68100   -0.08480    0.00380    2.84020
 2201.50000   48.76500   89.39220   41.07900    0.02640    3.66550    7.68960   -0.06920    0.00150    2.82090
 2202.00000   49.85510   90.07130   46.39980    0.02370    3.38340    7.68850   -0.04630    0.00220    2.79680
 2202.50000   51.41650   91.91620   50.53760    0.02210    3.18100    7.69310   -0.02400    0.00430    2.73920
 2203.00000   52.99870   94.59870   49.53740    0.02060    3.27390    7.70740   -0.01610    0.01060    2.73480
 2203.50000   54.40850   96.21770   46.85800    0.02340    3.39640    7.70640   -0.02270    0.01460    2.74230
 2204.00000   54.76990   97.85510   45.21100    0.02510    3.34320    7.71290   -0.02960    0.01350    2.75580
 2204.50000   55.09870   99.47000   44.54010    0.02430    3.08020    7.73670   -0.02480    0.00960    2.75240
 2205.00000   55.08060   99.72770   44.43430    0.02110    2.90030    7.73740   -0.01330    0.00580    2.73500
 2205.50000   55.04300   99.57500   44.23820    0.01890    2.87040    7.73770   -0.00290    0.00110    2.71760
 2206.00000   55.97020   99.42230   42.99510    0.02090    2.98540    7.73780   -0.00320   -0.00230    2.71070
 2206.50000   55.98270   99.26970   40.44370    0.02300    3.26560    7.73790   -0.01590   -0.00310    2.73040
 2207.00000   55.86830   99.57870   34.76560    0.02510    3.64610    7.73890   -0.04300    0.00060    2.75780
 2207.50000   55.43780  100.25380   28.87920    0.02580    3.94320    7.74120   -0.07980    0.00610    2.79860
 2208.00000   54.05250  100.64190   25.94380    0.03290    3.94810    7.73880   -0.11510    0.00930    2.85990
 2208.50000   53.39900  100.18720   28.84800    0.04330    3.77370    7.73640   -0.12510    0.01090    2.90390
 2209.00000   52.30920   99.30400   35.41630    0.05900    3.46480    7.73400   -0.10420    0.00640    2.89430
 2209.50000   51.21930   98.32860   43.49600    0.07140    3.30290    7.73160   -0.06090    0.00540    2.83470
 2210.00000   51.51100   98.63990   46.78260    0.06930    3.40180    7.72920   -0.03690    0.00720    2.76300
 2210.50000   52.96260   99.67220   45.03040    0.05310    3.56840    7.72660   -0.03470    0.01040    2.75940
 2211.00000   53.66430  100.70490   42.53450    0.03620    3.88050    7.71890   -0.05520    0.01090    2.77900
 2211.50000   54.04240  102.58400   42.90510    0.02650    4.26910    7.71260   -0.07220    0.00680    2.80500
 2212.00000   54.25440  104.64170   43.71920    0.02650    4.64880    7.70970   -0.08330   -0.00040    2.83100
 2212.50000   54.32230  105.95900   44.87510    0.03720    4.91660    7.70250   -0.08340   -0.00300    2.84000
 2213.00000   55.13610  104.92420   47.80930    0.05410    4.79120    7.69710   -0.07590   -0.00630    2.83310
 2213.50000   56.18510  104.97890   52.86040    0.06510    4.52830    7.70520   -0.06010   -0.00500    2.81680
 2214.00000   59.19850  106.35370   52.29680    0.05190    4.38640    7.70800   -0.04500   -0.00100    2.79390
 2214.50000   60.63850  107.27880   43.75640    0.03240    4.42010    7.71130   -0.04680    0.00280    2.77750
 2215.00000   61.03120  105.67900   30.74430    0.01680    4.68590    7.69750   -0.07090    0.00400    2.80150
 2215.50000   58.82410  103.42620   25.90280    0.03040    4.92380    7.69230   -0.09760    0.00570    2.84500
 2216.00000   56.57000  102.88090   30.71850    0.06820    4.73960    7.68740   -0.10920    0.00860    2.87890
 2216.50000   56.66330  101.79430   42.00660    0.10390    4.28870    7.68010   -0.08480    0.01290    2.87650
 2217.00000   57.65480   97.20690   48.92650    0.10870    3.87330    7.67620   -0.05880    0.01930    2.83640
 2217.50000   59.35440   94.80160   47.01990    0.07510    3.57750    7.67450   -0.05510    0.02110    2.79970
 2218.00000   61.05390   94.99240   38.91500    0.03640    3.56500    7.66600   -0.06760    0.01460    2.80430
 2218.50000   60.82390   97.04210   31.44180    0.01740    3.87540    7.65440   -0.08790    0.00490    2.82810
 2219.00000   57.51790   97.69840   25.41140    0.01490    4.26530    7.64270   -0.10410   -0.00010    2.85210
 2219.50000   53.26690   95.57880   21.06420    0.01960    4.51700    7.63110   -0.10990    0.00020    2.88190
 2220.00000   50.07920   93.13910   19.13990    0.02350    4.52700    7.61940   -0.11020   -0.00010    2.88870
 2220.50000   48.29440   90.82510   18.27670    0.02430    4.43060    7.60780   -0.10380   -0.00240    2.88200
 2221.00000   48.69710   90.99290   17.57520    0.02080    4.38630    7.59610   -0.09650   -0.00710    2.86880
 2221.50000   48.89570   92.06200   15.66140    0.01460    4.39970    7.58450   -0.09510   -0.00920    2.86190
 2222.00000   48.87090   92.39660   13.96160    0.01370    4.39530    7.57280   -0.10410   -0.00750    2.86330
 2222.50000   48.71990   90.80740   14.14810    0.01740    4.27420    7.57220   -0.11460   -0.00120    2.87710
 2223.00000   48.56890   89.21830   15.65990    0.03160    3.98650    7.57950   -0.11920    0.00310    2.89100
 2223.50000   48.33330   88.65250   24.07130    0.05510    3.68410    7.58680   -0.09710    0.00270    2.89490
 2224.00000   48.76880   89.12450   31.18960    0.07060    3.46550    7.59410   -0.07420    0.00240    2.86250
 2224.50000   49.33720   91.46970   33.67540    0.07990    3.31410    7.60000   -0.05870    0.00410    2.82940
 2225.00000   50.03390   94.07240   33.30090    0.07640    3.19930    7.60290   -0.05570    0.00660    2.79700
 2225.50000   51.66930   95.40030   32.07860    0.06810    3.17000    7.60580   -0.06170    0.00800    2.79590
 2226.00000   52.91320   96.10220   31.02030    0.06250    3.31010    7.60880   -0.06880    0.00850    2.80930
 2226.50000   52.18770   95.54150   30.46090    0.05920    3.50880    7.61170   -0.07280    0.00960    2.82100
 2227.00000   51.20720   95.42440   29.47100    0.06220    3.61780    7.60590   -0.07270    0.01010    2.82640
 2227.50000   50.22670   94.58250   28.41350    0.07060    3.51620    7.60880   -0.06850    0.00430    2.82550
 2228.00000   49.44070   94.01610   28.69160    0.08020    3.37540    7.61250   -0.05870   -0.00260    2.81780
 2228.50000   49.94600   93.71700   29.24950    0.08900    3.29870    7.61250   -0.04980   -0.00630    2.80090
 2229.00000   51.42950   94.02730   29.56100    0.08700    3.25490    7.61240   -0.04470   -0.00400    2.78530
 2229.50000   51.86840   94.07730   29.50450    0.07960    3.26040    7.60470   -0.04430   -0.00020    2.78100
 2230.00000   52.03060   94.21280   29.09010    0.07130    3.34090    7.60460   -0.04770    0.00040    2.78070
 2230.50000   51.92050   93.68320   28.69710    0.06290    3.45030    7.60520   -0.05190    0.00050    2.78650
 2231.00000   51.55380   92.48280   25.60080    0.05390    3.58590    7.60820   -0.05650    0.00040    2.79320
 2231.50000   50.81730   91.70160   21.80940    0.04320    3.65260    7.61110   -0.06130    0.00030    2.79780
 2232.00000   50.00240   91.53030   17.20510    0.03880    3.70950    7.61410   -0.06830    0.00160    2.80780
 2232.50000   49.06530   90.86240   13.90740    0.03720    3.75560    7.61710   -0.07570    0.00200    2.82000
 2233.00000   48.12810   89.41740   12.69470    0.03950    3.77300    7.62010   -0.07830    0.00190    2.82960
 2233.50000   47.19100   87.53790   13.23450    0.04140    3.72080    7.62300   -0.07860    0.00190    2.83410
 2234.00000   46.75860   87.70340   13.80650    0.04270    3.56950    7.62600   -0.07840    0.00390    2.83410
 2234.50000   46.77080   88.57530   15.82720    0.04390    3.35810    7.62900   -0.07990    0.00670    2.83410
 2235.00000   46.94050   88.84530   18.72050    0.04470    3.31520    7.63190   -0.07930    0.00800    2.83410
 2235.50000   46.80370   88.85780   25.24000    0.04750    3.36080    7.63490   -0.07560    0.00470    2.83410
 2236.00000   47.15420   89.13220   34.75310    0.06560    3.45570    7.63790   -0.06840   -0.00410    2.82380
