~Version ---------------------------------------------------
VERS.   2.0 : CWLS log ASCII Standard -VERSION 2.0
WRAP.    NO : One line per depth step
DLM . SPACE : Column Data Section Delimiter
~Well ------------------------------------------------------
STRT .F                   10.0 : START DEPTH
STOP .F                 2700.0 : STOP DEPTH
STEP .F                    0.5 : STEP
NULL .                -9999.25 : NULL VALUE
COMP .                         : COMPANY
WELL .                         : WELL
FLD  .                         : FIELD
LOC  .                         : LOCATION
PROV .                         : PROVINCE
CNTY .                         : COUNTY
STAT .                         : STATE
CTRY .                         : COUNTRY
SRVC .                         : SERVICE COMPANY
DATE .                         : DATE
UWI  .                         : UNIQUE WELL ID
API  .                         : API NUMBER
SLAT .WGS84 1.2937547740626982 : SURFACE LATITUDE
SLON .WGS84 6.0420300676849905 : SURFACE LONGITUDE
DATUM.F                2709.08 : DEPTH DATUM ELEV
~Curve Information -----------------------------------------
DEPT.F     : 1 MEASURED DEPTH
DTCO.US/F  : DELTA-T COMPRESSIONAL
DTSM.US/F  : DELTA-T SHEAR
GRD .GAPI  : GAMMA RAY FROM DENSITY LOG
NPHI.DEC   : NEUTRON POROSITY
PEF .B/E   : PHOTOELECTRIC FACTOR
CALD.IN    : CALIPER FROM DENSITY LOG
DPHI.DEC   : DENSITY POROSITY
DRHO.G/C3  : BULK DENSITY CORRECTION
RHOB.G/C3  : BULK DENSITY
~Params ----------------------------------------------------
~Other -----------------------------------------------------
~ASCII -----------------------------------------------------
# ...
 1835.00000   -9999.25   -9999.25   49.36920    0.14240    3.18490   12.05280    0.11970   -0.00010    2.45800
 1835.50000   -9999.25   -9999.25   49.65590    0.12490    3.07260   11.99630    0.10970    0.00310    2.49520
 1836.00000   -9999.25   -9999.25   49.96130    0.11460    2.94910   11.99130    0.12380    0.00330    2.51470
 1836.50000   -9999.25   -9999.25   49.97590    0.10630    2.91560   11.99040    0.15020    0.00330    2.52970
 1837.00000   -9999.25   -9999.25   48.81950    0.10490    2.91800   11.97340    0.17530    0.00480    2.49710
 1837.50000   -9999.25   -9999.25   47.32650    0.11000    2.97820   11.99650    0.19180    0.00750    2.44960
 1838.00000   -9999.25   -9999.25   47.09430    0.12370    3.04160   12.01960    0.20020    0.01050    2.40760
 1838.50000   -9999.25   -9999.25   47.55960    0.14760    3.06980   12.02990    0.20660    0.01150    2.38880
 1839.00000   -9999.25   -9999.25   48.83180    0.17080    3.07690   12.23640    0.21040    0.00610    2.37130
 1839.50000   -9999.25   -9999.25   49.99720    0.17520    3.10090   12.53590    0.20330   -0.00170    2.36720
 1840.00000   -9999.25   -9999.25   49.95440    0.17070    3.18580   12.72660    0.18820   -0.00870    2.37710
 1840.50000   -9999.25   -9999.25   49.12250    0.16500    3.23320   12.16730    0.17880   -0.00910    2.39840
 1841.00000   -9999.25   -9999.25   46.28070    0.16340    3.04170   11.83860    0.20020   -0.00120    2.41560
 1841.50000   -9999.25   -9999.25   41.31690    0.17460    2.84050   11.75800    0.24590    0.01760    2.34050
 1842.00000   -9999.25   -9999.25   34.56670    0.23510    2.63930   11.87670    0.30020    0.03030    2.20640
 1842.50000   -9999.25   -9999.25   28.07450    0.29710    2.44690   12.05820    0.44010    0.01060    2.13380
 1843.00000   -9999.25   -9999.25   25.75260    0.34060    2.30820   12.41980    0.49650   -0.00220    2.06110
 1843.50000   -9999.25   -9999.25   27.34430    0.27610    2.21950   12.93380    0.50070   -0.00220    1.98840
 1844.00000   -9999.25   -9999.25   33.08070    0.22600    2.33620   12.68440    0.44380    0.00110    1.91580
 1844.50000   -9999.25   -9999.25   38.82270    0.16000    2.54240   12.15890    0.31720    0.00630    2.13510
 1845.00000   -9999.25   -9999.25   42.47410    0.19460    2.71820   11.70490    0.22020    0.01140    2.28060
 1845.50000   -9999.25   -9999.25   43.37700    0.22230    2.84220   11.53770    0.17640    0.01170    2.35810
 1846.00000   -9999.25   -9999.25   40.06920    0.18940    3.01750   11.44330    0.15070    0.00850    2.39810
 1846.50000   -9999.25   -9999.25   33.05010    0.12520    3.25820   11.34880    0.12220    0.00750    2.43740
 1847.00000   -9999.25   -9999.25   23.09330    0.06650    3.73990   11.29820    0.07690    0.00830    2.47490
 1847.50000   -9999.25   -9999.25   15.07790    0.04200    4.03050   11.29310    0.02290    0.00920    2.51230
 1848.00000   -9999.25   -9999.25   13.17170    0.11370    3.55260   11.29700    0.02950    0.00550    2.59660
 1848.50000   -9999.25   -9999.25   13.88390    0.24310    2.40590   11.30680    0.16940   -0.00440    2.68390
 1849.00000   -9999.25   -9999.25   14.98410    0.40440    1.72040   11.63270    0.27840   -0.01660    2.25910
 1849.50000   -9999.25   -9999.25   17.02550    0.49410    1.42200   14.95510    0.50170   -0.01710    1.83430
 1850.00000   -9999.25   -9999.25   20.51940    0.50180    1.50670   16.73160    0.50170   -0.00520    1.40950
 1850.50000   -9999.25   -9999.25   26.17450    0.50170    1.58550   18.19720    0.50160    0.00670    1.43130
 1851.00000   -9999.25   -9999.25   24.10000    0.50170    1.44380   16.60590    0.50160    0.01870    1.50530
 1851.50000   -9999.25   -9999.25   19.86290    0.50160    1.16490   15.99810    0.50150    0.02570    1.55460
 1852.00000   -9999.25   -9999.25   13.25490    0.50160    1.01810   17.14130    0.50150    0.01610    1.50620
 1852.50000   -9999.25   -9999.25    9.24840    0.50150    0.95660   19.40560    0.50150    0.00520    1.28080
 1853.00000   -9999.25   -9999.25    6.73920    0.50150    0.94460   21.48260    0.50140   -0.00160    1.17120
 1853.50000   -9999.25   -9999.25    5.60760    0.50140    0.97590   22.04790    0.50140   -0.00280    1.14740
 1854.00000   -9999.25   -9999.25    5.45100    0.50140    1.02270   22.06470    0.50140   -0.00400    1.14600
 1854.50000   -9999.25   -9999.25    6.03100    0.50130    1.07100   22.05410    0.50130   -0.00320    1.14770
 1855.00000   -9999.25   -9999.25    7.73130    0.50130    1.18980   21.99720    0.50130   -0.00040    1.15580
 1855.50000   -9999.25   -9999.25    9.88220    0.50120    1.30850   21.45240    0.50120    0.00120    1.19180
 1856.00000   -9999.25   -9999.25   12.20460    0.45020    1.62610   20.62480    0.50120    0.00840    1.26310
 1856.50000   -9999.25   -9999.25   15.10440    0.36040    2.02950   20.00520    0.50120    0.01890    1.39080
 1857.00000   -9999.25   -9999.25   20.86310    0.24480    2.51830   16.57520    0.50110    0.03090    1.55950
 1857.50000   -9999.25   -9999.25   26.16810    0.15110    3.01820   15.86800    0.45760    0.04160    1.64370
 1858.00000   -9999.25   -9999.25   31.81710    0.08630    3.00450   14.17930    0.34220    0.03800    2.16090
 1858.50000   -9999.25   -9999.25   36.09330    0.04820    2.89450   13.60730    0.23990    0.02800    2.31760
 1859.00000   -9999.25   -9999.25   39.33470    0.03930    2.83680   13.51130    0.21980    0.01760    2.34980
 1859.50000   -9999.25   -9999.25   42.59200    0.04760    2.80320   13.48400    0.21450    0.00690    2.36060
 1860.00000   -9999.25   -9999.25   46.72990    0.06190    2.80090   13.48520    0.20730    0.00100    2.37200
 1860.50000   -9999.25   -9999.25   50.02880    0.07400    2.78480   13.51530    0.20010   -0.00060    2.38280
 1861.00000   -9999.25   -9999.25   51.89360    0.08620    2.74100   13.56940    0.19480   -0.00220    2.39160
 1861.50000   -9999.25   -9999.25   52.53070    0.10340    2.71070   13.55290    0.19040   -0.00410    2.39760
 1862.00000   -9999.25   -9999.25   52.51070    0.12090    2.71780   13.48200    0.18550   -0.00590    2.40410
 1862.50000   -9999.25   -9999.25   50.95050    0.11260    2.72990   13.44320    0.17980   -0.00670    2.41400
 1863.00000   -9999.25   -9999.25   45.60120    0.07800    2.72880   13.45840    0.17310   -0.00480    2.42390
 1863.50000   -9999.25   -9999.25   38.02820    0.04080    2.71540   13.47760    0.17340    0.00130    2.42870
 1864.00000   -9999.25   -9999.25   32.88320    0.02240    2.65630   13.59990    0.18120    0.01790    2.42140
 1864.50000   -9999.25   -9999.25   33.15570    0.01930    2.62970   13.74960    0.18890    0.03500    2.40820
 1865.00000   -9999.25   -9999.25   36.89950    0.02640    2.68440   13.90700    0.19630    0.03410    2.39530
 1865.50000   -9999.25   -9999.25   42.08880    0.03480    2.84140   13.84770    0.19980    0.01610    2.38470
 1866.00000   -9999.25   -9999.25   47.30050    0.04050    2.98350   13.74280    0.19560    0.00090    2.39020
 1866.50000   -9999.25   -9999.25   51.21180    0.04700    3.09330   13.65070    0.18560   -0.00620    2.40300
 1867.00000   -9999.25   -9999.25   52.77760    0.05810    3.07460   13.64760    0.17550   -0.00610    2.41790
 1867.50000   -9999.25   -9999.25   51.56730    0.06690    3.01600   13.63080    0.16920   -0.00480    2.43000
 1868.00000   -9999.25   -9999.25   47.01610    0.06120    3.00160   13.62370    0.16790   -0.00260    2.43590
 1868.50000   -9999.25   -9999.25   43.03490    0.04880    2.98670   13.62510    0.17260   -0.00060    2.43240
 1869.00000   -9999.25   -9999.25   42.62220    0.03470    2.93670   13.62700    0.18180    0.00030    2.42010
 1869.50000   -9999.25   -9999.25   45.28420    0.04150    2.85740   13.66750    0.19270   -0.00020    2.40200
 1870.00000   -9999.25   -9999.25   50.48970    0.07280    2.85180   13.66160    0.19450    0.00140    2.39590
 1870.50000   -9999.25   -9999.25   55.87520    0.11560    2.86660   13.64450    0.18970   -0.00100    2.39440
 1871.00000   -9999.25   -9999.25   59.35750    0.15540    2.87370   13.64360    0.17880   -0.00180    2.40390
