~Version ---------------------------------------------------
VERS.   2.0 : CWLS log ASCII Standard -VERSION 2.0
WRAP.    NO : One line per depth step
DLM . SPACE : Column Data Section Delimiter
~Well ------------------------------------------------------
STRT .F                   10.0 : START DEPTH
STOP .F                 2700.0 : STOP DEPTH
STEP .F                    0.5 : STEP
NULL .                -9999.25 : NULL VALUE
COMP .                         : COMPANY
WELL .                         : WELL
FLD  .                         : FIELD
LOC  .                         : LOCATION
PROV .                         : PROVINCE
CNTY .                         : COUNTY
STAT .                         : STATE
CTRY .                         : COUNTRY
SRVC .                         : SERVICE COMPANY
DATE .                         : DATE
UWI  .                         : UNIQUE WELL ID
API  .                         : API NUMBER
SLAT .WGS84 1.2937547740626982 : SURFACE LATITUDE
SLON .WGS84 6.0420300676849905 : SURFACE LONGITUDE
DATUM.F                2709.08 : DEPTH DATUM ELEV
~Curve Information -----------------------------------------
DEPT.F     : 1 MEASURED DEPTH
DTCO.US/F  : DELTA-T COMPRESSIONAL
DTSM.US/F  : DELTA-T SHEAR
GRD .GAPI  : GAMMA RAY FROM DENSITY LOG
NPHI.DEC   : NEUTRON POROSITY
PEF .B/E   : PHOTOELECTRIC FACTOR
CALD.IN    : CALIPER FROM DENSITY LOG
DPHI.DEC   : DENSITY POROSITY
DRHO.G/C3  : BULK DENSITY CORRECTION
RHOB.G/C3  : BULK DENSITY
~Params ----------------------------------------------------
~Other -----------------------------------------------------
~ASCII -----------------------------------------------------
# ...
 2419.00000   63.44790  107.86080   62.05900    0.18970    2.89310    7.63550    0.05660   -0.00120    2.61480
 2419.50000   63.90010  108.19810   52.94300    0.19000    2.90310    7.63450    0.05270   -0.00080    2.62220
 2420.00000   62.60040  107.66640   41.22530    0.18480    3.01910    7.63350    0.04790   -0.00040    2.62940
 2420.50000   60.99620  105.73000   31.03960    0.17920    3.06080    7.63250    0.03990   -0.00030    2.64230
 2421.00000   59.39190  103.17560   25.30420    0.17450    3.12470    7.63150    0.03060   -0.00040    2.65520
 2421.50000   57.23090  101.09230   24.81350    0.16540    3.23740    7.63050    0.02150   -0.00080    2.67430
 2422.00000   54.44280   99.15870   25.10420    0.14750    3.40250    7.62950    0.00840   -0.00120    2.69860
 2422.50000   52.01450   97.22510   24.80690    0.12990    3.55600    7.62850   -0.00800   -0.00200    2.72290
 2423.00000   50.40120   95.29150   21.66040    0.11860    3.57600    7.62740   -0.02450   -0.00230    2.74720
 2423.50000   49.60030   93.79000   17.47390    0.10460    3.52780    7.62640   -0.03440   -0.00050    2.76620
 2424.00000   48.78770   92.49290   15.08680    0.08630    3.50610    7.62540   -0.03840    0.00160    2.77050
 2424.50000   48.08770   91.45460   13.24040    0.07350    3.52080    7.62440   -0.04400    0.00110    2.77700
 2425.00000   48.09840   91.10130   12.72900    0.07360    3.54900    7.62340   -0.05330   -0.00160    2.79240
 2425.50000   48.56490   91.10780   14.31390    0.08960    3.52950    7.62270   -0.06210   -0.00320    2.80740
 2426.00000   49.08630   91.11660   19.01490    0.10730    3.43580    7.62280   -0.05880   -0.00110    2.80470
 2426.50000   49.19180   91.12710   24.40530    0.12440    3.29720    7.62290   -0.04270    0.00470    2.77310
 2427.00000   49.21950   91.20630   27.93460    0.13260    3.17050    7.62300   -0.02470    0.00870    2.74570
 2427.50000   49.27610   91.48720   28.12640    0.14310    3.12300    7.62310   -0.01360    0.00950    2.73350
 2428.00000   49.41760   91.92370   25.83920    0.15780    3.16520    7.62320   -0.00990    0.00730    2.72540
 2428.50000   49.60470   92.53190   24.50370    0.16980    3.26700    7.62170   -0.00470    0.00360    2.71180
 2429.00000   49.61740   92.98210   24.63640    0.17170    3.37660    7.61810    0.00560   -0.00030    2.69790
 2429.50000   49.63020   93.12770   27.64590    0.16130    3.38520    7.61450    0.01390   -0.00240    2.68770
 2430.00000   49.64290   93.15660   33.45190    0.14650    3.30400    7.61090    0.01320   -0.00370    2.68550
 2430.50000   49.65570   93.16950   37.48300    0.13370    3.22400    7.60730    0.00850   -0.00590    2.69150
 2431.00000   49.62520   93.18240   37.71790    0.13150    3.19760    7.60430    0.00390   -0.00880    2.69760
 2431.50000   49.48770   93.15530   33.76020    0.13490    3.14900    7.60390    0.00360   -0.00840    2.69980
 2432.00000   49.12890   93.06880   29.32220    0.14240    3.07090    7.60350    0.00460   -0.00710    2.70060
 2432.50000   48.77010   92.89500   26.61770    0.15190    3.04460    7.60300    0.00640   -0.00550    2.70060
 2433.00000   48.85020   92.60770   27.31590    0.16790    3.06120    7.60260    0.00980   -0.00550    2.69460
 2433.50000   49.86550   92.41310   31.05100    0.18670    3.14370    7.60220    0.01790   -0.00600    2.68120
 2434.00000   51.48260   92.49570   34.32330    0.20220    3.18190    7.60170    0.03090   -0.00570    2.66390
 2434.50000   52.59270   92.81260   34.20970    0.21390    3.17050    7.60130    0.04650   -0.00500    2.64050
 2435.00000   52.94340   94.50400   30.89940    0.22490    3.12210    7.60090    0.06000   -0.00420    2.61570
 2435.50000   53.03340   95.30490   27.31230    0.23520    3.12200    7.60050    0.06610   -0.00110    2.60270
 2436.00000   52.61400   95.51820   24.25250    0.24360    3.14010    7.60000    0.06740    0.00330    2.59950
 2436.50000   51.84610   95.64240   24.01780    0.24970    3.22580    7.59960    0.06740    0.00750    2.59860
 2437.00000   51.23100   96.02100   23.88260    0.24920    3.26220    7.59920    0.06710    0.00900    2.59930
 2437.50000   50.80950   96.09320   24.24320    0.24430    3.21350    7.59870    0.06600    0.00860    2.60240
 2438.00000   50.38970   96.12000   25.21560    0.23390    3.14640    7.59830    0.06210    0.00460    2.60870
 2438.50000   50.30990   96.13080   26.57440    0.22270    3.12000    7.59790    0.05590    0.00080    2.61770
 2439.00000   50.32060   96.14150   27.81830    0.21680    3.14580    7.59750    0.05060   -0.00120    2.62800
 2439.50000   50.62310   96.15220   30.07420    0.20820    3.23650    7.59700    0.04480   -0.00200    2.63840
 2440.00000   51.46160   96.16290   35.53540    0.19890    3.27440    7.59610    0.03890   -0.00230    2.64660
 2440.50000   51.62830   96.17510   43.16690    0.18890    3.24990    7.59980    0.03410   -0.00290    2.64980
 2441.00000   51.18740   96.24920   50.27130    0.18070    3.15390    7.61350    0.03270   -0.00340    2.65290
 2441.50000   50.69300   96.59950   56.63750    0.17900    3.07040    7.60720    0.03180   -0.00290    2.65610
 2442.00000   50.79010   97.02550   57.05220    0.17700    3.00470    7.59930    0.02860    0.00060    2.66120
 2442.50000   51.82330   97.23640   55.59940    0.17060    2.98050    7.59490    0.02120    0.00990    2.67340
 2443.00000   52.28680   97.52400   55.50990    0.15460    3.00480    7.59900    0.00860    0.02240    2.69260
 2443.50000   51.31300   97.70400   58.97720    0.14100    3.06530    7.60310   -0.00210    0.02770    2.71190
 2444.00000   50.14720   97.35080   61.12600    0.13200    3.12210    7.60250   -0.00640    0.01940    2.72060
 2444.50000   49.48180   96.82590   58.11150    0.12920    3.17850    7.59940   -0.00660    0.01150    2.72200
 2445.00000   50.29120   96.68900   51.84340    0.13310    3.26040    7.59750   -0.00570    0.00690    2.72050
 2445.50000   51.92660   96.86140   47.02140    0.14230    3.31490    7.60620   -0.00510    0.00570    2.71640
 2446.00000   53.49500   97.82600   46.34700    0.14920    3.29400    7.60410   -0.00280    0.00440    2.71230
 2446.50000   55.06230   99.64790   45.93120    0.14710    3.22450    7.59820   -0.00120    0.00230    2.70830
 2447.00000   56.39570  103.18780   43.93290    0.13650    3.17570    7.58600   -0.00500   -0.00070    2.70960
 2447.50000   56.84910  105.65490   38.16370    0.12180    3.19140    7.58080   -0.01570   -0.00330    2.72850
 2448.00000   56.12800  105.21770   30.19970    0.11660    3.22680    7.58070   -0.02900   -0.00500    2.74990
 2448.50000   53.86460  102.11900   24.66840    0.11760    3.26450    7.58110   -0.03810   -0.00500    2.77090
 2449.00000   53.35660   99.02030   22.69390    0.13090    3.25710    7.58150   -0.03680   -0.00190    2.77360
 2449.50000   53.09330   96.96710   23.59880    0.14010    3.21260    7.58190   -0.02760   -0.00050    2.75640
 2450.00000   52.88280   96.09890   26.17850    0.13990    3.16730    7.58230   -0.01960    0.00220    2.73680
 2450.50000   52.67230   96.10260   27.56210    0.12530    3.13060    7.58270   -0.01640    0.00300    2.73430
 2451.00000   52.64240   97.20570   27.44060    0.11790    3.15210    7.58310   -0.01630   -0.00050    2.73420
 2451.50000   53.14110   99.51110   26.91410    0.11810    3.17070    7.58350   -0.01600   -0.00430    2.73430
 2452.00000   54.05110  101.81640   26.47470    0.11860    3.14750    7.58390   -0.01620   -0.00530    2.73540
 2452.50000   54.96110  103.88090   25.46480    0.11790    3.07420    7.58420   -0.01880   -0.00290    2.73910
 2453.00000   55.71270  104.40640   23.57890    0.11700    3.12460    7.58460   -0.02430   -0.00120    2.74510
 2453.50000   55.91770  104.18610   20.82160    0.11540    3.25560    7.58500   -0.03020   -0.00010    2.76020
 2454.00000   55.35370  102.97190   19.07120    0.11210    3.31240    7.58540   -0.03390   -0.00080    2.76230
 2454.50000   53.96540  101.40300   19.42350    0.10840    3.30890    7.58580   -0.03360   -0.00150    2.76310
 2455.00000   53.10490   99.92310   20.06920    0.10470    3.31370    7.58620   -0.03200   -0.00250    2.76210
