~Version ---------------------------------------------------
VERS.   2.0 : CWLS log ASCII Standard -VERSION 2.0
WRAP.    NO : One line per depth step
DLM . SPACE : Column Data Section Delimiter
~Well ------------------------------------------------------
STRT .F                   10.0 : START DEPTH
STOP .F                 2700.0 : STOP DEPTH
STEP .F                    0.5 : STEP
NULL .                -9999.25 : NULL VALUE
COMP .                         : COMPANY
WELL .                         : WELL
FLD  .                         : FIELD
LOC  .                         : LOCATION
PROV .                         : PROVINCE
CNTY .                         : COUNTY
STAT .                         : STATE
CTRY .                         : COUNTRY
SRVC .                         : SERVICE COMPANY
DATE .                         : DATE
UWI  .                         : UNIQUE WELL ID
API  .                         : API NUMBER
SLAT .WGS84 1.2937547740626982 : SURFACE LATITUDE
SLON .WGS84 6.0420300676849905 : SURFACE LONGITUDE
DATUM.F                2709.08 : DEPTH DATUM ELEV
~Curve Information -----------------------------------------
DEPT.F     : 1 MEASURED DEPTH
DTCO.US/F  : DELTA-T COMPRESSIONAL
DTSM.US/F  : DELTA-T SHEAR
GRD .GAPI  : GAMMA RAY FROM DENSITY LOG
NPHI.DEC   : NEUTRON POROSITY
PEF .B/E   : PHOTOELECTRIC FACTOR
CALD.IN    : CALIPER FROM DENSITY LOG
DPHI.DEC   : DENSITY POROSITY
DRHO.G/C3  : BULK DENSITY CORRECTION
RHOB.G/C3  : BULK DENSITY
~Params ----------------------------------------------------
~Other -----------------------------------------------------
~ASCII -----------------------------------------------------
# ...
  995.50000   -9999.25   -9999.25   85.52330    0.24900    2.61740    9.34880    0.16990    0.00060    2.43150
  996.00000   -9999.25   -9999.25   86.23860    0.25370    2.61290    9.37010    0.18390   -0.00400    2.40990
  996.50000   -9999.25   -9999.25   87.19890    0.25950    2.52230    9.41630    0.19810   -0.00730    2.39030
  997.00000   -9999.25   -9999.25   86.92640    0.26550    2.46660    9.46270    0.20390   -0.00630    2.37880
  997.50000   -9999.25   -9999.25   85.84310    0.26670    2.57230    9.47500    0.19960   -0.00090    2.39030
  998.00000   -9999.25   -9999.25   86.79760    0.26170    2.76640    9.46920    0.18390    0.00420    2.41330
  998.50000   -9999.25   -9999.25   90.18270    0.25070    2.96120    9.47010    0.16830    0.00200    2.44030
  999.00000   -9999.25   -9999.25   98.42010    0.24500    2.99860    9.46600    0.15760   -0.00040    2.45110
  999.50000   -9999.25   -9999.25  109.88450    0.25240    2.90670    9.48020    0.15260   -0.00370    2.46070
 1000.00000   -9999.25   -9999.25  121.78120    0.26150    2.81970    9.49430    0.15070   -0.00530    2.46060
 1000.50000   -9999.25   -9999.25  127.82910    0.26210    2.76490    9.50290    0.15310   -0.00650    2.46050
 1001.00000   -9999.25   -9999.25  120.46630    0.25150    2.77150    9.50160    0.15410   -0.00770    2.46050
 1001.50000   -9999.25   -9999.25  106.91760    0.24030    2.76630    9.50140    0.15150   -0.00900    2.46420
 1002.00000   -9999.25   -9999.25   96.22830    0.23830    2.78350    9.50240    0.14460   -0.00930    2.47320
 1002.50000   -9999.25   -9999.25   93.10840    0.24480    2.79160    9.50390    0.14110   -0.00710    2.48030
 1003.00000   -9999.25   -9999.25   94.29150    0.25530    2.77730    9.50950    0.14140   -0.00430    2.47990
 1003.50000   -9999.25   -9999.25   97.15190    0.27110    2.79440    9.51230    0.14260   -0.00120    2.47750
 1004.00000   -9999.25   -9999.25   99.17580    0.28570    2.83140    9.51190    0.14350   -0.00030    2.47600
 1004.50000   -9999.25   -9999.25   99.31490    0.28960    2.83370    9.50830    0.14600    0.00020    2.47150
 1005.00000   -9999.25   -9999.25   97.11990    0.28140    2.76380    9.50110    0.15110   -0.00220    2.46460
 1005.50000   -9999.25   -9999.25   93.65160    0.26610    2.71710    9.49730    0.15410   -0.00500    2.45820
 1006.00000   -9999.25   -9999.25   92.28420    0.26570    2.70600    9.49580    0.15300   -0.00450    2.46160
 1006.50000   -9999.25   -9999.25   92.19700    0.27190    2.68950    9.49910    0.15060    0.00150    2.46440
 1007.00000   -9999.25   -9999.25   92.41060    0.27780    2.68780    9.50210    0.15020    0.00000    2.46500
 1007.50000   -9999.25   -9999.25   91.48780    0.27530    2.68610    9.51790    0.15180   -0.00500    2.46330
 1008.00000   -9999.25   -9999.25   90.28440    0.26370    2.66810    9.51380    0.15640   -0.00810    2.45740
 1008.50000   -9999.25   -9999.25   86.60900    0.25270    2.63710    9.50710    0.16170   -0.01090    2.44690
 1009.00000   -9999.25   -9999.25   79.75410    0.24700    2.64280    9.50000    0.16960   -0.01220    2.43550
 1009.50000   -9999.25   -9999.25   70.35840    0.24890    2.66340    9.50160    0.17640   -0.01320    2.42500
 1010.00000   -9999.25   -9999.25   62.22350    0.25520    2.63520    9.51290    0.18430   -0.01190    2.41420
 1010.50000   -9999.25   -9999.25   57.52860    0.26710    2.49680    9.50890    0.19450   -0.01040    2.39970
 1011.00000   -9999.25   -9999.25   59.05030    0.26560    2.37580    9.48870    0.20510   -0.00670    2.37810
 1011.50000   -9999.25   -9999.25   65.95960    0.25890    2.32610    9.46950    0.21000   -0.00200    2.36890
 1012.00000   -9999.25   -9999.25   75.72240    0.25490    2.36360    9.45070    0.20540    0.00110    2.37440
 1012.50000   -9999.25   -9999.25   86.30930    0.26150    2.48770    9.43210    0.19630    0.00250    2.38830
 1013.00000   -9999.25   -9999.25   91.77460    0.27230    2.58180    9.37230    0.18800   -0.00030    2.40070
 1013.50000   -9999.25   -9999.25   91.63110    0.27180    2.63010    9.30530    0.18260   -0.00190    2.41010
 1014.00000   -9999.25   -9999.25   90.38650    0.26090    2.62810    9.25750    0.17860   -0.00170    2.41690
 1014.50000   -9999.25   -9999.25   90.65350    0.24900    2.62660    9.24030    0.17430   -0.00130    2.42320
 1015.00000   -9999.25   -9999.25   92.14850    0.24220    2.60180    9.23200    0.17230   -0.00130    2.42910
 1015.50000   -9999.25   -9999.25   90.69030    0.23640    2.55750    9.22280    0.17520   -0.00160    2.42590
 1016.00000   -9999.25   -9999.25   87.92870    0.23500    2.50220    9.21700    0.18080   -0.00230    2.41830
 1016.50000   -9999.25   -9999.25   86.48030    0.23540    2.49240    9.21810    0.18360   -0.00270    2.41210
 1017.00000   -9999.25   -9999.25   86.47620    0.23700    2.54790    9.21860    0.17990   -0.00320    2.41560
 1017.50000   -9999.25   -9999.25   86.76800    0.23560    2.63570    9.21320    0.17410   -0.00480    2.42320
 1018.00000   -9999.25   -9999.25   87.32050    0.23320    2.72140    9.20460    0.17060   -0.00930    2.43060
 1018.50000   -9999.25   -9999.25   90.49640    0.23260    2.74000    9.19580    0.17000   -0.01180    2.43280
 1019.00000   -9999.25   -9999.25   94.12900    0.24050    2.72780    9.18650    0.17090   -0.01250    2.43250
 1019.50000   -9999.25   -9999.25   97.29570    0.25160    2.59650    9.17710    0.17360   -0.01290    2.43100
 1020.00000   -9999.25   -9999.25   97.96380    0.26230    2.61040    9.16910    0.17710   -0.01140    2.42400
 1020.50000   -9999.25   -9999.25   95.86840    0.26680    2.61410    9.16140    0.18040   -0.00820    2.41740
 1021.00000   -9999.25   -9999.25   92.69670    0.26520    2.63120    9.15420    0.18410   -0.00380    2.41300
 1021.50000   -9999.25   -9999.25   89.87030    0.26470    2.63670    9.17290    0.18900   -0.00300    2.40590
 1022.00000   -9999.25   -9999.25   88.09900    0.26710    2.66440    9.16320    0.18840   -0.00710    2.40160
 1022.50000   -9999.25   -9999.25   87.08540    0.26790    2.72190    9.15320    0.18010   -0.00910    2.41200
 1023.00000   -9999.25   -9999.25   86.91200    0.25960    2.74980    9.15320    0.16110   -0.00780    2.43600
 1023.50000   -9999.25   -9999.25   87.51730    0.25250    2.76360    9.14150    0.14370   -0.00370    2.46770
 1024.00000   -9999.25   -9999.25   87.89820    0.25550    2.76890    9.12860    0.13440   -0.00150    2.48380
 1024.50000   -9999.25   -9999.25   88.08660    0.26190    2.74130    9.11750    0.13610   -0.00190    2.49300
 1025.00000   -9999.25   -9999.25   88.83740    0.26610    2.67360    9.11040    0.14460   -0.00400    2.47970
 1025.50000   -9999.25   -9999.25   90.91540    0.26200    2.66140    9.10580    0.15180   -0.00440    2.46670
 1026.00000   -9999.25   -9999.25   93.31200    0.25790    2.70120    9.10960    0.15370   -0.00440    2.46150
 1026.50000   -9999.25   -9999.25   95.53820    0.25810    2.78790    9.10830    0.15460   -0.00380    2.45980
 1027.00000   -9999.25   -9999.25   95.69630    0.25920    2.86010    9.10700    0.15510   -0.00450    2.45880
 1027.50000   -9999.25   -9999.25   94.31970    0.25980    2.93070    9.12930    0.15430   -0.00750    2.45910
 1028.00000   -9999.25   -9999.25   93.15960    0.26280    2.95610    9.13780    0.15240   -0.00860    2.46110
 1028.50000   -9999.25   -9999.25   93.05060    0.26680    2.96030    9.11860    0.15130   -0.00820    2.46290
 1029.00000   -9999.25   -9999.25   94.94720    0.27040    2.95870    9.10590    0.15230   -0.00650    2.46300
 1029.50000   -9999.25   -9999.25   97.60410    0.26050    2.95070    9.10260    0.15060   -0.00180    2.46390
 1030.00000   -9999.25   -9999.25   99.38020    0.25140    2.93280    9.09920    0.14120    0.00210    2.47180
 1030.50000   -9999.25   -9999.25  100.87030    0.24800    2.91900    9.09840    0.12960    0.00380    2.48750
 1031.00000   -9999.25   -9999.25  105.18740    0.25100    2.92510    9.10270    0.12690    0.00520    2.50030
 1031.50000   -9999.25   -9999.25  110.36800    0.25770    2.84940    9.10690    0.13430    0.00290    2.49690
