~Version ---------------------------------------------------
VERS.   2.0 : CWLS log ASCII Standard -VERSION 2.0
WRAP.    NO : One line per depth step
DLM . SPACE : Column Data Section Delimiter
~Well ------------------------------------------------------
STRT .F                   10.0 : START DEPTH
STOP .F                 2700.0 : STOP DEPTH
STEP .F                    0.5 : STEP
NULL .                -9999.25 : NULL VALUE
COMP .                         : COMPANY
WELL .                         : WELL
FLD  .                         : FIELD
LOC  .                         : LOCATION
PROV .                         : PROVINCE
CNTY .                         : COUNTY
STAT .                         : STATE
CTRY .                         : COUNTRY
SRVC .                         : SERVICE COMPANY
DATE .                         : DATE
UWI  .                         : UNIQUE WELL ID
API  .                         : API NUMBER
SLAT .WGS84 1.2937547740626982 : SURFACE LATITUDE
SLON .WGS84 6.0420300676849905 : SURFACE LONGITUDE
DATUM.F                2709.08 : DEPTH DATUM ELEV
~Curve Information -----------------------------------------
DEPT.F     : 1 MEASURED DEPTH
DTCO.US/F  : DELTA-T COMPRESSIONAL
DTSM.US/F  : DELTA-T SHEAR
GRD .GAPI  : GAMMA RAY FROM DENSITY LOG
NPHI.DEC   : NEUTRON POROSITY
PEF .B/E   : PHOTOELECTRIC FACTOR
CALD.IN    : CALIPER FROM DENSITY LOG
DPHI.DEC   : DENSITY POROSITY
DRHO.G/C3  : BULK DENSITY CORRECTION
RHOB.G/C3  : BULK DENSITY
~Params ----------------------------------------------------
~Other -----------------------------------------------------
~ASCII -----------------------------------------------------
# ...
 1251.00000   -9999.25   -9999.25    3.81310    0.50130    0.99080   22.10010    0.50140   -0.00080    1.19380
 1251.50000   -9999.25   -9999.25    3.74540    0.50130    0.85010   22.09530    0.50140   -0.00090    1.18500
 1252.00000   -9999.25   -9999.25    3.79100    0.50140    0.81680   22.09680    0.50140   -0.00140    1.17510
 1252.50000   -9999.25   -9999.25    4.62200    0.50140    0.79520   22.11070    0.50140    0.00150    1.16920
 1253.00000   -9999.25   -9999.25    5.35680    0.50150    0.80490   22.14930    0.50140    0.00280    1.17030
 1253.50000   -9999.25   -9999.25    6.37150    0.50150    0.88930   22.15520    0.50140    0.00110    1.17480
 1254.00000   -9999.25   -9999.25    8.35570    0.50150    1.12940   22.14430    0.50140   -0.00140    1.18280
 1254.50000   -9999.25   -9999.25   10.90660    0.50160    1.46720   22.09930    0.50140   -0.00180    1.21280
 1255.00000   -9999.25   -9999.25   14.72630    0.50160    1.65000   21.15460    0.50140    0.00150    1.27790
 1255.50000   -9999.25   -9999.25   18.93570    0.50170    1.64160   18.88280    0.50140    0.00460    1.35610
 1256.00000   -9999.25   -9999.25   24.92130    0.50170    1.68700   18.67150    0.50140    0.00780    1.38890
 1256.50000   -9999.25   -9999.25   29.97400    0.48650    1.83790   18.89150    0.50140    0.01090    1.40730
 1257.00000   -9999.25   -9999.25   32.74860    0.38630    2.35590   16.60870    0.50130    0.02000    1.51370
 1257.50000   -9999.25   -9999.25   30.17270    0.24350    3.02170   13.72010    0.46000    0.03580    1.75610
 1258.00000   -9999.25   -9999.25   23.51200    0.12290    3.68660   11.65950    0.26790    0.04480    2.07720
 1258.50000   -9999.25   -9999.25   14.90480    0.02380    4.34330   10.54320    0.12560    0.03830    2.35910
 1259.00000   -9999.25   -9999.25    8.38200    0.00410    4.65340    9.99800    0.00040    0.02180    2.55580
 1259.50000   -9999.25   -9999.25    5.41220   -0.00100    4.73560    9.61570   -0.07090    0.00790    2.74830
 1260.00000   -9999.25   -9999.25    4.85560   -0.00220    4.70390    9.39220   -0.10010    0.00320    2.82040
 1260.50000   -9999.25   -9999.25    5.06760   -0.00230    4.62900    9.18620   -0.10950    0.00850    2.85550
 1261.00000   -9999.25   -9999.25    5.00500   -0.00190    4.58270    9.04000   -0.10850    0.01440    2.88760
 1261.50000   -9999.25   -9999.25    4.72130   -0.00140    4.51880    8.93960   -0.09070    0.01840    2.88720
 1262.00000   -9999.25   -9999.25    4.23600    0.00100    4.43360    8.90930   -0.07270    0.01870    2.86100
 1262.50000   -9999.25   -9999.25    3.62260    0.00320    4.35940    8.90620   -0.06060    0.01620    2.82790
 1263.00000   -9999.25   -9999.25    3.15060    0.00310    4.44650    8.90300   -0.07330    0.01050    2.80670
 1263.50000   -9999.25   -9999.25    2.81310    0.00010    4.52610    8.90380   -0.10040    0.00490    2.81800
 1264.00000   -9999.25   -9999.25    2.95360   -0.00090    4.46460    8.90510   -0.10460    0.00690    2.84330
 1264.50000   -9999.25   -9999.25    3.38970    0.00280    4.16220    8.90970   -0.05710    0.01210    2.87240
 1265.00000   -9999.25   -9999.25    4.47930    0.00930    3.91730    8.91340    0.00360    0.05210    2.83380
 1265.50000   -9999.25   -9999.25    5.52740    0.01470    3.86250    8.92780    0.01950    0.10120    2.77580
 1266.00000   -9999.25   -9999.25    6.09240    0.01530    3.91190    8.94430    0.00990    0.11360    2.69310
 1266.50000   -9999.25   -9999.25    6.36320    0.01320    4.03470    8.96050   -0.00690    0.07900    2.68470
 1267.00000   -9999.25   -9999.25    6.43680    0.01850    4.02320    8.94760   -0.01870    0.04320    2.70700
 1267.50000   -9999.25   -9999.25    6.81770    0.03030    4.05520    8.94530   -0.03320    0.03160    2.73210
 1268.00000   -9999.25   -9999.25    7.29040    0.05900    3.98830    8.99980   -0.04100    0.02630    2.75710
 1268.50000   -9999.25   -9999.25    8.99880    0.08660    3.49820    9.17570   -0.02190    0.01620    2.77860
 1269.00000   -9999.25   -9999.25   12.79370    0.12530    2.88690    9.43170    0.04650    0.00590    2.77090
 1269.50000   -9999.25   -9999.25   19.80670    0.17400    2.50430    9.65550    0.13800    0.00570    2.66360
 1270.00000   -9999.25   -9999.25   26.90420    0.21770    2.30240    9.87910    0.22760    0.00890    2.56990
 1270.50000   -9999.25   -9999.25   31.18950    0.21800    2.49030   10.12350    0.25560    0.01270    2.40950
 1271.00000   -9999.25   -9999.25   34.05700    0.20150    2.86400   10.52340    0.23620    0.01050    2.29120
 1271.50000   -9999.25   -9999.25   36.50360    0.19440    3.23770   10.71370    0.17690    0.00700    2.32380
 1272.00000   -9999.25   -9999.25   41.87690    0.22950    3.48730   10.74470    0.14380    0.00280    2.38950
 1272.50000   -9999.25   -9999.25   46.19660    0.29010    3.11390   10.82220    0.19980    0.00460    2.45520
 1273.00000   -9999.25   -9999.25   43.70280    0.45950    2.44490   11.46140    0.28240    0.01640    2.44720
 1273.50000   -9999.25   -9999.25   34.56630    0.50140    1.59630   12.31300    0.50140    0.01660    2.12880
 1274.00000   -9999.25   -9999.25   21.60810    0.50140    1.16890   15.73140    0.50140    0.00850    1.93300
 1274.50000   -9999.25   -9999.25   11.07390    0.50140    1.12660   17.29150    0.50140    0.00070    1.82690
 1275.00000   -9999.25   -9999.25    6.77700    0.50140    1.16950   20.22090    0.50140   -0.00020    1.36910
 1275.50000   -9999.25   -9999.25    4.16940    0.50140    1.20390   20.87240    0.50140    0.00080    1.30090
 1276.00000   -9999.25   -9999.25    3.67830    0.50140    1.16240   21.14940    0.50140    0.00280    1.26190
 1276.50000   -9999.25   -9999.25    3.88440    0.50140    1.03790   21.57970    0.50130    0.00670    1.23480
 1277.00000   -9999.25   -9999.25    4.65870    0.50140    1.05390   21.99150    0.50130    0.00780    1.19110
 1277.50000   -9999.25   -9999.25    5.29200    0.50140    1.20430   22.04870    0.50130    0.00690    1.15220
 1278.00000   -9999.25   -9999.25    6.25590    0.50140    1.22210   21.77270    0.50130    0.00450    1.16230
 1278.50000   -9999.25   -9999.25    7.32550    0.50140    1.16880   20.91890    0.50130    0.00630    1.24170
 1279.00000   -9999.25   -9999.25    9.72880    0.50140    1.23280   19.85770    0.50130    0.00630    1.29660
 1279.50000   -9999.25   -9999.25   12.61360    0.50140    1.43360   20.52250    0.50130   -0.00240    1.33730
 1280.00000   -9999.25   -9999.25   13.68900    0.50140    1.62540   21.05230    0.50130   -0.01110    1.34890
 1280.50000   -9999.25   -9999.25   14.45070    0.50140    1.58760   20.84380    0.50130   -0.00970    1.35900
 1281.00000   -9999.25   -9999.25   13.98950    0.50140    1.30460   20.96760    0.50130   -0.00410    1.36910
 1281.50000   -9999.25   -9999.25   12.60910    0.50140    1.09920   21.52840    0.50130    0.00020    1.36890
 1282.00000   -9999.25   -9999.25   10.73490    0.50140    1.10070   21.75500    0.50130    0.00270    1.34000
 1282.50000   -9999.25   -9999.25    8.94490    0.50140    1.08950   21.91930    0.50130    0.00090    1.27710
 1283.00000   -9999.25   -9999.25    7.16150    0.50140    1.18060   22.00500    0.50130    0.00070    1.25090
 1283.50000   -9999.25   -9999.25    5.82070    0.50140    1.20080   22.06820    0.50130    0.00070    1.24170
 1284.00000   -9999.25   -9999.25    5.23320    0.50140    1.10620   22.10780    0.50130   -0.00130    1.23410
 1284.50000   -9999.25   -9999.25    4.91400    0.50140    0.97970   22.14250    0.50130   -0.00340    1.20500
 1285.00000   -9999.25   -9999.25    4.72830    0.50140    0.92950   22.18400    0.50130   -0.00420    1.17960
 1285.50000   -9999.25   -9999.25    4.41910    0.50140    0.93750   22.21430    0.50130   -0.00420    1.16220
 1286.00000   -9999.25   -9999.25    4.00940    0.50140    1.01500   22.23200    0.50130   -0.00420    1.17030
 1286.50000   -9999.25   -9999.25    3.74900    0.50140    1.10490   22.20900    0.50130   -0.00430    1.17840
 1287.00000   -9999.25   -9999.25    3.66750    0.50140    1.13790   22.17620    0.50130   -0.00530    1.18230
