~Version ---------------------------------------------------
VERS.   2.0 : CWLS log ASCII Standard -VERSION 2.0
WRAP.    NO : One line per depth step
DLM . SPACE : Column Data Section Delimiter
~Well ------------------------------------------------------
STRT .FT                 960.0 : START DEPTH
STOP .FT                8560.0 : STOP DEPTH
STEP .FT                   0.5 : STEP
NULL .                -9999.25 : NULL VALUE
COMP .                         : COMPANY
WELL .                         : WELL
FLD  .                         : FIELD
LOC  .                         : LOCATION
PROV .                         : PROVINCE
CNTY .                         : COUNTY
STAT .                         : STATE
CTRY .                         : COUNTRY
SRVC .                         : SERVICE COMPANY
DATE .                         : DATE
UWI  .                         : UNIQUE WELL ID
API  .                         : API NUMBER
SLAT .WGS84  6.465940295404202 : SURFACE LATITUDE
SLON .WGS84 2.5516224315777976 : SURFACE LONGITUDE
DATUM.F                    nan : DEPTH DATUM ELEV
~Curve Information -----------------------------------------
DEPT   .FT    : Depth Curve
CALD   .IN    : CALIPER FROM DENSITY LOG
CALI   .IN    : CALIPER
DPHZ_LS.DEC   : HGRD STANDARD RESOLUTION DENSITY POROSITY
DTCO   .US/F  : DELTA-T COMPRESSIONAL
DTSM   .US/F  : DELTA-T SHEAR
GRS    .GAPI  : GAMMA RAY FROM SONIC LOG
HDRA   .G/C3  : HRDD SPINE AND RIBS DENSITY CORRECTION
PEFZ   .B/E   : HRDD STANDARD RESOLUTION FORMATION PHOTOELECTRIC FACTOR
RHOZ   .G/C3  : HRDD STANDARD RESOLUTION FORMATION DENSITY
SGRD   .GAPI  : SPECTROSCOPY GAMMA RAY FROM DENSITY LOG
SPHI_LS.DEC   : SONIC POROSITY (LS) FROM SONIC LOG
TEND   .LBF   : DIFFERENTIAL TENSION FROM DENSITY LOG
TENS   .LB    : TENSION FROM SONIC LOG
TNPH_LS.DEC   : THERMAL NEUTRON POROSITY [LIMESTONE]
~Params ----------------------------------------------------
~Other -----------------------------------------------------
~ASCII -----------------------------------------------------
# ...
 7942.50000    8.99150    8.96080    0.04420   -9999.25   -9999.25   -9999.25    0.04340    5.03220    2.63790    5.31000   -9999.25 5740.84000   -9999.25    0.04200
 7943.00000    8.98230    8.94060    0.02450   -9999.25   -9999.25   -9999.25    0.02990    4.98850    2.67260    4.64320   -9999.25 5723.36600   -9999.25    0.03650
 7943.50000    8.97300    8.97330    0.00750   -9999.25   -9999.25   -9999.25    0.01650    4.94160    2.69470    3.65330   -9999.25 5698.50300   -9999.25    0.03210
 7944.00000    8.96370    8.97400    0.00610   -9999.25   -9999.25   -9999.25    0.00300    4.76230    2.70140    3.56200   -9999.25 5687.34900   -9999.25    0.02910
 7944.50000    8.95440    8.97470    0.00420   -9999.25   -9999.25   -9999.25   -0.00650    4.61370    2.70800    4.40580   -9999.25 5692.72000   -9999.25    0.02770
 7945.00000    8.95370    8.97530   -0.00290   -9999.25   -9999.25   -9999.25   -0.00650    4.32130    2.71750    5.78920   -9999.25 5698.09200   -9999.25    0.03020
 7945.50000    8.95290    8.96860   -0.01000   -9999.25   -9999.25   -9999.25    0.00360    4.11470    2.72960    7.23160   -9999.25 5701.48200   -9999.25    0.04020
 7946.00000    8.95220    8.92750   -0.01720   -9999.25   -9999.25   -9999.25    0.01380    3.51960    2.74160    6.77570   -9999.25 5696.94400   -9999.25    0.05780
 7946.50000    8.94140    8.92910   -0.02170   -9999.25   -9999.25   -9999.25    0.02400    3.39850    2.75300    7.29070   -9999.25 5692.40700   -9999.25    0.07630
 7947.00000    8.92400    8.91540   -0.02280   -9999.25   -9999.25   -9999.25    0.02740    3.16160    2.75090    9.37840   -9999.25 5687.86900   -9999.25    0.07440
 7947.50000    8.90660    8.90600   -0.01480   -9999.25   -9999.25   -9999.25    0.02160    3.11330    2.72820   12.25020   -9999.25 5697.00600   -9999.25    0.06900
 7948.00000    8.88920    8.88990    0.00010   -9999.25   -9999.25   -9999.25    0.01430    3.06540    2.70550   13.73220   -9999.25 5715.26000   -9999.25    0.06350
 7948.50000    8.87180    8.87380    0.01730   -9999.25   -9999.25   -9999.25    0.02150    2.90370    2.68280   12.50700   -9999.25 5733.51300   -9999.25    0.05890
 7949.00000    8.85440    8.86100    0.01640   -9999.25   -9999.25   -9999.25    0.03350    2.80370    2.68610   10.36910   -9999.25 5717.71100   -9999.25    0.05810
 7949.50000    8.85030    8.85730    0.01100   -9999.25   -9999.25   -9999.25    0.04540    2.76180    2.70170    8.23110   -9999.25 5679.20400   -9999.25    0.05670
 7950.00000    8.84860    8.85990    0.01010   -9999.25   -9999.25   -9999.25    0.04820    2.75670    2.69600    7.25830   -9999.25 5640.69800   -9999.25    0.05540
 7950.50000    8.84700    8.85130    0.02680   -9999.25   -9999.25   -9999.25    0.03340    2.76590    2.67480    6.74580   -9999.25 5602.19100   -9999.25    0.04750
 7951.00000    8.84530    8.84950    0.03570   -9999.25   -9999.25   -9999.25    0.01580    2.78610    2.65360    7.22800   -9999.25 5623.86400   -9999.25    0.03550
 7951.50000    8.84360    8.85420    0.03900   -9999.25   -9999.25   -9999.25    0.00240    2.95290    2.64800    7.32880   -9999.25 5670.60400   -9999.25    0.02350
 7952.00000    8.84190    8.85290    0.02610   -9999.25   -9999.25   -9999.25    0.00030    3.21990    2.66030    7.42960   -9999.25 5711.68300   -9999.25    0.01150
 7952.50000    8.84030    8.85330    0.01320   -9999.25   -9999.25   -9999.25    0.00020    3.79680    2.67890    7.39110   -9999.25 5748.17100   -9999.25    0.00110
 7953.00000    8.83860    8.85900    0.00460   -9999.25   -9999.25   -9999.25    0.00160    4.06910    2.69750    7.35250   -9999.25 5750.22800   -9999.25    0.00140
 7953.50000    8.83690    8.86730    0.00240   -9999.25   -9999.25   -9999.25    0.00510    4.30910    2.70670    7.38290   -9999.25 5752.28500   -9999.25    0.00360
 7954.00000    8.83520    8.87330    0.00100   -9999.25   -9999.25   -9999.25    0.00940    4.32980    2.70760    8.17300   -9999.25 5728.18500   -9999.25    0.00610
 7954.50000    8.83360    8.86690   -0.00460   -9999.25   -9999.25   -9999.25    0.01370    4.15260    2.72160    8.85800   -9999.25 5737.36700   -9999.25    0.01350
 7955.00000    8.83190    8.86040   -0.01120   -9999.25   -9999.25   -9999.25    0.01670    3.88660    2.73140    9.73170   -9999.25 5750.60100   -9999.25    0.02260
 7955.50000    8.83020    8.85130   -0.01770   -9999.25   -9999.25   -9999.25    0.01650    3.64030    2.73820    9.37920   -9999.25 5763.83500   -9999.25    0.03170
 7956.00000    8.82960    8.85460   -0.01260   -9999.25   -9999.25   -9999.25    0.01250    3.34670    2.72500    7.99770   -9999.25 5781.18800   -9999.25    0.04090
 7956.50000    8.84060    8.86360   -0.00370   -9999.25   -9999.25   -9999.25    0.00850    3.26610    2.71360    6.89020   -9999.25 5787.82400   -9999.25    0.05020
 7957.00000    8.85440    8.87740    0.00150   -9999.25   -9999.25   -9999.25    0.00550    3.22670    2.71130    6.66870   -9999.25 5794.45900   -9999.25    0.05940
 7957.50000    8.86820    8.88170   -0.00330   -9999.25   -9999.25   -9999.25    0.00480    3.22510    2.72510    7.16500   -9999.25 5796.52600   -9999.25    0.06270
 7958.00000    8.88210    8.88590   -0.01090   -9999.25   -9999.25   -9999.25    0.00620    3.21380    2.72920    8.13430   -9999.25 5780.31600   -9999.25    0.06170
 7958.50000    8.89590    8.88380   -0.00760   -9999.25   -9999.25   -9999.25    0.00760    3.13180    2.72200    8.41140   -9999.25 5764.10700   -9999.25    0.06540
 7959.00000    8.90970    8.87750    0.00020   -9999.25   -9999.25   -9999.25    0.00560    3.07950    2.71480    8.63310   -9999.25 5747.89800   -9999.25    0.06910
 7959.50000    8.92350    8.88770    0.00070   -9999.25   -9999.25   -9999.25    0.00120    3.13400    2.71560    9.25810   -9999.25 5718.79600   -9999.25    0.07000
 7960.00000    8.93730    8.89780   -0.00610   -9999.25   -9999.25   -9999.25    0.00190    3.22460    2.72830   10.82040   -9999.25 5701.92100   -9999.25    0.06960
 7960.50000    8.94010    8.88870   -0.01360   -9999.25   -9999.25   -9999.25    0.00960    3.28860    2.74110   11.40620   -9999.25 5688.41100   -9999.25    0.06750
 7961.00000    8.90240    8.87960   -0.02110   -9999.25   -9999.25   -9999.25    0.02030    3.30260    2.75380   10.01390   -9999.25 5706.52800   -9999.25    0.06600
 7961.50000    8.86470    8.87040   -0.02550   -9999.25   -9999.25   -9999.25    0.03110    3.30290    2.74830    9.35080   -9999.25 5726.66100   -9999.25    0.06420
 7962.00000    9.03680    8.86130   -0.02080   -9999.25   -9999.25   -9999.25    0.03520    3.30300    2.73820    8.68770   -9999.25 5746.79400   -9999.25    0.06200
 7962.50000    9.13360    9.02800   -0.01390   -9999.25   -9999.25   -9999.25    0.02350    3.28520    2.72810    8.02460   -9999.25 5766.92600   -9999.25    0.06060
 7963.00000    8.80190    8.84620   -0.00700   -9999.25   -9999.25   -9999.25    0.01190    3.19440    2.71940    7.39100   -9999.25 5776.31900   -9999.25    0.05810
 7963.50000    8.80190    8.85130   -0.00680   -9999.25   -9999.25   -9999.25    0.00560    3.18150    2.72750    8.65130   -9999.25 5778.55200   -9999.25    0.05050
 7964.00000    8.85620    8.85640   -0.01500   -9999.25   -9999.25   -9999.25    0.00210    3.22100    2.73710   10.62710   -9999.25 5780.78500   -9999.25    0.04300
 7964.50000    8.91050    8.86150   -0.01200   -9999.25   -9999.25   -9999.25   -0.00070    3.23570    2.72840   12.76880   -9999.25 5783.01800   -9999.25    0.03600
 7965.00000    8.95390    8.86660   -0.00260   -9999.25   -9999.25   -9999.25   -0.00070    3.17870    2.71480   12.25180   -9999.25 5785.25100   -9999.25    0.02770
 7965.50000    8.92940    8.87160    0.00690   -9999.25   -9999.25   -9999.25    0.00030    3.08220    2.70080   10.48730   -9999.25 5787.48400   -9999.25    0.01560
 7966.00000    8.86790    8.87670    0.01200   -9999.25   -9999.25   -9999.25    0.00120    2.98560    2.68680    8.97300   -9999.25 5780.72800   -9999.25    0.00350
 7966.50000    8.82960    8.88180    0.01280   -9999.25   -9999.25   -9999.25    0.00220    2.88900    2.68900    7.26090   -9999.25 5769.50800   -9999.25   -0.00500
