~Version ---------------------------------------------------
VERS.   2.0 : CWLS log ASCII Standard -VERSION 2.0
WRAP.    NO : One line per depth step
DLM . SPACE : Column Data Section Delimiter
~Well ------------------------------------------------------
STRT .FT                 960.0 : START DEPTH
STOP .FT                8560.0 : STOP DEPTH
STEP .FT                   0.5 : STEP
NULL .                -9999.25 : NULL VALUE
COMP .                         : COMPANY
WELL .                         : WELL
FLD  .                         : FIELD
LOC  .                         : LOCATION
PROV .                         : PROVINCE
CNTY .                         : COUNTY
STAT .                         : STATE
CTRY .                         : COUNTRY
SRVC .                         : SERVICE COMPANY
DATE .                         : DATE
UWI  .                         : UNIQUE WELL ID
API  .                         : API NUMBER
SLAT .WGS84  6.465940295404202 : SURFACE LATITUDE
SLON .WGS84 2.5516224315777976 : SURFACE LONGITUDE
DATUM.F                    nan : DEPTH DATUM ELEV
~Curve Information -----------------------------------------
DEPT   .FT    : Depth Curve
CALD   .IN    : CALIPER FROM DENSITY LOG
CALI   .IN    : CALIPER
DPHZ_LS.DEC   : HGRD STANDARD RESOLUTION DENSITY POROSITY
DTCO   .US/F  : DELTA-T COMPRESSIONAL
DTSM   .US/F  : DELTA-T SHEAR
GRS    .GAPI  : GAMMA RAY FROM SONIC LOG
HDRA   .G/C3  : HRDD SPINE AND RIBS DENSITY CORRECTION
PEFZ   .B/E   : HRDD STANDARD RESOLUTION FORMATION PHOTOELECTRIC FACTOR
RHOZ   .G/C3  : HRDD STANDARD RESOLUTION FORMATION DENSITY
SGRD   .GAPI  : SPECTROSCOPY GAMMA RAY FROM DENSITY LOG
SPHI_LS.DEC   : SONIC POROSITY (LS) FROM SONIC LOG
TEND   .LBF   : DIFFERENTIAL TENSION FROM DENSITY LOG
TENS   .LB    : TENSION FROM SONIC LOG
TNPH_LS.DEC   : THERMAL NEUTRON POROSITY [LIMESTONE]
~Params ----------------------------------------------------
~Other -----------------------------------------------------
~ASCII -----------------------------------------------------
# ...
 7330.00000    8.97460    8.96240    0.02250   -9999.25   -9999.25   -9999.25    0.00460    3.43760    2.67210   29.60350   -9999.25 5500.02300   -9999.25    0.03250
 7330.50000    8.97670    8.95960    0.02350   -9999.25   -9999.25   -9999.25    0.00470    3.43500    2.67140   29.98860   -9999.25 5495.72600   -9999.25    0.03470
 7331.00000    8.97870    8.95680    0.02370   -9999.25   -9999.25   -9999.25    0.00470    3.43240    2.67340   30.37370   -9999.25 5491.43000   -9999.25    0.03680
 7331.50000    8.98080    8.95400    0.01960   -9999.25   -9999.25   -9999.25    0.00480    3.32420    2.67910   30.75890   -9999.25 5487.13300   -9999.25    0.03860
 7332.00000    8.98290    8.92740    0.01660   -9999.25   -9999.25   -9999.25    0.00480    3.32420    2.68250   30.63670   -9999.25 5510.24000   -9999.25    0.03970
 7332.50000    8.98490    8.92020    0.01690   -9999.25   -9999.25   -9999.25    0.00490    3.33050    2.68180   30.48390   -9999.25 5509.81100   -9999.25    0.03790
 7333.00000    8.98700    8.93330    0.01940   -9999.25   -9999.25   -9999.25    0.00490    3.35010    2.67800   30.33120   -9999.25 5509.38100   -9999.25    0.03690
 7333.50000    8.98910    8.91950    0.02400   -9999.25   -9999.25   -9999.25    0.00500    3.37430    2.66740   30.17840   -9999.25 5496.88500   -9999.25    0.03870
 7334.00000    8.99110    8.91950    0.02860   -9999.25   -9999.25   -9999.25    0.00500    3.38780    2.65940   29.75710   -9999.25 5515.02200   -9999.25    0.03970
 7334.50000    8.99190    8.91970    0.03010   -9999.25   -9999.25   -9999.25    0.00510    3.39850    2.66210   29.32240   -9999.25 5533.15900   -9999.25    0.03940
 7335.00000    8.99190    8.91990    0.02750   -9999.25   -9999.25   -9999.25    0.00510    3.33890    2.66890   28.72220   -9999.25 5551.29600   -9999.25    0.03600
 7335.50000    8.99190    8.92000    0.02150   -9999.25   -9999.25   -9999.25    0.00520    3.33890    2.67540   27.35710   -9999.25 5557.95100   -9999.25    0.03260
 7336.00000    8.99190    8.92020    0.01740   -9999.25   -9999.25   -9999.25    0.00520    3.33890    2.68090   26.72660   -9999.25 5553.97600   -9999.25    0.02920
 7336.50000    8.99190    8.92040    0.01660   -9999.25   -9999.25   -9999.25    0.00530    3.39640    2.68430   26.81270   -9999.25 5550.00100   -9999.25    0.02920
 7337.00000    8.99190    8.92060    0.01410   -9999.25   -9999.25   -9999.25    0.01010    3.39760    2.68770   27.56660   -9999.25 5532.75300   -9999.25    0.03180
 7337.50000    8.99190    8.92080    0.01130   -9999.25   -9999.25   -9999.25    0.00600    3.38310    2.69250   27.60540   -9999.25 5536.85800   -9999.25    0.03390
 7338.00000    8.99190    8.92100    0.01220   -9999.25   -9999.25   -9999.25    0.00600    3.32720    2.67940   28.68290   -9999.25 5544.98100   -9999.25    0.03390
 7338.50000    8.99190    8.92110    0.02140   -9999.25   -9999.25   -9999.25    0.00530    3.27490    2.66110   29.81740   -9999.25 5553.10400   -9999.25    0.03330
 7339.00000    8.99190    8.92130    0.03260   -9999.25   -9999.25   -9999.25    0.00530    3.20980    2.65430   30.95200   -9999.25 5556.74800   -9999.25    0.03640
 7339.50000    8.99140    8.92150    0.03060   -9999.25   -9999.25   -9999.25    0.00530    3.14980    2.66120   28.90360   -9999.25 5542.48000   -9999.25    0.02960
 7340.00000    8.98870    8.92730    0.02560   -9999.25   -9999.25   -9999.25    0.00650    3.08980    2.66810   25.05400   -9999.25 5528.21300   -9999.25    0.01840
 7340.50000    8.98590    8.91820    0.02320   -9999.25   -9999.25   -9999.25    0.00800    3.02980    2.67080   21.20440   -9999.25 5513.94500   -9999.25    0.01130
 7341.00000    8.98320    8.90910    0.02320   -9999.25   -9999.25   -9999.25    0.00950    2.97830    2.67000   18.96740   -9999.25 5498.11200   -9999.25    0.01120
 7341.50000    8.98040    8.91440    0.02340   -9999.25   -9999.25   -9999.25    0.01070    3.06650    2.66880   17.78020   -9999.25 5491.47000   -9999.25    0.01170
 7342.00000    8.97770    8.91670    0.02540   -9999.25   -9999.25   -9999.25    0.00780    3.15460    2.66770   18.20990   -9999.25 5484.82700   -9999.25    0.01230
 7342.50000    8.97500    8.91400    0.02730   -9999.25   -9999.25   -9999.25    0.00380    3.24270    2.66170   19.76440   -9999.25 5506.54500   -9999.25    0.01300
 7343.00000    8.97220    8.91130    0.03200   -9999.25   -9999.25   -9999.25    0.00350    3.29140    2.65430   20.39160   -9999.25 5486.11000   -9999.25    0.01430
 7343.50000    8.96950    8.90860    0.03710   -9999.25   -9999.25   -9999.25    0.00580    3.21110    2.64690   19.62800   -9999.25 5479.05100   -9999.25    0.01450
 7344.00000    8.96670    8.90590    0.03820   -9999.25   -9999.25   -9999.25    0.00800    3.08000    2.64340   19.23460   -9999.25 5479.58400   -9999.25    0.01170
 7344.50000    8.96400    8.90320    0.04320   -9999.25   -9999.25   -9999.25    0.01050    2.96130    2.63570   18.67020   -9999.25 5480.11700   -9999.25    0.00920
 7345.00000    8.96130    8.90490    0.04320   -9999.25   -9999.25   -9999.25    0.00870    2.87840    2.63360   19.13790   -9999.25 5480.65000   -9999.25    0.01020
 7345.50000    8.95850    8.91860    0.03920   -9999.25   -9999.25   -9999.25    0.00420    3.00140    2.64300   19.97890   -9999.25 5492.43400   -9999.25    0.01140
 7346.00000    8.95580    8.91390    0.02350   -9999.25   -9999.25   -9999.25    0.00640    3.34300    2.66830   20.81980   -9999.25 5511.72000   -9999.25    0.00860
 7346.50000    8.95310    8.90910    0.01280   -9999.25   -9999.25   -9999.25    0.01130    3.53420    2.69020   21.56290   -9999.25 5531.00500   -9999.25    0.00780
 7347.00000    8.95030    8.90440    0.02230   -9999.25   -9999.25   -9999.25    0.01390    3.40540    2.67280   19.64190   -9999.25 5538.71900   -9999.25    0.00780
 7347.50000    8.94760    8.89960    0.03870   -9999.25   -9999.25   -9999.25    0.01040    3.23090    2.65320   20.11050   -9999.25 5538.71900   -9999.25    0.00800
 7348.00000    8.94480    8.88290    0.04200   -9999.25   -9999.25   -9999.25    0.00550    3.23020    2.64130   22.73900   -9999.25 5538.71900   -9999.25    0.00950
 7348.50000    8.94210    8.88490    0.02780   -9999.25   -9999.25   -9999.25    0.00790    3.28450    2.65960   26.06400   -9999.25 5538.71900   -9999.25    0.01160
 7349.00000    8.93940    8.88690    0.02620   -9999.25   -9999.25   -9999.25    0.02000    3.31140    2.65910   25.78050   -9999.25 5538.71900   -9999.25    0.01240
 7349.50000    8.93660    8.93690    0.03920   -9999.25   -9999.25   -9999.25    0.02060    3.31070    2.64640   23.75770   -9999.25 5538.71900   -9999.25    0.01180
 7350.00000    8.93390    8.98690    0.04820   -9999.25   -9999.25   -9999.25    0.01500    3.47810    2.63380   23.63550   -9999.25 5538.71900   -9999.25    0.01110
 7350.50000    8.93110    8.99240    0.04310   -9999.25   -9999.25   -9999.25    0.01010    3.80310    2.62770   25.38140   -9999.25 5538.71900   -9999.25    0.01000
 7351.00000    8.92840    8.96830    0.04110   -9999.25   -9999.25   -9999.25    0.00510    3.88550    2.64430   26.54090   -9999.25 5519.19500   -9999.25    0.00860
 7351.50000    8.92570    8.94410    0.04680   -9999.25   -9999.25   -9999.25    0.00370    3.48210    2.63060   25.55290   -9999.25 5495.64000   -9999.25    0.00860
 7352.00000    8.92290    8.92000    0.05470   -9999.25   -9999.25   -9999.25    0.00230    2.92430    2.61680   22.31700   -9999.25 5472.08500   -9999.25    0.00880
 7352.50000    8.92020    8.89590    0.06270   -9999.25   -9999.25   -9999.25    0.00210    2.59200    2.60310   22.95830   -9999.25 5453.24100   -9999.25    0.00970
 7353.00000    8.91740    8.87170    0.06640   -9999.25   -9999.25   -9999.25    0.00170    2.55360    2.59890   26.86500   -9999.25 5480.74000   -9999.25    0.01050
 7353.50000    8.91470    8.86690    0.05610   -9999.25   -9999.25   -9999.25    0.00130    2.76550    2.61260   31.22750   -9999.25 5508.24000   -9999.25    0.01180
 7354.00000    8.91200    8.86690    0.04450   -9999.25   -9999.25   -9999.25    0.00100    3.09590    2.63540   29.92160   -9999.25 5507.79500   -9999.25    0.01310
