~Version ---------------------------------------------------
VERS.   2.0 : CWLS log ASCII Standard -VERSION 2.0
WRAP.    NO : One line per depth step
DLM . SPACE : Column Data Section Delimiter
~Well ------------------------------------------------------
STRT .FT                 960.0 : START DEPTH
STOP .FT                8560.0 : STOP DEPTH
STEP .FT                   0.5 : STEP
NULL .                -9999.25 : NULL VALUE
COMP .                         : COMPANY
WELL .                         : WELL
FLD  .                         : FIELD
LOC  .                         : LOCATION
PROV .                         : PROVINCE
CNTY .                         : COUNTY
STAT .                         : STATE
CTRY .                         : COUNTRY
SRVC .                         : SERVICE COMPANY
DATE .                         : DATE
UWI  .                         : UNIQUE WELL ID
API  .                         : API NUMBER
SLAT .WGS84  6.465940295404202 : SURFACE LATITUDE
SLON .WGS84 2.5516224315777976 : SURFACE LONGITUDE
DATUM.F                    nan : DEPTH DATUM ELEV
~Curve Information -----------------------------------------
DEPT   .FT    : Depth Curve
CALD   .IN    : CALIPER FROM DENSITY LOG
CALI   .IN    : CALIPER
DPHZ_LS.DEC   : HGRD STANDARD RESOLUTION DENSITY POROSITY
DTCO   .US/F  : DELTA-T COMPRESSIONAL
DTSM   .US/F  : DELTA-T SHEAR
GRS    .GAPI  : GAMMA RAY FROM SONIC LOG
HDRA   .G/C3  : HRDD SPINE AND RIBS DENSITY CORRECTION
PEFZ   .B/E   : HRDD STANDARD RESOLUTION FORMATION PHOTOELECTRIC FACTOR
RHOZ   .G/C3  : HRDD STANDARD RESOLUTION FORMATION DENSITY
SGRD   .GAPI  : SPECTROSCOPY GAMMA RAY FROM DENSITY LOG
SPHI_LS.DEC   : SONIC POROSITY (LS) FROM SONIC LOG
TEND   .LBF   : DIFFERENTIAL TENSION FROM DENSITY LOG
TENS   .LB    : TENSION FROM SONIC LOG
TNPH_LS.DEC   : THERMAL NEUTRON POROSITY [LIMESTONE]
~Params ----------------------------------------------------
~Other -----------------------------------------------------
~ASCII -----------------------------------------------------
# ...
 7134.00000    8.97680    8.95360    0.06190   -9999.25   -9999.25   -9999.25   -0.01030    3.91300    2.60730   21.35080   -9999.25 5601.10900   -9999.25    0.01970
 7134.50000    8.92420    8.88370    0.05910   -9999.25   -9999.25   -9999.25   -0.01050    3.91300    2.60750   21.40190   -9999.25 5591.38800   -9999.25    0.02080
 7135.00000    8.87150    8.74740    0.05920   -9999.25   -9999.25   -9999.25   -0.01050    3.89930    2.60770   21.98670   -9999.25 5581.66700   -9999.25    0.01950
 7135.50000    8.82610    8.79920    0.06080   -9999.25   -9999.25   -9999.25   -0.00980    3.88560    2.60790   22.09410   -9999.25 5595.88300   -9999.25    0.01810
 7136.00000    8.84660    8.83090    0.06020   -9999.25   -9999.25   -9999.25   -0.00890    3.88560    2.60810   22.28610   -9999.25 5606.89100   -9999.25    0.01920
 7136.50000    8.90380    8.86560    0.05640   -9999.25   -9999.25   -9999.25   -0.00700    3.83920    2.61020   24.09010   -9999.25 5617.89900   -9999.25    0.02120
 7137.00000    8.96110    8.90030    0.05250   -9999.25   -9999.25   -9999.25   -0.00560    3.79850    2.61950   24.50370   -9999.25 5628.90700   -9999.25    0.02310
 7137.50000    9.03130    8.86760    0.04860   -9999.25   -9999.25   -9999.25   -0.00370    3.75770    2.62500   23.95950   -9999.25 5599.64300   -9999.25    0.02360
 7138.00000    9.00350    8.86760    0.04470   -9999.25   -9999.25   -9999.25   -0.00140    3.71690    2.62990   22.59900   -9999.25 5563.06200   -9999.25    0.02100
 7138.50000    8.97560    8.90730    0.04080   -9999.25   -9999.25   -9999.25    0.00100    3.67620    2.63960   21.24690   -9999.25 5541.65100   -9999.25    0.02030
 7139.00000    8.94780    8.92570    0.03690   -9999.25   -9999.25   -9999.25    0.00330    3.63540    2.64810   22.64260   -9999.25 5552.95400   -9999.25    0.02220
 7139.50000    8.93160    8.90650    0.03380   -9999.25   -9999.25   -9999.25    0.00570    3.61090    2.64890   24.72140   -9999.25 5545.61700   -9999.25    0.02390
 7140.00000    8.91910    8.88170    0.03960   -9999.25   -9999.25   -9999.25    0.00680    3.59720    2.63360   25.34130   -9999.25 5538.28000   -9999.25    0.02570
 7140.50000    8.90900    8.86670    0.05420   -9999.25   -9999.25   -9999.25    0.00680    3.63230    2.61430   25.43420   -9999.25 5538.04600   -9999.25    0.02500
 7141.00000    8.86760    8.86640    0.06880   -9999.25   -9999.25   -9999.25    0.00100    3.68570    2.59510   23.16320   -9999.25 5459.81100   -9999.25    0.02360
 7141.50000    8.76010    8.79540    0.07840   -9999.25   -9999.25   -9999.25   -0.00490    3.72080    2.57670   22.07190   -9999.25 5381.57500   -9999.25    0.02170
 7142.00000    8.66030    8.66530    0.07540   -9999.25   -9999.25   -9999.25   -0.00490    3.70700    2.58650   22.79960   -9999.25 5368.32500   -9999.25    0.02270
 7142.50000    8.63260    8.71230    0.06310   -9999.25   -9999.25   -9999.25    0.00200    3.67130    2.60500   22.97460   -9999.25 5413.43600   -9999.25    0.02410
 7143.00000    8.87100    8.91770    0.05090   -9999.25   -9999.25   -9999.25    0.00890    3.66580    2.62050   23.45160   -9999.25 5458.54700   -9999.25    0.02210
 7143.50000    8.92280    9.01190    0.05420   -9999.25   -9999.25   -9999.25    0.00110    3.70450    2.61890   22.65280   -9999.25 5458.17400   -9999.25    0.01970
 7144.00000    8.95740    8.93620    0.06090   -9999.25   -9999.25   -9999.25   -0.00820    3.76070    2.60570   22.95280   -9999.25 5471.37000   -9999.25    0.02020
 7144.50000    8.85600    8.76590    0.06770   -9999.25   -9999.25   -9999.25   -0.01190    3.81690    2.59730   23.55140   -9999.25 5484.56600   -9999.25    0.02060
 7145.00000    8.72940    8.76310    0.06660   -9999.25   -9999.25   -9999.25   -0.00910    3.81690    2.59070   23.55140   -9999.25 5489.49200   -9999.25    0.02060
 7145.50000    8.90900    8.96650    0.06030   -9999.25   -9999.25   -9999.25   -0.00630    3.73450    2.60560   23.34640   -9999.25 5474.80200   -9999.25    0.01960
 7146.00000    8.96430    8.96650    0.05400   -9999.25   -9999.25   -9999.25   -0.00390    3.64870    2.62060   22.02230   -9999.25 5469.08800   -9999.25    0.01720
 7146.50000    8.96520    8.96650    0.05060   -9999.25   -9999.25   -9999.25   -0.00150    3.61090    2.62360   21.35700   -9999.25 5463.37300   -9999.25    0.01810
 7147.00000    8.96740    8.95140    0.05030   -9999.25   -9999.25   -9999.25   -0.00010    3.67960    2.62080   21.91730   -9999.25 5449.72700   -9999.25    0.02080
 7147.50000    8.96960    8.95540    0.05390   -9999.25   -9999.25   -9999.25    0.00060    3.66580    2.61530   21.95890   -9999.25 5462.96100   -9999.25    0.02250
 7148.00000    8.97190    8.96210    0.05920   -9999.25   -9999.25   -9999.25    0.00060    3.66490    2.60840   22.00050   -9999.25 5476.19400   -9999.25    0.02210
 7148.50000    8.97410    8.96870    0.06130   -9999.25   -9999.25   -9999.25    0.00060    3.66000    2.60460   20.98020   -9999.25 5466.82200   -9999.25    0.02040
 7149.00000    8.97630    8.97540    0.05640   -9999.25   -9999.25   -9999.25    0.00060    3.65500    2.61440   21.25770   -9999.25 5465.78400   -9999.25    0.01950
 7149.50000    8.97810    8.98210    0.05030   -9999.25   -9999.25   -9999.25    0.00060    3.63840    2.62410   23.01570   -9999.25 5475.30700   -9999.25    0.01980
 7150.00000    8.97990    8.98880    0.04690   -9999.25   -9999.25   -9999.25    0.00060    3.65580    2.63050   23.94730   -9999.25 5484.83100   -9999.25    0.01980
 7150.50000    8.98450    8.99540    0.04560   -9999.25   -9999.25   -9999.25    0.00060    3.69950    2.63050   25.08260   -9999.25 5494.35400   -9999.25    0.01990
 7151.00000    8.98900    8.98130    0.04290   -9999.25   -9999.25   -9999.25    0.00060    3.73450    2.63830   24.69230   -9999.25 5503.87700   -9999.25    0.02000
 7151.50000    8.99360    8.99840    0.03840   -9999.25   -9999.25   -9999.25    0.00060    3.66580    2.65130   22.81530   -9999.25 5513.40100   -9999.25    0.01930
 7152.00000    8.99810    8.99890    0.03540   -9999.25   -9999.25   -9999.25    0.00060    3.57660    2.64490   22.04340   -9999.25 5493.75500   -9999.25    0.01810
 7152.50000    9.00270    8.99940    0.04100   -9999.25   -9999.25   -9999.25    0.00060    3.61090    2.63370   22.02580   -9999.25 5507.56300   -9999.25    0.01810
 7153.00000    9.00720    9.01480    0.05000   -9999.25   -9999.25   -9999.25   -0.00010    3.68480    2.62250   23.29090   -9999.25 5521.37100   -9999.25    0.01810
 7153.50000    9.01180    9.01470    0.05670   -9999.25   -9999.25   -9999.25   -0.00120    3.75880    2.61230   24.63940   -9999.25 5531.60000   -9999.25    0.01960
 7154.00000    9.01630    9.01470    0.05910   -9999.25   -9999.25   -9999.25   -0.00220    3.80310    2.60720   25.31790   -9999.25 5536.46300   -9999.25    0.02030
 7154.50000    9.02080    9.01470    0.06270   -9999.25   -9999.25   -9999.25   -0.00290    3.80310    2.59670   25.23490   -9999.25 5541.32600   -9999.25    0.02030
 7155.00000    9.02540    9.01460    0.07610   -9999.25   -9999.25   -9999.25   -0.00370    3.80310    2.57840   24.69230   -9999.25 5546.18800   -9999.25    0.02030
 7155.50000    9.02990    9.01460    0.10070   -9999.25   -9999.25   -9999.25   -0.00320    3.78940    2.53940   23.26300   -9999.25 5538.81500   -9999.25    0.02030
 7156.00000    9.03450    9.01460    0.12530   -9999.25   -9999.25   -9999.25    0.01580    3.75020    2.48670   22.00260   -9999.25 5523.28400   -9999.25    0.02030
 7156.50000    9.03520    9.00410    0.12830   -9999.25   -9999.25   -9999.25    0.04210    3.72070    2.48830   22.09010   -9999.25 5507.75400   -9999.25    0.02030
 7157.00000    9.02050    8.99860    0.11890   -9999.25   -9999.25   -9999.25    0.08000    3.69130    2.52070   24.29040   -9999.25 5545.75200   -9999.25    0.02360
 7157.50000    9.00580    8.99820    0.10070   -9999.25   -9999.25   -9999.25    0.11790    3.67630    2.55310   26.49070   -9999.25 5563.04600   -9999.25    0.02770
 7158.00000    8.99660    8.98470    0.08250   -9999.25   -9999.25   -9999.25    0.15590    3.72880    2.58550   28.69100   -9999.25 5580.33900   -9999.25    0.03020
