~Version ---------------------------------------------------
VERS.   2.0 : CWLS log ASCII Standard -VERSION 2.0
WRAP.    NO : One line per depth step
DLM . SPACE : Column Data Section Delimiter
~Well ------------------------------------------------------
STRT .FT                 960.0 : START DEPTH
STOP .FT                8560.0 : STOP DEPTH
STEP .FT                   0.5 : STEP
NULL .                -9999.25 : NULL VALUE
COMP .                         : COMPANY
WELL .                         : WELL
FLD  .                         : FIELD
LOC  .                         : LOCATION
PROV .                         : PROVINCE
CNTY .                         : COUNTY
STAT .                         : STATE
CTRY .                         : COUNTRY
SRVC .                         : SERVICE COMPANY
DATE .                         : DATE
UWI  .                         : UNIQUE WELL ID
API  .                         : API NUMBER
SLAT .WGS84  6.465940295404202 : SURFACE LATITUDE
SLON .WGS84 2.5516224315777976 : SURFACE LONGITUDE
DATUM.F                    nan : DEPTH DATUM ELEV
~Curve Information -----------------------------------------
DEPT   .FT    : Depth Curve
CALD   .IN    : CALIPER FROM DENSITY LOG
CALI   .IN    : CALIPER
DPHZ_LS.DEC   : HGRD STANDARD RESOLUTION DENSITY POROSITY
DTCO   .US/F  : DELTA-T COMPRESSIONAL
DTSM   .US/F  : DELTA-T SHEAR
GRS    .GAPI  : GAMMA RAY FROM SONIC LOG
HDRA   .G/C3  : HRDD SPINE AND RIBS DENSITY CORRECTION
PEFZ   .B/E   : HRDD STANDARD RESOLUTION FORMATION PHOTOELECTRIC FACTOR
RHOZ   .G/C3  : HRDD STANDARD RESOLUTION FORMATION DENSITY
SGRD   .GAPI  : SPECTROSCOPY GAMMA RAY FROM DENSITY LOG
SPHI_LS.DEC   : SONIC POROSITY (LS) FROM SONIC LOG
TEND   .LBF   : DIFFERENTIAL TENSION FROM DENSITY LOG
TENS   .LB    : TENSION FROM SONIC LOG
TNPH_LS.DEC   : THERMAL NEUTRON POROSITY [LIMESTONE]
~Params ----------------------------------------------------
~Other -----------------------------------------------------
~ASCII -----------------------------------------------------
# ...
 7746.50000    9.39670    9.38890   -0.03830   -9999.25   -9999.25   -9999.25    0.04780    3.67690    2.77520   94.14510   -9999.25 5804.59600   -9999.25    0.12250
 7747.00000    9.38680    9.37230   -0.03070   -9999.25   -9999.25   -9999.25    0.02080    3.78790    2.75320   96.75390   -9999.25 5808.04800   -9999.25    0.12060
 7747.50000    9.38580    9.37290   -0.02410   -9999.25   -9999.25   -9999.25    0.00720    3.86010    2.74920   99.17720   -9999.25 5811.50000   -9999.25    0.12060
 7748.00000    9.43420    9.42040   -0.02170   -9999.25   -9999.25   -9999.25    0.01070    3.88900    2.74510   98.20650   -9999.25 5814.95200   -9999.25    0.12530
 7748.50000    9.47140    9.46790   -0.01940   -9999.25   -9999.25   -9999.25    0.01850    3.84030    2.74220   95.05270   -9999.25 5834.81100   -9999.25    0.13240
 7749.00000    9.50860    9.55140   -0.01860   -9999.25   -9999.25   -9999.25    0.02580    3.77440    2.74080   92.71760   -9999.25 5800.95800   -9999.25    0.14110
 7749.50000    9.53090    9.59100   -0.01970   -9999.25   -9999.25   -9999.25    0.03210    3.74570    2.74280   95.03560   -9999.25 5767.10600   -9999.25    0.14620
 7750.00000    9.51710    9.52150   -0.02640   -9999.25   -9999.25   -9999.25    0.04910    3.72900    2.75500   96.83330   -9999.25 5759.16100   -9999.25    0.14870
 7750.50000    9.48720    9.52060   -0.03320   -9999.25   -9999.25   -9999.25    0.06910    3.71240    2.76580   98.63100   -9999.25 5757.69400   -9999.25    0.15280
 7751.00000    9.47560    9.54400   -0.03840   -9999.25   -9999.25   -9999.25    0.10050    3.69580    2.77510   99.70680   -9999.25 5756.22600   -9999.25    0.15640
 7751.50000    9.51020    9.56750   -0.03720   -9999.25   -9999.25   -9999.25    0.13680    3.70920    2.77230  100.99960   -9999.25 5754.75800   -9999.25    0.15690
 7752.00000    9.53090    9.56600   -0.03970   -9999.25   -9999.25   -9999.25    0.16200    3.66250    2.77710  102.54350   -9999.25 5764.92000   -9999.25    0.15210
 7752.50000    9.56710    9.60210   -0.03970   -9999.25   -9999.25   -9999.25    0.15180    3.63330    2.77700  103.99430   -9999.25 5775.08200   -9999.25    0.14670
 7753.00000    9.60330    9.63810   -0.03320   -9999.25   -9999.25   -9999.25    0.12900    3.58140    2.76870  104.41260   -9999.25 5785.24400   -9999.25    0.14560
 7753.50000    9.63950    9.67410   -0.02670   -9999.25   -9999.25   -9999.25    0.10610    3.47780    2.75490  103.68040   -9999.25 5760.83900   -9999.25    0.14650
 7754.00000    9.67570    9.68530   -0.02020   -9999.25   -9999.25   -9999.25    0.09800    3.47640    2.74110  101.61900   -9999.25 5764.46900   -9999.25    0.15540
 7754.50000    9.68290    9.69660   -0.01370   -9999.25   -9999.25   -9999.25    0.10350    3.47510    2.73080  100.24160   -9999.25 5768.10000   -9999.25    0.15910
 7755.00000    9.68290    9.70780   -0.01460   -9999.25   -9999.25   -9999.25    0.12960    3.52310    2.73300   99.25170   -9999.25 5742.95200   -9999.25    0.15890
 7755.50000    9.71060    9.71910   -0.02540   -9999.25   -9999.25   -9999.25    0.14280    3.55870    2.75160   99.06150   -9999.25 5748.31400   -9999.25    0.15580
 7756.00000    9.75660    9.73030   -0.03890   -9999.25   -9999.25   -9999.25    0.14410    3.59770    2.77230   99.37310   -9999.25 5753.67700   -9999.25    0.15280
 7756.50000    9.79350    9.74160   -0.03500   -9999.25   -9999.25   -9999.25    0.13230    3.58180    2.77170   98.98580   -9999.25 5759.03900   -9999.25    0.14980
 7757.00000    9.77970    9.71760   -0.02840   -9999.25   -9999.25   -9999.25    0.12230    3.56590    2.76150   98.86420   -9999.25 5771.93600   -9999.25    0.15090
 7757.50000    9.71940    9.68700   -0.02700   -9999.25   -9999.25   -9999.25    0.11220    3.54990    2.75870   98.74250   -9999.25 5784.83300   -9999.25    0.15390
 7758.00000    9.64400    9.76290   -0.03120   -9999.25   -9999.25   -9999.25    0.10220    3.54640    2.76150   98.62080   -9999.25 5797.73100   -9999.25    0.15680
 7758.50000    9.61380    9.67000   -0.03480   -9999.25   -9999.25   -9999.25    0.09530    3.58130    2.76850   97.74130   -9999.25 5808.79400   -9999.25    0.15720
 7759.00000    9.63460    9.64750   -0.03850   -9999.25   -9999.25   -9999.25    0.09390    3.61620    2.77660   96.44860   -9999.25 5812.52500   -9999.25    0.15150
 7759.50000    9.66910    9.67380   -0.04220   -9999.25   -9999.25   -9999.25    0.10060    3.61700    2.78230   95.71060   -9999.25 5816.25500   -9999.25    0.14750
 7760.00000    9.68290    9.70020   -0.03700   -9999.25   -9999.25   -9999.25    0.10510    3.62530    2.77270   95.93400   -9999.25 5800.83100   -9999.25    0.14560
 7760.50000    9.68290    9.72360   -0.02890   -9999.25   -9999.25   -9999.25    0.10860    3.63540    2.75900   96.36700   -9999.25 5772.63700   -9999.25    0.14660
 7761.00000    9.68610    9.72690   -0.02710   -9999.25   -9999.25   -9999.25    0.10790    3.64550    2.75470   97.43040   -9999.25 5744.44300   -9999.25    0.14470
 7761.50000    9.70740    9.72430   -0.02890   -9999.25   -9999.25   -9999.25    0.11960    3.65560    2.76080   98.19060   -9999.25 5716.24900   -9999.25    0.14300
 7762.00000    9.72440    9.70750   -0.03080   -9999.25   -9999.25   -9999.25    0.13550    3.60450    2.76460  100.32770   -9999.25 5749.21800   -9999.25    0.14380
 7762.50000    9.87180    9.79700   -0.03260   -9999.25   -9999.25   -9999.25    0.13700    3.57940    2.76690   99.36890   -9999.25 5804.26700   -9999.25    0.14920
 7763.00000    9.90400    9.91530   -0.03350   -9999.25   -9999.25   -9999.25    0.12890    3.51640    2.76550   98.29850   -9999.25 5859.31600   -9999.25    0.15460
 7763.50000    9.79350    9.75300   -0.02850   -9999.25   -9999.25   -9999.25    0.12090    3.49140    2.75710   97.62970   -9999.25 5874.40600   -9999.25    0.15490
 7764.00000    9.77970    9.75030   -0.02650   -9999.25   -9999.25   -9999.25    0.11280    3.49170    2.75490   98.83480   -9999.25 5860.33000   -9999.25    0.15360
 7764.50000    9.83770    9.76800   -0.02960   -9999.25   -9999.25   -9999.25    0.10880    3.49200    2.76180   99.49010   -9999.25 5846.25300   -9999.25    0.15220
 7765.00000    9.80730    9.79660   -0.03350   -9999.25   -9999.25   -9999.25    0.10640    3.49240    2.77010  100.14530   -9999.25 5832.17700   -9999.25    0.15160
 7765.50000    9.75200    9.73600   -0.03620   -9999.25   -9999.25   -9999.25    0.10450    3.49270    2.77250  100.80050   -9999.25 5818.10000   -9999.25    0.15120
 7766.00000    9.75200    9.77390   -0.03290   -9999.25   -9999.25   -9999.25    0.09590    3.49300    2.76260  101.45570   -9999.25 5804.02400   -9999.25    0.15120
 7766.50000    9.75200    9.82120   -0.02570   -9999.25   -9999.25   -9999.25    0.08990    3.49330    2.75390  102.11100   -9999.25 5795.67300   -9999.25    0.15180
 7767.00000    9.76580    9.79150   -0.01850   -9999.25   -9999.25   -9999.25    0.09130    3.55090    2.74580  100.77990   -9999.25 5795.90900   -9999.25    0.15270
 7767.50000    9.90860    9.87140   -0.02220   -9999.25   -9999.25   -9999.25    0.09460    3.55040    2.74760  102.12520   -9999.25 5796.14600   -9999.25    0.15380
 7768.00000    9.94200    9.95120   -0.03040   -9999.25   -9999.25   -9999.25    0.11620    3.55000    2.75760  101.95210   -9999.25 5796.38200   -9999.25    0.15730
 7768.50000    9.85570    9.88890   -0.03150   -9999.25   -9999.25   -9999.25    0.11490    3.54960    2.76830  101.44230   -9999.25 5796.61900   -9999.25    0.16080
 7769.00000    9.76930    9.82660   -0.02960   -9999.25   -9999.25   -9999.25    0.10450    3.54920    2.76460  100.24210   -9999.25 5796.85500   -9999.25    0.16000
 7769.50000    9.73820    9.76430   -0.03130   -9999.25   -9999.25   -9999.25    0.09310    3.54870    2.76530   99.41300   -9999.25 5799.03600   -9999.25    0.15480
 7770.00000    9.79000    9.81320   -0.03660   -9999.25   -9999.25   -9999.25    0.08140    3.54830    2.77090   98.81240   -9999.25 5808.99600   -9999.25    0.14930
 7770.50000    9.83500    9.83630   -0.04050   -9999.25   -9999.25   -9999.25    0.06980    3.50310    2.77870   98.78390   -9999.25 5818.95500   -9999.25    0.14460
