~Version ---------------------------------------------------
VERS.   2.0 : CWLS log ASCII Standard -VERSION 2.0
WRAP.    NO : One line per depth step
DLM . SPACE : Column Data Section Delimiter
~Well ------------------------------------------------------
STRT .FT                 960.0 : START DEPTH
STOP .FT                8560.0 : STOP DEPTH
STEP .FT                   0.5 : STEP
NULL .                -9999.25 : NULL VALUE
COMP .                         : COMPANY
WELL .                         : WELL
FLD  .                         : FIELD
LOC  .                         : LOCATION
PROV .                         : PROVINCE
CNTY .                         : COUNTY
STAT .                         : STATE
CTRY .                         : COUNTRY
SRVC .                         : SERVICE COMPANY
DATE .                         : DATE
UWI  .                         : UNIQUE WELL ID
API  .                         : API NUMBER
SLAT .WGS84  6.465940295404202 : SURFACE LATITUDE
SLON .WGS84 2.5516224315777976 : SURFACE LONGITUDE
DATUM.F                    nan : DEPTH DATUM ELEV
~Curve Information -----------------------------------------
DEPT   .FT    : Depth Curve
CALD   .IN    : CALIPER FROM DENSITY LOG
CALI   .IN    : CALIPER
DPHZ_LS.DEC   : HGRD STANDARD RESOLUTION DENSITY POROSITY
DTCO   .US/F  : DELTA-T COMPRESSIONAL
DTSM   .US/F  : DELTA-T SHEAR
GRS    .GAPI  : GAMMA RAY FROM SONIC LOG
HDRA   .G/C3  : HRDD SPINE AND RIBS DENSITY CORRECTION
PEFZ   .B/E   : HRDD STANDARD RESOLUTION FORMATION PHOTOELECTRIC FACTOR
RHOZ   .G/C3  : HRDD STANDARD RESOLUTION FORMATION DENSITY
SGRD   .GAPI  : SPECTROSCOPY GAMMA RAY FROM DENSITY LOG
SPHI_LS.DEC   : SONIC POROSITY (LS) FROM SONIC LOG
TEND   .LBF   : DIFFERENTIAL TENSION FROM DENSITY LOG
TENS   .LB    : TENSION FROM SONIC LOG
TNPH_LS.DEC   : THERMAL NEUTRON POROSITY [LIMESTONE]
~Params ----------------------------------------------------
~Other -----------------------------------------------------
~ASCII -----------------------------------------------------
# ...
 7428.00000    8.81170    8.76600    0.09310   -9999.25   -9999.25   -9999.25    0.00780    3.16260    2.54590    6.56530   -9999.25 5569.86600   -9999.25    0.03870
 7428.50000    8.71450    8.70880    0.10860   -9999.25   -9999.25   -9999.25    0.00840    3.14690    2.52220    6.94440   -9999.25 5576.67800   -9999.25    0.05080
 7429.00000    8.48370    8.39080    0.11840   -9999.25   -9999.25   -9999.25    0.02240    3.13110    2.50550    7.57630   -9999.25 5574.16600   -9999.25    0.05720
 7429.50000    8.27140    8.32080    0.11970   -9999.25   -9999.25   -9999.25    0.02870    3.11540    2.50280    8.20810   -9999.25 5570.76000   -9999.25    0.06190
 7430.00000    8.28020    8.49810    0.12080   -9999.25   -9999.25   -9999.25    0.02610    3.09970    2.50240    8.83990   -9999.25 5570.62600   -9999.25    0.06440
 7430.50000    8.92970    8.71460    0.12170   -9999.25   -9999.25   -9999.25    0.02050    3.08390    2.50470    8.65380   -9999.25 5570.49200   -9999.25    0.06560
 7431.00000    8.65340    8.60250    0.10910   -9999.25   -9999.25   -9999.25    0.01490    3.06820    2.52920    7.72330   -9999.25 5570.35800   -9999.25    0.05770
 7431.50000    8.72710    8.71870    0.09130   -9999.25   -9999.25   -9999.25    0.00930    3.05250    2.55980    6.97890   -9999.25 5570.22500   -9999.25    0.04740
 7432.00000    8.86060    8.81460    0.07400   -9999.25   -9999.25   -9999.25    0.00300    3.03670    2.59040    8.39680   -9999.25 5585.30800   -9999.25    0.03720
 7432.50000    8.86060    8.82200    0.05900   -9999.25   -9999.25   -9999.25    0.00170    3.05480    2.62110   11.94160   -9999.25 5585.30800   -9999.25    0.02690
 7433.00000    8.86310    8.83430    0.04410   -9999.25   -9999.25   -9999.25    0.00170    3.05480    2.63960   15.48650   -9999.25 5584.78600   -9999.25    0.01660
 7433.50000    8.86720    8.84320    0.03750   -9999.25   -9999.25   -9999.25    0.00170    3.15090    2.64960   15.99110   -9999.25 5582.17600   -9999.25    0.01020
 7434.00000    8.87120    8.82930    0.03460   -9999.25   -9999.25   -9999.25    0.00210    3.19210    2.65150   11.42470   -9999.25 5579.56600   -9999.25    0.00630
 7434.50000    8.87450    8.83090    0.03440   -9999.25   -9999.25   -9999.25    0.00270    3.18820    2.64940    6.85820   -9999.25 5576.95700   -9999.25    0.00240
 7435.00000    8.88540    8.83810    0.04070   -9999.25   -9999.25   -9999.25    0.00330    3.16460    2.64300    5.53140   -9999.25 5574.34700   -9999.25   -0.00080
 7435.50000    8.89630    8.84530    0.04500   -9999.25   -9999.25   -9999.25    0.00380    3.16460    2.63780    8.01280   -9999.25 5571.73700   -9999.25   -0.00260
 7436.00000    8.90720    8.85250    0.03460   -9999.25   -9999.25   -9999.25    0.00440    3.27740    2.65510   10.90770   -9999.25 5544.65400   -9999.25   -0.00200
 7436.50000    8.91590    8.85970    0.02430   -9999.25   -9999.25   -9999.25    0.00500    3.39020    2.67820   15.25020   -9999.25 5503.32100   -9999.25   -0.00060
 7437.00000    8.91590    8.86690    0.01390   -9999.25   -9999.25   -9999.25    0.00560    3.48040    2.69400   21.10900   -9999.25 5527.57200   -9999.25    0.00080
 7437.50000    8.90020    8.84980    0.02030   -9999.25   -9999.25   -9999.25    0.00580    3.57240    2.67140   25.79610   -9999.25 5551.82200   -9999.25    0.00220
 7438.00000    8.89790    8.84720    0.02900   -9999.25   -9999.25   -9999.25    0.00650    3.68730    2.65960   25.79610   -9999.25 5529.34100   -9999.25    0.00350
 7438.50000    8.89550    8.84460    0.03160   -9999.25   -9999.25   -9999.25    0.00650    3.80220    2.66210   25.79610   -9999.25 5566.61500   -9999.25    0.00490
 7439.00000    8.89320    8.84200    0.02430   -9999.25   -9999.25   -9999.25    0.00540    3.91720    2.67020   26.62320   -9999.25 5603.88800   -9999.25    0.00630
 7439.50000    8.89080    8.83940    0.01950   -9999.25   -9999.25   -9999.25    0.00440    3.98290    2.67680   27.86390   -9999.25 5614.31100   -9999.25    0.00760
 7440.00000    8.88850    8.83680    0.02570   -9999.25   -9999.25   -9999.25    0.00440    3.97480    2.67150   33.12750   -9999.25 5603.09500   -9999.25    0.00910
 7440.50000    8.88610    8.82310    0.03190   -9999.25   -9999.25   -9999.25    0.00370    3.73180    2.66260   38.39110   -9999.25 5591.87800   -9999.25    0.00820
 7441.00000    8.88380    8.80720    0.03390   -9999.25   -9999.25   -9999.25    0.00180    3.48890    2.65380   39.85740   -9999.25 5580.66100   -9999.25    0.00820
 7441.50000    8.88140    8.81160    0.03290   -9999.25   -9999.25   -9999.25    0.00260    3.31560    2.64960   32.52600   -9999.25 5576.04300   -9999.25    0.00820
 7442.00000    8.87910    8.81600    0.03770   -9999.25   -9999.25   -9999.25    0.00330    3.39880    2.64660   23.87870   -9999.25 5573.07400   -9999.25    0.00840
 7442.50000    8.87670    8.82040    0.03790   -9999.25   -9999.25   -9999.25    0.00410    3.64090    2.64480   21.16420   -9999.25 5570.10500   -9999.25    0.00880
 7443.00000    8.87440    8.82480    0.03540   -9999.25   -9999.25   -9999.25    0.00490    3.88300    2.64690   22.07400   -9999.25 5577.92900   -9999.25    0.00930
 7443.50000    8.87200    8.84670    0.02870   -9999.25   -9999.25   -9999.25    0.00570    4.12510    2.66100   21.78450   -9999.25 5601.94300   -9999.25    0.00830
 7444.00000    8.86970    8.86690    0.02230   -9999.25   -9999.25   -9999.25    0.00640    4.23570    2.67510   20.33710   -9999.25 5625.95600   -9999.25    0.00720
 7444.50000    8.86730    8.84020    0.01590   -9999.25   -9999.25   -9999.25    0.00720    4.12890    2.68550   18.88960   -9999.25 5649.97000   -9999.25    0.00600
 7445.00000    8.86500    8.83030    0.01530   -9999.25   -9999.25   -9999.25    0.00800    4.02970    2.68560   17.52480   -9999.25 5626.43400   -9999.25    0.00490
 7445.50000    8.86260    8.82230    0.01790   -9999.25   -9999.25   -9999.25    0.00850    4.06440    2.67770   16.90450   -9999.25 5602.89900   -9999.25    0.00370
 7446.00000    8.86030    8.81430    0.02330   -9999.25   -9999.25   -9999.25    0.00790    4.14520    2.66790   17.11120   -9999.25 5630.69400   -9999.25    0.00320
 7446.50000    8.85790    8.80630    0.02550   -9999.25   -9999.25   -9999.25    0.00740    4.22600    2.66960   17.73160   -9999.25 5643.20900   -9999.25    0.00320
 7447.00000    8.85560    8.81900    0.02000   -9999.25   -9999.25   -9999.25    0.00690    4.30430    2.67850   18.35190   -9999.25 5593.19200   -9999.25    0.00320
 7447.50000    8.85320    8.82650    0.01350   -9999.25   -9999.25   -9999.25    0.00640    4.31800    2.68730   18.35190   -9999.25 5564.04600   -9999.25    0.00370
 7448.00000    8.85090    8.81260    0.00930   -9999.25   -9999.25   -9999.25    0.00580    4.30430    2.69410   17.93840   -9999.25 5566.20400   -9999.25    0.00460
 7448.50000    8.84850    8.82510    0.01420   -9999.25   -9999.25   -9999.25    0.00530    4.19450    2.68200   17.73160   -9999.25 5568.36300   -9999.25    0.00640
 7449.00000    8.84620    8.82150    0.02090   -9999.25   -9999.25   -9999.25    0.00440    4.03600    2.67090   18.35190   -9999.25 5570.52200   -9999.25    0.00830
 7449.50000    8.84380    8.81790    0.02770   -9999.25   -9999.25   -9999.25    0.00440    3.84060    2.65980   21.92360   -9999.25 5583.69400   -9999.25    0.01020
 7450.00000    8.84150    8.81430    0.03450   -9999.25   -9999.25   -9999.25    0.00440    3.64520    2.64880   25.49530   -9999.25 5613.38700   -9999.25    0.01230
 7450.50000    8.83910    8.81070    0.04130   -9999.25   -9999.25   -9999.25    0.00440    3.44970    2.63770   26.62320   -9999.25 5643.08000   -9999.25    0.01310
 7451.00000    8.83680    8.80710    0.04300   -9999.25   -9999.25   -9999.25    0.00440    3.34130    2.63510   26.48530   -9999.25 5629.67400   -9999.25    0.01290
 7451.50000    8.83440    8.80030    0.03860   -9999.25   -9999.25   -9999.25    0.00420    3.36780    2.64630   26.20960   -9999.25 5635.65900   -9999.25    0.01340
 7452.00000    8.84680    8.80020    0.03360   -9999.25   -9999.25   -9999.25    0.00390    3.43130    2.65620   29.81890   -9999.25 5641.64400   -9999.25    0.01510
