~Version ---------------------------------------------------
VERS.   2.0 : CWLS log ASCII Standard -VERSION 2.0
WRAP.    NO : One line per depth step
DLM . SPACE : Column Data Section Delimiter
~Well ------------------------------------------------------
STRT .FT                 960.0 : START DEPTH
STOP .FT                8560.0 : STOP DEPTH
STEP .FT                   0.5 : STEP
NULL .                -9999.25 : NULL VALUE
COMP .                         : COMPANY
WELL .                         : WELL
FLD  .                         : FIELD
LOC  .                         : LOCATION
PROV .                         : PROVINCE
CNTY .                         : COUNTY
STAT .                         : STATE
CTRY .                         : COUNTRY
SRVC .                         : SERVICE COMPANY
DATE .                         : DATE
UWI  .                         : UNIQUE WELL ID
API  .                         : API NUMBER
SLAT .WGS84  6.465940295404202 : SURFACE LATITUDE
SLON .WGS84 2.5516224315777976 : SURFACE LONGITUDE
DATUM.F                    nan : DEPTH DATUM ELEV
~Curve Information -----------------------------------------
DEPT   .FT    : Depth Curve
CALD   .IN    : CALIPER FROM DENSITY LOG
CALI   .IN    : CALIPER
DPHZ_LS.DEC   : HGRD STANDARD RESOLUTION DENSITY POROSITY
DTCO   .US/F  : DELTA-T COMPRESSIONAL
DTSM   .US/F  : DELTA-T SHEAR
GRS    .GAPI  : GAMMA RAY FROM SONIC LOG
HDRA   .G/C3  : HRDD SPINE AND RIBS DENSITY CORRECTION
PEFZ   .B/E   : HRDD STANDARD RESOLUTION FORMATION PHOTOELECTRIC FACTOR
RHOZ   .G/C3  : HRDD STANDARD RESOLUTION FORMATION DENSITY
SGRD   .GAPI  : SPECTROSCOPY GAMMA RAY FROM DENSITY LOG
SPHI_LS.DEC   : SONIC POROSITY (LS) FROM SONIC LOG
TEND   .LBF   : DIFFERENTIAL TENSION FROM DENSITY LOG
TENS   .LB    : TENSION FROM SONIC LOG
TNPH_LS.DEC   : THERMAL NEUTRON POROSITY [LIMESTONE]
~Params ----------------------------------------------------
~Other -----------------------------------------------------
~ASCII -----------------------------------------------------
# ...
 7232.00000    8.87450    8.85850    0.02120   -9999.25   -9999.25   -9999.25    0.01530    3.88550    2.67430   15.56040   -9999.25 5543.18100   -9999.25    0.00570
 7232.50000    8.86760    8.84490    0.01690   -9999.25   -9999.25   -9999.25    0.01820    3.89930    2.68010   16.12170   -9999.25 5519.37100   -9999.25    0.00600
 7233.00000    8.86760    8.86620    0.01270   -9999.25   -9999.25   -9999.25    0.01710    4.22290    2.68580   16.82330   -9999.25 5495.56100   -9999.25    0.00630
 7233.50000    8.86760    8.86290    0.01070   -9999.25   -9999.25   -9999.25    0.01540    4.39360    2.69150   17.52490   -9999.25 5471.75100   -9999.25    0.00650
 7234.00000    8.87350    8.85280    0.01180   -9999.25   -9999.25   -9999.25    0.01360    4.32490    2.69150   18.22640   -9999.25 5447.94200   -9999.25    0.00650
 7234.50000    8.88340    8.82480    0.01450   -9999.25   -9999.25   -9999.25    0.01180    4.24250    2.68700   18.92800   -9999.25 5430.81800   -9999.25    0.00650
 7235.00000    8.89320    8.80310    0.01720   -9999.25   -9999.25   -9999.25    0.01000    4.17390    2.68240   19.48930   -9999.25 5440.43800   -9999.25    0.00650
 7235.50000    8.90310    8.83660    0.01990   -9999.25   -9999.25   -9999.25    0.00820    4.10520    2.67790   19.11710   -9999.25 5450.05800   -9999.25    0.00650
 7236.00000    8.91300    8.88380    0.02260   -9999.25   -9999.25   -9999.25    0.00640    4.03660    2.67330   18.49670   -9999.25 5459.67800   -9999.25    0.00650
 7236.50000    8.92280    8.89080    0.02530   -9999.25   -9999.25   -9999.25    0.00570    3.96790    2.66880   18.42780   -9999.25 5459.82200   -9999.25    0.00660
 7237.00000    8.94590    8.88770    0.02640   -9999.25   -9999.25   -9999.25    0.00590    3.95420    2.66710   19.32390   -9999.25 5464.39000   -9999.25    0.00630
 7237.50000    8.96430    8.88310    0.02640   -9999.25   -9999.25   -9999.25    0.00600    3.99540    2.66660   20.21990   -9999.25 5468.95800   -9999.25    0.00680
 7238.00000    8.96430    8.87800    0.02620   -9999.25   -9999.25   -9999.25    0.00620    4.01140    2.66610   20.93680   -9999.25 5483.74700   -9999.25    0.00820
 7238.50000    8.96190    8.89520    0.02620   -9999.25   -9999.25   -9999.25    0.00560    4.03140    2.66570   20.24340   -9999.25 5509.80000   -9999.25    0.00820
 7239.00000    8.95950    8.90800    0.02620   -9999.25   -9999.25   -9999.25    0.00490    4.05140    2.66520   19.63530   -9999.25 5484.63200   -9999.25    0.00780
 7239.50000    8.95720    8.90930    0.02650   -9999.25   -9999.25   -9999.25    0.00490    4.07150    2.66470   19.02710   -9999.25 5459.46400   -9999.25    0.00710
 7240.00000    8.95480    8.92160    0.02650   -9999.25   -9999.25   -9999.25    0.00410    4.09150    2.66580   18.76550   -9999.25 5468.79100   -9999.25    0.00690
 7240.50000    8.95240    8.93810    0.02510   -9999.25   -9999.25   -9999.25    0.00400    4.09160    2.66770   19.02400   -9999.25 5480.45000   -9999.25    0.00780
 7241.00000    8.95000    8.94200    0.02600   -9999.25   -9999.25   -9999.25    0.00400    4.09160    2.66580   19.28240   -9999.25 5492.10900   -9999.25    0.00880
 7241.50000    8.94760    8.94590    0.02870   -9999.25   -9999.25   -9999.25    0.00310    4.04250    2.66220   19.28240   -9999.25 5476.63100   -9999.25    0.01000
 7242.00000    8.94520    8.94970    0.03010   -9999.25   -9999.25   -9999.25    0.00280    4.00330    2.66060   18.93780   -9999.25 5492.32900   -9999.25    0.01060
 7242.50000    8.94290    8.94080    0.02920   -9999.25   -9999.25   -9999.25    0.00250    3.96400    2.66420   18.59320   -9999.25 5520.34300   -9999.25    0.01090
 7243.00000    8.94050    8.93550    0.02690   -9999.25   -9999.25   -9999.25    0.00240    3.92480    2.66570   18.24850   -9999.25 5525.39300   -9999.25    0.01090
 7243.50000    8.93810    8.95220    0.02550   -9999.25   -9999.25   -9999.25    0.00240    3.88560    2.66600   18.26070   -9999.25 5504.88000   -9999.25    0.01090
 7244.00000    8.93830    8.95230    0.02410   -9999.25   -9999.25   -9999.25    0.00350    3.87530    2.66770   18.80800   -9999.25 5497.69500   -9999.25    0.01110
 7244.50000    8.94230    8.95240    0.02250   -9999.25   -9999.25   -9999.25    0.00480    3.88560    2.67380   19.35540   -9999.25 5490.51000   -9999.25    0.01150
 7245.00000    8.94640    8.95250    0.01900   -9999.25   -9999.25   -9999.25    0.00620    3.91760    2.67650   19.90280   -9999.25 5506.10600   -9999.25    0.01200
 7245.50000    8.95050    8.95260    0.01790   -9999.25   -9999.25   -9999.25    0.00700    3.94970    2.67320   20.01890   -9999.25 5447.39400   -9999.25    0.01290
 7246.00000    8.95450    8.95270    0.02340   -9999.25   -9999.25   -9999.25    0.00700    3.98170    2.67240   20.13500   -9999.25 5391.05600   -9999.25    0.01230
 7246.50000    8.95860    8.95280    0.01980   -9999.25   -9999.25   -9999.25    0.00700    3.98170    2.67560   20.25100   -9999.25 5406.80400   -9999.25    0.01140
 7247.00000    8.96270    8.95290    0.01460   -9999.25   -9999.25   -9999.25    0.00690    3.98170    2.68280   19.65930   -9999.25 5457.27900   -9999.25    0.01050
 7247.50000    8.96670    8.95680    0.01680   -9999.25   -9999.25   -9999.25    0.00540    3.98170    2.68280   19.54090   -9999.25 5507.75400   -9999.25    0.01100
 7248.00000    8.97080    8.96310    0.02160   -9999.25   -9999.25   -9999.25    0.00540    3.98170    2.67290   20.03340   -9999.25 5508.25800   -9999.25    0.01220
 7248.50000    8.97490    8.96160    0.02640   -9999.25   -9999.25   -9999.25    0.00510    3.98170    2.66310   20.80340   -9999.25 5528.39900   -9999.25    0.01320
 7249.00000    8.97780    8.95290    0.03120   -9999.25   -9999.25   -9999.25    0.00490    3.98170    2.65330   22.07760   -9999.25 5548.54000   -9999.25    0.01420
 7249.50000    8.97650    8.95030    0.03380   -9999.25   -9999.25   -9999.25    0.00460    3.95420    2.65010   22.86060   -9999.25 5568.68100   -9999.25    0.01470
 7250.00000    8.97510    8.96670    0.03200   -9999.25   -9999.25   -9999.25    0.00440    3.97780    2.65450   23.75060   -9999.25 5565.26400   -9999.25    0.01470
 7250.50000    8.97370    8.95600    0.02860   -9999.25   -9999.25   -9999.25    0.00410    3.97200    2.65890   24.18000   -9999.25 5561.84800   -9999.25    0.01390
 7251.00000    8.97240    8.95440    0.02580   -9999.25   -9999.25   -9999.25    0.00400    4.01420    2.66330   22.61680   -9999.25 5563.94100   -9999.25    0.01310
 7251.50000    8.97100    8.95280    0.02350   -9999.25   -9999.25   -9999.25    0.00400    4.01210    2.66770   20.98450   -9999.25 5573.03400   -9999.25    0.01230
 7252.00000    8.96960    8.95130    0.02240   -9999.25   -9999.25   -9999.25    0.00390    3.96090    2.67120   20.75110   -9999.25 5546.11400   -9999.25    0.01190
 7252.50000    8.96830    8.94970    0.02140   -9999.25   -9999.25   -9999.25    0.00460    3.93040    2.67320   20.76370   -9999.25 5519.19500   -9999.25    0.01370
 7253.00000    8.96690    8.95100    0.02180   -9999.25   -9999.25   -9999.25    0.00450    3.86970    2.67240   20.77640   -9999.25 5500.18200   -9999.25    0.01460
 7253.50000    8.96550    8.95170    0.02400   -9999.25   -9999.25   -9999.25    0.00380    3.86790    2.66960   20.78900   -9999.25 5503.13000   -9999.25    0.01570
 7254.00000    8.96420    8.95230    0.02590   -9999.25   -9999.25   -9999.25    0.00320    3.92720    2.66600   20.78790   -9999.25 5491.57100   -9999.25    0.01520
 7254.50000    8.96280    8.95130    0.02490   -9999.25   -9999.25   -9999.25    0.00250    3.92810    2.66770   20.78340   -9999.25 5480.01200   -9999.25    0.01380
 7255.00000    8.96140    8.94380    0.02370   -9999.25   -9999.25   -9999.25    0.00020    3.87370    2.67150   20.77880   -9999.25 5522.41800   -9999.25    0.01240
 7255.50000    8.96010    8.93630    0.02400   -9999.25   -9999.25   -9999.25    0.00070    3.87140    2.66820   21.88810   -9999.25 5486.22900   -9999.25    0.01160
 7256.00000    8.95870    8.94100    0.02840   -9999.25   -9999.25   -9999.25    0.00130    3.86900    2.66450   21.88810   -9999.25 5456.68500   -9999.25    0.01130
