~Version ---------------------------------------------------
VERS.   2.0 : CWLS log ASCII Standard -VERSION 2.0
WRAP.    NO : One line per depth step
DLM . SPACE : Column Data Section Delimiter
~Well ------------------------------------------------------
STRT .FT                 960.0 : START DEPTH
STOP .FT                8560.0 : STOP DEPTH
STEP .FT                   0.5 : STEP
NULL .                -9999.25 : NULL VALUE
COMP .                         : COMPANY
WELL .                         : WELL
FLD  .                         : FIELD
LOC  .                         : LOCATION
PROV .                         : PROVINCE
CNTY .                         : COUNTY
STAT .                         : STATE
CTRY .                         : COUNTRY
SRVC .                         : SERVICE COMPANY
DATE .                         : DATE
UWI  .                         : UNIQUE WELL ID
API  .                         : API NUMBER
SLAT .WGS84  6.465940295404202 : SURFACE LATITUDE
SLON .WGS84 2.5516224315777976 : SURFACE LONGITUDE
DATUM.F                    nan : DEPTH DATUM ELEV
~Curve Information -----------------------------------------
DEPT   .FT    : Depth Curve
CALD   .IN    : CALIPER FROM DENSITY LOG
CALI   .IN    : CALIPER
DPHZ_LS.DEC   : HGRD STANDARD RESOLUTION DENSITY POROSITY
DTCO   .US/F  : DELTA-T COMPRESSIONAL
DTSM   .US/F  : DELTA-T SHEAR
GRS    .GAPI  : GAMMA RAY FROM SONIC LOG
HDRA   .G/C3  : HRDD SPINE AND RIBS DENSITY CORRECTION
PEFZ   .B/E   : HRDD STANDARD RESOLUTION FORMATION PHOTOELECTRIC FACTOR
RHOZ   .G/C3  : HRDD STANDARD RESOLUTION FORMATION DENSITY
SGRD   .GAPI  : SPECTROSCOPY GAMMA RAY FROM DENSITY LOG
SPHI_LS.DEC   : SONIC POROSITY (LS) FROM SONIC LOG
TEND   .LBF   : DIFFERENTIAL TENSION FROM DENSITY LOG
TENS   .LB    : TENSION FROM SONIC LOG
TNPH_LS.DEC   : THERMAL NEUTRON POROSITY [LIMESTONE]
~Params ----------------------------------------------------
~Other -----------------------------------------------------
~ASCII -----------------------------------------------------
# ...
 7526.00000    8.87510    8.91080    0.06990   -9999.25   -9999.25   -9999.25    0.00750    3.28260    2.58810  231.67630   -9999.25 5613.39000   -9999.25    0.25730
 7526.50000    8.86570    8.92580    0.08260   -9999.25   -9999.25   -9999.25    0.01960    3.02730    2.56860  221.70940   -9999.25 5613.39000   -9999.25    0.23960
 7527.00000    8.85620    8.94070    0.08880   -9999.25   -9999.25   -9999.25    0.04630    2.94190    2.55170  200.41080   -9999.25 5613.39000   -9999.25    0.22180
 7527.50000    8.84680    8.87850    0.08120   -9999.25   -9999.25   -9999.25    0.07300    2.93510    2.56600  185.69300   -9999.25 5622.27300   -9999.25    0.20400
 7528.00000    8.87450    8.88560    0.07650   -9999.25   -9999.25   -9999.25    0.08640    2.95220    2.57740  176.00010   -9999.25 5628.75800   -9999.25    0.18870
 7528.50000    8.93250    9.04160    0.08720   -9999.25   -9999.25   -9999.25    0.06730    2.96940    2.57180  167.55780   -9999.25 5622.94300   -9999.25    0.18790
 7529.00000    9.01540    9.04350    0.10060   -9999.25   -9999.25   -9999.25    0.01760    2.97040    2.54030  159.76370   -9999.25 5617.12800   -9999.25    0.19220
 7529.50000    9.08180    9.03510    0.10600   -9999.25   -9999.25   -9999.25    0.01000    2.95570    2.52840  151.96960   -9999.25 5579.86400   -9999.25    0.19560
 7530.00000    9.09820    9.05290    0.09160   -9999.25   -9999.25   -9999.25    0.00300    2.95910    2.54690  144.14680   -9999.25 5550.05400   -9999.25    0.19890
 7530.50000    9.12280    9.07080    0.08690   -9999.25   -9999.25   -9999.25    0.00030    2.96260    2.56530  131.14910   -9999.25 5530.08000   -9999.25    0.20060
 7531.00000    9.14310    9.08860    0.08030   -9999.25   -9999.25   -9999.25    0.00170    2.96610    2.57700  126.49650   -9999.25 5549.45400   -9999.25    0.19950
 7531.50000    9.14960    9.10640    0.07370   -9999.25   -9999.25   -9999.25    0.00350    2.96960    2.58860  121.84390   -9999.25 5550.59300   -9999.25    0.19670
 7532.00000    9.16300    9.12430    0.06710   -9999.25   -9999.25   -9999.25    0.00480    2.97300    2.60030  117.19130   -9999.25 5539.47300   -9999.25    0.19830
 7532.50000    9.16260    9.08430    0.06050   -9999.25   -9999.25   -9999.25    0.00580    2.97650    2.61200  115.43360   -9999.25 5528.35300   -9999.25    0.19950
 7533.00000    9.16260    9.04980    0.05420   -9999.25   -9999.25   -9999.25    0.00650    2.98000    2.61780  114.81330   -9999.25 5567.22600   -9999.25    0.19640
 7533.50000    9.16180    9.08810    0.05030   -9999.25   -9999.25   -9999.25    0.00510    2.98340    2.62230  114.81330   -9999.25 5573.60900   -9999.25    0.19250
 7534.00000    9.16160    9.13980    0.04780   -9999.25   -9999.25   -9999.25    0.00440    3.00070    2.62690  114.81330   -9999.25 5579.99300   -9999.25    0.18860
 7534.50000    9.16090    9.13530    0.04900   -9999.25   -9999.25   -9999.25    0.01070    3.03870    2.62410  116.34350   -9999.25 5586.37600   -9999.25    0.18710
 7535.00000    9.14700    9.14690    0.05120   -9999.25   -9999.25   -9999.25    0.01550    3.07660    2.61990  121.01680   -9999.25 5587.65300   -9999.25    0.19090
 7535.50000    9.15960    9.14030    0.06310   -9999.25   -9999.25   -9999.25    0.01620    3.11460    2.60310  130.32200   -9999.25 5587.65300   -9999.25    0.19480
 7536.00000    9.17580    9.13560    0.07730   -9999.25   -9999.25   -9999.25    0.01340    3.09470    2.56730  139.62720   -9999.25 5578.85400   -9999.25    0.19710
 7536.50000    9.19190    9.13820    0.08860   -9999.25   -9999.25   -9999.25    0.00890    3.00600    2.55810  147.48490   -9999.25 5593.68100   -9999.25    0.19910
 7537.00000    9.20810    9.14680    0.08230   -9999.25   -9999.25   -9999.25    0.00580    2.99840    2.56970  144.83120   -9999.25 5578.95600   -9999.25    0.20110
 7537.50000    9.22430    9.15550    0.06920   -9999.25   -9999.25   -9999.25    0.00510    2.96150    2.59880  134.66440   -9999.25 5564.23000   -9999.25    0.20610
 7538.00000    9.22740    9.16250    0.06020   -9999.25   -9999.25   -9999.25    0.00450    2.93680    2.60450  124.49760   -9999.25 5559.86100   -9999.25    0.20550
 7538.50000    9.22670    9.16250    0.06160   -9999.25   -9999.25   -9999.25    0.00380    2.91220    2.60270  120.81000   -9999.25 5582.49700   -9999.25    0.20430
 7539.00000    9.22640    9.17530    0.06510   -9999.25   -9999.25   -9999.25    0.00310    2.88760    2.59470  120.18960   -9999.25 5605.13200   -9999.25    0.20280
 7539.50000    9.21210    9.18870    0.06860   -9999.25   -9999.25   -9999.25    0.00250    2.89000    2.59000  122.87260   -9999.25 5607.38500   -9999.25    0.19780
 7540.00000    9.19790    9.18250    0.07210   -9999.25   -9999.25   -9999.25    0.00180    2.93300    2.58840  135.25330   -9999.25 5608.86500   -9999.25    0.19270
 7540.50000    9.18540    9.16940    0.07320   -9999.25   -9999.25   -9999.25    0.00120    2.97610    2.58560  147.63400   -9999.25 5610.34400   -9999.25    0.18820
 7541.00000    9.16470    9.14670    0.07080   -9999.25   -9999.25   -9999.25    0.00240    3.01910    2.59160  176.41530   -9999.25 5588.85700   -9999.25    0.18950
 7541.50000    9.13700    9.12820    0.06660   -9999.25   -9999.25   -9999.25    0.00530    3.06210    2.59890  197.76900   -9999.25 5526.97300   -9999.25    0.19860
 7542.00000    9.10420    9.11660    0.05940   -9999.25   -9999.25   -9999.25    0.01120    3.11040    2.60630  219.12270   -9999.25 5516.64900   -9999.25    0.20770
 7542.50000    9.07140    9.10510    0.05860   -9999.25   -9999.25   -9999.25    0.01780    3.11530    2.60700  227.44740   -9999.25 5520.22400   -9999.25    0.20440
 7543.00000    9.03860    9.09350    0.06020   -9999.25   -9999.25   -9999.25    0.01930    3.05740    2.59320  222.82730   -9999.25 5523.79800   -9999.25    0.20360
 7543.50000    9.01230    9.09380    0.07500   -9999.25   -9999.25   -9999.25    0.01890    2.99950    2.57310  222.48830   -9999.25 5527.37200   -9999.25    0.20680
 7544.00000    9.01230    9.10930    0.08990   -9999.25   -9999.25   -9999.25    0.01210    2.94160    2.54870  230.28480   -9999.25 5530.94600   -9999.25    0.21110
 7544.50000    9.01220    9.10960    0.10470   -9999.25   -9999.25   -9999.25    0.00450    2.89930    2.52430  228.81980   -9999.25 5534.52000   -9999.25    0.21600
 7545.00000    9.01220    9.11930    0.11360   -9999.25   -9999.25   -9999.25    0.00150    2.88050    2.51600  216.84700   -9999.25 5538.09500   -9999.25    0.22080
 7545.50000    9.05120    9.12910    0.11340   -9999.25   -9999.25   -9999.25    0.00140    2.86170    2.51460  198.27920   -9999.25 5541.66900   -9999.25    0.22370
 7546.00000    9.09270    9.13890    0.11500   -9999.25   -9999.25   -9999.25    0.00120    2.85760    2.51190  179.71140   -9999.25 5557.34000   -9999.25    0.22230
 7546.50000    9.13690    9.14860    0.12070   -9999.25   -9999.25   -9999.25    0.00100    2.86350    2.50040  171.43200   -9999.25 5545.16000   -9999.25    0.22200
 7547.00000    9.15070    9.14790    0.12410   -9999.25   -9999.25   -9999.25    0.00080    2.86930    2.49830  175.82770   -9999.25 5549.41900   -9999.25    0.22260
 7547.50000    9.15070    9.10490    0.12110   -9999.25   -9999.25   -9999.25    0.00060    2.87520    2.50270  181.32870   -9999.25 5576.39900   -9999.25    0.21660
 7548.00000    9.13700    9.06190    0.11760   -9999.25   -9999.25   -9999.25    0.00040    2.88100    2.50710  186.82970   -9999.25 5603.37800   -9999.25    0.21010
 7548.50000    9.10290    9.02390    0.11530   -9999.25   -9999.25   -9999.25    0.00020    2.89960    2.51190  188.52820   -9999.25 5617.21500   -9999.25    0.20960
 7549.00000    9.06880    9.00590    0.11880   -9999.25   -9999.25   -9999.25    0.00000    2.89960    2.50370  188.49300   -9999.25 5595.03800   -9999.25    0.21140
 7549.50000    9.03460    8.98780    0.12330   -9999.25   -9999.25   -9999.25   -0.00020    2.89960    2.49560  178.28880   -9999.25 5572.86100   -9999.25    0.21590
 7550.00000    9.00050    8.97360    0.12610   -9999.25   -9999.25   -9999.25   -0.00040    2.83840    2.49120  164.15930   -9999.25 5566.52300   -9999.25    0.20640
