~Version ---------------------------------------------------
VERS.   2.0 : CWLS log ASCII Standard -VERSION 2.0
WRAP.    NO : One line per depth step
DLM . SPACE : Column Data Section Delimiter
~Well ------------------------------------------------------
STRT .FT                 960.0 : START DEPTH
STOP .FT                8560.0 : STOP DEPTH
STEP .FT                   0.5 : STEP
NULL .                -9999.25 : NULL VALUE
COMP .                         : COMPANY
WELL .                         : WELL
FLD  .                         : FIELD
LOC  .                         : LOCATION
PROV .                         : PROVINCE
CNTY .                         : COUNTY
STAT .                         : STATE
CTRY .                         : COUNTRY
SRVC .                         : SERVICE COMPANY
DATE .                         : DATE
UWI  .                         : UNIQUE WELL ID
API  .                         : API NUMBER
SLAT .WGS84  6.465940295404202 : SURFACE LATITUDE
SLON .WGS84 2.5516224315777976 : SURFACE LONGITUDE
DATUM.F                    nan : DEPTH DATUM ELEV
~Curve Information -----------------------------------------
DEPT   .FT    : Depth Curve
CALD   .IN    : CALIPER FROM DENSITY LOG
CALI   .IN    : CALIPER
DPHZ_LS.DEC   : HGRD STANDARD RESOLUTION DENSITY POROSITY
DTCO   .US/F  : DELTA-T COMPRESSIONAL
DTSM   .US/F  : DELTA-T SHEAR
GRS    .GAPI  : GAMMA RAY FROM SONIC LOG
HDRA   .G/C3  : HRDD SPINE AND RIBS DENSITY CORRECTION
PEFZ   .B/E   : HRDD STANDARD RESOLUTION FORMATION PHOTOELECTRIC FACTOR
RHOZ   .G/C3  : HRDD STANDARD RESOLUTION FORMATION DENSITY
SGRD   .GAPI  : SPECTROSCOPY GAMMA RAY FROM DENSITY LOG
SPHI_LS.DEC   : SONIC POROSITY (LS) FROM SONIC LOG
TEND   .LBF   : DIFFERENTIAL TENSION FROM DENSITY LOG
TENS   .LB    : TENSION FROM SONIC LOG
TNPH_LS.DEC   : THERMAL NEUTRON POROSITY [LIMESTONE]
~Params ----------------------------------------------------
~Other -----------------------------------------------------
~ASCII -----------------------------------------------------
# ...
 7844.50000    9.13010    9.09770    0.00180   -9999.25   -9999.25   -9999.25    0.00530    5.05990    2.70880   24.64850   -9999.25 5725.97700   -9999.25    0.01030
 7845.00000    9.13120    9.09850    0.00440   -9999.25   -9999.25   -9999.25    0.00540    4.97710    2.70170   22.67720   -9999.25 5723.10500   -9999.25    0.01150
 7845.50000    9.13370    9.09930    0.00370   -9999.25   -9999.25   -9999.25    0.00540    4.89430    2.70240   21.71220   -9999.25 5740.39400   -9999.25    0.01280
 7846.00000    9.13630    9.10010    0.00730   -9999.25   -9999.25   -9999.25    0.00550    4.81150    2.69840   23.17840   -9999.25 5757.68300   -9999.25    0.01360
 7846.50000    9.13890    9.10090    0.00940   -9999.25   -9999.25   -9999.25    0.00550    4.76180    2.69680   25.62220   -9999.25 5773.81900   -9999.25    0.01540
 7847.00000    9.14140    9.10170    0.00910   -9999.25   -9999.25   -9999.25    0.00560    4.76180    2.69710   26.88170   -9999.25 5785.34700   -9999.25    0.01570
 7847.50000    9.14400    9.11570    0.00850   -9999.25   -9999.25   -9999.25    0.00560    4.76900    2.69730   23.60770   -9999.25 5796.87500   -9999.25    0.01090
 7848.00000    9.14650    9.13800    0.00790   -9999.25   -9999.25   -9999.25    0.00570    4.78260    2.69760   22.12570   -9999.25 5795.30800   -9999.25    0.00620
 7848.50000    9.14910    9.13680    0.00750   -9999.25   -9999.25   -9999.25    0.00570    4.81100    2.69790   24.48900   -9999.25 5807.31500   -9999.25    0.01380
 7849.00000    9.15170    9.13550    0.00830   -9999.25   -9999.25   -9999.25    0.00580    4.83080    2.69660   27.44300   -9999.25 5834.32200   -9999.25    0.01760
 7849.50000    9.15420    9.13430    0.00970   -9999.25   -9999.25   -9999.25    0.00580    4.85580    2.69530   30.39700   -9999.25 5861.32900   -9999.25    0.02020
 7850.00000    9.15680    9.13550    0.00940   -9999.25   -9999.25   -9999.25    0.00590    4.88070    2.69480   31.01740   -9999.25 5841.09800   -9999.25    0.01920
 7850.50000    9.17160    9.13750    0.00720   -9999.25   -9999.25   -9999.25    0.00590    4.90560    2.69470   29.77670   -9999.25 5797.33200   -9999.25    0.01610
 7851.00000    9.17160    9.13940    0.00470   -9999.25   -9999.25   -9999.25    0.00600    4.93060    2.70140   29.98350   -9999.25 5753.56600   -9999.25    0.01580
 7851.50000    9.17160    9.13820    0.00610   -9999.25   -9999.25   -9999.25    0.00460    4.95550    2.70120   29.98350   -9999.25 5771.15900   -9999.25    0.01670
 7852.00000    9.17160    9.13070    0.00920   -9999.25   -9999.25   -9999.25    0.00660    4.98040    2.69470   28.89900   -9999.25 5784.92000   -9999.25    0.01690
 7852.50000    9.17160    9.13160    0.01360   -9999.25   -9999.25   -9999.25    0.00640    4.99500    2.68520   26.18790   -9999.25 5798.68200   -9999.25    0.01610
 7853.00000    9.16110    9.13250    0.01740   -9999.25   -9999.25   -9999.25    0.00620    4.99410    2.68150   23.47670   -9999.25 5818.02300   -9999.25    0.01470
 7853.50000    9.16940    9.13340    0.01520   -9999.25   -9999.25   -9999.25    0.00600    4.99320    2.68280   21.71220   -9999.25 5807.53100   -9999.25    0.01340
 7854.00000    9.17760    9.13440    0.01240   -9999.25   -9999.25   -9999.25    0.00580    4.99230    2.68570   24.48100   -9999.25 5797.03900   -9999.25    0.01200
 7854.50000    9.18590    9.14740    0.01210   -9999.25   -9999.25   -9999.25    0.00560    4.99140    2.68960   26.70970   -9999.25 5780.77300   -9999.25    0.01120
 7855.00000    9.19410    9.16200    0.01300   -9999.25   -9999.25   -9999.25    0.00540    4.99050    2.68820   28.60750   -9999.25 5775.48700   -9999.25    0.01030
 7855.50000    9.20240    9.16560    0.01270   -9999.25   -9999.25   -9999.25    0.00520    4.98960    2.69020   26.10670   -9999.25 5792.92100   -9999.25    0.00940
 7856.00000    9.21060    9.16910    0.01150   -9999.25   -9999.25   -9999.25    0.00500    4.98870    2.69130   22.41580   -9999.25 5791.74100   -9999.25    0.00860
 7856.50000    9.21890    9.17260    0.01100   -9999.25   -9999.25   -9999.25    0.00480    4.98780    2.69240   20.62650   -9999.25 5756.82300   -9999.25    0.00780
 7857.00000    9.22710    9.19820    0.01020   -9999.25   -9999.25   -9999.25    0.00460    4.98690    2.69340   20.31640   -9999.25 5743.67100   -9999.25    0.00710
 7857.50000    9.23540    9.20600    0.00750   -9999.25   -9999.25   -9999.25    0.00460    4.98600    2.69480   20.31640   -9999.25 5730.51900   -9999.25    0.00630
 7858.00000    9.24360    9.21740    0.00380   -9999.25   -9999.25   -9999.25    0.00690    4.98500    2.70080   19.52030   -9999.25 5778.51300   -9999.25    0.00550
 7858.50000    9.25190    9.21440    0.00010   -9999.25   -9999.25   -9999.25    0.01130    5.00080    2.70840   18.87630   -9999.25 5826.50700   -9999.25    0.00470
 7859.00000    9.26010    9.21850   -0.00380   -9999.25   -9999.25   -9999.25    0.01360    5.04160    2.71600   16.06990   -9999.25 5874.50100   -9999.25    0.00390
 7859.50000    9.26840    9.22260   -0.00440   -9999.25   -9999.25   -9999.25    0.01360    5.08230    2.72060   13.26360   -9999.25 5849.14000   -9999.25    0.00320
 7860.00000    9.27020    9.24030   -0.00010   -9999.25   -9999.25   -9999.25    0.00980    5.15490    2.71240   10.95940   -9999.25 5823.78000   -9999.25    0.00280
 7860.50000    9.27460    9.25730    0.00520   -9999.25   -9999.25   -9999.25    0.00600    5.16940    2.70350   13.24490   -9999.25 5798.41900   -9999.25    0.00220
 7861.00000    9.27910    9.28710    0.01080   -9999.25   -9999.25   -9999.25    0.00390    5.11910    2.69470   15.53040   -9999.25 5786.96600   -9999.25    0.00160
 7861.50000    9.28350    9.28900    0.00890   -9999.25   -9999.25   -9999.25    0.00390    5.10080    2.69600   17.81590   -9999.25 5784.78300   -9999.25    0.00100
 7862.00000    9.28800    9.29780    0.00630   -9999.25   -9999.25   -9999.25    0.00330    5.12820    2.70170   19.64430   -9999.25 5782.60000   -9999.25    0.00050
 7862.50000    9.29240    9.30660    0.00360   -9999.25   -9999.25   -9999.25    0.00360    5.15570    2.70500   19.19200   -9999.25 5780.41700   -9999.25   -0.00150
 7863.00000    9.29690    9.30970    0.00100   -9999.25   -9999.25   -9999.25    0.00390    5.16670    2.71040   18.73970   -9999.25 5789.14100   -9999.25   -0.00380
 7863.50000    9.30130    9.29500   -0.00160   -9999.25   -9999.25   -9999.25    0.00420    5.16940    2.71070   18.28730   -9999.25 5761.70800   -9999.25   -0.00480
 7864.00000    9.30580    9.30240   -0.00330   -9999.25   -9999.25   -9999.25    0.00440    5.15570    2.71350   16.19800   -9999.25 5761.46400   -9999.25   -0.00510
 7864.50000    9.31030    9.29650   -0.00410   -9999.25   -9999.25   -9999.25    0.00530    5.10900    2.71560   14.75300   -9999.25 5806.53000   -9999.25   -0.00480
 7865.00000    9.31470    9.31410   -0.00310   -9999.25   -9999.25   -9999.25    0.00530    5.08700    2.71560   13.72240   -9999.25 5815.04800   -9999.25   -0.00460
 7865.50000    9.31920    9.31410   -0.00140   -9999.25   -9999.25   -9999.25    0.00600    5.07330    2.71260   13.72240   -9999.25 5810.68400   -9999.25   -0.00430
 7866.00000    9.32360    9.31410    0.00030   -9999.25   -9999.25   -9999.25    0.00600    5.07330    2.71100   14.05380   -9999.25 5764.84800   -9999.25   -0.00410
 7866.50000    9.33740    9.31440   -0.00040   -9999.25   -9999.25   -9999.25    0.00670    5.07330    2.71050   15.81880   -9999.25 5734.10100   -9999.25   -0.00380
 7867.00000    9.34040    9.32170   -0.00210   -9999.25   -9999.25   -9999.25    0.00670    5.09730    2.71190   15.50870   -9999.25 5755.40800   -9999.25   -0.00360
 7867.50000    9.34400    9.33030   -0.00130   -9999.25   -9999.25   -9999.25    0.00670    5.12310    2.71560   11.11710   -9999.25 5788.37000   -9999.25   -0.00320
 7868.00000    9.34770    9.34230    0.00000   -9999.25   -9999.25   -9999.25    0.00670    5.12820    2.71310    7.62180   -9999.25 5821.33200   -9999.25   -0.00200
 7868.50000    9.35130    9.34460    0.00120   -9999.25   -9999.25   -9999.25    0.00870    5.12820    2.71110    5.30560   -9999.25 5854.29400   -9999.25   -0.00060
