~Version ---------------------------------------------------
VERS.   2.0 : CWLS log ASCII Standard -VERSION 2.0
WRAP.    NO : One line per depth step
DLM . SPACE : Column Data Section Delimiter
~Well ------------------------------------------------------
STRT .FT                 960.0 : START DEPTH
STOP .FT                8560.0 : STOP DEPTH
STEP .FT                   0.5 : STEP
NULL .                -9999.25 : NULL VALUE
COMP .                         : COMPANY
WELL .                         : WELL
FLD  .                         : FIELD
LOC  .                         : LOCATION
PROV .                         : PROVINCE
CNTY .                         : COUNTY
STAT .                         : STATE
CTRY .                         : COUNTRY
SRVC .                         : SERVICE COMPANY
DATE .                         : DATE
UWI  .                         : UNIQUE WELL ID
API  .                         : API NUMBER
SLAT .WGS84  6.465940295404202 : SURFACE LATITUDE
SLON .WGS84 2.5516224315777976 : SURFACE LONGITUDE
DATUM.F                    nan : DEPTH DATUM ELEV
~Curve Information -----------------------------------------
DEPT   .FT    : Depth Curve
CALD   .IN    : CALIPER FROM DENSITY LOG
CALI   .IN    : CALIPER
DPHZ_LS.DEC   : HGRD STANDARD RESOLUTION DENSITY POROSITY
DTCO   .US/F  : DELTA-T COMPRESSIONAL
DTSM   .US/F  : DELTA-T SHEAR
GRS    .GAPI  : GAMMA RAY FROM SONIC LOG
HDRA   .G/C3  : HRDD SPINE AND RIBS DENSITY CORRECTION
PEFZ   .B/E   : HRDD STANDARD RESOLUTION FORMATION PHOTOELECTRIC FACTOR
RHOZ   .G/C3  : HRDD STANDARD RESOLUTION FORMATION DENSITY
SGRD   .GAPI  : SPECTROSCOPY GAMMA RAY FROM DENSITY LOG
SPHI_LS.DEC   : SONIC POROSITY (LS) FROM SONIC LOG
TEND   .LBF   : DIFFERENTIAL TENSION FROM DENSITY LOG
TENS   .LB    : TENSION FROM SONIC LOG
TNPH_LS.DEC   : THERMAL NEUTRON POROSITY [LIMESTONE]
~Params ----------------------------------------------------
~Other -----------------------------------------------------
~ASCII -----------------------------------------------------
# ...
 8138.50000    8.87790    8.79770    0.12820   -9999.25   -9999.25   -9999.25    0.00570    1.77130    2.49800    6.26320   -9999.25 5686.11000   -9999.25    0.01040
 8139.00000    8.87790    8.80240    0.12930   -9999.25   -9999.25   -9999.25    0.00570    1.77130    2.48760    5.91690   -9999.25 5702.93500   -9999.25    0.01170
 8139.50000    8.86930    8.81330    0.12710   -9999.25   -9999.25   -9999.25    0.00580    1.77130    2.49100    5.91550   -9999.25 5719.76000   -9999.25    0.01720
 8140.00000    8.86060    8.82150    0.12570   -9999.25   -9999.25   -9999.25    0.00580    1.78010    2.49560    6.94790   -9999.25 5721.18800   -9999.25    0.02270
 8140.50000    8.85200    8.81530    0.12300   -9999.25   -9999.25   -9999.25    0.00580    1.79320    2.50010    7.59680   -9999.25 5722.61700   -9999.25    0.02510
 8141.00000    8.84330    8.80900    0.12020   -9999.25   -9999.25   -9999.25    0.00590    1.79960    2.50470    7.79340   -9999.25 5724.04500   -9999.25    0.02380
 8141.50000    8.83470    8.81640    0.11890   -9999.25   -9999.25   -9999.25    0.00590    1.80610    2.50920    7.77120   -9999.25 5722.84600   -9999.25    0.02330
 8142.00000    8.82600    8.80030    0.11810   -9999.25   -9999.25   -9999.25    0.00590    1.81250    2.51100    7.74900   -9999.25 5726.49100   -9999.25    0.02330
 8142.50000    8.81740    8.79020    0.11940   -9999.25   -9999.25   -9999.25    0.00600    1.80300    2.50750    7.72680   -9999.25 5743.31600   -9999.25    0.02610
 8143.00000    8.80870    8.79600    0.12540   -9999.25   -9999.25   -9999.25    0.00600    1.78720    2.49870    7.70460   -9999.25 5760.14100   -9999.25    0.02890
 8143.50000    8.80010    8.80180    0.13000   -9999.25   -9999.25   -9999.25    0.00600    1.77130    2.49100    7.68240   -9999.25 5713.07000   -9999.25    0.02870
 8144.00000    8.77310    8.80760    0.12870   -9999.25   -9999.25   -9999.25    0.00610    1.77130    2.49180    7.66010   -9999.25 5665.99900   -9999.25    0.02710
 8144.50000    8.76010    8.74970    0.12620   -9999.25   -9999.25   -9999.25    0.00610    1.77720    2.49910    7.63790   -9999.25 5706.75300   -9999.25    0.02710
 8145.00000    8.75890    8.74830    0.12900   -9999.25   -9999.25   -9999.25    0.00620    1.78900    2.50140    7.61570   -9999.25 5747.50700   -9999.25    0.02720
 8145.50000    8.75630    8.74270    0.13320   -9999.25   -9999.25   -9999.25    0.00620    1.77130    2.49030    7.59350   -9999.25 5752.69500   -9999.25    0.02880
 8146.00000    8.75370    8.73260    0.13740   -9999.25   -9999.25   -9999.25    0.00620    1.77130    2.47930    7.57130   -9999.25 5704.53100   -9999.25    0.03070
 8146.50000    8.75110    8.69580    0.14160   -9999.25   -9999.25   -9999.25    0.00460    1.77320    2.46830    8.30560   -9999.25 5651.91100   -9999.25    0.03250
 8147.00000    8.73150    8.68450    0.14580   -9999.25   -9999.25   -9999.25    0.00430    1.78280    2.45720    8.88500   -9999.25 5657.15300   -9999.25    0.03200
 8147.50000    8.68610    8.70010    0.14840   -9999.25   -9999.25   -9999.25    0.00410    1.79240    2.45350    9.46440   -9999.25 5662.39600   -9999.25    0.02980
 8148.00000    8.64080    8.68170    0.14650   -9999.25   -9999.25   -9999.25    0.00410    1.80890    2.46040   10.04350   -9999.25 5667.63800   -9999.25    0.02750
 8148.50000    8.61390    8.63490    0.14550   -9999.25   -9999.25   -9999.25    0.00410    1.79550    2.46400   11.07510   -9999.25 5676.86600   -9999.25    0.02530
 8149.00000    8.80800    8.73570    0.14540   -9999.25   -9999.25   -9999.25    0.00410    1.78210    2.46280   10.50420   -9999.25 5683.22500   -9999.25    0.02390
 8149.50000    8.82270    8.79620    0.14520   -9999.25   -9999.25   -9999.25    0.00410    1.77130    2.46440    9.55410   -9999.25 5677.04200   -9999.25    0.02430
 8150.00000    8.80070    8.81010    0.14170   -9999.25   -9999.25   -9999.25    0.00410    1.78030    2.47210    8.42630   -9999.25 5670.85900   -9999.25    0.02450
 8150.50000    8.77870    8.80550    0.13460   -9999.25   -9999.25   -9999.25    0.00480    1.79530    2.48180    7.59920   -9999.25 5635.62300   -9999.25    0.02430
 8151.00000    8.77430    8.81220    0.12740   -9999.25   -9999.25   -9999.25    0.00550    1.81030    2.49150    6.97890   -9999.25 5635.51600   -9999.25    0.02130
 8151.50000    8.78810    8.83610    0.12020   -9999.25   -9999.25   -9999.25    0.00620    1.82530    2.50330    7.80600   -9999.25 5635.42500   -9999.25    0.02170
 8152.00000    8.92630    8.86000    0.11300   -9999.25   -9999.25   -9999.25    0.00690    1.84040    2.51550    8.21960   -9999.25 5688.29900   -9999.25    0.02360
 8152.50000    8.98160    8.76860    0.10590   -9999.25   -9999.25   -9999.25    0.00770    1.85540    2.52770    8.01280   -9999.25 5726.04300   -9999.25    0.02560
 8153.00000    8.85490    8.77060    0.09870   -9999.25   -9999.25   -9999.25    0.00880    1.87040    2.53990    7.39240   -9999.25 5741.08000   -9999.25    0.02650
 8153.50000    8.81570    8.77480    0.09250   -9999.25   -9999.25   -9999.25    0.01170    1.88540    2.54810    6.35850   -9999.25 5765.19900   -9999.25    0.02650
 8154.00000    8.82960    8.76640    0.08780   -9999.25   -9999.25   -9999.25    0.01170    1.90040    2.56000    5.94490   -9999.25 5747.95300   -9999.25    0.02540
 8154.50000    8.82960    8.82430    0.08450   -9999.25   -9999.25   -9999.25    0.00840    1.91540    2.56660    7.66810   -9999.25 5718.85400   -9999.25    0.02550
 8155.00000    8.82960    8.80390    0.08930   -9999.25   -9999.25   -9999.25    0.00420    1.88310    2.55490    9.82210   -9999.25 5723.25400   -9999.25    0.02350
 8155.50000    8.81570    8.76390    0.09810   -9999.25   -9999.25   -9999.25    0.00270    1.87430    2.54330   11.52810   -9999.25 5694.24200   -9999.25    0.02200
 8156.00000    8.77430    8.72390    0.09990   -9999.25   -9999.25   -9999.25    0.00680    1.81280    2.54260   10.33510   -9999.25 5665.23100   -9999.25    0.01990
 8156.50000    8.73970    8.69990    0.08880   -9999.25   -9999.25   -9999.25    0.02880    1.81400    2.56630    9.14210   -9999.25 5656.92200   -9999.25    0.01780
 8157.00000    8.71900    8.70520    0.07060   -9999.25   -9999.25   -9999.25    0.04770    1.85400    2.59000    8.21960   -9999.25 5679.66600   -9999.25    0.01570
 8157.50000    8.69140    8.73140    0.05840   -9999.25   -9999.25   -9999.25    0.05050    1.89080    2.60960   13.83710   -9999.25 5702.41100   -9999.25    0.01310
 8158.00000    8.73280    8.75750    0.05080   -9999.25   -9999.25   -9999.25    0.04770    1.94230    2.62380   27.88110   -9999.25 5725.15600   -9999.25    0.01280
 8158.50000    8.78120    8.78370    0.04600   -9999.25   -9999.25   -9999.25    0.03090    2.13580    2.63030   41.92510   -9999.25 5731.24800   -9999.25    0.01310
 8159.00000    8.80190    8.80980    0.04460   -9999.25   -9999.25   -9999.25    0.01930    2.26030    2.63240   42.95900   -9999.25 5716.42500   -9999.25    0.03270
 8159.50000    8.77430    8.83600    0.04530   -9999.25   -9999.25   -9999.25    0.00780    2.33580    2.63170   43.24100   -9999.25 5701.60100   -9999.25    0.05830
 8160.00000    8.77430    8.86690    0.05130   -9999.25   -9999.25   -9999.25    0.00370    2.41130    2.62890   43.52300   -9999.25 5657.82800   -9999.25    0.07240
 8160.50000    8.77360    8.88200    0.05630   -9999.25   -9999.25   -9999.25    0.00340    2.48150    2.61400   43.80490   -9999.25 5680.87000   -9999.25    0.07860
 8161.00000    8.84200    8.71560    0.07000   -9999.25   -9999.25   -9999.25    0.02200    2.53110    2.58860   44.08690   -9999.25 5715.84300   -9999.25    0.07310
 8161.50000    9.03480    8.71570    0.08630   -9999.25   -9999.25   -9999.25    0.05290    2.68790    2.56330   44.61330   -9999.25 5750.81500   -9999.25    0.08020
 8162.00000    9.24160    9.13250    0.10260   -9999.25   -9999.25   -9999.25    0.08390    2.85590    2.53790   60.12200   -9999.25 5749.16400   -9999.25    0.09180
 8162.50000    9.44840    9.32180    0.10400   -9999.25   -9999.25   -9999.25    0.10930    3.04770    2.53650   86.62190   -9999.25 5747.20900   -9999.25    0.12010
