~Version ---------------------------------------------------
VERS.   2.0 : CWLS log ASCII Standard -VERSION 2.0
WRAP.    NO : One line per depth step
DLM . SPACE : Column Data Section Delimiter
~Well ------------------------------------------------------
STRT .FT                 960.0 : START DEPTH
STOP .FT                8560.0 : STOP DEPTH
STEP .FT                   0.5 : STEP
NULL .                -9999.25 : NULL VALUE
COMP .                         : COMPANY
WELL .                         : WELL
FLD  .                         : FIELD
LOC  .                         : LOCATION
PROV .                         : PROVINCE
CNTY .                         : COUNTY
STAT .                         : STATE
CTRY .                         : COUNTRY
SRVC .                         : SERVICE COMPANY
DATE .                         : DATE
UWI  .                         : UNIQUE WELL ID
API  .                         : API NUMBER
SLAT .WGS84  6.465940295404202 : SURFACE LATITUDE
SLON .WGS84 2.5516224315777976 : SURFACE LONGITUDE
DATUM.F                    nan : DEPTH DATUM ELEV
~Curve Information -----------------------------------------
DEPT   .FT    : Depth Curve
CALD   .IN    : CALIPER FROM DENSITY LOG
CALI   .IN    : CALIPER
DPHZ_LS.DEC   : HGRD STANDARD RESOLUTION DENSITY POROSITY
DTCO   .US/F  : DELTA-T COMPRESSIONAL
DTSM   .US/F  : DELTA-T SHEAR
GRS    .GAPI  : GAMMA RAY FROM SONIC LOG
HDRA   .G/C3  : HRDD SPINE AND RIBS DENSITY CORRECTION
PEFZ   .B/E   : HRDD STANDARD RESOLUTION FORMATION PHOTOELECTRIC FACTOR
RHOZ   .G/C3  : HRDD STANDARD RESOLUTION FORMATION DENSITY
SGRD   .GAPI  : SPECTROSCOPY GAMMA RAY FROM DENSITY LOG
SPHI_LS.DEC   : SONIC POROSITY (LS) FROM SONIC LOG
TEND   .LBF   : DIFFERENTIAL TENSION FROM DENSITY LOG
TENS   .LB    : TENSION FROM SONIC LOG
TNPH_LS.DEC   : THERMAL NEUTRON POROSITY [LIMESTONE]
~Params ----------------------------------------------------
~Other -----------------------------------------------------
~ASCII -----------------------------------------------------
# ...
 8334.50000    8.66530    8.80700    0.04070   -9999.25   -9999.25   -9999.25    0.05150    2.53580    2.63980   43.11990   -9999.25 5793.57800   -9999.25    0.06340
 8335.00000    8.70760    8.70120    0.03140   -9999.25   -9999.25   -9999.25    0.07280    2.58840    2.65590   50.01260   -9999.25 5751.42400   -9999.25    0.09420
 8335.50000    8.79120    8.77690    0.03170   -9999.25   -9999.25   -9999.25    0.09410    2.63060    2.66190   56.90540   -9999.25 5709.27100   -9999.25    0.11420
 8336.00000    8.91620    8.85270    0.05250   -9999.25   -9999.25   -9999.25    0.11540    2.63180    2.62640   63.79810   -9999.25 5709.18000   -9999.25    0.10950
 8336.50000    8.91700    9.04960    0.07340   -9999.25   -9999.25   -9999.25    0.13100    2.58350    2.58540   70.69090   -9999.25 5897.45200   -9999.25    0.10970
 8337.00000    9.35850    9.42810    0.10400   -9999.25   -9999.25   -9999.25    0.13990    2.56130    2.52890   77.58360   -9999.25 6132.81200   -9999.25    0.16350
 8337.50000    9.49730    9.47370    0.12260   -9999.25   -9999.25   -9999.25    0.14900    2.61140    2.50080   84.47640   -9999.25 6123.63000   -9999.25    0.20620
 8338.00000    9.71910    9.64940    0.11790   -9999.25   -9999.25   -9999.25    0.15450    2.64990    2.50280   91.36910   -9999.25 6067.02000   -9999.25    0.20490
 8338.50000    9.53650    9.08030    0.12000   -9999.25   -9999.25   -9999.25    0.16150    2.65090    2.50590   98.26190   -9999.25 6008.05200   -9999.25    0.19150
 8339.00000    9.02930    9.41340    0.10560   -9999.25   -9999.25   -9999.25    0.24520    2.54040    2.53170  103.98280   -9999.25 5949.08300   -9999.25    0.17820
 8339.50000    9.32010    9.23190    0.08120   -9999.25   -9999.25   -9999.25    0.29240    2.44710    2.56580  103.56930   -9999.25 5890.11500   -9999.25    0.17530
 8340.00000    9.10770    9.77690    0.05670   -9999.25   -9999.25   -9999.25    0.29310    2.48410    2.59940  104.18960   -9999.25 5935.43600   -9999.25    0.20120
 8340.50000    8.85920    8.78170    0.04590   -9999.25   -9999.25   -9999.25    0.21130    2.56800    2.63290  104.60320   -9999.25 6026.15400   -9999.25    0.22980
 8341.00000    8.74170    8.68720    0.04480   -9999.25   -9999.25   -9999.25    0.15350    2.62980    2.63430   98.33080   -9999.25 6041.20000   -9999.25    0.24750
 8341.50000    8.74860    8.82360    0.03380   -9999.25   -9999.25   -9999.25    0.09570    2.70670    2.65270   83.40800   -9999.25 5953.02100   -9999.25    0.13690
 8342.00000    8.79010    8.76310    0.03640   -9999.25   -9999.25   -9999.25    0.07320    2.55640    2.65910   63.59130   -9999.25 5842.83600   -9999.25    0.08570
 8342.50000    8.77620    8.74810    0.06110   -9999.25   -9999.25   -9999.25    0.05900    2.47940    2.62770   47.53120   -9999.25 5798.70100   -9999.25    0.06570
 8343.00000    8.74860    8.81740    0.08590   -9999.25   -9999.25   -9999.25    0.08130    2.46480    2.59360   47.73800   -9999.25 5828.86400   -9999.25    0.07770
 8343.50000    8.79010    8.95110    0.11650   -9999.25   -9999.25   -9999.25    0.11970    2.46250    2.53530   59.35920   -9999.25 5949.86100   -9999.25    0.09270
 8344.00000    9.19080    9.15560    0.14700   -9999.25   -9999.25   -9999.25    0.17140    2.45860    2.47080   84.27650   -9999.25 5980.04500   -9999.25    0.10000
 8344.50000    9.60540    9.41150    0.14510   -9999.25   -9999.25   -9999.25    0.21760    2.42270    2.45730  101.39810   -9999.25 5942.67400   -9999.25    0.07550
 8345.00000    9.68840    9.68710    0.08650   -9999.25   -9999.25   -9999.25    0.20640    2.38230    2.54900  103.77610   -9999.25 5895.99900   -9999.25    0.04650
 8345.50000    8.79010    8.91520    0.02940   -9999.25   -9999.25   -9999.25    0.18020    2.36920    2.64060   71.72480   -9999.25 5843.50700   -9999.25    0.03740
 8346.00000    8.76240    8.77910    0.01670   -9999.25   -9999.25   -9999.25    0.12320    2.36990    2.68550   43.49900   -9999.25 5724.46300   -9999.25    0.03710
 8346.50000    8.76240    8.73370    0.03840   -9999.25   -9999.25   -9999.25    0.07560    2.34320    2.64090   26.16940   -9999.25 5661.66200   -9999.25    0.03460
 8347.00000    8.76240    8.71870    0.07450   -9999.25   -9999.25   -9999.25    0.09650    2.31650    2.59710   17.62810   -9999.25 5767.50700   -9999.25    0.02390
 8347.50000    8.83610    8.78690    0.07790   -9999.25   -9999.25   -9999.25    0.19080    2.21690    2.56940   21.09750   -9999.25 5964.19600   -9999.25    0.02610
 8348.00000    8.99740    8.89750    0.09550   -9999.25   -9999.25   -9999.25    0.24730    2.11730    2.55670   32.24080   -9999.25 6007.18000   -9999.25    0.03460
 8348.50000    9.49490    9.08230    0.05830   -9999.25   -9999.25   -9999.25    0.33700    2.05780    2.63140   45.78010   -9999.25 6042.00700   -9999.25    0.05040
 8349.00000    9.28760    9.66520    0.00040   -9999.25   -9999.25   -9999.25    0.34510    2.11340    2.70610   62.91350   -9999.25 6069.86900   -9999.25    0.07650
 8349.50000    8.73480    8.81000   -0.03570   -9999.25   -9999.25   -9999.25    0.25920    2.24330    2.77650   56.50330   -9999.25 5980.44200   -9999.25    0.09830
 8350.00000    8.92830    8.73440   -0.04010   -9999.25   -9999.25   -9999.25    0.09270    2.37330    2.77520   40.99460   -9999.25 5806.27100   -9999.25    0.06380
 8350.50000    8.83180    8.77350    0.04350   -9999.25   -9999.25   -9999.25    0.00360    2.37500    2.63610   38.16850   -9999.25 5736.57100   -9999.25    0.04840
 8351.00000    8.81830    8.82540    0.04670   -9999.25   -9999.25   -9999.25    0.00360    2.40940    2.63110   35.41150   -9999.25 5903.02800   -9999.25    0.03900
 8351.50000    8.88770    8.83560    0.04550   -9999.25   -9999.25   -9999.25    0.01360    2.42310    2.63390   33.81630   -9999.25 5958.48000   -9999.25    0.03470
 8352.00000    8.91570    8.94670    0.04350   -9999.25   -9999.25   -9999.25    0.02350    2.42310    2.63600   31.82230   -9999.25 5907.97200   -9999.25    0.03400
 8352.50000    9.05470    9.03750    0.04290   -9999.25   -9999.25   -9999.25    0.03350    2.40940    2.63600   29.82830   -9999.25 5827.18900   -9999.25    0.03190
 8353.00000    8.98560    8.93170    0.04770   -9999.25   -9999.25   -9999.25    0.03680    2.35440    2.63050   29.82830   -9999.25 5777.94000   -9999.25    0.03330
 8353.50000    8.95800    8.94000    0.05660   -9999.25   -9999.25   -9999.25    0.03240    2.32700    2.61590   29.94110   -9999.25 5721.12400   -9999.25    0.03580
 8354.00000    8.97220    8.83000    0.06560   -9999.25   -9999.25   -9999.25    0.02810    2.28580    2.60240   30.12910   -9999.25 5675.66400   -9999.25    0.03870
 8354.50000    8.95870    8.72000    0.06820   -9999.25   -9999.25   -9999.25    0.02390    2.27200    2.59530   30.24190   -9999.25 5808.06800   -9999.25    0.04020
 8355.00000    8.75170    8.75680    0.06570   -9999.25   -9999.25   -9999.25    0.01960    2.24460    2.59970   27.63640   -9999.25 5932.89900   -9999.25    0.03830
 8355.50000    8.74850    8.84120    0.06190   -9999.25   -9999.25   -9999.25    0.01540    2.24460    2.60430   23.63860   -9999.25 5993.39400   -9999.25    0.03540
 8356.00000    8.80070    8.85140    0.06330   -9999.25   -9999.25   -9999.25    0.01690    2.32700    2.60150   19.64080   -9999.25 5942.35700   -9999.25    0.03560
 8356.50000    8.85290    8.82620    0.07320   -9999.25   -9999.25   -9999.25    0.04230    2.39560    2.59270   17.42140   -9999.25 5859.79000   -9999.25    0.03750
 8357.00000    8.95560    8.82630    0.08230   -9999.25   -9999.25   -9999.25    0.09720    2.43680    2.56950   18.45530   -9999.25 5826.73300   -9999.25    0.04810
 8357.50000    9.11410    9.13740    0.08390   -9999.25   -9999.25   -9999.25    0.15220    2.43680    2.56840   28.79440   -9999.25 5856.96100   -9999.25    0.06190
 8358.00000    9.11460    9.34600    0.07940   -9999.25   -9999.25   -9999.25    0.20720    2.38190    2.58290   53.01750   -9999.25 5926.70400   -9999.25    0.09180
 8358.50000    9.09990    9.14420    0.07450   -9999.25   -9999.25   -9999.25    0.20990    2.32530    2.57460   77.24060   -9999.25 5996.44700   -9999.25    0.14590
