~Version ---------------------------------------------------
VERS.   2.0 : CWLS log ASCII Standard -VERSION 2.0
WRAP.    NO : One line per depth step
DLM . SPACE : Column Data Section Delimiter
~Well ------------------------------------------------------
STRT .FT                 960.0 : START DEPTH
STOP .FT                8560.0 : STOP DEPTH
STEP .FT                   0.5 : STEP
NULL .                -9999.25 : NULL VALUE
COMP .                         : COMPANY
WELL .                         : WELL
FLD  .                         : FIELD
LOC  .                         : LOCATION
PROV .                         : PROVINCE
CNTY .                         : COUNTY
STAT .                         : STATE
CTRY .                         : COUNTRY
SRVC .                         : SERVICE COMPANY
DATE .                         : DATE
UWI  .                         : UNIQUE WELL ID
API  .                         : API NUMBER
SLAT .WGS84  6.465940295404202 : SURFACE LATITUDE
SLON .WGS84 2.5516224315777976 : SURFACE LONGITUDE
DATUM.F                    nan : DEPTH DATUM ELEV
~Curve Information -----------------------------------------
DEPT   .FT    : Depth Curve
CALD   .IN    : CALIPER FROM DENSITY LOG
CALI   .IN    : CALIPER
DPHZ_LS.DEC   : HGRD STANDARD RESOLUTION DENSITY POROSITY
DTCO   .US/F  : DELTA-T COMPRESSIONAL
DTSM   .US/F  : DELTA-T SHEAR
GRS    .GAPI  : GAMMA RAY FROM SONIC LOG
HDRA   .G/C3  : HRDD SPINE AND RIBS DENSITY CORRECTION
PEFZ   .B/E   : HRDD STANDARD RESOLUTION FORMATION PHOTOELECTRIC FACTOR
RHOZ   .G/C3  : HRDD STANDARD RESOLUTION FORMATION DENSITY
SGRD   .GAPI  : SPECTROSCOPY GAMMA RAY FROM DENSITY LOG
SPHI_LS.DEC   : SONIC POROSITY (LS) FROM SONIC LOG
TEND   .LBF   : DIFFERENTIAL TENSION FROM DENSITY LOG
TENS   .LB    : TENSION FROM SONIC LOG
TNPH_LS.DEC   : THERMAL NEUTRON POROSITY [LIMESTONE]
~Params ----------------------------------------------------
~Other -----------------------------------------------------
~ASCII -----------------------------------------------------
# ...
 8040.50000    8.79850    8.74530    0.12500   -9999.25   -9999.25   -9999.25    0.00140    1.68960    2.50310    6.35850   -9999.25 5775.59200   -9999.25    0.03380
 8041.00000    8.78290    8.76000    0.12390   -9999.25   -9999.25   -9999.25    0.00270    1.69700    2.50100    6.97890   -9999.25 5746.25000   -9999.25    0.03490
 8041.50000    8.76740    8.76120    0.12110   -9999.25   -9999.25   -9999.25    0.00810    1.72820    2.50220    6.61430   -9999.25 5733.82200   -9999.25    0.02970
 8042.00000    8.78160    8.75960    0.11340   -9999.25   -9999.25   -9999.25    0.01610    1.73580    2.51310    5.03980   -9999.25 5691.44500   -9999.25    0.02030
 8042.50000    8.77350    8.76340    0.10410   -9999.25   -9999.25   -9999.25    0.02400    1.78330    2.52790    4.80860   -9999.25 5632.17100   -9999.25    0.01090
 8043.00000    8.76540    8.75820    0.09860   -9999.25   -9999.25   -9999.25    0.03450    1.79190    2.53760    4.81030   -9999.25 5610.14000   -9999.25    0.01010
 8043.50000    8.75730    8.75300    0.10210   -9999.25   -9999.25   -9999.25    0.03730    1.82140    2.53800    4.81190   -9999.25 5616.62500   -9999.25    0.01260
 8044.00000    8.74920    8.74580    0.10580   -9999.25   -9999.25   -9999.25    0.03520    1.83310    2.52960    4.81360   -9999.25 5623.11000   -9999.25    0.01340
 8044.50000    8.74110    8.72780    0.10950   -9999.25   -9999.25   -9999.25    0.02970    1.82970    2.52390    4.81520   -9999.25 5629.59600   -9999.25    0.01260
 8045.00000    8.73630    8.73300    0.11320   -9999.25   -9999.25   -9999.25    0.02240    1.81250    2.51730    4.81690   -9999.25 5652.28200   -9999.25    0.01120
 8045.50000    8.73630    8.73600    0.11120   -9999.25   -9999.25   -9999.25    0.01650    1.79540    2.52540    4.81850   -9999.25 5679.02000   -9999.25    0.00830
 8046.00000    8.73630    8.73250    0.10020   -9999.25   -9999.25   -9999.25    0.01650    1.81660    2.54290    4.82020   -9999.25 5702.40800   -9999.25    0.00540
 8046.50000    8.73630    8.72900    0.08840   -9999.25   -9999.25   -9999.25    0.01650    1.82140    2.56320    4.82180   -9999.25 5717.11300   -9999.25    0.00400
 8047.00000    8.74420    8.74420    0.08420   -9999.25   -9999.25   -9999.25    0.01580    1.79190    2.56250    4.82350   -9999.25 5750.66100   -9999.25    0.00970
 8047.50000    8.78410    8.77590    0.09190   -9999.25   -9999.25   -9999.25    0.01450    1.74040    2.54910    4.82510   -9999.25 5757.29700   -9999.25    0.01700
 8048.00000    8.82400    8.82120    0.09660   -9999.25   -9999.25   -9999.25    0.01240    1.73180    2.54030    4.82680   -9999.25 5729.72900   -9999.25    0.02130
 8048.50000    8.83920    8.82540    0.09610   -9999.25   -9999.25   -9999.25    0.01100    1.69040    2.54680    4.82840   -9999.25 5726.82300   -9999.25    0.02300
 8049.00000    8.79970    8.81460    0.09190   -9999.25   -9999.25   -9999.25    0.00950    1.72180    2.55620    5.21400   -9999.25 5723.91800   -9999.25    0.02100
 8049.50000    8.79860    8.79920    0.08840   -9999.25   -9999.25   -9999.25    0.00810    1.73330    2.55760    5.42360   -9999.25 5721.01300   -9999.25    0.01750
 8050.00000    8.79740    8.78380    0.08960   -9999.25   -9999.25   -9999.25    0.00670    1.73730    2.55710    5.32460   -9999.25 5720.42100   -9999.25    0.01900
 8050.50000    8.79630    8.78720    0.09110   -9999.25   -9999.25   -9999.25    0.00520    1.76100    2.55560    5.19540   -9999.25 5721.37100   -9999.25    0.02030
 8051.00000    8.79520    8.78670    0.09110   -9999.25   -9999.25   -9999.25    0.00410    1.78440    2.55410    5.06610   -9999.25 5730.76600   -9999.25    0.01810
 8051.50000    8.79400    8.77770    0.09300   -9999.25   -9999.25   -9999.25    0.00410    1.80780    2.55070    5.11730   -9999.25 5755.17000   -9999.25    0.01560
 8052.00000    8.79290    8.77960    0.10000   -9999.25   -9999.25   -9999.25    0.00480    1.80060    2.53970    6.35310   -9999.25 5767.05800   -9999.25    0.01940
 8052.50000    8.76740    8.76880    0.10930   -9999.25   -9999.25   -9999.25    0.00530    1.79010    2.52280    6.97920   -9999.25 5778.94500   -9999.25    0.02190
 8053.00000    8.74430    8.76200    0.11560   -9999.25   -9999.25   -9999.25    0.00450    1.78540    2.51460    7.08980   -9999.25 5728.52500   -9999.25    0.02250
 8053.50000    8.73850    8.75520    0.10800   -9999.25   -9999.25   -9999.25    0.00370    1.76100    2.52500    8.32790   -9999.25 5635.20700   -9999.25    0.01960
 8054.00000    8.76740    8.75460    0.09850   -9999.25   -9999.25   -9999.25    0.00710    1.76100    2.54280   10.84060   -9999.25 5618.00800   -9999.25    0.01830
 8054.50000    8.77870    8.75970    0.09080   -9999.25   -9999.25   -9999.25    0.01340    1.78440    2.55220   11.13720   -9999.25 5636.61500   -9999.25    0.02490
 8055.00000    8.79010    8.79320    0.09220   -9999.25   -9999.25   -9999.25    0.02580    1.78910    2.54900    9.46030   -9999.25 5632.81100   -9999.25    0.03170
 8055.50000    8.80150    8.80780    0.10110   -9999.25   -9999.25   -9999.25    0.03320    1.78970    2.53780    7.47680   -9999.25 5664.74800   -9999.25    0.03850
 8056.00000    8.81290    8.80880    0.11000   -9999.25   -9999.25   -9999.25    0.02640    1.78420    2.52320    6.38030   -9999.25 5780.05700   -9999.25    0.04290
 8056.50000    8.83410    8.80980    0.11880   -9999.25   -9999.25   -9999.25    0.01980    1.76100    2.50860    6.32140   -9999.25 5874.09300   -9999.25    0.04180
 8057.00000    8.80280    8.81080    0.11900   -9999.25   -9999.25   -9999.25    0.01620    1.77650    2.50650    6.26240   -9999.25 5857.18800   -9999.25    0.03850
 8057.50000    8.81540    8.81180    0.11640   -9999.25   -9999.25   -9999.25    0.01720    1.80220    2.51290    6.20350   -9999.25 5833.82000   -9999.25    0.03920
 8058.00000    8.80600    8.81280    0.11540   -9999.25   -9999.25   -9999.25    0.01790    1.79610    2.51690    5.47430   -9999.25 5814.09800   -9999.25    0.04010
 8058.50000    8.80190    8.81380    0.11890   -9999.25   -9999.25   -9999.25    0.01790    1.79450    2.51330    5.47330   -9999.25 5767.84800   -9999.25    0.03980
 8059.00000    8.81920    8.80640    0.12360   -9999.25   -9999.25   -9999.25    0.01170    1.79290    2.49910    5.47220   -9999.25 5721.59700   -9999.25    0.03710
 8059.50000    8.83650    8.79790    0.12690   -9999.25   -9999.25   -9999.25    0.00480    1.77310    2.49620    5.47110   -9999.25 5711.71500   -9999.25    0.03430
 8060.00000    8.82860    8.78940    0.12070   -9999.25   -9999.25   -9999.25    0.00200    1.74130    2.50580    5.47000   -9999.25 5718.98700   -9999.25    0.03290
 8060.50000    8.80970    8.79560    0.11590   -9999.25   -9999.25   -9999.25    0.00200    1.73010    2.51550    5.46900   -9999.25 5726.25800   -9999.25    0.03160
 8061.00000    8.82600    8.80670    0.11510   -9999.25   -9999.25   -9999.25    0.00200    1.73010    2.51670    5.46790   -9999.25 5677.15700   -9999.25    0.03020
 8061.50000    8.83800    8.80820    0.11420   -9999.25   -9999.25   -9999.25    0.00200    1.73010    2.51520    5.46680   -9999.25 5639.19900   -9999.25    0.02850
 8062.00000    8.83620    8.81450    0.11330   -9999.25   -9999.25   -9999.25    0.00410    1.76100    2.51660    5.46580   -9999.25 5601.24200   -9999.25    0.02850
 8062.50000    8.81400    8.79840    0.11260   -9999.25   -9999.25   -9999.25    0.00490    1.78910    2.51820    5.46470   -9999.25 5643.01300   -9999.25    0.03060
 8063.00000    8.79680    8.79020    0.11180   -9999.25   -9999.25   -9999.25    0.00530    1.78560    2.51990    5.46360   -9999.25 5754.92800   -9999.25    0.03130
 8063.50000    8.79670    8.78200    0.11070   -9999.25   -9999.25   -9999.25    0.00580    1.75370    2.52480    5.46260   -9999.25 5778.53200   -9999.25    0.03010
 8064.00000    8.79670    8.79770    0.10500   -9999.25   -9999.25   -9999.25    0.00620    1.72190    2.53310    5.46150   -9999.25 5742.25000   -9999.25    0.02920
 8064.50000    8.79660    8.78620    0.09940   -9999.25   -9999.25   -9999.25    0.00820    1.77340    2.54030    5.74910   -9999.25 5705.96700   -9999.25    0.02960
