~Version ---------------------------------------------------
VERS.   2.0 : CWLS log ASCII Standard -VERSION 2.0
WRAP.    NO : One line per depth step
DLM . SPACE : Column Data Section Delimiter
~Well ------------------------------------------------------
STRT .FT                 960.0 : START DEPTH
STOP .FT                8560.0 : STOP DEPTH
STEP .FT                   0.5 : STEP
NULL .                -9999.25 : NULL VALUE
COMP .                         : COMPANY
WELL .                         : WELL
FLD  .                         : FIELD
LOC  .                         : LOCATION
PROV .                         : PROVINCE
CNTY .                         : COUNTY
STAT .                         : STATE
CTRY .                         : COUNTRY
SRVC .                         : SERVICE COMPANY
DATE .                         : DATE
UWI  .                         : UNIQUE WELL ID
API  .                         : API NUMBER
SLAT .WGS84  6.465940295404202 : SURFACE LATITUDE
SLON .WGS84 2.5516224315777976 : SURFACE LONGITUDE
DATUM.F                    nan : DEPTH DATUM ELEV
~Curve Information -----------------------------------------
DEPT   .FT    : Depth Curve
CALD   .IN    : CALIPER FROM DENSITY LOG
CALI   .IN    : CALIPER
DPHZ_LS.DEC   : HGRD STANDARD RESOLUTION DENSITY POROSITY
DTCO   .US/F  : DELTA-T COMPRESSIONAL
DTSM   .US/F  : DELTA-T SHEAR
GRS    .GAPI  : GAMMA RAY FROM SONIC LOG
HDRA   .G/C3  : HRDD SPINE AND RIBS DENSITY CORRECTION
PEFZ   .B/E   : HRDD STANDARD RESOLUTION FORMATION PHOTOELECTRIC FACTOR
RHOZ   .G/C3  : HRDD STANDARD RESOLUTION FORMATION DENSITY
SGRD   .GAPI  : SPECTROSCOPY GAMMA RAY FROM DENSITY LOG
SPHI_LS.DEC   : SONIC POROSITY (LS) FROM SONIC LOG
TEND   .LBF   : DIFFERENTIAL TENSION FROM DENSITY LOG
TENS   .LB    : TENSION FROM SONIC LOG
TNPH_LS.DEC   : THERMAL NEUTRON POROSITY [LIMESTONE]
~Params ----------------------------------------------------
~Other -----------------------------------------------------
~ASCII -----------------------------------------------------
# ...
 8236.50000    8.80190    8.81640    0.04300   -9999.25   -9999.25   -9999.25    0.05220    2.44370    2.63420   52.33920   -9999.25 5728.47200   -9999.25    0.04650
 8237.00000    8.80190    8.80460    0.04470   -9999.25   -9999.25   -9999.25    0.05320    2.44370    2.63720   50.51950   -9999.25 5762.51200   -9999.25    0.04870
 8237.50000    8.80190    8.76730    0.04770   -9999.25   -9999.25   -9999.25    0.05190    2.43680    2.63580   49.44420   -9999.25 5822.00200   -9999.25    0.06970
 8238.00000    8.80190    8.67650    0.10160   -9999.25   -9999.25   -9999.25    0.04700    2.38190    2.56460   52.65880   -9999.25 5860.56900   -9999.25    0.09790
 8238.50000    8.80190    8.69180    0.16580   -9999.25   -9999.25   -9999.25    0.03500    2.34760    2.40760   58.01630   -9999.25 5808.75300   -9999.25    0.12620
 8239.00000    9.00640    8.83310    0.24550   -9999.25   -9999.25   -9999.25    0.02300    2.32010    2.25860   65.05640   -9999.25 5787.70900   -9999.25    0.11130
 8239.50000    9.51780    9.53970    0.30070   -9999.25   -9999.25   -9999.25    0.01090    2.35370    2.14180   74.62010   -9999.25 5766.66500   -9999.25    0.07840
 8240.00000    9.83840    9.88030    0.30140   -9999.25   -9999.25   -9999.25   -0.00150    2.38740    2.10110   84.18380   -9999.25 5741.18000   -9999.25    0.07890
 8240.50000    9.18820    9.17660    0.30130   -9999.25   -9999.25   -9999.25   -0.00350    2.42100    2.08670   92.24840   -9999.25 5714.58500   -9999.25    0.12400
 8241.00000    9.13230    9.11610    0.28140   -9999.25   -9999.25   -9999.25    0.00540    2.45460    2.22310   88.86470   -9999.25 5687.99000   -9999.25    0.13490
 8241.50000    9.26990    9.31300    0.17290   -9999.25   -9999.25   -9999.25    0.04270    2.48820    2.39170   81.25130   -9999.25 5839.26400   -9999.25    0.13380
 8242.00000    9.07090    9.15260    0.07130   -9999.25   -9999.25   -9999.25    0.06520    2.53540    2.54150   73.63790   -9999.25 5975.44700   -9999.25    0.12880
 8242.50000    8.95040    8.94990    0.06080   -9999.25   -9999.25   -9999.25    0.06380    2.56800    2.60920   66.02450   -9999.25 5975.29500   -9999.25    0.14080
 8243.00000    8.92200    8.93490    0.05890   -9999.25   -9999.25   -9999.25    0.06190    2.58220    2.61000   58.41110   -9999.25 5907.07900   -9999.25    0.13930
 8243.50000    8.96730    8.93500    0.08060   -9999.25   -9999.25   -9999.25    0.05200    2.58710    2.58000   56.88840   -9999.25 5838.86300   -9999.25    0.13560
 8244.00000    8.93890    8.92500    0.13980   -9999.25   -9999.25   -9999.25    0.02060    2.58610    2.49890   65.65290   -9999.25 5808.49700   -9999.25    0.13050
 8244.50000    8.91980    8.93520    0.19900   -9999.25   -9999.25   -9999.25   -0.01090    2.65690    2.41780   82.91130   -9999.25 5832.16900   -9999.25    0.12340
 8245.00000    9.30010    9.48020    0.20950   -9999.25   -9999.25   -9999.25   -0.01510    2.74580    2.35560  100.16980   -9999.25 5929.38300   -9999.25    0.13300
 8245.50000    8.98750    8.96560    0.16940   -9999.25   -9999.25   -9999.25    0.02520    2.83470    2.41480  109.41140   -9999.25 5944.42900   -9999.25    0.15450
 8246.00000    8.94520    8.97330    0.12930   -9999.25   -9999.25   -9999.25    0.09000    2.92360    2.51340  113.34030   -9999.25 5959.47600   -9999.25    0.17440
 8246.50000    9.16700    9.17780    0.08930   -9999.25   -9999.25   -9999.25    0.15490    3.01250    2.54690  116.44210   -9999.25 5860.65200   -9999.25    0.17710
 8247.00000    9.00050    8.96590    0.06520   -9999.25   -9999.25   -9999.25    0.19510    3.10140    2.60020  120.62940   -9999.25 5737.17900   -9999.25    0.18020
 8247.50000    9.09320    8.98120    0.08750   -9999.25   -9999.25   -9999.25    0.19310    3.19030    2.59860  122.43880   -9999.25 5613.70600   -9999.25    0.19830
 8248.00000    9.15120    9.19320    0.13930   -9999.25   -9999.25   -9999.25    0.11010    3.25270    2.49290  121.47380   -9999.25 5752.22600   -9999.25    0.28320
 8248.50000    8.90010    8.96620    0.19100   -9999.25   -9999.25   -9999.25    0.01240    3.23810    2.41880  119.75060   -9999.25 6001.91200   -9999.25    0.34590
 8249.00000    8.89940    8.95120    0.29170   -9999.25   -9999.25   -9999.25   -0.02660    3.16860    2.32620  121.85600   -9999.25 5973.64900   -9999.25    0.46740
 8249.50000    9.01770    8.96640    0.27200   -9999.25   -9999.25   -9999.25    0.03460    3.01370    2.24830  125.05180   -9999.25 5945.38600   -9999.25    0.41600
 8250.00000    9.34190    9.04220    0.17810   -9999.25   -9999.25   -9999.25    0.11020    2.90290    2.40680  128.22810   -9999.25 5928.38200   -9999.25    0.35380
 8250.50000    8.98850    9.08770    0.08410   -9999.25   -9999.25   -9999.25    0.18580    2.79200    2.56530  134.61400   -9999.25 5847.62800   -9999.25    0.34360
 8251.00000    9.09630    9.10280    0.07680   -9999.25   -9999.25   -9999.25    0.24630    2.72860    2.58870  141.00000   -9999.25 5761.85000   -9999.25    0.32230
 8251.50000    9.16810    9.10280    0.10220   -9999.25   -9999.25   -9999.25    0.21220    2.83160    2.54520  147.38590   -9999.25 5829.96800   -9999.25    0.30010
 8252.00000    9.15430    9.10280    0.12330   -9999.25   -9999.25   -9999.25    0.14590    2.93460    2.50180  150.35380   -9999.25 5792.12400   -9999.25    0.26290
 8252.50000    9.08130    9.10280    0.12440   -9999.25   -9999.25   -9999.25    0.07960    3.01700    2.49840  150.17800   -9999.25 5714.54600   -9999.25    0.27400
 8253.00000    9.04380    9.03390    0.13060   -9999.25   -9999.25   -9999.25    0.05370    3.03070    2.49550  146.01140   -9999.25 5629.39900   -9999.25    0.29320
 8253.50000    9.02990    8.96660    0.17570   -9999.25   -9999.25   -9999.25    0.09080    2.92090    2.41550  144.81210   -9999.25 5580.20400   -9999.25    0.28180
 8254.00000   10.20460   10.13210    0.18570   -9999.25   -9999.25   -9999.25    0.18520    2.66340    2.39890  142.09840   -9999.25 5742.38800   -9999.25    0.27010
 8254.50000    9.02990    9.02710    0.12550   -9999.25   -9999.25   -9999.25    0.24740    2.40600    2.49150  138.67860   -9999.25 5966.20200   -9999.25    0.27360
 8255.00000    9.38000    9.22940    0.07490   -9999.25   -9999.25   -9999.25    0.44160    2.20680    2.60030  135.25870   -9999.25 6004.04500   -9999.25    0.26330
 8255.50000    9.63800    9.62160    0.03830   -9999.25   -9999.25   -9999.25    0.48580    2.28280    2.66830  127.91790   -9999.25 5841.32000   -9999.25    0.20480
 8256.00000   10.19080    9.96560    0.00170   -9999.25   -9999.25   -9999.25    0.40450    2.52510    2.70810  119.00040   -9999.25 5807.26100   -9999.25    0.14630
 8256.50000    9.04380    9.08770   -0.02030   -9999.25   -9999.25   -9999.25    0.25060    2.76740    2.74060  110.08290   -9999.25 5826.18300   -9999.25    0.11620
 8257.00000    9.07830    9.07250    0.00620   -9999.25   -9999.25   -9999.25    0.11120    3.00970    2.70400  103.10400   -9999.25 5834.50900   -9999.25    0.11030
 8257.50000    9.11290    9.07250    0.05980   -9999.25   -9999.25   -9999.25   -0.00050    3.01700    2.62130   99.27860   -9999.25 5826.94000   -9999.25    0.10760
 8258.00000    9.10600    9.07250    0.05550   -9999.25   -9999.25   -9999.25   -0.00600    2.85220    2.60400   98.03790   -9999.25 5792.12400   -9999.25    0.09710
 8258.50000    9.09790    9.10790    0.05370   -9999.25   -9999.25   -9999.25   -0.00400    2.79730    2.61990   96.79720   -9999.25 5766.89600   -9999.25    0.08660
 8259.00000    9.12980    9.13310    0.04930   -9999.25   -9999.25   -9999.25   -0.00040    2.79730    2.62190   93.69540   -9999.25 5882.94800   -9999.25    0.07610
 8259.50000    9.06780    9.10280    0.05040   -9999.25   -9999.25   -9999.25    0.00330    2.82940    2.62940   88.69510   -9999.25 5882.94800   -9999.25    0.06560
 8260.00000    9.03190    9.10280    0.05370   -9999.25   -9999.25   -9999.25    0.00690    2.88280    2.62180   83.43160   -9999.25 5850.51100   -9999.25    0.06130
 8260.50000    9.25900    9.18980    0.04960   -9999.25   -9999.25   -9999.25    0.01650    2.93630    2.62260   79.01400   -9999.25 5776.98700   -9999.25    0.06640
