~Version ---------------------------------------------------
VERS.   2.0 : CWLS log ASCII Standard -VERSION 2.0
WRAP.    NO : One line per depth step
DLM . SPACE : Column Data Section Delimiter
~Well ------------------------------------------------------
STRT .FT                 960.0 : START DEPTH
STOP .FT                8560.0 : STOP DEPTH
STEP .FT                   0.5 : STEP
NULL .                -9999.25 : NULL VALUE
COMP .                         : COMPANY
WELL .                         : WELL
FLD  .                         : FIELD
LOC  .                         : LOCATION
PROV .                         : PROVINCE
CNTY .                         : COUNTY
STAT .                         : STATE
CTRY .                         : COUNTRY
SRVC .                         : SERVICE COMPANY
DATE .                         : DATE
UWI  .                         : UNIQUE WELL ID
API  .                         : API NUMBER
SLAT .WGS84  6.465940295404202 : SURFACE LATITUDE
SLON .WGS84 2.5516224315777976 : SURFACE LONGITUDE
DATUM.F                    nan : DEPTH DATUM ELEV
~Curve Information -----------------------------------------
DEPT   .FT    : Depth Curve
CALD   .IN    : CALIPER FROM DENSITY LOG
CALI   .IN    : CALIPER
DPHZ_LS.DEC   : HGRD STANDARD RESOLUTION DENSITY POROSITY
DTCO   .US/F  : DELTA-T COMPRESSIONAL
DTSM   .US/F  : DELTA-T SHEAR
GRS    .GAPI  : GAMMA RAY FROM SONIC LOG
HDRA   .G/C3  : HRDD SPINE AND RIBS DENSITY CORRECTION
PEFZ   .B/E   : HRDD STANDARD RESOLUTION FORMATION PHOTOELECTRIC FACTOR
RHOZ   .G/C3  : HRDD STANDARD RESOLUTION FORMATION DENSITY
SGRD   .GAPI  : SPECTROSCOPY GAMMA RAY FROM DENSITY LOG
SPHI_LS.DEC   : SONIC POROSITY (LS) FROM SONIC LOG
TEND   .LBF   : DIFFERENTIAL TENSION FROM DENSITY LOG
TENS   .LB    : TENSION FROM SONIC LOG
TNPH_LS.DEC   : THERMAL NEUTRON POROSITY [LIMESTONE]
~Params ----------------------------------------------------
~Other -----------------------------------------------------
~ASCII -----------------------------------------------------
# ...
 6938.00000   12.86600   12.81470   -0.00160   -9999.25   -9999.25   -9999.25    0.14510    3.45640    2.72880   57.56970   -9999.25 5107.63000   -9999.25    0.25110
 6938.50000   12.86600   12.81460    0.02930   -9999.25   -9999.25   -9999.25    0.09830    3.55660    2.66890   57.05740   -9999.25 5138.05300   -9999.25    0.26060
 6939.00000   12.79000   12.89010    0.06640   -9999.25   -9999.25   -9999.25    0.04660    3.71460    2.60910   57.03930   -9999.25 5181.71600   -9999.25    0.27140
 6939.50000   12.60340   12.66290    0.06320   -9999.25   -9999.25   -9999.25    0.00390    3.85460    2.60000   53.94210   -9999.25 5229.15200   -9999.25    0.27110
 6940.00000   13.07330   12.60220    0.05710   -9999.25   -9999.25   -9999.25    0.01080    3.86830    2.61360   51.93320   -9999.25 5259.55400   -9999.25    0.25560
 6940.50000   13.10060   12.63240    0.05880   -9999.25   -9999.25   -9999.25    0.04200    3.86830    2.60410   49.92440   -9999.25 5229.43000   -9999.25    0.25340
 6941.00000   12.60240   12.64740    0.08370   -9999.25   -9999.25   -9999.25    0.08350    3.85460    2.54670   51.48030   -9999.25 5128.65800   -9999.25    0.26520
 6941.50000   12.97540   12.90270    0.11850   -9999.25   -9999.25   -9999.25    0.12500    3.63620    2.46620   59.28540   -9999.25 5032.92500   -9999.25    0.29970
 6942.00000   13.21020   13.19200    0.17190   -9999.25   -9999.25   -9999.25    0.16660    3.38020    2.38570   67.88340   -9999.25 5063.34900   -9999.25    0.34940
 6942.50000   13.73040   13.53250    0.22530   -9999.25   -9999.25   -9999.25    0.19780    3.14060    2.30520   76.48130   -9999.25 5130.52100   -9999.25    0.38920
 6943.00000   15.56080   15.49260    0.27800   -9999.25   -9999.25   -9999.25    0.22200    2.91170    2.22480   80.40060   -9999.25 5238.79500   -9999.25    0.41950
 6943.50000   15.35350   15.31080    0.28390   -9999.25   -9999.25   -9999.25    0.24410    2.76980    2.24950   81.35060   -9999.25 5305.94700   -9999.25    0.43680
 6944.00000   15.28440   15.38630    0.19600   -9999.25   -9999.25   -9999.25    0.28990    2.76980    2.38900   79.73490   -9999.25 5290.95900   -9999.25    0.42520
 6944.50000   13.11190   13.53640    0.09500   -9999.25   -9999.25   -9999.25    0.30720    3.05970    2.52840   74.41050   -9999.25 5285.42300   -9999.25    0.38880
 6945.00000   13.58150   13.75130    0.09500   -9999.25   -9999.25   -9999.25    0.25250    3.30530    2.55440   70.27280   -9999.25 5295.02300   -9999.25    0.35890
 6945.50000   13.43600   13.34240    0.17990   -9999.25   -9999.25   -9999.25    0.15000    3.33280    2.40800   67.84930   -9999.25 5304.62400   -9999.25    0.37460
 6946.00000   13.29750   13.39270    0.26490   -9999.25   -9999.25   -9999.25    0.15330    3.14570    2.26160   68.73060   -9999.25 5306.54400   -9999.25    0.36470
 6946.50000   14.97830   14.09900    0.29890   -9999.25   -9999.25   -9999.25    0.17350    2.94830    2.19170   70.15240   -9999.25 5306.80000   -9999.25    0.38140
 6947.00000   14.96440   14.99190    0.29900   -9999.25   -9999.25   -9999.25    0.19370    2.63250    2.17200   73.14210   -9999.25 5349.34200   -9999.25    0.40150
 6947.50000   15.89250   15.06750    0.29910   -9999.25   -9999.25   -9999.25    0.19710    2.56380    2.15180   77.17690   -9999.25 5397.92100   -9999.25    0.42170
 6948.00000   14.91470   15.82420    0.29880   -9999.25   -9999.25   -9999.25    0.18650    2.56380    2.15130   81.21170   -9999.25 5413.16500   -9999.25    0.43400
 6948.50000   14.88690   14.94610    0.26300   -9999.25   -9999.25   -9999.25    0.17370    2.64740    2.25890   89.20440   -9999.25 5398.19900   -9999.25    0.35850
 6949.00000   15.04160   15.02170    0.23000   -9999.25   -9999.25   -9999.25    0.15040    2.79040    2.31030   96.84540   -9999.25 5375.81000   -9999.25    0.30280
 6949.50000   12.95970   12.88720    0.21720   -9999.25   -9999.25   -9999.25    0.12710    2.93350    2.34060   99.04680   -9999.25 5353.42200   -9999.25    0.25330
 6950.00000   14.43010   14.27960    0.25260   -9999.25   -9999.25   -9999.25    0.10430    3.01700    2.30530   95.82790   -9999.25 5331.03400   -9999.25    0.29750
 6950.50000   14.47150   14.41600    0.27590   -9999.25   -9999.25   -9999.25    0.09380    3.09940    2.23820   90.40650   -9999.25 5308.64600   -9999.25    0.39990
 6951.00000   14.40240   14.28490    0.27210   -9999.25   -9999.25   -9999.25    0.11450    3.11310    2.24370   84.98510   -9999.25 5286.25700   -9999.25    0.45190
 6951.50000   14.01550   14.49190    0.23230   -9999.25   -9999.25   -9999.25    0.12690    3.08560    2.27890   82.40300   -9999.25 5277.25700   -9999.25    0.47280
 6952.00000   13.74770   13.79560    0.19420   -9999.25   -9999.25   -9999.25    0.11900    3.05820    2.33950   83.80910   -9999.25 5277.15100   -9999.25    0.44130
 6952.50000   13.91870   13.65950    0.18990   -9999.25   -9999.25   -9999.25    0.11230    3.11310    2.38960   85.11870   -9999.25 5276.35100   -9999.25    0.39320
 6953.00000   13.84690   13.90180    0.20690   -9999.25   -9999.25   -9999.25    0.11150    3.20010    2.36400   86.42830   -9999.25 5272.81100   -9999.25    0.35480
 6953.50000   13.50410   13.61430    0.22470   -9999.25   -9999.25   -9999.25    0.13590    3.11870    2.30910   87.77930   -9999.25 5269.27000   -9999.25    0.35640
 6954.00000   14.00160   13.99280    0.27150   -9999.25   -9999.25   -9999.25    0.14880    2.97830    2.25430   88.39970   -9999.25 5265.72900   -9999.25    0.40320
 6954.50000   13.44190   13.70150    0.29900   -9999.25   -9999.25   -9999.25    0.13830    2.85320    2.18210   88.75680   -9999.25 5262.18900   -9999.25    0.38000
 6955.00000   14.99670   14.18980    0.29900   -9999.25   -9999.25   -9999.25    0.10850    2.78940    2.09840   88.94480   -9999.25 5283.60100   -9999.25    0.37240
 6955.50000   15.61860   15.31760    0.29900   -9999.25   -9999.25   -9999.25    0.07050    2.72570    2.03390   88.81320   -9999.25 5318.81900   -9999.25    0.40050
 6956.00000   15.20400   15.11340    0.29900   -9999.25   -9999.25   -9999.25    0.04010    2.67370    2.00280   88.12390   -9999.25 5354.03800   -9999.25    0.44260
 6956.50000   14.25040   14.28090    0.29900   -9999.25   -9999.25   -9999.25    0.02110    2.57760    1.78910   87.15900   -9999.25 5382.19700   -9999.25    0.44000
 6957.00000   15.54080   15.96120    0.29900   -9999.25   -9999.25   -9999.25    0.00220    2.47460    1.70650   86.95220   -9999.25 5397.24300   -9999.25    0.43520
 6957.50000   17.59380   17.51480    0.29900   -9999.25   -9999.25   -9999.25   -0.01100    2.39910    1.68780   90.63980   -9999.25 5416.06000   -9999.25    0.40210
 6958.00000   17.90710   17.83280    0.29900   -9999.25   -9999.25   -9999.25   -0.01480    2.38530    1.99980   93.91390   -9999.25 5427.30500   -9999.25    0.36420
 6958.50000   14.57860   15.14420    0.23460   -9999.25   -9999.25   -9999.25   -0.01480    2.58030    2.28780   95.22350   -9999.25 5427.19800   -9999.25    0.31910
 6959.00000   13.17940   13.00990    0.12750   -9999.25   -9999.25   -9999.25   -0.01280    2.93050    2.43950   87.13140   -9999.25 5427.13700   -9999.25    0.21830
 6959.50000   12.58930   13.69120    0.08840   -9999.25   -9999.25   -9999.25   -0.01090    3.18180    2.57040   77.27480   -9999.25 5427.00100   -9999.25    0.14370
 6960.00000   12.54780   12.45010    0.05570   -9999.25   -9999.25   -9999.25   -0.00850    3.11310    2.63050   67.41820   -9999.25 5434.47400   -9999.25    0.09500
 6960.50000   12.50630   12.48040    0.04300   -9999.25   -9999.25   -9999.25   -0.00610    3.08560    2.64320   65.24010   -9999.25 5510.05300   -9999.25    0.09070
 6961.00000   12.49530   12.48220    0.03630   -9999.25   -9999.25   -9999.25   -0.00380    3.25040    2.65650   70.94740   -9999.25 5456.97000   -9999.25    0.08570
 6961.50000   12.52980   12.52440    0.02960   -9999.25   -9999.25   -9999.25   -0.00140    3.69420    2.66280   76.19970   -9999.25 5347.54500   -9999.25    0.06940
 6962.00000   12.50910   12.46690    0.02400   -9999.25   -9999.25   -9999.25    0.00100    4.13800    2.67140   76.40640   -9999.25 5244.85200   -9999.25    0.05080
