~Version ---------------------------------------------------
VERS.   2.0 : CWLS log ASCII Standard -VERSION 2.0
WRAP.    NO : One line per depth step
DLM . SPACE : Column Data Section Delimiter
~Well ------------------------------------------------------
STRT .FT                 960.0 : START DEPTH
STOP .FT                8560.0 : STOP DEPTH
STEP .FT                   0.5 : STEP
NULL .                -9999.25 : NULL VALUE
COMP .                         : COMPANY
WELL .                         : WELL
FLD  .                         : FIELD
LOC  .                         : LOCATION
PROV .                         : PROVINCE
CNTY .                         : COUNTY
STAT .                         : STATE
CTRY .                         : COUNTRY
SRVC .                         : SERVICE COMPANY
DATE .                         : DATE
UWI  .                         : UNIQUE WELL ID
API  .                         : API NUMBER
SLAT .WGS84  6.465940295404202 : SURFACE LATITUDE
SLON .WGS84 2.5516224315777976 : SURFACE LONGITUDE
DATUM.F                    nan : DEPTH DATUM ELEV
~Curve Information -----------------------------------------
DEPT   .FT    : Depth Curve
CALD   .IN    : CALIPER FROM DENSITY LOG
CALI   .IN    : CALIPER
DPHZ_LS.DEC   : HGRD STANDARD RESOLUTION DENSITY POROSITY
DTCO   .US/F  : DELTA-T COMPRESSIONAL
DTSM   .US/F  : DELTA-T SHEAR
GRS    .GAPI  : GAMMA RAY FROM SONIC LOG
HDRA   .G/C3  : HRDD SPINE AND RIBS DENSITY CORRECTION
PEFZ   .B/E   : HRDD STANDARD RESOLUTION FORMATION PHOTOELECTRIC FACTOR
RHOZ   .G/C3  : HRDD STANDARD RESOLUTION FORMATION DENSITY
SGRD   .GAPI  : SPECTROSCOPY GAMMA RAY FROM DENSITY LOG
SPHI_LS.DEC   : SONIC POROSITY (LS) FROM SONIC LOG
TEND   .LBF   : DIFFERENTIAL TENSION FROM DENSITY LOG
TENS   .LB    : TENSION FROM SONIC LOG
TNPH_LS.DEC   : THERMAL NEUTRON POROSITY [LIMESTONE]
~Params ----------------------------------------------------
~Other -----------------------------------------------------
~ASCII -----------------------------------------------------
# ...
 7673.00000    8.92440    8.90250   -0.01170   -9999.25   -9999.25   -9999.25    0.00720    4.78940    2.72920   12.38110   -9999.25 5640.70700   -9999.25    0.00050
 7673.50000    8.92380    8.90570   -0.00520   -9999.25   -9999.25   -9999.25    0.00580    4.67740    2.71970   11.89970   -9999.25 5636.30100   -9999.25    0.00300
 7674.00000    8.92330    8.89950    0.00120   -9999.25   -9999.25   -9999.25    0.00510    4.56540    2.71010   11.41840   -9999.25 5631.89600   -9999.25    0.00560
 7674.50000    8.92270    8.89330    0.00770   -9999.25   -9999.25   -9999.25    0.00370    4.47940    2.70050   10.93700   -9999.25 5627.49100   -9999.25    0.00820
 7675.00000    8.92210    8.88710    0.01280   -9999.25   -9999.25   -9999.25    0.00280    4.41680    2.69100   10.45570   -9999.25 5634.20800   -9999.25    0.01060
 7675.50000    8.92160    8.88090    0.01760   -9999.25   -9999.25   -9999.25    0.00140    4.35580    2.68150    9.97430   -9999.25 5648.33900   -9999.25    0.01200
 7676.00000    8.92100    8.87590    0.02140   -9999.25   -9999.25   -9999.25   -0.00010    4.29480    2.67250    9.49670   -9999.25 5644.40000   -9999.25    0.00980
 7676.50000    8.92040    8.87750    0.01890   -9999.25   -9999.25   -9999.25   -0.00180    4.23380    2.67110    9.49670   -9999.25 5628.41400   -9999.25    0.00610
 7677.00000    8.91990    8.87950    0.00510   -9999.25   -9999.25   -9999.25   -0.00180    4.17270    2.69120    9.49670   -9999.25 5612.42900   -9999.25    0.00230
 7677.50000    8.91930    8.88140   -0.00860   -9999.25   -9999.25   -9999.25   -0.00210    4.13610    2.71620    9.87290   -9999.25 5596.44300   -9999.25    0.00020
 7678.00000    8.91870    8.88310   -0.02020   -9999.25   -9999.25   -9999.25   -0.00110    4.09960    2.74120   10.21080   -9999.25 5569.03600   -9999.25   -0.00090
 7678.50000    8.91820    8.88420   -0.00980   -9999.25   -9999.25   -9999.25   -0.00010    4.06320    2.73270   11.41090   -9999.25 5595.10000   -9999.25    0.00160
 7679.00000    8.91760    8.88540    0.00320   -9999.25   -9999.25   -9999.25    0.00090    4.02670    2.71210   10.78500   -9999.25 5621.16500   -9999.25    0.00590
 7679.50000    8.91700    8.88650    0.01460   -9999.25   -9999.25   -9999.25    0.00180    3.99020    2.68980    9.47780   -9999.25 5647.22900   -9999.25    0.01020
 7680.00000    8.91650    8.88770    0.02480   -9999.25   -9999.25   -9999.25    0.00280    3.95370    2.66740    8.17060   -9999.25 5655.64700   -9999.25    0.01460
 7680.50000    8.91590    8.88880    0.03500   -9999.25   -9999.25   -9999.25    0.00380    3.91730    2.64430    8.46450   -9999.25 5642.92700   -9999.25    0.01890
 7681.00000    8.91530    8.89000    0.04470   -9999.25   -9999.25   -9999.25    0.00510    3.88900    2.63220    9.73550   -9999.25 5630.20800   -9999.25    0.02320
 7681.50000    8.91480    8.89110    0.05080   -9999.25   -9999.25   -9999.25    0.00510    3.88900    2.62240   11.00650   -9999.25 5623.88100   -9999.25    0.02670
 7682.00000    8.91420    8.89230    0.05450   -9999.25   -9999.25   -9999.25    0.00510    3.88900    2.61700   10.60780   -9999.25 5627.14500   -9999.25    0.02410
 7682.50000    8.91370    8.90750    0.04460   -9999.25   -9999.25   -9999.25    0.00590    3.88900    2.63930    9.85130   -9999.25 5630.40900   -9999.25    0.01830
 7683.00000    8.91310    8.90760    0.03040   -9999.25   -9999.25   -9999.25    0.00600    4.00950    2.66570    9.21470   -9999.25 5625.59800   -9999.25    0.01250
 7683.50000    8.91250    8.90770    0.01610   -9999.25   -9999.25   -9999.25    0.00610    4.27650    2.69220    9.09390   -9999.25 5633.45100   -9999.25    0.00680
 7684.00000    8.92360    8.95900    0.00750   -9999.25   -9999.25   -9999.25    0.00620    4.41920    2.69630    9.01050   -9999.25 5647.50000   -9999.25    0.00100
 7684.50000    8.94020    8.94220    0.00790   -9999.25   -9999.25   -9999.25    0.00640    4.53010    2.69640    9.07670   -9999.25 5661.54800   -9999.25   -0.00040
 7685.00000    8.97860    8.97300    0.00550   -9999.25   -9999.25   -9999.25    0.00650    4.64100    2.69870    9.14300   -9999.25 5653.15400   -9999.25   -0.00030
 7685.50000    9.00930    9.04470    0.00240   -9999.25   -9999.25   -9999.25    0.00660    4.71290    2.70560    9.44330   -9999.25 5644.75900   -9999.25    0.00000
 7686.00000    9.03690    8.97800    0.00420   -9999.25   -9999.25   -9999.25    0.00680    4.69910    2.70430    9.13160   -9999.25 5636.36500   -9999.25    0.00040
 7686.50000    8.99920    8.94450    0.00600   -9999.25   -9999.25   -9999.25    0.00690    4.67440    2.70210    9.75040   -9999.25 5627.97000   -9999.25    0.00100
 7687.00000    8.97410    8.90980    0.00580   -9999.25   -9999.25   -9999.25    0.00700    4.72660    2.70080    9.69350   -9999.25 5619.57600   -9999.25    0.00070
 7687.50000    8.95400    8.91590   -0.00030   -9999.25   -9999.25   -9999.25    0.00710    4.79180    2.70290    9.63670   -9999.25 5611.18100   -9999.25    0.00030
 7688.00000    8.95400    8.92730   -0.00990   -9999.25   -9999.25   -9999.25    0.00790    4.84330    2.72240    9.12530   -9999.25 5602.78700   -9999.25   -0.00020
 7688.50000    8.95400    8.91430   -0.01940   -9999.25   -9999.25   -9999.25    0.00790    4.87760    2.73820   10.01310   -9999.25 5592.80300   -9999.25   -0.00060
 7689.00000    8.95400    8.90140   -0.01970   -9999.25   -9999.25   -9999.25    0.00790    4.87150    2.74090   11.55880   -9999.25 5602.53000   -9999.25   -0.00100
 7689.50000    8.95400    8.88850   -0.01760   -9999.25   -9999.25   -9999.25    0.00720    4.84060    2.74070   13.12390   -9999.25 5612.25700   -9999.25   -0.00150
 7690.00000    8.95400    8.88900   -0.01580   -9999.25   -9999.25   -9999.25    0.00500    4.80970    2.74060   14.22010   -9999.25 5623.60900   -9999.25   -0.00190
 7690.50000    8.95480    8.89290   -0.01870   -9999.25   -9999.25   -9999.25    0.00370    4.77880    2.74190   15.31620   -9999.25 5636.04500   -9999.25   -0.00230
 7691.00000    8.95910    8.90290   -0.02100   -9999.25   -9999.25   -9999.25    0.00390    4.75410    2.74560   16.38750   -9999.25 5648.48100   -9999.25   -0.00280
 7691.50000    8.96340    8.92610   -0.02240   -9999.25   -9999.25   -9999.25    0.00420    4.75410    2.75040   16.96350   -9999.25 5660.91700   -9999.25   -0.00290
 7692.00000    8.96780    8.93310   -0.02380   -9999.25   -9999.25   -9999.25    0.00440    4.75410    2.75180   15.70810   -9999.25 5670.49400   -9999.25   -0.00290
 7692.50000    8.97210    8.94010   -0.02870   -9999.25   -9999.25   -9999.25    0.00440    4.75410    2.75320   14.45260   -9999.25 5680.07100   -9999.25   -0.00200
 7693.00000    8.97640    8.94710   -0.03660   -9999.25   -9999.25   -9999.25    0.00440    4.75410    2.76820   13.49250   -9999.25 5689.64800   -9999.25    0.00000
 7693.50000    8.98070    8.96890   -0.05280   -9999.25   -9999.25   -9999.25    0.00410    4.74040    2.79200   21.35030   -9999.25 5699.22500   -9999.25    0.01730
 7694.00000    8.96780    9.01140   -0.05420   -9999.25   -9999.25   -9999.25    0.00370    4.46690    2.80420   31.17250   -9999.25 5708.80200   -9999.25    0.03950
 7694.50000    9.00680    9.05900   -0.04820   -9999.25   -9999.25   -9999.25    0.00860    4.12510    2.79110   47.49890   -9999.25 5702.47900   -9999.25    0.06180
 7695.00000    9.05960    9.10650   -0.04230   -9999.25   -9999.25   -9999.25    0.05100    3.84140    2.77800   73.58180   -9999.25 5685.55600   -9999.25    0.08400
 7695.50000    9.11250    9.15410   -0.03680   -9999.25   -9999.25   -9999.25    0.10410    3.71750    2.77040  100.34140   -9999.25 5668.63300   -9999.25    0.10620
 7696.00000    9.27280    9.29240   -0.03320   -9999.25   -9999.25   -9999.25    0.15720    3.58570    2.76470  107.78560   -9999.25 5651.71000   -9999.25    0.16150
 7696.50000    9.50470    9.56690   -0.02250   -9999.25   -9999.25   -9999.25    0.17820    3.51180    2.74550  115.22970   -9999.25 5634.78700   -9999.25    0.15940
 7697.00000    9.73670    9.92460   -0.00740   -9999.25   -9999.25   -9999.25    0.17680    3.41910    2.72890  119.43250   -9999.25 5624.25800   -9999.25    0.15770
