~Version ---------------------------------------------------
VERS.   2.0 : CWLS log ASCII Standard -VERSION 2.0
WRAP.    NO : One line per depth step
DLM . SPACE : Column Data Section Delimiter
~Well ------------------------------------------------------
STRT .FT                 960.0 : START DEPTH
STOP .FT                8560.0 : STOP DEPTH
STEP .FT                   0.5 : STEP
NULL .                -9999.25 : NULL VALUE
COMP .                         : COMPANY
WELL .                         : WELL
FLD  .                         : FIELD
LOC  .                         : LOCATION
PROV .                         : PROVINCE
CNTY .                         : COUNTY
STAT .                         : STATE
CTRY .                         : COUNTRY
SRVC .                         : SERVICE COMPANY
DATE .                         : DATE
UWI  .                         : UNIQUE WELL ID
API  .                         : API NUMBER
SLAT .WGS84  6.465940295404202 : SURFACE LATITUDE
SLON .WGS84 2.5516224315777976 : SURFACE LONGITUDE
DATUM.F                    nan : DEPTH DATUM ELEV
~Curve Information -----------------------------------------
DEPT   .FT    : Depth Curve
CALD   .IN    : CALIPER FROM DENSITY LOG
CALI   .IN    : CALIPER
DPHZ_LS.DEC   : HGRD STANDARD RESOLUTION DENSITY POROSITY
DTCO   .US/F  : DELTA-T COMPRESSIONAL
DTSM   .US/F  : DELTA-T SHEAR
GRS    .GAPI  : GAMMA RAY FROM SONIC LOG
HDRA   .G/C3  : HRDD SPINE AND RIBS DENSITY CORRECTION
PEFZ   .B/E   : HRDD STANDARD RESOLUTION FORMATION PHOTOELECTRIC FACTOR
RHOZ   .G/C3  : HRDD STANDARD RESOLUTION FORMATION DENSITY
SGRD   .GAPI  : SPECTROSCOPY GAMMA RAY FROM DENSITY LOG
SPHI_LS.DEC   : SONIC POROSITY (LS) FROM SONIC LOG
TEND   .LBF   : DIFFERENTIAL TENSION FROM DENSITY LOG
TENS   .LB    : TENSION FROM SONIC LOG
TNPH_LS.DEC   : THERMAL NEUTRON POROSITY [LIMESTONE]
~Params ----------------------------------------------------
~Other -----------------------------------------------------
~ASCII -----------------------------------------------------
# ...
 8432.50000    8.81920    8.88740   -0.03490   -9999.25   -9999.25   -9999.25    0.00370    3.09470    2.76970   18.45530   -9999.25 5845.43000   -9999.25    0.04820
 8433.00000    8.80140    8.83200   -0.03720   -9999.25   -9999.25   -9999.25    0.00570    3.09560    2.77660   18.78610   -9999.25 5799.84600   -9999.25    0.04620
 8433.50000    8.77180    8.78160   -0.03560   -9999.25   -9999.25   -9999.25    0.00770    3.09640    2.77320   -9999.25   -9999.25 5754.26200   -9999.25    0.04370
 8434.00000    8.74220    8.77910   -0.03580   -9999.25   -9999.25   -9999.25    0.00980    3.09720    2.78010   -9999.25   -9999.25 5783.51600   -9999.25    0.04220
 8434.50000    8.73630    8.77660   -0.04230   -9999.25   -9999.25   -9999.25    0.01180    3.09800    2.79040   -9999.25   -9999.25 5796.06000   -9999.25    0.04570
 8435.00000    8.76740    8.77410   -0.04790   -9999.25   -9999.25   -9999.25    0.01220    3.09880    2.79460   -9999.25   -9999.25 5792.49900   -9999.25    0.05400
 8435.50000    8.73690    8.77160   -0.04670   -9999.25   -9999.25   -9999.25    0.01120    3.09960    2.79180   -9999.25   -9999.25 5764.78100   -9999.25    0.05680
 8436.00000    8.73990    8.76920   -0.04700   -9999.25   -9999.25   -9999.25    0.01020    3.10040    2.79320   -9999.25   -9999.25 5908.12600   -9999.25    0.05620
 8436.50000    8.74300    8.76670   -0.05180   -9999.25   -9999.25   -9999.25    0.00950    3.11160    2.79800   -9999.25   -9999.25 5996.65500   -9999.25    0.05550
 8437.00000    8.74600    8.76420   -0.04260   -9999.25   -9999.25   -9999.25    0.01120    3.12270    2.78620   -9999.25   -9999.25 5962.09500   -9999.25    0.05540
 8437.50000    8.76190    8.76170   -0.03280   -9999.25   -9999.25   -9999.25    0.01290    3.13380    2.77040   -9999.25   -9999.25 5927.53400   -9999.25    0.05430
 8438.00000    8.73630    8.75920   -0.02850   -9999.25   -9999.25   -9999.25    0.01470    3.14500    2.75460   -9999.25   -9999.25 5892.97400   -9999.25    0.05850
 8438.50000    8.73630    8.75670   -0.02590   -9999.25   -9999.25   -9999.25    0.01690    3.15610    2.76980   -9999.25   -9999.25 5893.95800   -9999.25    0.06350
 8439.00000    8.73630    8.75420   -0.03950   -9999.25   -9999.25   -9999.25    0.02160    3.16720    2.78830   -9999.25   -9999.25 5903.82700   -9999.25    0.06840
 8439.50000    8.73630    8.75180   -0.04600   -9999.25   -9999.25   -9999.25    0.02610    3.17840    2.79160   -9999.25   -9999.25 5913.69700   -9999.25    0.07110
 8440.00000    8.73630    8.74930   -0.04710   -9999.25   -9999.25   -9999.25    0.02890    3.17410    2.79390   -9999.25   -9999.25 5880.22600   -9999.25    0.07190
 8440.50000    8.73630    8.74680   -0.04770   -9999.25   -9999.25   -9999.25    0.02890    3.15970    2.79460   -9999.25   -9999.25 5824.50900   -9999.25    0.07160
 8441.00000    8.73630    8.74430   -0.04670   -9999.25   -9999.25   -9999.25    0.02820    3.14520    2.79320   -9999.25   -9999.25 5782.02200   -9999.25    0.06740
 8441.50000    8.73630    8.74180   -0.04320   -9999.25   -9999.25   -9999.25    0.01970    3.13070    2.78660   -9999.25   -9999.25 6020.23100   -9999.25    0.06420
 8442.00000    8.73630    8.73930   -0.04040   -9999.25   -9999.25   -9999.25    0.00990    3.11620    2.78210   -9999.25   -9999.25 6137.29600   -9999.25    0.06310
 8442.50000    8.74190    8.73680   -0.04280   -9999.25   -9999.25   -9999.25    0.00650    3.10170    2.78420   -9999.25   -9999.25 6092.06400   -9999.25    0.06230
 8443.00000    8.75610    8.73440   -0.04690   -9999.25   -9999.25   -9999.25    0.00740    3.06850    2.79170   -9999.25   -9999.25 6046.83300   -9999.25    0.06140
 8443.50000    8.76740    8.73190   -0.04550   -9999.25   -9999.25   -9999.25    0.00600    3.06850    2.79460   -9999.25   -9999.25 6001.60100   -9999.25    0.06070
 8444.00000    8.74400    8.72940   -0.04220   -9999.25   -9999.25   -9999.25    0.00600    3.05260    2.78880   -9999.25   -9999.25 5966.30700   -9999.25    0.06070
 8444.50000    8.74080    8.72690   -0.04130   -9999.25   -9999.25   -9999.25    0.00940    3.04900    2.78210   -9999.25   -9999.25 5913.94000   -9999.25    0.06150
 8445.00000    8.73760    8.72440   -0.04080   -9999.25   -9999.25   -9999.25    0.01850    3.04540    2.78210   -9999.25   -9999.25 5861.57300   -9999.25    0.06200
 8445.50000    8.72070    8.72490   -0.03790   -9999.25   -9999.25   -9999.25    0.01990    3.04170    2.78210   -9999.25   -9999.25 5833.90000   -9999.25    0.06270
 8446.00000    8.72150    8.72750   -0.03110   -9999.25   -9999.25   -9999.25    0.01920    3.04100    2.77370   -9999.25   -9999.25 5808.69900   -9999.25    0.06320
 8446.50000    8.72890    8.73000   -0.02740   -9999.25   -9999.25   -9999.25    0.01730    3.04100    2.76080   -9999.25   -9999.25 5776.94100   -9999.25    0.06380
 8447.00000    8.73630    8.73260   -0.02840   -9999.25   -9999.25   -9999.25    0.01550    3.04100    2.76280   -9999.25   -9999.25 5778.74800   -9999.25    0.06350
 8447.50000    8.78190    8.73510   -0.03030   -9999.25   -9999.25   -9999.25    0.01360    3.04480    2.76490   -9999.25   -9999.25 5802.93200   -9999.25    0.06240
 8448.00000    8.79850    8.73760   -0.02980   -9999.25   -9999.25   -9999.25    0.00150    3.04850    2.75600   -9999.25   -9999.25 5827.11500   -9999.25    0.06130
 8448.50000    8.79850    8.73920   -0.02670   -9999.25   -9999.25   -9999.25    0.00640    3.05220    2.75250   -9999.25   -9999.25 5851.29900   -9999.25    0.06020
 8449.00000    8.75920    8.73510   -0.02300   -9999.25   -9999.25   -9999.25    0.01130    3.05600    2.75320   -9999.25   -9999.25 5901.80200   -9999.25    0.05910
 8449.50000    8.73590    8.72990   -9999.25   -9999.25   -9999.25   -9999.25    0.01540    3.05970    2.75390   -9999.25   -9999.25 5964.07200   -9999.25   -9999.25
 8450.00000    8.72280    8.72480   -9999.25   -9999.25   -9999.25   -9999.25    0.01970    3.06340    2.75320   -9999.25   -9999.25 6034.33100   -9999.25   -9999.25
 8450.50000    8.73630    8.71960   -9999.25   -9999.25   -9999.25   -9999.25    0.02130    3.06720    2.73800   -9999.25   -9999.25 6007.81900   -9999.25   -9999.25
 8451.00000    8.78390    8.71440   -9999.25   -9999.25   -9999.25   -9999.25    0.01990    3.07090    2.72080   -9999.25   -9999.25 5974.70700   -9999.25   -9999.25
 8451.50000    8.73630    8.70930   -9999.25   -9999.25   -9999.25   -9999.25    0.01850    3.07460    2.70770   -9999.25   -9999.25 5941.59400   -9999.25   -9999.25
 8452.00000    8.73280    8.70020   -9999.25   -9999.25   -9999.25   -9999.25    0.02220    3.07840    2.70840   -9999.25   -9999.25 5882.93700   -9999.25   -9999.25
 8452.50000    8.72420    8.68500   -9999.25   -9999.25   -9999.25   -9999.25    0.03090    3.09200    2.71480   -9999.25   -9999.25 5831.06000   -9999.25   -9999.25
 8453.00000    8.71550    8.66990   -9999.25   -9999.25   -9999.25   -9999.25    0.04710    3.11210    2.71940   -9999.25   -9999.25 5874.41900   -9999.25   -9999.25
 8453.50000    8.70690    8.65480   -9999.25   -9999.25   -9999.25   -9999.25    0.07200    3.13230    2.71870   -9999.25   -9999.25 5917.77700   -9999.25   -9999.25
 8454.00000    8.69830    8.63960   -9999.25   -9999.25   -9999.25   -9999.25    0.09330    3.15250    2.71040   -9999.25   -9999.25 5904.93700   -9999.25   -9999.25
 8454.50000    8.68960    8.61840   -9999.25   -9999.25   -9999.25   -9999.25    0.10120    3.17830    2.71640   -9999.25   -9999.25 5821.39400   -9999.25   -9999.25
 8455.00000    8.68100    8.65250   -9999.25   -9999.25   -9999.25   -9999.25    0.11020    3.17830    2.72750   -9999.25   -9999.25 5737.85100   -9999.25   -9999.25
 8455.50000    8.67240    8.70930   -9999.25   -9999.25   -9999.25   -9999.25    0.11500    3.17830    2.73110   -9999.25   -9999.25 5679.51600   -9999.25   -9999.25
 8456.00000    8.66370    8.65780   -9999.25   -9999.25   -9999.25   -9999.25    0.12370    3.19210    2.72970   -9999.25   -9999.25 5722.01400   -9999.25   -9999.25
 8456.50000   -9999.25    8.61840   -9999.25   -9999.25   -9999.25   -9999.25   -9999.25   -9999.25   -9999.25   -9999.25   -9999.25 5764.51100   -9999.25   -9999.25
