~Version ---------------------------------------------------
VERS.   2.0 : CWLS log ASCII Standard -VERSION 2.0
WRAP.    NO : One line per depth step
DLM . SPACE : Column Data Section Delimiter
~Well ------------------------------------------------------
STRT .FT                 960.0 : START DEPTH
STOP .FT                8560.0 : STOP DEPTH
STEP .FT                   0.5 : STEP
NULL .                -9999.25 : NULL VALUE
COMP .                         : COMPANY
WELL .                         : WELL
FLD  .                         : FIELD
LOC  .                         : LOCATION
PROV .                         : PROVINCE
CNTY .                         : COUNTY
STAT .                         : STATE
CTRY .                         : COUNTRY
SRVC .                         : SERVICE COMPANY
DATE .                         : DATE
UWI  .                         : UNIQUE WELL ID
API  .                         : API NUMBER
SLAT .WGS84  6.465940295404202 : SURFACE LATITUDE
SLON .WGS84 2.5516224315777976 : SURFACE LONGITUDE
DATUM.F                    nan : DEPTH DATUM ELEV
~Curve Information -----------------------------------------
DEPT   .FT    : Depth Curve
CALD   .IN    : CALIPER FROM DENSITY LOG
CALI   .IN    : CALIPER
DPHZ_LS.DEC   : HGRD STANDARD RESOLUTION DENSITY POROSITY
DTCO   .US/F  : DELTA-T COMPRESSIONAL
DTSM   .US/F  : DELTA-T SHEAR
GRS    .GAPI  : GAMMA RAY FROM SONIC LOG
HDRA   .G/C3  : HRDD SPINE AND RIBS DENSITY CORRECTION
PEFZ   .B/E   : HRDD STANDARD RESOLUTION FORMATION PHOTOELECTRIC FACTOR
RHOZ   .G/C3  : HRDD STANDARD RESOLUTION FORMATION DENSITY
SGRD   .GAPI  : SPECTROSCOPY GAMMA RAY FROM DENSITY LOG
SPHI_LS.DEC   : SONIC POROSITY (LS) FROM SONIC LOG
TEND   .LBF   : DIFFERENTIAL TENSION FROM DENSITY LOG
TENS   .LB    : TENSION FROM SONIC LOG
TNPH_LS.DEC   : THERMAL NEUTRON POROSITY [LIMESTONE]
~Params ----------------------------------------------------
~Other -----------------------------------------------------
~ASCII -----------------------------------------------------
# ...
 7036.00000    8.93640    8.94590    0.04290   -9999.25   -9999.25   -9999.25    0.01050    3.42970    2.64090   30.68230   -9999.25 5417.60700   -9999.25    0.02610
 7036.50000    8.94040    8.89590    0.03900   -9999.25   -9999.25   -9999.25    0.01180    3.36720    2.64150   27.28800   -9999.25 5481.80300   -9999.25    0.02410
 7037.00000    8.94360    8.88270    0.04380   -9999.25   -9999.25   -9999.25    0.01110    3.24360    2.63150   24.46850   -9999.25 5527.32200   -9999.25    0.01930
 7037.50000    8.94360    8.89030    0.05180   -9999.25   -9999.25   -9999.25    0.00810    3.21610    2.62100   22.70630   -9999.25 5543.76700   -9999.25    0.01450
 7038.00000    8.95050    8.90840    0.05110   -9999.25   -9999.25   -9999.25    0.00490    3.37630    2.61850   21.57580   -9999.25 5534.75500   -9999.25    0.00970
 7038.50000    8.98500    8.93020    0.03710   -9999.25   -9999.25   -9999.25    0.00420    3.58300    2.63290   20.44530   -9999.25 5525.74300   -9999.25    0.00790
 7039.00000    9.03750    8.98470    0.02310   -9999.25   -9999.25   -9999.25    0.00420    3.82080    2.65810   19.35480   -9999.25 5527.37100   -9999.25    0.00730
 7039.50000    9.08590    9.03930    0.00900   -9999.25   -9999.25   -9999.25    0.00730    4.05870    2.68330   17.76610   -9999.25 5556.95900   -9999.25    0.00570
 7040.00000    9.13430    9.09390   -0.00500   -9999.25   -9999.25   -9999.25    0.00990    4.29650    2.70850   17.49730   -9999.25 5576.81400   -9999.25    0.00310
 7040.50000    9.18260    9.10970   -0.00860   -9999.25   -9999.25   -9999.25    0.01240    4.53430    2.72440   18.64910   -9999.25 5596.66900   -9999.25    0.00210
 7041.00000    9.18540    9.09700   -0.00270   -9999.25   -9999.25   -9999.25    0.01390    4.51040    2.71980   22.72020   -9999.25 5605.88800   -9999.25    0.00380
 7041.50000    9.14060    9.06020    0.00430   -9999.25   -9999.25   -9999.25    0.01250    4.39080    2.70780   26.79120   -9999.25 5615.10700   -9999.25    0.00550
 7042.00000    9.09320    9.02600    0.00760   -9999.25   -9999.25   -9999.25    0.01090    4.27120    2.69920   28.07810   -9999.25 5624.32600   -9999.25    0.00670
 7042.50000    9.04580    8.99190    0.01100   -9999.25   -9999.25   -9999.25    0.00860    4.15160    2.69450   27.76050   -9999.25 5633.54500   -9999.25    0.00770
 7043.00000    8.99840    8.96010    0.01540   -9999.25   -9999.25   -9999.25    0.00630    4.03200    2.68660   26.07630   -9999.25 5642.76400   -9999.25    0.00770
 7043.50000    8.95110    8.98340    0.01980   -9999.25   -9999.25   -9999.25    0.00490    3.91240    2.67870   25.96580   -9999.25 5648.55200   -9999.25    0.00690
 7044.00000    8.90370    8.96020    0.02390   -9999.25   -9999.25   -9999.25    0.00490    3.79280    2.67070   25.20540   -9999.25 5625.85200   -9999.25    0.00600
 7044.50000    8.85630    8.89640    0.02740   -9999.25   -9999.25   -9999.25    0.00490    3.76750    2.66280   25.80560   -9999.25 5593.30800   -9999.25    0.00510
 7045.00000    8.95740    8.93200    0.03340   -9999.25   -9999.25   -9999.25    0.00490    3.74220    2.65480   26.04370   -9999.25 5568.09600   -9999.25    0.00430
 7045.50000    8.97830    8.96290    0.03990   -9999.25   -9999.25   -9999.25    0.00470    3.71690    2.64690   26.13000   -9999.25 5546.79000   -9999.25    0.00400
 7046.00000    8.96990    8.97570    0.03990   -9999.25   -9999.25   -9999.25    0.00430    3.68300    2.64430   25.25550   -9999.25 5508.53400   -9999.25    0.00430
 7046.50000    8.96150    8.98410    0.03640   -9999.25   -9999.25   -9999.25    0.00390    3.62530    2.64960   24.44290   -9999.25 5470.27900   -9999.25    0.00430
 7047.00000    8.95310    8.97500    0.03540   -9999.25   -9999.25   -9999.25    0.00350    3.57500    2.65050   23.77990   -9999.25 5478.32400   -9999.25    0.00430
 7047.50000    8.94470    8.96590    0.03790   -9999.25   -9999.25   -9999.25    0.00350    3.52460    2.64560   23.61480   -9999.25 5517.46300   -9999.25    0.00430
 7048.00000    8.93630    8.95690    0.04180   -9999.25   -9999.25   -9999.25    0.00280    3.50450    2.63950   23.68420   -9999.25 5556.60100   -9999.25    0.00430
 7048.50000    8.92790    8.95360    0.04210   -9999.25   -9999.25   -9999.25    0.00630    3.50450    2.63920   24.03330   -9999.25 5595.74000   -9999.25    0.00470
 7049.00000    8.91950    8.96540    0.03590   -9999.25   -9999.25   -9999.25    0.01410    3.64570    2.64940   23.28960   -9999.25 5591.90500   -9999.25    0.00620
 7049.50000    8.91110    8.97830    0.02880   -9999.25   -9999.25   -9999.25    0.02490    3.75160    2.65960   23.51560   -9999.25 5588.07000   -9999.25    0.00860
 7050.00000    8.90270    8.94100    0.02170   -9999.25   -9999.25   -9999.25    0.03570    3.76260    2.66980   23.40330   -9999.25 5584.23500   -9999.25    0.01100
 7050.50000    8.89430    8.86190    0.02080   -9999.25   -9999.25   -9999.25    0.04650    3.77640    2.67740   23.36740   -9999.25 5580.40000   -9999.25    0.01350
 7051.00000    8.88590    8.85680    0.02770   -9999.25   -9999.25   -9999.25    0.05720    3.85690    2.65620   23.57320   -9999.25 5576.56500   -9999.25    0.01590
 7051.50000    8.87750    8.85680    0.03460   -9999.25   -9999.25   -9999.25    0.06520    4.01720    2.64560   23.50810   -9999.25 5572.73000   -9999.25    0.01880
 7052.00000    8.86910    8.85670    0.04080   -9999.25   -9999.25   -9999.25    0.05570    4.17740    2.64080   23.28830   -9999.25 5591.86200   -9999.25    0.02180
 7052.50000    8.86060    8.85770    0.03780   -9999.25   -9999.25   -9999.25    0.04600    4.20480    2.64650   23.12200   -9999.25 5601.39500   -9999.25    0.02480
 7053.00000    8.87450    8.87630    0.03390   -9999.25   -9999.25   -9999.25    0.03630    4.20020    2.65210   23.40400   -9999.25 5610.92800   -9999.25    0.02720
 7053.50000    8.90040    8.89490    0.03020   -9999.25   -9999.25   -9999.25    0.02650    4.13960    2.65770   23.57320   -9999.25 5620.46200   -9999.25    0.02720
 7054.00000    8.92630    8.91340    0.02940   -9999.25   -9999.25   -9999.25    0.01810    4.04520    2.66050   23.57320   -9999.25 5619.20300   -9999.25    0.02720
 7054.50000    8.95220    8.91580    0.03140   -9999.25   -9999.25   -9999.25    0.01460    3.95760    2.65770   23.35980   -9999.25 5606.63500   -9999.25    0.02740
 7055.00000    8.95740    8.90740    0.03330   -9999.25   -9999.25   -9999.25    0.01040    3.87180    2.65410   23.57860   -9999.25 5594.06800   -9999.25    0.02730
 7055.50000    8.95740    8.88350    0.03410   -9999.25   -9999.25   -9999.25    0.00880    3.82030    2.65330   23.60580   -9999.25 5565.80600   -9999.25    0.02630
 7056.00000    8.93190    8.85960    0.03050   -9999.25   -9999.25   -9999.25    0.00770    3.79630    2.65750   24.77530   -9999.25 5527.08200   -9999.25    0.02470
 7056.50000    8.90650    8.83570    0.02700   -9999.25   -9999.25   -9999.25    0.00650    3.77910    2.66580   25.02710   -9999.25 5488.35700   -9999.25    0.02290
 7057.00000    8.88100    8.81810    0.02500   -9999.25   -9999.25   -9999.25    0.00560    3.76690    2.66750   25.00250   -9999.25 5478.15400   -9999.25    0.02130
 7057.50000    8.86060    8.80080    0.02420   -9999.25   -9999.25   -9999.25    0.00840    3.77460    2.66960   24.62520   -9999.25 5454.24600   -9999.25    0.02040
 7058.00000    8.85640    8.79670    0.02010   -9999.25   -9999.25   -9999.25    0.01170    3.78220    2.67590   24.62520   -9999.25 5466.31500   -9999.25    0.02200
 7058.50000    8.84930    8.80320    0.01880   -9999.25   -9999.25   -9999.25    0.01300    3.78980    2.67800   25.27910   -9999.25 5531.65900   -9999.25    0.02330
 7059.00000    8.84220    8.80310    0.02080   -9999.25   -9999.25   -9999.25    0.01430    3.79740    2.67480   26.07630   -9999.25 5546.02500   -9999.25    0.02420
 7059.50000    8.83510    8.79870    0.02280   -9999.25   -9999.25   -9999.25    0.01440    3.80510    2.67310   26.72660   -9999.25 5557.27600   -9999.25    0.02540
 7060.00000    8.82800    8.79430    0.02440   -9999.25   -9999.25   -9999.25    0.01320    3.90670    2.67150   27.44290   -9999.25 5552.37900   -9999.25    0.02330
