~Version ---------------------------------------------------
VERS.   2.0 : CWLS log ASCII Standard -VERSION 2.0
WRAP.    NO : One line per depth step
DLM . SPACE : Column Data Section Delimiter
~Well ------------------------------------------------------
STRT .FT                  72.0 : START DEPTH
STOP .FT                5114.0 : STOP DEPTH
STEP .FT                   0.5 : STEP
NULL .                -9999.25 : NULL VALUE
COMP .                         : COMPANY
WELL .                         : WELL
FLD  .                         : FIELD
LOC  .                         : LOCATION
PROV .                         : PROVINCE
CNTY .                         : COUNTY
STAT .                         : STATE
CTRY .                         : COUNTRY
SRVC .                         : SERVICE COMPANY
DATE .                         : DATE
UWI  .                         : UNIQUE WELL ID
API  .                         : API NUMBER
SLAT .WGS84 3.1859088553595996 : SURFACE LATITUDE
SLON .WGS84  6.767986511777991 : SURFACE LONGITUDE
DATUM.F                3150.12 : DEPTH DATUM ELEV
~Curve Information -----------------------------------------
DEPT   .FT    : 
CAL1R  .IN    : CALIPER 1 FROM RESISTIVITY LOG
CALD   .IN    : CALIPER FROM DENSITY LOG
CALSR  .IN    : MICRO RESISTIVITY CALIPER FROM RESISTIVITY
CGRD   .GAPI  : CORRECTED GAMMA RAY FROM DENSITY LOG
DPHI_LS.DEC   : DENSITY POROSITY LIMESTONE
DRHO   .G/C3  : BULK DENSITY CORRECTION
DT     .US/F  : DELTA-T (INTERVAL TRANSIT TIME)
DTCO   .US/F  : DELTA-T COMPRESSIONAL
DTCO_1 .US/F  : DELTA-T COMPRESSIONAL
DTRP   .US/F  : DELTA-T COMPRESSIONAL, RECEIVER ARRAY - MONOPOLE P & S
DTRS   .US/F  : DELTA-T SHEAR, RECEIVER ARRAY - MONOPOLE P & S
DTSM   .US/F  : DELTA-T SHEAR
ENPH_LS.DEC   : EPITHERMAL NEUTRON POROSITY (LIMESTONE)
GRR    .GAPI  : GAMMA RAY FROM RESISTIVITY LOG
LLD    .OHMM  : LATEROLOG DEEP RESISTIVITY
LLS    .OHMM  : LATEROLOG SHALLOW RESISTIVITY
MSFL   .OHMM  : MICRO SPHERICALLY FOCUSED RESISTIVITY
PEF    .B/E   : PHOTOELECTRIC FACTOR
RHOB   .G/C3  : BULK DENSITY
SGRDD  .GAPI  : SPECTROSCOPY GAMMA RAY FROM DENSITY LOG
SPHI_LS.DEC   : SONIC POROSITY [LIMESTONE]
TEND   .LB    : TENSION FROM DENSITY LOG
TENR   .LB    : TENSION FROM RESISTIVITY LOG
TENS   .N/A   : TENSION FROM SONIC LOG
TNPH_LS.DEC   : THERMAL NEUTRON POROSITY [LIMESTONE]
VPVS   .VPVS  : COMPRESSIONAL TO SHEAR VELOCITY RATIO
~Params ----------------------------------------------------
~Other -----------------------------------------------------
~ASCII -----------------------------------------------------
# ...
 4905.00000    7.81560    8.37150    8.00360   13.16200    0.04050    0.01930   55.54300   56.20080   53.92960   56.97890  101.40500   98.65700    0.17150   14.46520   36.23490   29.81150   25.61980    3.57440    2.65020   15.81490    0.05610 2557.60330 2557.86220 2620.23610    0.14980    1.79360
 4905.50000    7.80990    8.40780    8.00940   12.78530    0.04370    0.02560   56.54020   56.44240   54.62850   57.40130  102.23830   99.96370    0.18880   14.72370   33.78250   29.09330   24.06360    3.55930    2.64190   15.92030    0.06300 2577.73630 2557.86220 2620.23610    0.15750    1.79360
 4906.00000    7.79560    8.40780    8.01510   14.07050    0.04530    0.02910   57.45720   56.95140   55.32730   57.76860  103.07160  101.27040    0.20620   14.70760   31.96510   26.06920   43.96360    3.53450    2.63860   16.31370    0.06960 2575.17090 2568.94670 2620.23610    0.16650    1.79360
 4906.50000    7.76570    8.40780    8.01860   15.56730    0.04630    0.02920   58.37430   57.66530   56.02620   58.13600  103.90490  102.57710    0.22350   15.09710   30.14760   25.55970   50.36450    3.46450    2.63620   21.26930    0.07610 2571.57890 2579.80950 2620.23610    0.17550    1.79360
 4907.00000    7.75570    8.40780    8.02290   17.06400    0.04770    0.02920   59.29130   58.37920   56.72510   58.95020  104.98820  103.88380    0.22230   18.47360   28.33010   24.52700   14.58920    3.37160    2.63100   26.14730    0.08270 2539.89080 2589.78560 2635.23560    0.17840    1.79360
 4907.50000    7.77400    8.40780    8.02730   17.17560    0.05280    0.02720   60.20840   59.09310   57.42400   59.80740  106.54170  105.19050    0.20040   21.85010   26.71270   21.08320   16.69490    3.32050    2.62150   29.46810    0.08930 2505.09070 2584.79770 2660.23480    0.17710    1.78750
 4908.00000    7.81970    8.40630    8.03160   16.24360    0.06750    0.02390   61.12540   59.96590   58.12290   60.66450  108.09530  106.60920    0.19000   26.25840   25.02510   18.60380   13.09600    3.23920    2.60410   29.20600    0.09550 2517.22730 2622.83660 2682.99400    0.17610    1.78310
 4908.50000    7.86550    8.42640    8.03510   15.31160    0.07940    0.02250   61.83010   60.95080   58.82170   61.52160  108.93100  106.83320    0.19380   28.67320   21.99530   17.01200   12.92950    3.20900    2.59190   27.94730    0.10160 2564.19720 2647.68380 2696.79300    0.18110    1.77860
 4909.00000    7.91120    8.42940    8.03510   14.37960    0.08450    0.02170   62.39310   61.44510   59.52060   62.37870  110.02380  107.64190    0.20330   28.89560   18.72460   16.75510   12.17380    3.22290    2.58930   26.53210    0.10640 2582.98510 2658.95500 2710.59200    0.18750    1.77420
 4909.50000    7.95690    8.45600    8.05230   14.82820    0.08340    0.02080   62.95620   61.93950   60.21950   62.63590  111.25810  109.22110    0.23570   28.68140   16.00940   14.49920   10.09410    3.26470    2.58360   26.75810    0.10950 2582.98510 2661.17540 2724.39100    0.19980    1.78570
 4910.00000    8.01510    8.51020    8.08100   17.34970    0.08290    0.02000   63.42670   62.39880   60.91840   63.06440  112.67230  110.80030    0.26800   27.78840   13.29420   11.16250    7.25680    3.27870    2.57790   28.83830    0.11260 2582.98510 2663.39580 2738.19000    0.21320    1.80370
 4910.50000    8.04870    8.52590    8.10970   19.87110    0.08440    0.01910   63.82590   63.08020   61.61720   63.49300  114.08660  112.37950    0.28770   26.73880   10.57900    9.59220    5.44030    3.23080    2.57370   29.17950    0.11570 2582.98510 2687.89320 2751.98900    0.20700    1.81090
 4911.00000    8.07560    8.47700    8.13830   20.41300    0.08800    0.01700   64.68110   63.81250   62.31610   64.17870  115.50080  113.95870    0.26190   25.71930    9.91580    8.88030    5.11940    3.13290    2.56820   28.71890    0.12420 2582.98510 2675.96250 2752.78000    0.18900    1.81150
 4911.50000    8.05360    8.45740    8.15570   20.37840    0.09350    0.01610   65.84060   64.54480   63.01500   64.98220  116.55230  115.53790    0.21840   25.17480    9.62310    8.44220    6.36190    3.04050    2.55900   28.84610    0.13180 2582.98510 2614.15870 2701.53930    0.17650    1.80550
 4912.00000    7.99840    8.43620    8.12800   20.34380    0.10350    0.01610   66.70390   65.27710   63.57410   65.78580  117.76650  117.40610    0.25350   25.28940    9.40680    8.34150    6.37840    3.01230    2.54930   29.13050    0.13600 2582.98510 2582.51030 2650.29870    0.19070    1.79940
 4912.50000    7.94310    8.40680    8.08180   20.30920    0.11160    0.01780   66.96840   65.91590   63.97730   66.58940  118.98080  118.61570    0.34560   25.56780    9.16540    8.21480    6.73940    2.99790    2.53870   27.86420    0.13560 2582.98510 2616.27420 2700.23350    0.21430    1.79880
 4913.00000    7.88780    8.40160    8.03550   19.42740    0.11610    0.01870   66.61870   65.88690   63.97730   66.85290  120.19500  118.51490    0.32320   25.93250    9.11070    8.14840    5.89420    2.99750    2.52900   26.34460    0.13320 2582.98510 2662.76170 2715.23310    0.23800    1.81420
 4913.50000    7.83260    8.39020    7.99660   18.77210    0.11730    0.02200   66.29580   65.51070   63.57410   66.31760  120.18070  117.43130    0.30090   25.91230    9.11070    8.09540    7.03600    3.02500    2.52610   25.50590    0.13120 2582.98510 2686.89560 2740.23230    0.23290    1.81730
 4914.00000    7.77730    8.38740    7.99660   17.63640    0.11350    0.02620   65.29550   64.45060   62.36450   65.38260  118.17180  115.54120    0.24490   25.89200    9.11480    8.81620    7.02490    3.05250    2.53370   24.45620    0.12910 2496.63570 2673.34250 2728.23260    0.22110    1.81610
 4914.50000    7.77750    8.38460    7.99660   16.50760    0.10130    0.03030   63.91200   63.34670   61.55800   64.44750  116.16300  113.65120    0.23690   24.71570   10.05640    9.53710    5.93320    3.08890    2.55170   23.02140    0.11770 2412.63710 2628.19810 2708.23330    0.20930    1.81310
 4915.00000    7.77750    8.38190    7.99720   15.71420    0.08600    0.03130   62.52850   62.41310   60.26200   63.51250  114.15410  111.76110    0.22900   23.67300   11.89020   10.25790    5.86220    3.13330    2.57190   22.69980    0.10620 2383.68230 2611.79130 2698.07000    0.20400    1.81010
 4915.50000    7.77790    8.37910    7.98600   16.18710    0.07150    0.02460   61.14490   61.55960   58.96600   62.72160  112.14520  109.87110    0.21270   22.64510   14.37780   12.35570   10.51020    3.17770    2.59560   23.05420    0.09470 2412.85750 2621.65680 2694.46410    0.19870    1.80710
 4916.00000    7.77810    8.37630    7.97190   17.33030    0.06150    0.01700   60.19860   60.70610   57.92910   62.66380  110.53810  108.53540    0.19860   21.48430   17.84580   14.71810   16.43620    3.20430    2.61130   24.72830    0.09020 2442.03280 2628.15800 2690.85820    0.19340    1.80650
 4916.50000    7.78420    8.37360    7.95780   18.47350    0.05860    0.01440   60.76790   60.83450   58.13070   62.80360  111.02020  108.53540    0.19860   22.02880   15.64890   14.12170   18.39240    3.20380    2.61120   26.56780    0.09180 2453.70290 2602.96540 2659.99920    0.19050    1.81300
 4917.00000    7.79020    8.37080    7.93810   19.25650    0.07530    0.01330   61.61790   61.60090   59.13880   62.94330  111.82380  109.63650    0.19920   23.90720   13.45200   11.44590   12.79960    3.20350    2.59200   27.09050    0.09760 2453.70290 2579.99030 2659.60640    0.19560    1.81030
 4917.50000    7.79630    8.36800    7.96810   19.02410    0.10250    0.01330   61.95690   62.21360   60.14680   63.08310  112.62730  110.79960    0.22890   25.22740   11.25510    8.77020    7.20690    3.20310    2.54800   25.63550    0.10220 2453.70290 2566.20520 2648.36010    0.22120    1.80870
 4918.00000    7.79880    8.36530    8.00550   17.68950    0.12170    0.01340   62.03610   62.04020   60.95320   63.22280  113.43090  111.96270    0.25850   23.27080    9.05830    6.58950    4.52070    3.20270    2.50400   21.12450    0.10330 2482.51180 2566.20520 2629.87810    0.24670    1.80870
