~Version ---------------------------------------------------
VERS.   2.0 : CWLS log ASCII Standard -VERSION 2.0
WRAP.    NO : One line per depth step
DLM . SPACE : Column Data Section Delimiter
~Well ------------------------------------------------------
STRT .FT                  72.0 : START DEPTH
STOP .FT                5114.0 : STOP DEPTH
STEP .FT                   0.5 : STEP
NULL .                -9999.25 : NULL VALUE
COMP .                         : COMPANY
WELL .                         : WELL
FLD  .                         : FIELD
LOC  .                         : LOCATION
PROV .                         : PROVINCE
CNTY .                         : COUNTY
STAT .                         : STATE
CTRY .                         : COUNTRY
SRVC .                         : SERVICE COMPANY
DATE .                         : DATE
UWI  .                         : UNIQUE WELL ID
API  .                         : API NUMBER
SLAT .WGS84 3.1859088553595996 : SURFACE LATITUDE
SLON .WGS84  6.767986511777991 : SURFACE LONGITUDE
DATUM.F                3150.12 : DEPTH DATUM ELEV
~Curve Information -----------------------------------------
DEPT   .FT    : 
CAL1R  .IN    : CALIPER 1 FROM RESISTIVITY LOG
CALD   .IN    : CALIPER FROM DENSITY LOG
CALSR  .IN    : MICRO RESISTIVITY CALIPER FROM RESISTIVITY
CGRD   .GAPI  : CORRECTED GAMMA RAY FROM DENSITY LOG
DPHI_LS.DEC   : DENSITY POROSITY LIMESTONE
DRHO   .G/C3  : BULK DENSITY CORRECTION
DT     .US/F  : DELTA-T (INTERVAL TRANSIT TIME)
DTCO   .US/F  : DELTA-T COMPRESSIONAL
DTCO_1 .US/F  : DELTA-T COMPRESSIONAL
DTRP   .US/F  : DELTA-T COMPRESSIONAL, RECEIVER ARRAY - MONOPOLE P & S
DTRS   .US/F  : DELTA-T SHEAR, RECEIVER ARRAY - MONOPOLE P & S
DTSM   .US/F  : DELTA-T SHEAR
ENPH_LS.DEC   : EPITHERMAL NEUTRON POROSITY (LIMESTONE)
GRR    .GAPI  : GAMMA RAY FROM RESISTIVITY LOG
LLD    .OHMM  : LATEROLOG DEEP RESISTIVITY
LLS    .OHMM  : LATEROLOG SHALLOW RESISTIVITY
MSFL   .OHMM  : MICRO SPHERICALLY FOCUSED RESISTIVITY
PEF    .B/E   : PHOTOELECTRIC FACTOR
RHOB   .G/C3  : BULK DENSITY
SGRDD  .GAPI  : SPECTROSCOPY GAMMA RAY FROM DENSITY LOG
SPHI_LS.DEC   : SONIC POROSITY [LIMESTONE]
TEND   .LB    : TENSION FROM DENSITY LOG
TENR   .LB    : TENSION FROM RESISTIVITY LOG
TENS   .N/A   : TENSION FROM SONIC LOG
TNPH_LS.DEC   : THERMAL NEUTRON POROSITY [LIMESTONE]
VPVS   .VPVS  : COMPRESSIONAL TO SHEAR VELOCITY RATIO
~Params ----------------------------------------------------
~Other -----------------------------------------------------
~ASCII -----------------------------------------------------
# ...
 4270.50000   12.53650   12.54100   11.01090   29.94310    0.20470    0.01010   66.09100   59.62770   58.33120   60.52470  113.69890  111.75470    0.06900   37.81240   57.66350   35.81580   53.15320    3.00340    2.40530   42.52460    0.12550 2313.25860 2339.50740 2394.73980    0.06170    1.88540
 4271.00000   12.53650   12.53690   11.06560   32.82160    0.22340    0.01230   68.87550   60.95840   61.08480   63.86800  116.62480  113.56320    0.08690   42.13220   39.57930   24.82850   36.72790    2.93380    2.28390   44.50390    0.14770 2324.26940 2358.32600 2407.82790    0.07480    1.86490
 4271.50000   12.53650   12.51490   11.08260   33.04240    0.25630    0.01620   71.66000   65.60770   65.00220   67.21120  122.89370  120.05970    0.11200   47.38630   27.52820   19.54340   20.30260    2.86420    2.23530   44.70620    0.17050 2344.08150 2358.32600 2420.91600    0.08790    1.83830
 4272.00000   12.54390   12.49290   11.08540   31.92490    0.29960    0.02030   74.04790   70.26240   68.91950   72.48290  129.16250  126.55630    0.14190   47.98050   25.18130   16.70370    9.48420    2.86430    2.23530   43.58090    0.18720 2344.13040 2363.31400 2434.00410    0.10250    1.80780
 4272.50000   12.51160   12.47090   11.07910   30.33730    0.29330    0.02230   73.88760   72.73400   72.83690   74.41190  130.54560  128.35330    0.14740   46.32030   24.07250   16.80590    2.21810    2.86440    2.25210   42.03550    0.18780 2304.65420 2377.47710 2447.09220    0.10290    1.77730
 4273.00000   12.47810   12.39380   11.01190   28.66370    0.26140    0.02420   72.55920   74.08870   73.23810   74.92630  126.26080  126.42930    0.12830   43.59540   24.36780   17.11610    7.86130    2.90630    2.32290   39.93880    0.17900 2273.07320 2375.47470 2460.18030    0.10050    1.71640
 4273.50000   12.44450   12.28000   10.98730   27.66850    0.22950    0.02170   70.34530   73.97650   71.48870   74.75550  120.77580  120.26820    0.10920   41.15740   29.89480   21.05250   10.05030    2.97840    2.39560   38.52560    0.16070 2281.03780 2373.47230 2448.42840    0.09450    1.65070
 4274.00000   12.43650   12.21170   10.92070   26.89170    0.19760    0.01800   68.13130   69.24700   67.79050   71.22450  115.27100  112.01980    0.09640   40.43050   35.12290   26.36920   12.23930    3.08880    2.47630   37.85540    0.14240 2300.84960 2371.47000 2436.67660    0.08860    1.63750
 4274.50000   12.41660   12.25120   10.87230   26.11490    0.16540    0.01430   65.91730   66.61950   64.09240   66.91790  109.89490  107.00140    0.08500   39.67400   40.35100   31.68590   33.89950    3.19910    2.54080   38.13970    0.12420 2343.01640 2358.32600 2424.92470    0.08260    1.65600
 4275.00000   12.40320   12.31700   10.84210   25.85810    0.13300    0.01060   63.30640   64.51750   63.35280   66.05660  109.43130  106.86090    0.08500   38.55970   42.44220   31.49320   31.48600    3.30950    2.54080   37.48070    0.10210 2344.42810 2341.22410 2407.02760    0.08020    1.67700
 4275.50000   12.36630   12.38280   10.84210   25.86020    0.10710    0.00810   62.18410   65.05190   63.35280   66.05730  111.60270  109.87970    0.08580   37.46010   39.88510   28.60120   25.83750    3.41990    2.53030   37.34870    0.10820 2345.83970 2318.42170 2379.91250    0.08310    1.70220
 4276.00000   12.36680   12.42470   11.00790   26.28210    0.11680    0.00750   66.12000   64.99850   63.35280   65.92910  111.93310  110.07480    0.11510   36.89390   36.68880   25.90040   23.04610    3.43620    2.47780   37.90020    0.13950 2347.25130 2318.54580 2377.48250    0.09790    1.71730
 4276.50000   12.36730   12.46660   11.02450   26.80890    0.16520    0.00830   70.56900   64.51130   63.34500   65.41520  111.41110  109.36290    0.14450   36.56090   33.49240   23.19960   14.19290    3.13280    2.42530   38.45160    0.16310 2348.66300 2301.81550 2378.98230    0.11280    1.71730
 4277.00000   12.36770   12.47490   11.10050   26.54520    0.21360    0.01020   74.12810   63.83310   62.53670   64.90130  110.88900  108.85330    0.17390   36.88750   31.86640   21.44790    1.40460    2.82930    2.33300   37.91120    0.18240 2350.07460 2305.37420 2386.84870    0.12760    1.72030
 4277.50000   12.36820   12.34840   11.16620   23.71240    0.27400    0.01490   74.06930   63.15480   61.86280   64.38740  110.36700  108.84740    0.20360   36.29830   32.25760   21.97750    0.44040    2.57260    2.21410   35.47030    0.18900 2351.48620 2357.44840 2420.18130    0.13900    1.72370
 4278.00000   12.36870   12.31670   11.23740   20.99640    0.41400    0.01760   73.69520   63.15480   62.56950   64.25930  110.11070  109.44630    0.23330   33.59480   34.90200   24.01710    9.07810    2.53080    2.09520   30.95370    0.18660 2354.88360 2377.60890 2453.51380    0.13860    1.73020
 4278.50000   12.37490   12.87000   11.26190   16.73680    0.47850    0.01850   73.32110   64.69560   64.76680   66.63820  113.52520  114.16320    0.26310   28.33200   49.09260   30.59570    7.33010    2.51700    2.00010   25.26080    0.18090 2366.22410 2376.49360 2461.47970    0.13550    1.73790
 4279.00000   12.37090   13.52870   11.24460   12.52730    0.46440    0.02030   72.64510   67.14500   67.16560   68.88850  117.79320  117.90100    0.26990   23.21570   66.00460   45.01510    3.37150    2.51710    1.97550   21.27450    0.18290 2377.56460 2375.37830 2463.10390    0.13170    1.74560
 4279.50000   12.30250   13.64720   11.11890   13.67830    0.42720    0.03340   69.63910   68.12470   67.16380   68.76030  119.88670  118.70380    0.26770   21.93930   81.00240   56.89670    0.20450    2.51720   -9999.25   21.98020    0.15330 2379.87190 2374.26300 2464.72810    0.13310    1.75390
 4280.00000   12.23400   12.63150   11.19000   17.93250    0.41040    0.04640   66.63310   67.32030   65.73750   67.61000  120.01550  118.01020    0.26670   23.58660   85.16760   55.87470    0.20700    2.50330    2.00970   25.62160    0.12930 2371.74280 2355.76670 2466.35230    0.13310    1.76040
 4280.50000   12.16550   12.21200   11.26760   22.05500    0.41550    0.05950   68.30320   66.11310   64.19150   66.45970  119.04770  116.39730    0.26630   25.13690   89.75450   54.85270    4.31660    2.49020    2.04650   29.70970    0.14560 2330.86860 2378.01740 2467.97650    0.12450    1.77650
 4281.00000   12.16570   12.55610   11.53060   21.47290    0.46720    0.06390   72.22210   63.34200   61.87380   64.47880  116.67020  114.56050    0.28820   25.29740   94.34140   57.59460    5.71140    2.31920    2.04030   27.86510    0.18100 2289.99440 2386.00430 2469.60070    0.11590    1.81700
 4281.50000   12.20980   14.14530   11.69050   18.47730    0.53680    0.06390   73.00590   60.18000   58.12960   61.68240  115.24380  112.76840    0.30130   23.68840  119.46350   68.98840    3.20470    2.12290    1.91800   24.79080    0.18020 2260.49570 2383.95530 2471.22490    0.11070    1.89380
 4282.00000   12.32800   15.25520   11.80030   16.75560    0.58470    0.05180   70.33390   59.42740   57.92800   61.68270  115.93440  113.17160    0.45190   21.35090  157.45090   85.60780    0.20080    2.00260    1.81620   21.71650    0.16260 2319.83960 2381.54550 2472.84910    0.12720    1.91340
 4282.50000   12.44630   15.59770   11.74380   15.03390    0.63260    0.03780   66.99390   60.62540   60.64970   62.80820  116.63660  116.19570    0.53690   20.61080  203.22020  146.30850    0.20080    1.94700    1.71440   18.64220    0.14210 2379.17630 2379.13580 2474.47330    0.15470    1.88490
 4283.00000   12.31230   15.59770   11.57840   14.29420    0.68050    0.02380   69.75580   63.20830   63.16980   64.68380  117.04670  115.56210    0.55400   19.56340  230.93090  207.00920    0.20080    1.91930    1.58500   18.51030    0.16030 2335.18390 2376.72600 2476.09750    0.17180    1.82980
 4283.50000   12.14470   15.44390   11.30930   15.47990    0.69970    0.00980   74.09170   64.91840   63.57300   66.18440  116.63220  114.41000    0.52210   19.92040  257.46970  231.28950    0.20080    1.86360    1.58250   21.47430    0.19310 2280.18510 2384.07140 2474.16010    0.17200    1.78550
