~Version ---------------------------------------------------
VERS.   2.0 : CWLS log ASCII Standard -VERSION 2.0
WRAP.    NO : One line per depth step
DLM . SPACE : Column Data Section Delimiter
~Well ------------------------------------------------------
STRT .FT                  72.0 : START DEPTH
STOP .FT                5114.0 : STOP DEPTH
STEP .FT                   0.5 : STEP
NULL .                -9999.25 : NULL VALUE
COMP .                         : COMPANY
WELL .                         : WELL
FLD  .                         : FIELD
LOC  .                         : LOCATION
PROV .                         : PROVINCE
CNTY .                         : COUNTY
STAT .                         : STATE
CTRY .                         : COUNTRY
SRVC .                         : SERVICE COMPANY
DATE .                         : DATE
UWI  .                         : UNIQUE WELL ID
API  .                         : API NUMBER
SLAT .WGS84 3.1859088553595996 : SURFACE LATITUDE
SLON .WGS84  6.767986511777991 : SURFACE LONGITUDE
DATUM.F                3150.12 : DEPTH DATUM ELEV
~Curve Information -----------------------------------------
DEPT   .FT    : 
CAL1R  .IN    : CALIPER 1 FROM RESISTIVITY LOG
CALD   .IN    : CALIPER FROM DENSITY LOG
CALSR  .IN    : MICRO RESISTIVITY CALIPER FROM RESISTIVITY
CGRD   .GAPI  : CORRECTED GAMMA RAY FROM DENSITY LOG
DPHI_LS.DEC   : DENSITY POROSITY LIMESTONE
DRHO   .G/C3  : BULK DENSITY CORRECTION
DT     .US/F  : DELTA-T (INTERVAL TRANSIT TIME)
DTCO   .US/F  : DELTA-T COMPRESSIONAL
DTCO_1 .US/F  : DELTA-T COMPRESSIONAL
DTRP   .US/F  : DELTA-T COMPRESSIONAL, RECEIVER ARRAY - MONOPOLE P & S
DTRS   .US/F  : DELTA-T SHEAR, RECEIVER ARRAY - MONOPOLE P & S
DTSM   .US/F  : DELTA-T SHEAR
ENPH_LS.DEC   : EPITHERMAL NEUTRON POROSITY (LIMESTONE)
GRR    .GAPI  : GAMMA RAY FROM RESISTIVITY LOG
LLD    .OHMM  : LATEROLOG DEEP RESISTIVITY
LLS    .OHMM  : LATEROLOG SHALLOW RESISTIVITY
MSFL   .OHMM  : MICRO SPHERICALLY FOCUSED RESISTIVITY
PEF    .B/E   : PHOTOELECTRIC FACTOR
RHOB   .G/C3  : BULK DENSITY
SGRDD  .GAPI  : SPECTROSCOPY GAMMA RAY FROM DENSITY LOG
SPHI_LS.DEC   : SONIC POROSITY [LIMESTONE]
TEND   .LB    : TENSION FROM DENSITY LOG
TENR   .LB    : TENSION FROM RESISTIVITY LOG
TENS   .N/A   : TENSION FROM SONIC LOG
TNPH_LS.DEC   : THERMAL NEUTRON POROSITY [LIMESTONE]
VPVS   .VPVS  : COMPRESSIONAL TO SHEAR VELOCITY RATIO
~Params ----------------------------------------------------
~Other -----------------------------------------------------
~ASCII -----------------------------------------------------
# ...
 5067.00000    7.68020    8.49010    7.81560   -9999.25    0.09750    0.01680   -9999.25   -9999.25   74.70920   76.67640  137.43460  135.98370    0.23580   -9999.25    5.43100    6.07910    8.45690    2.98870    2.54820   -9999.25   -9999.25 2684.49620 2823.51920 2780.23100    0.21460    1.79580
 5067.50000    7.65600    8.42090    7.81890   -9999.25    0.10640    0.01900   -9999.25   -9999.25   74.68980   76.72740  137.41630  135.96890    0.23270   -9999.25    6.17920    6.59130    7.21950    2.96080    2.54180   -9999.25   -9999.25 2687.79000 2804.19560 2780.23100    0.20200    1.79580
 5068.00000    7.69590    8.35290    7.83550   -9999.25    0.11560    0.02990   -9999.25   -9999.25   74.67040   76.77840  137.40890  135.95400    0.23680   -9999.25    6.21490    6.37250    4.45820    2.96080    2.53290   -9999.25   -9999.25 2687.79000 2784.87200 2780.23100    0.19910    1.79580
 5068.50000    7.72990    8.28950    7.88880   -9999.25    0.11830    0.04080   -9999.25   -9999.25   -9999.25   -9999.25   -9999.25   -9999.25    0.25540   -9999.25    6.20440    6.15370    4.47180    2.96080    2.52560   -9999.25   -9999.25 2687.79000 2765.54840 2780.23100    0.20140   -9999.25
 5069.00000    7.75340    8.22610    7.95530   -9999.25    0.11300    0.05170   -9999.25   -9999.25   -9999.25   -9999.25   -9999.25   -9999.25    0.27030   -9999.25    6.19390    5.97860    5.70320    2.96080    2.52490   -9999.25   -9999.25 2687.79000 2746.22470 2783.32340    0.20430   -9999.25
 5069.50000    7.77690    8.21340    7.97520   -9999.25    0.10720    0.06220   -9999.25   -9999.25   -9999.25   -9999.25   -9999.25   -9999.25    0.26610   -9999.25    6.18340    5.87030    4.71130    2.96080    2.53300   -9999.25   -9999.25 2687.79000 2730.76580 2798.78530    0.20720   -9999.25
 5070.00000    7.79560    8.27170    7.97110   -9999.25    0.10370    0.06570   -9999.25   -9999.25   -9999.25   -9999.25   -9999.25   -9999.25    0.25570   -9999.25    6.14160    5.87030    4.70960    2.96570    2.54380   -9999.25   -9999.25 2687.79000 2737.11000 2814.24720    0.20680   -9999.25
 5070.50000    7.83290    8.33010    7.95070   -9999.25    0.09730    0.06570   -9999.25   -9999.25   -9999.25   -9999.25   -9999.25   -9999.25    0.24540   -9999.25    6.17810    5.99600    5.15240    2.97780    2.55470   -9999.25   -9999.25 2687.79000 2743.45420 2829.70920    0.20160   -9999.25
 5071.00000    7.87020    8.38850    7.93030   -9999.25    0.08900    0.06570   -9999.25   -9999.25   -9999.25   -9999.25   -9999.25   -9999.25    0.24130   -9999.25    6.36990    6.41010    7.18620    2.98990    2.56550   -9999.25   -9999.25 2687.79000 2749.79840 2845.17110    0.19650   -9999.25
 5071.50000    7.83860    8.37340    7.91840   -9999.25    0.08280    0.06570   -9999.25   -9999.25   -9999.25   -9999.25   -9999.25   -9999.25    0.24680   -9999.25    6.62700    7.00930   10.65970    3.00200    2.57310   -9999.25   -9999.25 2687.79000 2756.14250 2819.16590    0.19250   -9999.25
 5072.00000    7.67630    8.36890    7.99920   -9999.25    0.07930    0.06030   -9999.25   -9999.25   -9999.25   -9999.25   -9999.25   -9999.25    0.25220   -9999.25    6.88410    7.53430    4.82310    3.01410    2.57840   -9999.25   -9999.25 2687.79000 2762.48670 2816.50640    0.19560   -9999.25
 5072.50000    7.51410    8.37820    7.97850   -9999.25    0.08090    0.05430   -9999.25   -9999.25   -9999.25   -9999.25   -9999.25   -9999.25    0.25760   -9999.25    7.14130    7.64980   13.68740    3.01650    2.57910   -9999.25   -9999.25 2687.79000 2768.83090 2813.84680    0.20340   -9999.25
 5073.00000    7.51830    8.38750    7.94320   -9999.25    0.08780    0.04920   -9999.25   -9999.25   -9999.25   -9999.25   -9999.25   -9999.25    0.26310   -9999.25    7.32500    7.76640   10.06340    3.01150    2.57460   -9999.25   -9999.25 2687.79000 2775.17510 2780.23100    0.21130   -9999.25
 5073.50000    7.57920    8.38530    7.90790   -9999.25    0.09270    0.04780   -9999.25   -9999.25   -9999.25   -9999.25   -9999.25   -9999.25    0.26420   -9999.25    7.98240    8.37310    7.18270    2.99890    2.56880   -9999.25   -9999.25 2687.79000 2781.51930 2780.23100    0.21730   -9999.25
 5074.00000    7.64010    8.35570    7.87260   -9999.25    0.09500    0.04640   -9999.25   -9999.25   -9999.25   -9999.25   -9999.25   -9999.25    0.25780   -9999.25    8.63970    9.01240    8.54800    2.98630    2.56050   -9999.25   -9999.25 2687.79000 2787.86340 2805.46140    0.22290   -9999.25
 5074.50000    7.70090    8.33200    7.84460   -9999.25    0.09980    0.04440   -9999.25   -9999.25   -9999.25   -9999.25   -9999.25   -9999.25    0.25330   -9999.25    8.90230    9.32430   11.53590    2.97370    2.55290   -9999.25   -9999.25 2687.79000 2774.90370 2791.44450    0.22850   -9999.25
 5075.00000    7.76180    8.33200    7.84480   -9999.25    0.10840    0.04350   -9999.25   -9999.25   -9999.25   -9999.25   -9999.25   -9999.25    0.26030   -9999.25    8.39390    9.00860   11.32600    2.96810    2.54270   -9999.25   -9999.25 2687.79000 2756.69420 2780.23100    0.23710   -9999.25
 5075.50000    7.78670    8.33200    7.87710   -9999.25    0.11650    0.04000   -9999.25   -9999.25   -9999.25   -9999.25   -9999.25   -9999.25    0.29320   -9999.25    7.75870    8.36200    8.47160    2.96700    2.52950   -9999.25   -9999.25 2687.79000 2736.78880 2780.23100    0.24510   -9999.25
 5076.00000    7.79630    8.33200    7.93190   -9999.25    0.12250    0.03660   -9999.25   -9999.25   -9999.25   -9999.25   -9999.25   -9999.25    0.30030   -9999.25    7.12340    7.71550    5.96550    2.96590    2.51640   -9999.25   -9999.25 2687.79000 2716.88350 2780.23100    0.24510   -9999.25
 5076.50000    7.80790    8.33200    7.98660   -9999.25    0.12800    0.03310   -9999.25   -9999.25   -9999.25   -9999.25   -9999.25   -9999.25    0.33280   -9999.25    6.48810    7.06900    5.76850    2.96480    2.50870   -9999.25   -9999.25 2687.79000 2704.54080 2780.23100    0.24430   -9999.25
 5077.00000    7.81960    8.33200    7.98910   -9999.25    0.12940    0.02970   -9999.25   -9999.25   -9999.25   -9999.25   -9999.25   -9999.25    0.32630   -9999.25    6.32210    6.42250    5.61080    2.96370    2.50470   -9999.25   -9999.25 2687.79000 2736.66220 2780.23100    0.24430   -9999.25
 5077.50000    7.83120    8.33200    7.98350   -9999.25    0.12860    0.02620   -9999.25   -9999.25   -9999.25   -9999.25   -9999.25   -9999.25    0.31000   -9999.25    6.41970    6.89270    6.14840    2.97090    2.50270   -9999.25   -9999.25 2687.79000 2768.91690 2797.03050    0.25690   -9999.25
 5078.00000    7.84290    8.31920    7.97780   -9999.25    0.12800    0.02390   -9999.25   -9999.25   -9999.25   -9999.25   -9999.25   -9999.25    0.30030   -9999.25    6.71850    7.32940    6.33820    3.01120    2.50190   -9999.25   -9999.25 2687.79000 2801.17160 2839.02930    0.26960   -9999.25
 5078.50000    7.87240    8.30650    7.97220   -9999.25    0.13190    0.02390   -9999.25   -9999.25   -9999.25   -9999.25   -9999.25   -9999.25    0.28400   -9999.25    6.68260    7.02870    9.17300    3.02730    2.49740   -9999.25   -9999.25 2687.79000 2793.65450 2864.22850    0.27350   -9999.25
 5079.00000    7.87280    8.29370    7.96720   -9999.25    0.13780    0.02390   -9999.25   -9999.25   -9999.25   -9999.25   -9999.25   -9999.25    0.29030   -9999.25    6.50620    6.82410   15.36530    2.99150    2.49050   -9999.25   -9999.25 2687.79000 2756.40750 2822.22980    0.27250   -9999.25
 5079.50000    7.85440    8.28090    7.93830   -9999.25    0.13920    0.02810   -9999.25   -9999.25   -9999.25   -9999.25   -9999.25   -9999.25    0.28990   -9999.25    6.58910    6.74060    7.79700    2.98510    2.48770   -9999.25   -9999.25 2707.55620 2719.16050 2780.23100    0.26420   -9999.25
 5080.00000    7.74200    8.26820    7.89540   -9999.25    0.12950    0.03400   -9999.25   -9999.25   -9999.25   -9999.25   -9999.25   -9999.25    0.24590   -9999.25    7.35790    6.86450    5.36000    2.97880    2.48780   -9999.25   -9999.25 2756.97180 2723.97370 2780.23100    0.25610   -9999.25
