~Version ---------------------------------------------------
VERS.   2.0 : CWLS log ASCII Standard -VERSION 2.0
WRAP.    NO : One line per depth step
DLM . SPACE : Column Data Section Delimiter
~Well ------------------------------------------------------
STRT .FT                  72.0 : START DEPTH
STOP .FT                5114.0 : STOP DEPTH
STEP .FT                   0.5 : STEP
NULL .                -9999.25 : NULL VALUE
COMP .                         : COMPANY
WELL .                         : WELL
FLD  .                         : FIELD
LOC  .                         : LOCATION
PROV .                         : PROVINCE
CNTY .                         : COUNTY
STAT .                         : STATE
CTRY .                         : COUNTRY
SRVC .                         : SERVICE COMPANY
DATE .                         : DATE
UWI  .                         : UNIQUE WELL ID
API  .                         : API NUMBER
SLAT .WGS84 3.1859088553595996 : SURFACE LATITUDE
SLON .WGS84  6.767986511777991 : SURFACE LONGITUDE
DATUM.F                3150.12 : DEPTH DATUM ELEV
~Curve Information -----------------------------------------
DEPT   .FT    : 
CAL1R  .IN    : CALIPER 1 FROM RESISTIVITY LOG
CALD   .IN    : CALIPER FROM DENSITY LOG
CALSR  .IN    : MICRO RESISTIVITY CALIPER FROM RESISTIVITY
CGRD   .GAPI  : CORRECTED GAMMA RAY FROM DENSITY LOG
DPHI_LS.DEC   : DENSITY POROSITY LIMESTONE
DRHO   .G/C3  : BULK DENSITY CORRECTION
DT     .US/F  : DELTA-T (INTERVAL TRANSIT TIME)
DTCO   .US/F  : DELTA-T COMPRESSIONAL
DTCO_1 .US/F  : DELTA-T COMPRESSIONAL
DTRP   .US/F  : DELTA-T COMPRESSIONAL, RECEIVER ARRAY - MONOPOLE P & S
DTRS   .US/F  : DELTA-T SHEAR, RECEIVER ARRAY - MONOPOLE P & S
DTSM   .US/F  : DELTA-T SHEAR
ENPH_LS.DEC   : EPITHERMAL NEUTRON POROSITY (LIMESTONE)
GRR    .GAPI  : GAMMA RAY FROM RESISTIVITY LOG
LLD    .OHMM  : LATEROLOG DEEP RESISTIVITY
LLS    .OHMM  : LATEROLOG SHALLOW RESISTIVITY
MSFL   .OHMM  : MICRO SPHERICALLY FOCUSED RESISTIVITY
PEF    .B/E   : PHOTOELECTRIC FACTOR
RHOB   .G/C3  : BULK DENSITY
SGRDD  .GAPI  : SPECTROSCOPY GAMMA RAY FROM DENSITY LOG
SPHI_LS.DEC   : SONIC POROSITY [LIMESTONE]
TEND   .LB    : TENSION FROM DENSITY LOG
TENR   .LB    : TENSION FROM RESISTIVITY LOG
TENS   .N/A   : TENSION FROM SONIC LOG
TNPH_LS.DEC   : THERMAL NEUTRON POROSITY [LIMESTONE]
VPVS   .VPVS  : COMPRESSIONAL TO SHEAR VELOCITY RATIO
~Params ----------------------------------------------------
~Other -----------------------------------------------------
~ASCII -----------------------------------------------------
# ...
 2664.00000   11.45440   -9999.25   11.18260   -9999.25   -9999.25   -9999.25   -9999.25   -9999.25   -9999.25   -9999.25   -9999.25   -9999.25   -9999.25   15.57050   79.47020   79.76150    0.46070   -9999.25   -9999.25   10.23650   -9999.25 1971.53400 1942.20840   -9999.25    0.02950   -9999.25
 2664.50000   10.90330   -9999.25   10.75300   -9999.25   -9999.25   -9999.25   -9999.25   -9999.25   -9999.25   -9999.25   -9999.25   -9999.25   -9999.25   19.34040   44.20570   51.12320    0.65320   -9999.25   -9999.25   14.61300   -9999.25 1972.39740 1918.45460   -9999.25    0.06610   -9999.25
 2665.00000   10.79340   -9999.25   10.57400   -9999.25   -9999.25   -9999.25   -9999.25   -9999.25   -9999.25   -9999.25   -9999.25   -9999.25   -9999.25   23.71250   15.42060   22.48500    1.44420   -9999.25   -9999.25   18.98960   -9999.25 1973.26080 1898.40380   -9999.25    0.09030   -9999.25
 2665.50000   10.81960   -9999.25   10.55450   -9999.25   -9999.25   -9999.25   -9999.25   -9999.25   -9999.25   -9999.25   -9999.25   -9999.25   -9999.25   27.58220   14.37520   16.98810    1.13620   -9999.25   -9999.25   23.58340   -9999.25 1974.12420 1907.89660   -9999.25    0.11130   -9999.25
 2666.00000   10.84860   -9999.25   10.63150   -9999.25   -9999.25   -9999.25   -9999.25   -9999.25   -9999.25   -9999.25   -9999.25   -9999.25   -9999.25   25.99360   13.32980   16.68480    0.66600   -9999.25   -9999.25   27.95360   -9999.25 1974.98760 1917.38950   -9999.25    0.11190   -9999.25
 2666.50000   10.85470   -9999.25   10.72340   -9999.25   -9999.25   -9999.25   -9999.25   -9999.25   -9999.25   -9999.25   -9999.25   -9999.25   -9999.25   22.96210   13.25330   16.89700    0.46070   -9999.25   -9999.25   26.67540   -9999.25 1975.85100 1938.01160   -9999.25    0.11210   -9999.25
 2667.00000   10.85540   -9999.25   10.81540   -9999.25   -9999.25   -9999.25   -9999.25   -9999.25   -9999.25   -9999.25   -9999.25   -9999.25   -9999.25   19.93050   15.69060   17.74800    0.27050   -9999.25   -9999.25   25.07780   -9999.25 1976.71450 1938.76230   -9999.25    0.11190   -9999.25
 2667.50000   10.80460   -9999.25   10.81590   -9999.25   -9999.25   -9999.25   -9999.25   -9999.25   -9999.25   -9999.25   -9999.25   -9999.25   -9999.25   18.76980   18.78550   21.34950    0.25820   -9999.25   -9999.25   23.48010   -9999.25 1977.57790 1939.51300   -9999.25    0.10700   -9999.25
 2668.00000   10.71950   -9999.25   10.77650   -9999.25   -9999.25   -9999.25   -9999.25   -9999.25   76.53290   83.25100  134.15800  135.34820   -9999.25   21.05260   21.88030   26.83430    0.74980   -9999.25   -9999.25   21.88240   -9999.25 1978.44130 1940.26370 2881.12670    0.10210    1.40820
 2668.50000   10.63450   -9999.25   10.64730   -9999.25   -9999.25   -9999.25   -9999.25   -9999.25   76.56450   80.76990  137.61550  138.47930   -9999.25   22.76480   28.62320   31.13980    1.08880   -9999.25   -9999.25   20.60430   -9999.25 1979.30470 1941.01440 2684.35230    0.10140    1.40600
 2669.00000   10.61780   -9999.25   10.51820   -9999.25   -9999.25   -9999.25   -9999.25   -9999.25   74.63360   78.28890  141.07310  141.09410   -9999.25   24.28320   33.75830   34.24770    0.79150   -9999.25   -9999.25   21.37150   -9999.25 1980.16810 1950.81900 2487.57780    0.10060    1.40600
 2669.50000   10.63840   -9999.25   10.49870   -9999.25   -9999.25   -9999.25   -9999.25   -9999.25   71.56510   76.25030  142.88130  138.29320   -9999.25   24.67420   46.98640   40.08130    0.55370   -9999.25   -9999.25   23.28960   -9999.25 1981.03150 2017.22740 2346.04960    0.10020    1.40580
 2670.00000   10.70870   -9999.25   10.66760   -9999.25   -9999.25   -9999.25   -9999.25   -9999.25   71.62930   74.21170  140.27070  135.78780   -9999.25   23.51210   61.67720   48.72380    0.91910   -9999.25   -9999.25   25.20770   -9999.25 1981.89490 2010.05080 2295.58920    0.09970    1.43220
 2670.50000   10.80840   -9999.25   11.11070   -9999.25   -9999.25   -9999.25   -9999.25   -9999.25   71.29650   73.43890  137.66000  133.28250   -9999.25   22.24660   76.36810   61.57970    0.72450   -9999.25   -9999.25   25.59130   -9999.25 1982.75830 2002.87430 2266.93440    0.09900    1.45870
 2671.00000   11.27870   -9999.25   11.55390   -9999.25   -9999.25   -9999.25   -9999.25   -9999.25   69.54080   71.87830  135.20080  130.77710   -9999.25   17.85710  134.53350   74.43550    0.83330   -9999.25   -9999.25   24.49510   -9999.25 1983.62170 1995.69770 2243.05560    0.08520    1.48510
 2671.50000   11.74900   -9999.25   11.99710   -9999.25   -9999.25   -9999.25   -9999.25   -9999.25   67.34620   70.31760  132.77940  128.27180   -9999.25   15.56260  203.56750   96.94450    1.16070   -9999.25   -9999.25   21.75460   -9999.25 1984.48510 1953.53550 2223.95260    0.05500    1.51160
 2672.00000   12.14520   -9999.25   12.44030   -9999.25   -9999.25   -9999.25   -9999.25   -9999.25   65.82110   69.38130  130.71380  125.76640   -9999.25   13.72570  268.25650  133.93310    6.17720   -9999.25   -9999.25   19.01400   -9999.25 1985.34850 1939.16720 2207.83430    0.03950    1.54020
 2672.50000   12.41120   -9999.25   12.88340   -9999.25   -9999.25   -9999.25   -9999.25   -9999.25   66.97390   69.59400  129.53700  123.86000   -9999.25   12.80290  353.19290  166.69230   17.03580   -9999.25   -9999.25   16.27350   -9999.25 1986.21190 1924.79880 2180.97050    0.03380    1.55440
 2673.00000   12.67730   -9999.25   12.87350   -9999.25   -9999.25   -9999.25   -9999.25   -9999.25   68.12660   70.65340  128.36010  125.38650   -9999.25   12.06340  299.53410  171.74970    7.85440   -9999.25   -9999.25   14.32770   -9999.25 1987.07540 1925.43840 2162.54940    0.02810    1.56860
 2673.50000   12.79570   -9999.25   12.52430   -9999.25   -9999.25   -9999.25   -9999.25   -9999.25   69.27940   71.71280  127.82610  130.10980   -9999.25   12.00580  245.73300  134.98480    4.15700   -9999.25   -9999.25   13.72650   -9999.25 1987.93880 1926.07800 2142.08190    0.02410    1.58280
 2674.00000   12.76740   -9999.25   12.48010   -9999.25   -9999.25   -9999.25   -9999.25   -9999.25   70.43220   72.77220  131.57760  130.91620   -9999.25   11.57190  201.45300  105.62130    8.64970   -9999.25   -9999.25   13.17290   -9999.25 1988.80220 1914.80210 2117.93000    0.02440    1.59840
 2674.50000   12.67670   -9999.25   12.85780   -9999.25   -9999.25   -9999.25   -9999.25   -9999.25   70.89330   72.98440  133.42200  130.31140   -9999.25   11.26540  205.16820  100.98300    5.39100   -9999.25   -9999.25   12.60240   -9999.25 1989.66560 1899.42640 2067.78410    0.02930    1.65240
 2675.00000   12.58600   -9999.25   13.23550   -9999.25   -9999.25   -9999.25   -9999.25   -9999.25   69.75380   72.72170  132.39510  128.16710   -9999.25   12.47000  259.19350  123.41850    4.10720   -9999.25   -9999.25   12.44920   -9999.25 1990.52900 1926.02920 2017.63820    0.03420    1.70420
 2675.50000   12.49530   -9999.25   13.50200   -9999.25   -9999.25   -9999.25   -9999.25   -9999.25   68.61420   71.40440  130.50320  125.73860   -9999.25   13.46770  368.67470  164.58550    1.64380   -9999.25   -9999.25   13.41080   -9999.25 1991.39240 1959.28280 1967.49240    0.03450    1.75610
 2676.00000   12.40460   -9999.25   13.52410   -9999.25   -9999.25   -9999.25   -9999.25   -9999.25   67.47470   70.08720  127.69970  123.31020   -9999.25   14.33340  768.17650  235.70860    1.79270   -9999.25   -9999.25   14.96100   -9999.25 1992.25580 1996.69310 1937.40480    0.03450    1.80790
 2676.50000   12.34470   -9999.25   13.48200   -9999.25   -9999.25   -9999.25   -9999.25   -9999.25   66.33520   68.76990  125.08550  120.88180   -9999.25   15.06380 1602.70910  602.90210    4.91590   -9999.25   -9999.25   15.35480   -9999.25 1993.11920 1959.28280 1921.03040    0.02860    1.81830
 2677.00000   12.02330   -9999.25   13.00710   -9999.25   -9999.25   -9999.25   -9999.25   -9999.25   65.65150   67.71630  123.22840  119.34400   -9999.25   16.85950 10761.39430 1364.84860    6.75320   -9999.25   -9999.25   16.01090   -9999.25 1993.98260 1917.90060 1908.74960    0.02280    1.80530
