~Version ---------------------------------------------------
VERS.   2.0 : CWLS log ASCII Standard -VERSION 2.0
WRAP.    NO : One line per depth step
DLM . SPACE : Column Data Section Delimiter
~Well ------------------------------------------------------
STRT .FT                  72.0 : START DEPTH
STOP .FT                5114.0 : STOP DEPTH
STEP .FT                   0.5 : STEP
NULL .                -9999.25 : NULL VALUE
COMP .                         : COMPANY
WELL .                         : WELL
FLD  .                         : FIELD
LOC  .                         : LOCATION
PROV .                         : PROVINCE
CNTY .                         : COUNTY
STAT .                         : STATE
CTRY .                         : COUNTRY
SRVC .                         : SERVICE COMPANY
DATE .                         : DATE
UWI  .                         : UNIQUE WELL ID
API  .                         : API NUMBER
SLAT .WGS84 3.1859088553595996 : SURFACE LATITUDE
SLON .WGS84  6.767986511777991 : SURFACE LONGITUDE
DATUM.F                3150.12 : DEPTH DATUM ELEV
~Curve Information -----------------------------------------
DEPT   .FT    : 
CAL1R  .IN    : CALIPER 1 FROM RESISTIVITY LOG
CALD   .IN    : CALIPER FROM DENSITY LOG
CALSR  .IN    : MICRO RESISTIVITY CALIPER FROM RESISTIVITY
CGRD   .GAPI  : CORRECTED GAMMA RAY FROM DENSITY LOG
DPHI_LS.DEC   : DENSITY POROSITY LIMESTONE
DRHO   .G/C3  : BULK DENSITY CORRECTION
DT     .US/F  : DELTA-T (INTERVAL TRANSIT TIME)
DTCO   .US/F  : DELTA-T COMPRESSIONAL
DTCO_1 .US/F  : DELTA-T COMPRESSIONAL
DTRP   .US/F  : DELTA-T COMPRESSIONAL, RECEIVER ARRAY - MONOPOLE P & S
DTRS   .US/F  : DELTA-T SHEAR, RECEIVER ARRAY - MONOPOLE P & S
DTSM   .US/F  : DELTA-T SHEAR
ENPH_LS.DEC   : EPITHERMAL NEUTRON POROSITY (LIMESTONE)
GRR    .GAPI  : GAMMA RAY FROM RESISTIVITY LOG
LLD    .OHMM  : LATEROLOG DEEP RESISTIVITY
LLS    .OHMM  : LATEROLOG SHALLOW RESISTIVITY
MSFL   .OHMM  : MICRO SPHERICALLY FOCUSED RESISTIVITY
PEF    .B/E   : PHOTOELECTRIC FACTOR
RHOB   .G/C3  : BULK DENSITY
SGRDD  .GAPI  : SPECTROSCOPY GAMMA RAY FROM DENSITY LOG
SPHI_LS.DEC   : SONIC POROSITY [LIMESTONE]
TEND   .LB    : TENSION FROM DENSITY LOG
TENR   .LB    : TENSION FROM RESISTIVITY LOG
TENS   .N/A   : TENSION FROM SONIC LOG
TNPH_LS.DEC   : THERMAL NEUTRON POROSITY [LIMESTONE]
VPVS   .VPVS  : COMPRESSIONAL TO SHEAR VELOCITY RATIO
~Params ----------------------------------------------------
~Other -----------------------------------------------------
~ASCII -----------------------------------------------------
# ...
 3298.50000   13.11290   10.26620   13.42220   14.85010    0.54170    0.09800   82.74910   69.91980   68.31900   72.74910  143.44350  141.79990    0.15880   14.44830 2918.83530 2993.50450    1.30010    2.78000    1.84650   14.95380    0.24450 2001.22720 2160.75300 2182.36560    0.05630    2.00030
 3299.00000   12.90090   10.28850   13.24760   15.06740    0.52570    0.09800   97.14150   77.98130   72.94250   80.14200  145.95170  142.80800    0.16030   15.64120 2125.72340 2153.67870    0.43480    2.78070    1.87250   15.61260    0.29990 2006.45570 2142.74950 2155.97280    0.08220    1.89970
 3299.50000   12.68890   10.33110   13.10290   15.99930    0.50910    0.09800  100.38860   88.80290   85.40070   87.53480  148.40620  139.78390    0.16460   18.26000  923.43360  910.54910    0.52130    2.72570    1.87250   18.20220    0.44120 2011.68410 2112.17870 2129.58000    0.11350    1.84090
 3300.00000   12.60410   10.37380   12.90740   16.93130    0.51900    0.09360  108.70530   99.54440   99.69650  101.01350  149.77400  136.91480    0.20110   20.77010  161.28850    6.90310    0.46860    2.56420    1.84070   22.92410    0.46030 2016.91260 2078.57190 2100.94110    0.14490    1.78010
 3300.50000   12.62410   10.41650   12.76370   19.20980    0.55370    0.08000  113.69520  110.18570  106.75880  110.87070  149.58110  134.04580    0.29990   24.77450    6.18840    4.75090    0.28310    2.45350    1.80100   26.55790    0.47110 2022.14100 2040.19720 2072.30220    0.17630    1.71930
 3301.00000   12.70390   10.66270   12.91670   21.48840    0.58850    0.06640  105.87160  105.98300  108.90940  108.49210  148.35970  131.17670    0.34590   27.23460    3.50660    2.96540    0.20180    2.62160    1.78510   29.46630    0.42540 2021.10970 2031.05990 2043.66330    0.20760    1.65860
 3301.50000   12.70390   11.30220   13.28250   23.76700    0.59520    0.05820   99.12610  100.16560  107.29650  103.51000  141.19650  128.30770    0.57390   29.88640    3.48530    2.93820    0.20140    2.78960    1.78510   31.78250    0.35480 2024.52130 2031.02010 2057.99060    0.23900    1.59780
 3302.00000   12.49360   11.18260   13.24260   25.13800    0.53160    0.06410   83.89570   97.37000  100.08100   98.52780  133.35640  125.43870    0.55100   28.17880    6.07900    3.70700    0.20100    2.95770    1.93590   33.30660    0.30170 2027.93280 2058.85410 2093.80900    0.23900    1.55310
 3302.50000   11.94110   10.73220   12.64400   24.96900    0.46800    0.07390   78.13300   94.81490   91.73380   91.91930  125.49380  123.40880    0.44630   27.43730   10.14860    7.00320    0.23800    3.02490   -9999.25   32.29260    0.21810 2031.34430 2084.96440 2129.62740    0.20100    1.52270
 3303.00000   11.38860   10.29490   12.04550   24.79860    0.41440    0.07960   79.15730   83.35200   83.38650   83.81930  117.63110  118.14460    0.34170   26.10250   14.21820   10.29940    0.32340    2.98310    2.00350   31.48270    0.22230 2034.75580 2118.90000 2165.44580    0.16300    1.50450
 3303.50000   11.02790    9.84420   11.44690   25.35700    0.37590    0.08110   79.64720   78.39210   75.03930   78.42780  117.27760  114.98610    0.26550   27.90160   18.28780   13.59560    1.41990    2.91340    2.07910   31.49170    0.22570 2038.16730 2152.15360 2201.26410    0.13260    1.51090
 3304.00000   11.02790    9.74300   11.32720   26.82520    0.33750    0.08230   78.28440   74.69470   73.02320   75.99110  122.34540  117.13660    0.17860   30.96700   19.21840   15.10110    6.34040    2.87160    2.15470   34.90730    0.21890 2041.57880 2163.32630 2201.26410    0.13450    1.59290
 3304.50000   11.08770    8.99750   11.28730   28.29350    0.31440    0.08300   79.11810   74.61450   72.62000   75.25640  130.84540  124.86490    0.18450   34.77930   18.65010   15.59480    6.20590    2.85770    2.20100   39.17360    0.22730 2044.99030 2158.80430 2186.93720    0.14580    1.71500
 3305.00000   11.28730    8.80940   11.41790   28.88720    0.34690    0.08360   80.52890   74.45420   72.62000   75.25640  135.26880  132.59320    0.21240   36.50730   18.08170   15.53170    3.89510    2.85770    2.15060   42.58930    0.23460 2048.40180 2145.75700 2171.76710    0.15260    1.79610
 3305.50000   11.42690    8.96220   11.53580   27.05220    0.37930    0.08680   77.88360   74.53440   73.15760   75.25640  138.95060  135.34850    0.24020   33.44830   18.97940   15.46860    1.58440    2.88550    2.10030   36.79660    0.22180 2051.81330 2127.84270 2146.48350    0.14470    1.83860
 3306.00000   11.56660    9.21570   11.65370   24.42670    0.40630    0.09020   77.72330   77.27990   76.06070   78.36050  142.64210  137.44210    0.26810   30.13450   19.87700   15.33700    0.24720    2.99200    2.04990   30.92200    0.21320 2055.22480 2072.79550 2121.19990    0.13220    1.82800
 3306.50000   11.70630    9.46920   11.77160   21.80240    0.41620    0.09360   80.31130   79.98530   79.01760   82.21530  146.34800  141.16410    0.28800   27.39050   17.81950   14.72840    0.32180    3.12500    2.04090   27.63940    0.23190 2058.63640 2054.43430 2100.97300    0.13220    1.80140
 3307.00000   11.84590    9.72270   11.90580   22.33850    0.39320    0.09570   84.49110   82.69070   81.97450   84.22420  150.05380  144.88610    0.29990   27.37720   14.86980   12.15250    0.21750    3.19220    2.06330   28.04420    0.25950 2061.36560 2094.72540 2121.19990    0.14580    1.77490
 3307.50000   11.84590    9.66430   11.96280   23.66590    0.37920    0.09750   88.67090   84.37810   83.10360   85.06000  153.75970  148.60810    0.33030   29.39370   11.92010    7.75560    0.52080    3.16060    2.09130   31.76460    0.28710 2061.36560 2118.90000 2146.48350    0.16290    1.78290
 3308.00000   11.78940    9.51710   11.97560   24.46680    0.37850    0.09750   89.86760   84.53840   82.83480   85.14030  153.75970  152.33010    0.35470   30.18630    8.97040    5.76980    0.45090    3.08160    2.09780   34.54650    0.29830 2061.36560 2151.26990 2171.76710    0.17990    1.81620
 3308.50000   11.50670    9.41600   11.92240   24.92400    0.38050    0.09590   88.86560   84.63460   82.83480   85.22070  149.97600  155.50930    0.36930   30.88260    7.20070    5.40640    0.43210    3.00260    2.09880   33.56810    0.29550 2061.36560 2179.16320 2186.93720    0.18450    1.84290
 3309.00000   11.22410    9.34450   11.80600   25.39540    0.37360    0.09300   86.06000   84.79490   82.83480   85.28500  144.09850  156.92050    0.36320   30.73570    7.44790    5.63440    0.95360    2.92730    2.10670   34.32320    0.28140 2061.36560 2175.33590 2173.71190    0.17540    1.85370
 3309.50000   10.94140    9.26650   11.51920   25.68200    0.36440    0.08880   83.25440   82.16970   82.02830   83.61340  138.22090  153.35090    0.34060   31.04920    8.02010    5.91950    1.04760    2.85770    2.14110   35.57740    0.25750 2056.33770 2151.82100 2151.66970    0.16370    1.84880
 3310.00000   10.70870    9.07700   11.08770   23.45160    0.35030    0.08250   80.28840   79.54440   79.07220   79.75580  137.64480  146.44290    0.31800   31.36270   13.68890    9.00830    0.54280    2.84370    2.17550   35.46200    0.21710 2013.06420 2128.30600 2129.62750    0.13860    1.83670
 3310.50000   10.50910    8.78410   10.43930   23.18170    0.32750    0.07390   77.28240   76.91920   75.04210   76.59990  139.10080  139.53480    0.29990   31.82360   21.95750   13.90480   24.24220    2.84380    2.20990   34.10440    0.19500 1991.02840 2118.90000 2143.69970    0.10630    1.84250
 3311.00000   10.42930    8.49110   10.21980   25.61180    0.30860    0.06540   74.27640   74.29390   71.54990   73.61940  138.38450  136.77400    0.17210   33.17040   30.22610   18.80130   15.50130    2.82990    2.21090   37.13690    0.18650 1983.15090 2131.94740 2166.89610    0.10490    1.87320
 3311.50000   10.42930    8.18500   10.16990   28.04200    0.32300    0.05690   74.19630   71.75550   69.53590   71.51870  136.27230  136.78450    0.13620   33.69350   34.63760   23.69780    4.57520    2.80210    2.21090   40.16940    0.18760 1976.84900 2149.95090 2190.09250    0.10340    1.91670
