~Version ---------------------------------------------------
VERS.   2.0 : CWLS log ASCII Standard -VERSION 2.0
WRAP.    NO : One line per depth step
DLM . SPACE : Column Data Section Delimiter
~Well ------------------------------------------------------
STRT .FT                  72.0 : START DEPTH
STOP .FT                5114.0 : STOP DEPTH
STEP .FT                   0.5 : STEP
NULL .                -9999.25 : NULL VALUE
COMP .                         : COMPANY
WELL .                         : WELL
FLD  .                         : FIELD
LOC  .                         : LOCATION
PROV .                         : PROVINCE
CNTY .                         : COUNTY
STAT .                         : STATE
CTRY .                         : COUNTRY
SRVC .                         : SERVICE COMPANY
DATE .                         : DATE
UWI  .                         : UNIQUE WELL ID
API  .                         : API NUMBER
SLAT .WGS84 3.1859088553595996 : SURFACE LATITUDE
SLON .WGS84  6.767986511777991 : SURFACE LONGITUDE
DATUM.F                3150.12 : DEPTH DATUM ELEV
~Curve Information -----------------------------------------
DEPT   .FT    : 
CAL1R  .IN    : CALIPER 1 FROM RESISTIVITY LOG
CALD   .IN    : CALIPER FROM DENSITY LOG
CALSR  .IN    : MICRO RESISTIVITY CALIPER FROM RESISTIVITY
CGRD   .GAPI  : CORRECTED GAMMA RAY FROM DENSITY LOG
DPHI_LS.DEC   : DENSITY POROSITY LIMESTONE
DRHO   .G/C3  : BULK DENSITY CORRECTION
DT     .US/F  : DELTA-T (INTERVAL TRANSIT TIME)
DTCO   .US/F  : DELTA-T COMPRESSIONAL
DTCO_1 .US/F  : DELTA-T COMPRESSIONAL
DTRP   .US/F  : DELTA-T COMPRESSIONAL, RECEIVER ARRAY - MONOPOLE P & S
DTRS   .US/F  : DELTA-T SHEAR, RECEIVER ARRAY - MONOPOLE P & S
DTSM   .US/F  : DELTA-T SHEAR
ENPH_LS.DEC   : EPITHERMAL NEUTRON POROSITY (LIMESTONE)
GRR    .GAPI  : GAMMA RAY FROM RESISTIVITY LOG
LLD    .OHMM  : LATEROLOG DEEP RESISTIVITY
LLS    .OHMM  : LATEROLOG SHALLOW RESISTIVITY
MSFL   .OHMM  : MICRO SPHERICALLY FOCUSED RESISTIVITY
PEF    .B/E   : PHOTOELECTRIC FACTOR
RHOB   .G/C3  : BULK DENSITY
SGRDD  .GAPI  : SPECTROSCOPY GAMMA RAY FROM DENSITY LOG
SPHI_LS.DEC   : SONIC POROSITY [LIMESTONE]
TEND   .LB    : TENSION FROM DENSITY LOG
TENR   .LB    : TENSION FROM RESISTIVITY LOG
TENS   .N/A   : TENSION FROM SONIC LOG
TNPH_LS.DEC   : THERMAL NEUTRON POROSITY [LIMESTONE]
VPVS   .VPVS  : COMPRESSIONAL TO SHEAR VELOCITY RATIO
~Params ----------------------------------------------------
~Other -----------------------------------------------------
~ASCII -----------------------------------------------------
# ...
 3622.50000   12.78370   10.05510   12.80610   26.92660    0.38920    0.04570   75.37050   76.07830   73.99690   76.12480  140.80200  141.75080    0.19170   25.10810   23.38930   13.97520    0.76920    3.10850    1.98090   36.74430    0.20250 2042.82000 2150.83910 2165.89990    0.09460    1.87250
 3623.00000   12.67140    9.72230   12.64400   30.02830    0.36260    0.03240   76.17210   76.52370   75.14690   77.02960  142.83880  143.69780    0.16090   26.83550   24.64450   15.78390    3.65120    3.10850    1.99950   39.19190    0.20390 2029.79420 2190.74330 2230.22500    0.10160    1.87430
 3623.50000   12.58410    9.38940   12.48190   33.12990    0.35120    0.01900   76.73320   76.70180   75.73160   77.38710  144.87550  144.08290    0.15970   28.20230   23.04620   15.55480   15.62900    3.06670    2.11300   43.52770    0.20660 2029.79420 2212.02540 2261.82480    0.10850    1.87600
 3624.00000   12.58410    9.05660   12.36470   36.23160    0.33460    0.01810   78.55020   76.94230   75.91300   77.73750  145.90540  144.05870    0.16960   30.56070   19.48570   14.94020   29.30130    3.03880    2.15920   47.07280    0.22100 2029.79420 2174.78150 2162.52300    0.12120    1.87780
 3624.50000   12.58410    9.00390   12.34470   36.75860    0.31910    0.01810   80.36720   77.34310   76.19430   77.87270  146.47800  144.84500    0.18610   32.92830   15.92520   12.06400    3.94630    3.03880    2.20540   49.23740    0.23170 2038.19790 2128.22670 2133.65130    0.14240    1.87960
 3625.00000   12.65120    9.00390   12.34470   37.15380    0.31110    0.01900   82.18420   78.96540   77.08030   78.98770  147.06480  147.74760    0.20850   35.61450   12.36470    9.27860    2.96550    3.03880    2.20740   49.58470    0.25320 2048.70260 2118.91570 2151.73290    0.16480    1.88140
 3625.50000   12.71900    9.06980   12.34970   37.28560    0.31440    0.02390   87.19420   80.58770   79.07620   80.62660  149.92280  150.65020    0.25460   37.63960    9.83460    7.22750    2.61320    3.03880    2.18810   49.65090    0.28020 2059.20740 2130.88700 2169.81450    0.19210    1.88310
 3626.00000   12.78690    9.31540   12.36220   37.02210    0.33470    0.03190   92.20430   82.21000   81.07210   82.26560  153.17340  153.55290    0.30060   36.92810    7.30440    5.66570    2.35050    3.02490    2.13990   47.23280    0.29690 2069.71210 2150.83910 2187.89600    0.20840    1.88350
 3626.50000   12.85470    9.54790   12.42450   30.25150    0.36280    0.05180   94.20830   83.83230   82.46520   83.42920  156.42390  156.65710    0.32620   36.48200    6.71590    5.10290    2.28490    3.01100    2.09160   38.53720    0.33190 2080.21680 2153.49940 2191.16200    0.20730    1.88270
 3627.00000   12.92250    9.78040   12.54090   23.48100    0.41060    0.07170   89.23830   84.07660   82.31070   84.46510  158.15270  157.04220    0.32090   34.41730    6.88190    5.69740    2.22470    3.01100    2.04340   30.23690    0.30930 2090.72150 2126.89660 2161.41690    0.17100    1.87750
 3627.50000   13.00310   10.08540   13.00980   16.71040    0.44530    0.08790   83.22630   81.12670   80.81000   84.51540  158.23840  150.83770    0.30670   28.13240    8.57690    6.51870    1.37210    3.01100    1.99520   19.57300    0.24600 2082.41130 2100.29380 2112.81520    0.13470    1.86470
 3628.00000   13.51860   10.43880   13.54180   11.98930    0.46540    0.10160   77.52590   78.17680   77.32430   80.99460  153.56060  138.89000    0.22110   20.51600   22.11550    8.47050    1.37630    3.01100    1.95020   14.31630    0.21450 2061.55790 2079.01150 2102.50950    0.09830    1.81620
 3628.50000   14.03400   10.66390   14.07390   11.19880    0.47370    0.11620   73.47330   75.22690   73.47360   76.80670  142.05900  126.94230    0.17030   13.86670   54.05940   10.42230    2.63960    3.03880    1.94590   10.84810    0.18490 2058.02890 2118.91570 2125.84720    0.07680    1.76550
 3629.00000   14.54940   10.66410   14.53950   10.54010    0.46950    0.11620   70.98450   72.27690   69.62290   73.23320  131.29980  126.11370    0.13540    9.67670  485.14630   48.01140    3.08620    3.10850    1.94640    9.28830    0.17290 2066.04940 2218.67630 2185.65150    0.05900    1.78880
 3629.50000   14.85870   10.64250   14.42420    9.88130    0.46250    0.11520   70.84140   69.24680   68.63300   72.11720  128.71320  127.50480    0.10040    8.44720 1016.01890   85.60060    1.52980    3.19280    1.95810    8.54540    0.14940 2074.06990 2278.53260 2245.45590    0.04110    1.81790
 3630.00000   14.89840   10.75590   14.28010    9.22250    0.45060    0.11050   70.36040   68.44550   68.82660   71.54220  129.22950  127.48670    0.10300    7.84160 1546.89150  147.28680    1.30710    3.33570    1.97260    7.94190    0.14720 2082.09050 2234.02160 2249.89760    0.02330    1.81750
 3630.50000   14.93770   10.93570   14.98570    8.56380    0.44200    0.10580   69.95970   69.05240   68.68180   71.61850  128.26340  126.47860    0.11790    7.12970 1971.46870  189.28760    1.60110    3.47850    1.98710    7.33840    0.15100 2090.11100 2159.83650 2214.64240    0.01180    1.81700
 3631.00000   15.17840   11.08610   15.69140    7.90500    0.43890    0.10110   69.55890   69.32720   67.69820   70.51980  126.12060  124.79860    0.12990    5.63660 10436.38510  220.31990    2.29020    3.62140    2.00150    7.10010    0.15540 2094.92340 2085.65140 2179.38730    0.01100    1.81780
 3631.50000   15.42970   11.25550   16.14330    7.37800    0.43700    0.09920   69.15810   67.64390   66.14040   69.05880  124.27780  122.44650    0.12990    4.90870 15638.55420  257.91060    4.19220    3.73570    1.99900    7.04850    0.15580 2080.00850 2028.21540 2165.39830    0.01660    1.81920
 3632.00000   15.68100   11.41030   16.25230    7.24630    0.43470    0.09920   68.75740   66.84230   64.58250   67.89000  124.58440  123.05130    0.11190    4.84130 14839.11890  299.83630    8.49090    3.74960    2.00310    6.96780    0.15130 2065.09360 2076.49540 2172.56230    0.02220    1.85150
 3632.50000   15.83140   11.56140   16.01940    7.11450    0.43240    0.09920   68.35660   68.08470   65.59050   68.66140  125.47450  124.49140    0.08950    5.17160 12842.65700  341.76200    8.46840    3.58590    2.00730    6.78450    0.14690 2056.14460 2122.88280 2172.56230    0.02590    1.85370
 3633.00000   15.87030   11.65210   16.01590    7.11450    0.43150    0.09920   68.27640   70.12880   67.60660   69.94710  126.36460  125.06740    0.07570    5.13370 11245.48750  356.71500   10.44260    3.38120    2.01150    6.60120    0.14510 2064.46580 2123.20490 2172.56230    0.02630    1.81270
 3633.50000   15.40740   11.63890   15.61980    7.50980    0.43760    0.09920   68.21630   70.44950   68.88340   71.23280  126.84920  124.05940    0.07790    4.83350 13345.45820  336.84770   10.72640    3.17650    2.01570    6.91690    0.14560 2074.86720 2123.20490 2172.56230    0.02500    1.78040
 3634.00000   14.94460   11.59940   15.22370    8.38080    0.44250    0.09750   68.35660   71.10760   69.21940   71.74710  126.09920  122.88330    0.08900    4.83010 18252.19070  289.82930    4.90770    3.06670    2.01040    9.48670    0.15060 2085.26860 2125.35490 2172.56230    0.02260    1.74810
 3634.50000   14.48180   11.52030   14.82760   10.10090    0.43570    0.08210   70.14020   73.19580   71.41080   73.01440  125.34920  121.45530    0.10470    5.73070 15300.32010  211.93400    2.82570    3.03880    2.00520   13.86920    0.15540 2095.67000 2133.29420 2172.56230    0.02160    1.69020
 3635.00000   14.01900   11.18070   14.38940   11.82100    0.42020    0.06770   73.44680   76.23110   75.31150   76.77960  124.79210  120.02720    0.12720    7.27260 8745.97040  140.16630    1.81970    3.02490    2.00000   21.82640    0.18070 2065.72640 2146.16810 2172.56230    0.02200    1.59930
 3635.50000   13.55620   10.59510   13.88310   13.54110    0.39260    0.05330   76.75340   80.68690   79.21210   80.54490  127.96340  128.32190    0.15720   12.84730 2191.62060   72.48350    0.86500    3.02490    2.04990   30.23270    0.20980 2035.78290 2154.21450 2172.56230    0.07230    1.57700
