~Version ---------------------------------------------------
VERS.   2.0 : CWLS log ASCII Standard -VERSION 2.0
WRAP.    NO : One line per depth step
DLM . SPACE : Column Data Section Delimiter
~Well ------------------------------------------------------
STRT .FT                  72.0 : START DEPTH
STOP .FT                5114.0 : STOP DEPTH
STEP .FT                   0.5 : STEP
NULL .                -9999.25 : NULL VALUE
COMP .                         : COMPANY
WELL .                         : WELL
FLD  .                         : FIELD
LOC  .                         : LOCATION
PROV .                         : PROVINCE
CNTY .                         : COUNTY
STAT .                         : STATE
CTRY .                         : COUNTRY
SRVC .                         : SERVICE COMPANY
DATE .                         : DATE
UWI  .                         : UNIQUE WELL ID
API  .                         : API NUMBER
SLAT .WGS84 3.1859088553595996 : SURFACE LATITUDE
SLON .WGS84  6.767986511777991 : SURFACE LONGITUDE
DATUM.F                3150.12 : DEPTH DATUM ELEV
~Curve Information -----------------------------------------
DEPT   .FT    : 
CAL1R  .IN    : CALIPER 1 FROM RESISTIVITY LOG
CALD   .IN    : CALIPER FROM DENSITY LOG
CALSR  .IN    : MICRO RESISTIVITY CALIPER FROM RESISTIVITY
CGRD   .GAPI  : CORRECTED GAMMA RAY FROM DENSITY LOG
DPHI_LS.DEC   : DENSITY POROSITY LIMESTONE
DRHO   .G/C3  : BULK DENSITY CORRECTION
DT     .US/F  : DELTA-T (INTERVAL TRANSIT TIME)
DTCO   .US/F  : DELTA-T COMPRESSIONAL
DTCO_1 .US/F  : DELTA-T COMPRESSIONAL
DTRP   .US/F  : DELTA-T COMPRESSIONAL, RECEIVER ARRAY - MONOPOLE P & S
DTRS   .US/F  : DELTA-T SHEAR, RECEIVER ARRAY - MONOPOLE P & S
DTSM   .US/F  : DELTA-T SHEAR
ENPH_LS.DEC   : EPITHERMAL NEUTRON POROSITY (LIMESTONE)
GRR    .GAPI  : GAMMA RAY FROM RESISTIVITY LOG
LLD    .OHMM  : LATEROLOG DEEP RESISTIVITY
LLS    .OHMM  : LATEROLOG SHALLOW RESISTIVITY
MSFL   .OHMM  : MICRO SPHERICALLY FOCUSED RESISTIVITY
PEF    .B/E   : PHOTOELECTRIC FACTOR
RHOB   .G/C3  : BULK DENSITY
SGRDD  .GAPI  : SPECTROSCOPY GAMMA RAY FROM DENSITY LOG
SPHI_LS.DEC   : SONIC POROSITY [LIMESTONE]
TEND   .LB    : TENSION FROM DENSITY LOG
TENR   .LB    : TENSION FROM RESISTIVITY LOG
TENS   .N/A   : TENSION FROM SONIC LOG
TNPH_LS.DEC   : THERMAL NEUTRON POROSITY [LIMESTONE]
VPVS   .VPVS  : COMPRESSIONAL TO SHEAR VELOCITY RATIO
~Params ----------------------------------------------------
~Other -----------------------------------------------------
~ASCII -----------------------------------------------------
# ...
 3784.50000    9.31210    6.98810    9.26800    7.50980   -0.09980    0.01890   53.99660   54.99860   52.28450   55.67840  102.42750   98.53600    0.00580    3.51780 1596.53030 1912.99460 1936.50160    4.85170    2.83470    3.82070    0.04040 2131.61880 2218.53670 2226.88520   -0.00270    1.81640
 3785.00000    9.31210    7.00130    9.28370    7.24630   -0.07800    0.01280   54.27720   51.39140   52.48610   55.29290   98.78490   95.83450    0.00580    2.84740 8249.90220 3266.37620 1936.50160    4.83760    2.84280    3.95250    0.03090 2154.20470 2207.45210 2227.72090    0.00090    1.77760
 3785.50000    9.35560    7.01440    9.29950    7.11450   -0.08290    0.01250   55.47960   52.56710   53.78220   56.57890   98.18550   96.94330    0.00620    3.17810 12696.58720 4437.26790 1936.50160    4.76770    2.85630    3.95250    0.02980 2173.96740 2185.53700 2228.55670    0.00560    1.73230
 3786.00000    9.37370    7.02760    9.31520    7.37800   -0.08910    0.01100   56.52170   53.83630   54.50220   57.35050   98.88750   97.85050    0.00740    3.71070 17143.27220 5139.80290 1038.17080    4.54450    2.85730    3.68900    0.04220 2130.65400 2191.82990 2229.39240    0.01030    1.74860
 3786.50000    9.39190    7.05400    9.33100    8.03680   -0.09310    0.01150   55.05200   54.52910   53.89740   56.32230   99.41410   97.85050    0.00820    4.08260 13388.91720 3491.93850 1599.62760    4.30040    2.85730    4.21600    0.04830 2076.51240 2210.90620 2230.22810    0.01420    1.77930
 3787.00000    9.41000    7.10670    9.34670    8.82730   -0.07290    0.01210   54.75810   54.18560   52.48610   55.42250   99.86060   97.44730    0.00940    5.11400 7131.65890 2173.64700 1929.76480    3.79750    2.75080    5.27000    0.04570 2011.91300 2214.54630 2231.06380    0.01750    1.80990
 3787.50000    9.42810    7.15940    9.36250   12.40010   -0.02220    0.01140   55.71140   54.27720   54.05060   56.70210  101.72570   99.19460    0.04180    7.26800 2125.85220 1685.41540 1901.39230    3.14650    2.61000   12.77980    0.05420 2063.79030 2204.57020 2231.89960    0.02020    1.81280
 3788.00000    9.49160    7.23350    9.41180   19.68520    0.03220    0.00900   61.00190   57.97340   56.99400   59.25760  106.54790  103.89870    0.07420   12.10900  543.74840  605.66560 1878.28490    2.87250    2.50120   21.01430    0.08970 2094.91660 2189.37560 2232.73530    0.03980    1.81860
 3788.50000    9.62460    7.34070    9.57460   26.97020    0.10160    0.00650   65.33060   61.26890   59.93750   61.81320  111.57540  113.04860    0.10660   22.04740   15.20250  118.58200  942.50040    2.90030    2.44370   37.59300    0.13230 2094.91660 2166.35350 2220.16700    0.07090    1.84190
 3789.00000    9.76600    7.44790    9.83180   34.25530    0.17090    0.00750   71.19690   64.56440   62.88090   64.36870  119.00020  122.19840    0.13910   37.21130   11.32560   26.60910    6.71590    3.01100    2.40560   48.56680    0.17960 2094.91660 2143.33130 2204.24760    0.10190    1.89400
 3789.50000    9.90730    7.55510   10.08910   35.30930    0.19890    0.00850   77.06320   67.30890   65.82440   66.92420  126.65240  130.10630    0.17070   43.90270    9.33790    7.68110    3.85370    3.02480    2.39680   52.07620    0.21500 2094.91660 2138.72690 2188.32820    0.13250    1.96510
 3790.00000   10.04860    7.66230   10.34640   35.96860    0.19650    0.00850   77.45670   69.22710   68.40980   69.47980  135.21390  136.15150    0.17260   47.43090    9.66400    7.91590    6.35700    3.02460    2.39620   54.91900    0.20260 2094.91660 2138.72690 2175.59270    0.14610    1.96730
 3790.50000   10.18990    7.76940   10.47280   35.96300    0.19400    0.00850   75.88990   71.14520   70.19160   72.03530  140.52380  139.96610    0.17380   49.81380    9.60910    8.38530    5.54760    2.97880    2.39550   56.95330    0.19450 2094.99710 2138.72690 2175.59270    0.15550    1.96100
 3791.00000   10.18990    7.84290   10.49040   35.50090    0.19160    0.01000   75.81310   72.36670   71.16340   73.12210  140.20070  138.72580    0.17620   50.45230    9.22400    8.37280    5.47260    2.94380    2.39490   56.07600    0.20820 2172.43740 2138.72690 2174.00340    0.16530    1.92360
 3791.50000   10.18990    7.88170   10.50800   34.73460    0.19130    0.01370   77.97130   73.14790   72.33310   73.59940  138.14150  134.92300    0.19290   52.20810    8.83880    7.87200    4.00810    2.92980    2.39490   55.19350    0.22190 2249.87780 2138.72690 2181.24590    0.16760    1.86900
 3792.00000   10.18990    7.89400   10.52560   33.96840    0.19380    0.01550   80.12940   74.63320   73.30850   75.25560  136.08230  132.10600    0.20960   54.86840    8.04460    7.45830    3.58160    3.01320    2.39530   55.75910    0.23550 2219.57040 2143.84030 2193.88930    0.16760    1.80160
 3792.50000   10.18990    7.85370   10.51450   33.70410    0.19500    0.01830   81.14270   76.11850   74.28020   76.78320  133.38590  130.77380    0.22620   57.52860    7.05200    7.00110    4.40090    3.15240    2.40140   56.50250    0.23860 2165.94420 2152.15360 2206.53280    0.16760    1.73420
 3793.00000   10.16990    7.80280   10.44130   32.11800    0.19400    0.02110   81.57770   77.60380   75.25200   78.13550  130.37510  129.76320    0.21440   57.39560    6.71590    6.63530    3.96040    3.26370    2.43010   55.35660    0.24050 2091.04330 2163.79230 2215.74960    0.16530    1.66850
 3793.50000   10.11010    7.76930   10.36810   30.25170    0.17210    0.02990   82.01270   79.08920   77.23680   79.41050  127.36420  125.72690    0.19470   54.51370    7.13190    6.47530    3.51990    3.26350    2.45880   51.32310    0.24420 2066.53700 2188.73250 2219.82640    0.16530    1.60750
 3794.00000   10.05020    7.77380   10.31630   29.19430    0.15050    0.03240   83.78920   80.57450   79.23110   80.51810  125.29000  122.05140    0.18640   51.07750    6.93670    6.16550    9.08670    3.23550    2.47030   50.42980    0.25560 2064.26400 2192.22390 2223.90320    0.16950    1.54650
 3794.50000   10.05020    7.78570   10.34950   31.22900    0.15410    0.03100   85.37070   82.05980   81.22540   81.62570  123.57860  122.63200    0.18600   47.64130    5.26760    5.20440   20.45850    3.20750    2.44640   53.25780    0.26690 2076.81330 2198.70860 2227.98000    0.17480    1.51460
 3795.00000   10.17590    7.86360   10.38280   34.40530    0.17580    0.02260   85.37070   82.65390   81.11760   82.73330  123.82120  125.56390    0.24450   44.89230    4.07720    4.24330   11.66900    3.19340    2.42250   55.97740    0.26960 2089.36250 2198.70860 2232.05680    0.18000    1.52290
 3795.50000   10.28300    7.89140   10.41600   35.35460    0.19320    0.01620   84.73830   82.75410   79.95020   82.95480  134.62720  127.52300    0.23930   46.02960    3.80700    3.43220    1.06960    3.19320    2.39860   55.96500    0.26430 2096.89200 2215.70160 2236.13360    0.18920    1.56920
 3796.00000   10.39020    7.91920   10.44930   34.52830    0.18550    0.01450   84.08510   82.73410   81.13010   82.78130  132.06180  128.00280    0.21330   47.92500    3.83030    3.37000    3.86260    3.23490    2.41270   55.00610    0.25950 2096.89200 2220.63360 2240.21040    0.19020    1.56660
 3796.50000   10.49730    7.94700   10.48250   34.12000    0.16700    0.01280   83.43200   82.33330   80.89690   83.07160  128.85350  126.76890    0.20190   49.82050    3.92500    3.38470    4.50710    3.23470    2.42690   54.33350    0.25460 2097.36610 2225.56560 2244.28720    0.19020    1.55070
 3797.00000   10.60450    7.97480   10.51580   33.71210    0.16280    0.01110   82.77880   81.53170   79.49810   82.45360  124.50900  121.18470    0.20030   51.71590    4.14380    3.43220    2.59500    3.15100    2.44100   53.50250    0.25020 2137.08900 2237.72770 2248.36400    0.18920    1.56600
 3797.50000   10.70870    8.02480   10.54900   32.51170    0.16640    0.00970   82.12570   79.58490   78.20160   81.09820  118.19280  114.96660    0.19150   52.67360    4.30130    3.66300    1.78600    3.08130    2.44770   51.37410    0.24260 2176.81180 2236.62120 2249.76590    0.18690    1.58500
