~Version ---------------------------------------------------
VERS.   2.0 : CWLS log ASCII Standard -VERSION 2.0
WRAP.    NO : One line per depth step
DLM . SPACE : Column Data Section Delimiter
~Well ------------------------------------------------------
STRT .FT                  72.0 : START DEPTH
STOP .FT                5114.0 : STOP DEPTH
STEP .FT                   0.5 : STEP
NULL .                -9999.25 : NULL VALUE
COMP .                         : COMPANY
WELL .                         : WELL
FLD  .                         : FIELD
LOC  .                         : LOCATION
PROV .                         : PROVINCE
CNTY .                         : COUNTY
STAT .                         : STATE
CTRY .                         : COUNTRY
SRVC .                         : SERVICE COMPANY
DATE .                         : DATE
UWI  .                         : UNIQUE WELL ID
API  .                         : API NUMBER
SLAT .WGS84 3.1859088553595996 : SURFACE LATITUDE
SLON .WGS84  6.767986511777991 : SURFACE LONGITUDE
DATUM.F                3150.12 : DEPTH DATUM ELEV
~Curve Information -----------------------------------------
DEPT   .FT    : 
CAL1R  .IN    : CALIPER 1 FROM RESISTIVITY LOG
CALD   .IN    : CALIPER FROM DENSITY LOG
CALSR  .IN    : MICRO RESISTIVITY CALIPER FROM RESISTIVITY
CGRD   .GAPI  : CORRECTED GAMMA RAY FROM DENSITY LOG
DPHI_LS.DEC   : DENSITY POROSITY LIMESTONE
DRHO   .G/C3  : BULK DENSITY CORRECTION
DT     .US/F  : DELTA-T (INTERVAL TRANSIT TIME)
DTCO   .US/F  : DELTA-T COMPRESSIONAL
DTCO_1 .US/F  : DELTA-T COMPRESSIONAL
DTRP   .US/F  : DELTA-T COMPRESSIONAL, RECEIVER ARRAY - MONOPOLE P & S
DTRS   .US/F  : DELTA-T SHEAR, RECEIVER ARRAY - MONOPOLE P & S
DTSM   .US/F  : DELTA-T SHEAR
ENPH_LS.DEC   : EPITHERMAL NEUTRON POROSITY (LIMESTONE)
GRR    .GAPI  : GAMMA RAY FROM RESISTIVITY LOG
LLD    .OHMM  : LATEROLOG DEEP RESISTIVITY
LLS    .OHMM  : LATEROLOG SHALLOW RESISTIVITY
MSFL   .OHMM  : MICRO SPHERICALLY FOCUSED RESISTIVITY
PEF    .B/E   : PHOTOELECTRIC FACTOR
RHOB   .G/C3  : BULK DENSITY
SGRDD  .GAPI  : SPECTROSCOPY GAMMA RAY FROM DENSITY LOG
SPHI_LS.DEC   : SONIC POROSITY [LIMESTONE]
TEND   .LB    : TENSION FROM DENSITY LOG
TENR   .LB    : TENSION FROM RESISTIVITY LOG
TENS   .N/A   : TENSION FROM SONIC LOG
TNPH_LS.DEC   : THERMAL NEUTRON POROSITY [LIMESTONE]
VPVS   .VPVS  : COMPRESSIONAL TO SHEAR VELOCITY RATIO
~Params ----------------------------------------------------
~Other -----------------------------------------------------
~ASCII -----------------------------------------------------
# ...
 2988.00000    9.56860    8.41790    9.95950   32.54190    0.29110    0.02280  100.01900  130.09520  131.75910  131.67870  140.07180  140.78490    0.22900   48.40910    5.90970    3.92360    0.20920    2.43760    2.10920   55.73910    0.30120 1928.34060 2118.85300 2158.23490    0.17190    1.97400
 2988.50000    9.69110    9.48510   10.82240   27.88560    0.38720    0.02190   76.17680  126.79940  124.27090  125.15130  135.98100  142.91730    0.28660   43.46260    3.85990    2.44140    0.20920    2.45020    2.01380   48.42620    0.22120 1955.02700 2118.85300 2136.74370    0.21790    1.97220
 2989.00000    9.83580   10.76110   11.13770   23.22920    0.48490    0.02100   83.29450  121.96500  116.59070  118.62390  133.53030  145.02640    0.39930   39.50540    2.94230    2.12320    0.20740    2.47140    1.97870   41.32260    0.25100 1981.71330 2088.37640 2100.92500    0.24530   -9999.25
 2989.50000    9.91060   11.27150   10.37610   19.50420    0.51180    0.02100   84.95790  110.97570  108.91050  111.19150  131.64460  145.63120    0.46560   40.79640    3.14120    2.16470    0.20570    2.56170    1.91660   38.61320    0.26500 2008.39960 2063.73390 2065.10630    0.25730   -9999.25
 2990.00000    9.31200   11.20570    9.46170   24.03910    0.44200    0.02100   83.77260   99.98650  101.23020  103.15590  129.71610  132.61080    0.44380   44.02390    4.73590    3.36430    0.53950    2.75560    1.91720   43.85450    0.26010 1975.68070 2039.09140 2029.28760    0.25730   -9999.25
 2990.50000    9.23620    9.86960    8.91300   34.65150    0.35480    0.02080   86.69840   93.27750   93.20430   95.40500  121.87350  119.59040    0.39230   47.25140    6.52570    4.78860    1.90450    2.94940    1.98200   52.15050    0.27110 1984.22600 2065.69450 2072.29100    0.24920   -9999.25
 2991.00000    9.21220    8.53340    8.72840   35.31070    0.29780    0.01990   92.22950   88.07850   86.33050   88.79280  116.73070  112.99470    0.34080   50.47890    7.95750    7.42600    2.64160    3.14320    2.39250   55.99640    0.30020 1992.77140 2087.86320 2115.29440    0.23200   -9999.25
 2991.50000    9.21890    8.17400    8.79400   35.83820    0.19470    0.01850   96.43800   86.65480   85.52410   87.34180  113.76430  111.03800    0.29960   52.07260    7.63410    8.06590    4.74070    3.14300    2.39380   54.89930    0.34480 2001.31670 2091.43640 2158.29780    0.21480   -9999.25
 2992.00000    9.28540    8.16090    8.85310   36.23410    0.19490    0.01610   92.26960   87.09970   85.52410   87.56680  111.05520  109.08120    0.17240   53.56590    6.94650    6.96730    3.51460    3.14270    2.39380   55.07570    0.32780 2016.10370 2087.13330 2129.64310    0.19760   -9999.25
 2992.50000    9.31200    8.16090    8.92850   38.36560    0.19870    0.01380   92.40320   88.52250   85.79280   88.61760  108.75930  107.12440    0.17590   56.56430    6.25880    5.96650    2.12260    3.10890    2.38510   58.90120    0.31750 2016.00540 2082.83030 2100.98840    0.19770   -9999.25
 2993.00000    9.31630    8.18730    8.97000   41.04670    0.21110    0.01140   92.38990   89.94540   87.94330   90.49670  110.65110  106.51960    0.19360   61.36330    5.57110    4.96570    2.01410    3.07510    2.36520   61.13490    0.31310 2006.48950 2078.52730 2072.33370    0.20050   -9999.25
 2993.50000    9.32340    8.20930    8.99800   43.31090    0.22350    0.00900   90.84010   91.36820   90.63150   92.37580  115.05920  111.12780    0.21130   64.57960    4.85380    3.96490    2.86370    3.04120    2.34520   63.69490    0.30390 1996.97360 2074.22420 2077.10960    0.20320   -9999.25
 2994.00000    9.33050    8.23130    9.04100   44.92110    0.23590    0.00660   90.92690   92.74700   92.51310   92.99890  115.70210  113.97910    0.22900   66.06150    4.76570    2.96410    2.65430    3.00740    2.32530   65.65580    0.31270 1989.34710 2063.11700 2081.88540    0.20590   -9999.25
 2994.50000    9.35590    8.24010    9.08390   44.94290    0.25440    0.00420   91.26760   92.66680   91.43780   91.09450  115.57350  114.18070    0.24660   64.74470    5.30610    2.98230    2.30540    2.97360    2.30530   64.28660    0.30610 1989.22100 2068.67280 2086.66130    0.20710   -9999.25
 2995.00000    9.41580    8.26650    9.14240   42.72490    0.28190    0.00280   85.09520   89.55130   83.82160   83.50080  109.32030  109.14050    0.26120   57.76140    8.16190    4.77230    2.07930    2.91190    2.14930   60.53400    0.26330 1989.12330 2071.80280 2091.43710    0.20590   -9999.25
 2995.50000    9.47560    8.33240    9.24720   39.55610    0.29840    0.00280   72.55000   83.80610   75.30940   75.90710   96.58010   96.03610    0.26040   50.37910   18.73610    6.98690    2.66470    2.83240    1.99720   53.91200    0.19560 1950.25210 2071.29420 2096.21300    0.18530   -9999.25
 2996.00000    9.64120    8.84100    9.35190   32.16560    0.46880    0.00280   65.71060   74.78150   66.79710   68.31340   86.13080   82.73010    0.25060   37.80570   83.47970   27.81730    1.43440    2.75290    1.97770   43.98210    0.12790 1869.44470 2070.78570 2100.98880    0.16100   -9999.25
 2996.50000    9.91560    9.58310    9.78390   23.68670    0.55800    0.01570   60.86080   67.56190   64.55700   70.82050   98.69120   93.38640    0.22700   27.13490  229.09370   77.55800    0.20410    2.67330    1.87530   27.75630    0.10490 1836.38890 2070.27710 2098.38380    0.11800   -9999.25
 2997.00000   10.18990   10.35580   10.29900   16.17260    0.59140    0.02870   60.89090   74.95960   74.77180   76.76690  111.25150  106.70680    0.19660   12.66960  374.70760  135.33750    0.20410    2.60960    1.77290   17.88990    0.09600 1932.34510 2069.76850 2095.12750    0.06240   -9999.25
 2997.50000   10.16990   10.69130   10.20290   10.28060    0.60300    0.03220   61.11470   77.07810   76.11570   78.02040  122.36940  120.02720    0.13850    8.28010  520.32160  205.17540    0.20410    2.66870    1.73200   10.48390    0.09640 2086.54590 2069.25990 2091.87130    0.03480    1.58640
 2998.00000    9.32090   10.33400    9.36260    9.88350    0.56020    0.03210   61.22160   76.74810   75.84700   76.94900  131.00200  124.54320    0.08040    5.58660  736.70490  376.91110    1.79820    2.96490    1.73210    7.30200    0.10680 2040.37280 2068.75130 2088.61500    0.02720    1.68470
 2998.50000    8.61370    9.53920    8.61510   10.54460    0.48880    0.03210   64.54830   75.06420   75.04060   75.39540  129.05420  128.09150    0.03270    4.78850  829.64460  442.91800    9.74420    3.26110    1.73320    6.36340    0.11960 1984.22650 2068.24270 2073.63640    0.02760    1.72400
 2999.00000    8.45410    8.74450    8.18610   11.33540    0.40770    0.03210   64.58830   73.38030   72.35250   73.84190  125.80780  126.13750    0.03270    5.22560  608.59180  367.24420    0.20240    3.58690    1.83270    6.72170    0.11910 1994.01090 2017.83690 2041.07440    0.02930    1.74250
 2999.50000    8.46550    8.07800    8.04360   11.46740    0.31200    0.03390   62.87640   71.48030   69.66440   71.09520  122.56150  123.26850    0.03360    6.04530  414.79600  279.36360   11.57830    4.00790    1.99750    7.11710    0.10840 1994.46780 1981.24730 2015.02480    0.03110    1.76100
 3000.00000    8.49400    7.92440    8.01510   11.59430    0.29730    0.04330   60.46020   69.43630   66.97630   68.34850  119.31510  120.39940    0.03310    8.57800  465.40160  189.71350  170.34270    4.42890    2.51090    8.90350    0.09710 1994.92470 1997.52520 2026.33580    0.03280    1.76210
 3000.50000    8.54720    7.81540    8.15480   12.00440    0.04200    0.05280   60.62050   66.93530   64.96020   67.79910  117.88800  119.01920    0.02740   14.17640  915.02880   92.98530  918.66070    4.59720    2.63010   11.13640    0.10850 1995.38170 2018.19740 2037.64690    0.04250    1.75020
 3001.00000    8.63210    7.79440    8.29150   15.16000   -0.05430    0.06310   69.58510   68.81100   67.46640   68.31340  119.83080  119.01920    0.02450   25.85400   21.27510   13.55670  571.38470    4.18520    2.74930   16.33410    0.14140 1975.69340 2038.86970 2048.95790    0.06420    1.70520
