~Version ---------------------------------------------------
VERS.   2.0 : CWLS log ASCII Standard -VERSION 2.0
WRAP.    NO : One line per depth step
DLM . SPACE : Column Data Section Delimiter
~Well ------------------------------------------------------
STRT .FT                  72.0 : START DEPTH
STOP .FT                5114.0 : STOP DEPTH
STEP .FT                   0.5 : STEP
NULL .                -9999.25 : NULL VALUE
COMP .                         : COMPANY
WELL .                         : WELL
FLD  .                         : FIELD
LOC  .                         : LOCATION
PROV .                         : PROVINCE
CNTY .                         : COUNTY
STAT .                         : STATE
CTRY .                         : COUNTRY
SRVC .                         : SERVICE COMPANY
DATE .                         : DATE
UWI  .                         : UNIQUE WELL ID
API  .                         : API NUMBER
SLAT .WGS84 3.1859088553595996 : SURFACE LATITUDE
SLON .WGS84  6.767986511777991 : SURFACE LONGITUDE
DATUM.F                3150.12 : DEPTH DATUM ELEV
~Curve Information -----------------------------------------
DEPT   .FT    : 
CAL1R  .IN    : CALIPER 1 FROM RESISTIVITY LOG
CALD   .IN    : CALIPER FROM DENSITY LOG
CALSR  .IN    : MICRO RESISTIVITY CALIPER FROM RESISTIVITY
CGRD   .GAPI  : CORRECTED GAMMA RAY FROM DENSITY LOG
DPHI_LS.DEC   : DENSITY POROSITY LIMESTONE
DRHO   .G/C3  : BULK DENSITY CORRECTION
DT     .US/F  : DELTA-T (INTERVAL TRANSIT TIME)
DTCO   .US/F  : DELTA-T COMPRESSIONAL
DTCO_1 .US/F  : DELTA-T COMPRESSIONAL
DTRP   .US/F  : DELTA-T COMPRESSIONAL, RECEIVER ARRAY - MONOPOLE P & S
DTRS   .US/F  : DELTA-T SHEAR, RECEIVER ARRAY - MONOPOLE P & S
DTSM   .US/F  : DELTA-T SHEAR
ENPH_LS.DEC   : EPITHERMAL NEUTRON POROSITY (LIMESTONE)
GRR    .GAPI  : GAMMA RAY FROM RESISTIVITY LOG
LLD    .OHMM  : LATEROLOG DEEP RESISTIVITY
LLS    .OHMM  : LATEROLOG SHALLOW RESISTIVITY
MSFL   .OHMM  : MICRO SPHERICALLY FOCUSED RESISTIVITY
PEF    .B/E   : PHOTOELECTRIC FACTOR
RHOB   .G/C3  : BULK DENSITY
SGRDD  .GAPI  : SPECTROSCOPY GAMMA RAY FROM DENSITY LOG
SPHI_LS.DEC   : SONIC POROSITY [LIMESTONE]
TEND   .LB    : TENSION FROM DENSITY LOG
TENR   .LB    : TENSION FROM RESISTIVITY LOG
TENS   .N/A   : TENSION FROM SONIC LOG
TNPH_LS.DEC   : THERMAL NEUTRON POROSITY [LIMESTONE]
VPVS   .VPVS  : COMPRESSIONAL TO SHEAR VELOCITY RATIO
~Params ----------------------------------------------------
~Other -----------------------------------------------------
~ASCII -----------------------------------------------------
# ...
 4432.50000    9.33200   10.13920    9.10190   34.32630    0.10210    0.01840   67.63330   64.64070   63.26390   64.76720  117.35150  117.15710    0.06550   45.59060   69.60780   47.74170   37.46480    3.51750    2.57080   51.68120    0.13320 2347.83060 2340.80700 2380.24380    0.11110    1.83600
 4433.00000    9.30200   10.12700    9.07900   37.57280    0.08620    0.02550   71.34990   67.30320   65.82280   67.66000  124.47630  124.56910    0.08530   50.97770   47.75360   33.90580    9.61690    3.50360    2.56360   55.36260    0.16290 2378.98380 2335.94060 2399.72210    0.13140    1.86330
 4433.50000    9.27210   10.11470    9.05620   40.40590    0.08580    0.02520   75.06640   69.96560   68.38160   70.55280  132.13840  131.98110    0.10650   57.96090   25.89930   20.06980    7.85470    3.49540    2.55640   58.84870    0.18950 2380.98840 2331.07420 2380.24380    0.13810    1.89070
 4434.00000    9.24220   10.10250    9.03340   41.46570    0.10250    0.02410   77.03400   71.53830   71.03360   72.66500  138.38320  136.76040    0.13120   59.16250   12.32700   14.35910    8.01060    3.50640    2.54920   61.51750    0.20950 2341.09680 2326.20790 2390.74530    0.14070    1.89830
 4434.50000    9.21220   10.07110    9.01050   40.06580    0.11280    0.02300   76.63320   72.38450   71.59810   73.54660  138.38320  136.15550    0.15590   59.54270   11.24850   14.52500    5.64450    3.57670    2.55010   58.80510    0.20950 2318.27760 2321.34150 2401.24690    0.14110    1.89190
 4435.00000    9.19230   10.01650    8.98770   37.27150    0.09470    0.02190   73.91150   72.71400   71.63840   73.63850  136.17180  133.90120    0.14430   55.16760   11.85690   15.07760    3.95330    3.76230    2.55010   54.27830    0.19240 2304.57170 2333.38580 2411.74840    0.13400    1.85200
 4435.50000    9.16660    9.96180    8.96490   34.23330    0.07660    0.02090   70.60970   72.67390   71.13440   73.07280  133.40760  130.69380    0.11650   51.42170   12.32700   15.64000    9.52340    4.00610    2.62560   47.91860    0.17150 2304.53550 2370.79610 2422.25000    0.11640    1.80990
 4436.00000    9.14100    9.90720    8.94200   31.16300    0.05000    0.01900   67.30780   70.52960   68.43390   70.19930  127.71200  127.48640    0.08880   45.58920   21.94340   19.32450   16.36390    4.27630    2.70110   41.10070    0.14640 2304.49930 2380.11950 2432.75150    0.09870    1.80720
 4436.50000    9.11530    9.85250    8.91300   24.04000    0.02120    0.01710   64.00600   66.67190   64.45480   65.13690  121.28350  119.52300    0.06110   40.02290   31.48440   23.44680   22.23980    4.52700    2.77650   28.23360    0.11610 2304.46310 2382.42110 2443.25300    0.08100    1.81640
 4437.00000    9.08970    9.79790    8.90190   15.90380   -0.03160    0.01510   60.44080   62.15060   60.47570   62.25100  114.85510  111.35790    0.03330   29.92820   50.75070   38.00180   22.23980    4.79090    2.85200   22.03550    0.08580 2304.42690 2384.72270 2453.75460    0.06400    1.84260
 4437.50000    9.06400    9.75420    8.88800   12.61180   -0.10050    0.01400   56.69990   57.48350   56.49660   59.90920  112.09090  108.93860    0.00560   23.04470   65.08010   59.88610  632.84030    4.69460    2.88320   16.30110    0.06040 2304.39070 2393.24220 2462.15580    0.04960    1.88290
 4438.00000    9.03840    9.74350    8.87410   10.76930   -0.10840    0.01000   55.71130   56.44140   54.90500   57.43880  112.02660  109.54340    0.00440   18.29200   65.97420   81.77040  458.07860    4.53670    2.88320   17.01830    0.05920 2304.35450 2384.92890 2462.15580    0.03520    1.93590
 4438.50000    9.01270    9.74330    8.86020   14.03240   -0.09960    0.00600   57.71530   57.10410   54.90500   57.74540  114.49910  112.76920    0.00720   16.01480   59.53260   80.77850  258.34210    4.41720    2.86670   18.21270    0.07760 2304.31840 2377.92820 2460.92780    0.02080    1.98890
 4439.00000    9.01270    9.74300    8.84630   15.12100   -0.07430    0.00440   61.52290   58.35990   56.74470   59.27840  116.97150  116.39810    0.01610   17.05900   50.95660   63.97900  450.77190    4.48140    2.83910   19.45390    0.09630 2304.28220 2376.17830 2458.88100    0.01790    1.98000
 4439.50000    9.01270    9.74280    8.83250   13.17960   -0.07490    0.00440   62.36460   59.61580   59.13880   60.81130  118.45500  117.20450    0.02830   18.65520   42.47310   43.59430  203.64900    4.61090    2.85010   19.20280    0.10380 2304.24600 2374.42830 2456.83420    0.03680    1.95240
 4440.00000    9.01280    9.75360    8.81860   10.75210   -0.09000    0.00890   62.20430   60.52960   59.74360   61.68160  117.78360  116.59970    0.02840   17.57950   40.03660   29.68710    6.00540    4.77540    2.89770   16.19790    0.10450 2309.50170 2372.67840 2454.78740    0.04100    1.92490
 4440.50000    9.01370    9.74590    8.80470    8.32470   -0.12870    0.01350   60.16020   60.09140   58.93750   60.94690  116.10510  113.84460    0.01680   14.93560   48.51420   54.88920  122.73770    4.76100    2.92990   13.27790    0.08880 2335.92490 2370.92850 2452.74060    0.03320    1.89740
 4441.00000    9.01500    9.73820    8.79080    7.44400   -0.13850    0.01520   57.15420   58.99590   57.47130   59.75310  114.42660  110.59650    0.00520   12.11800   77.00170   96.89260  212.77130    4.60720    2.93720   11.85770    0.07080 2351.77880 2357.02420 2450.69380    0.02060    1.89190
 4441.50000    9.01630    9.74360    8.77700   11.09710   -0.13360    0.01520   55.71130   57.90040   56.00510   58.55920  112.74800  109.94690    0.00250   11.30240   94.67050  108.91980   96.23080    4.43240    2.92900   14.57180    0.05920 2343.54430 2357.02420 2448.64700    0.01560    1.92320
 4442.00000    9.01760    9.75770    8.76310   14.75020   -0.11330    0.01520   57.52830   58.04460   55.71180   58.08170  113.91230  113.07180    0.00950   13.19830   75.09030   85.04910 2002.60570    4.30650    2.88810   17.66790    0.06840 2335.30980 2359.40310 2438.27700    0.02280    1.95460
 4442.50000    9.01890    9.77180    8.75490   15.87610   -0.10120    0.01510   59.79950   59.64780   56.71980   59.68880  116.62650  115.59190    0.01830   16.38480   54.17180   61.17830 1225.06250    4.40380    2.86440   18.51940    0.08240 2327.07520 2365.73860 2431.11340    0.03480    1.95460
 4443.00000    9.02030    9.78590    8.75590   13.17520   -0.10150    0.01450   59.87960   60.28910   57.72790   60.65310  116.14080  113.97910    0.02010   17.62950   37.43690   37.30750    9.65670    4.61810    2.87640   15.92540    0.08800 2318.84070 2372.07410 2427.13360    0.03990    1.92350
 4443.50000    9.02160    9.79540    8.75960   10.47430   -0.11620    0.01330   58.34770   59.41970   58.33270   60.39590  114.85510  112.36620    0.01630   15.71870   37.66590   31.94310  108.11570    4.66060    2.90270   12.61760    0.08310 2312.25310 2369.77190 2423.15370    0.03250    1.90370
 4444.00000    9.02290    9.79770    8.76420   10.47430   -0.13130    0.01230   56.43270   58.43310   57.32470   59.75310  113.56940  110.75330    0.00990   12.77500   69.34670  122.33380  353.81710    4.54400    2.91890   10.73780    0.07040 2312.25310 2365.31020 2419.17380    0.02320    1.90950
 4444.50000    9.02420    9.80010    8.75630   13.10930   -0.12760    0.01230   56.78170   57.86970   56.51820   59.11020  113.18370  110.35010    0.00610   10.46060   69.77140  122.33380   59.17050    4.46590    2.91790   12.71400    0.06320 2312.25310 2347.18690 2415.19390    0.01760    1.92100
 4445.00000    9.02550    9.80240    8.75760   13.76810   -0.12150    0.01230   58.05480   59.40010   56.31660   59.33310  113.18370  112.43340    0.00820    9.98610   66.82030   99.99860 1346.77710    4.50400    2.91100   14.82210    0.07920 2312.25310 2326.44470 2411.21410    0.02130    1.93250
 4445.50000    9.02680    9.80480    8.78600   12.58230   -0.12110    0.01220   59.32790   60.93040   57.59350   60.44730  114.75870  115.12150    0.01090   10.95530   58.39420   77.66340  680.18440    4.56400    2.90260   13.72410    0.09040 2312.25310 2309.69260 2407.23420    0.02590    1.93710
