~Version ---------------------------------------------------
VERS.   2.0 : CWLS log ASCII Standard -VERSION 2.0
WRAP.    NO : One line per depth step
DLM . SPACE : Column Data Section Delimiter
~Well ------------------------------------------------------
STRT .FT                  72.0 : START DEPTH
STOP .FT                5114.0 : STOP DEPTH
STEP .FT                   0.5 : STEP
NULL .                -9999.25 : NULL VALUE
COMP .                         : COMPANY
WELL .                         : WELL
FLD  .                         : FIELD
LOC  .                         : LOCATION
PROV .                         : PROVINCE
CNTY .                         : COUNTY
STAT .                         : STATE
CTRY .                         : COUNTRY
SRVC .                         : SERVICE COMPANY
DATE .                         : DATE
UWI  .                         : UNIQUE WELL ID
API  .                         : API NUMBER
SLAT .WGS84 3.1859088553595996 : SURFACE LATITUDE
SLON .WGS84  6.767986511777991 : SURFACE LONGITUDE
DATUM.F                3150.12 : DEPTH DATUM ELEV
~Curve Information -----------------------------------------
DEPT   .FT    : 
CAL1R  .IN    : CALIPER 1 FROM RESISTIVITY LOG
CALD   .IN    : CALIPER FROM DENSITY LOG
CALSR  .IN    : MICRO RESISTIVITY CALIPER FROM RESISTIVITY
CGRD   .GAPI  : CORRECTED GAMMA RAY FROM DENSITY LOG
DPHI_LS.DEC   : DENSITY POROSITY LIMESTONE
DRHO   .G/C3  : BULK DENSITY CORRECTION
DT     .US/F  : DELTA-T (INTERVAL TRANSIT TIME)
DTCO   .US/F  : DELTA-T COMPRESSIONAL
DTCO_1 .US/F  : DELTA-T COMPRESSIONAL
DTRP   .US/F  : DELTA-T COMPRESSIONAL, RECEIVER ARRAY - MONOPOLE P & S
DTRS   .US/F  : DELTA-T SHEAR, RECEIVER ARRAY - MONOPOLE P & S
DTSM   .US/F  : DELTA-T SHEAR
ENPH_LS.DEC   : EPITHERMAL NEUTRON POROSITY (LIMESTONE)
GRR    .GAPI  : GAMMA RAY FROM RESISTIVITY LOG
LLD    .OHMM  : LATEROLOG DEEP RESISTIVITY
LLS    .OHMM  : LATEROLOG SHALLOW RESISTIVITY
MSFL   .OHMM  : MICRO SPHERICALLY FOCUSED RESISTIVITY
PEF    .B/E   : PHOTOELECTRIC FACTOR
RHOB   .G/C3  : BULK DENSITY
SGRDD  .GAPI  : SPECTROSCOPY GAMMA RAY FROM DENSITY LOG
SPHI_LS.DEC   : SONIC POROSITY [LIMESTONE]
TEND   .LB    : TENSION FROM DENSITY LOG
TENR   .LB    : TENSION FROM RESISTIVITY LOG
TENS   .N/A   : TENSION FROM SONIC LOG
TNPH_LS.DEC   : THERMAL NEUTRON POROSITY [LIMESTONE]
VPVS   .VPVS  : COMPRESSIONAL TO SHEAR VELOCITY RATIO
~Params ----------------------------------------------------
~Other -----------------------------------------------------
~ASCII -----------------------------------------------------
# ...
 3460.50000   14.04070   10.72320   13.81120    6.58750    0.43590    0.09840   66.55530   65.92260   66.19390   67.06710  118.40190  115.79250    0.05340    3.81690 24137.73270  529.70830    1.79960    3.53030    2.01350    5.40630    0.13360 2055.38580 2097.04530 2158.29780    0.01460    1.76310
 3461.00000   14.28010   11.12640   14.55940    7.37800    0.42780    0.09750   65.17430   64.19130   63.90290   65.33640  118.40190  117.06940    0.05230    4.12920 40350.88700  868.53510    2.21280    3.33220    2.02240    5.93790    0.11970 2086.04380 2059.04360 2100.98850    0.00330    1.81730
 3461.50000   14.26010   11.30430   15.30760    7.90500    0.43190    0.09070   64.39850   62.71140   61.61190   63.60560  119.05650  119.21980    0.05230    4.63170 60057.54300 1213.44150    8.07200    3.08790    2.01780    6.53610    0.11940 2093.43340 2032.44060 2043.67920   -0.00350    1.90970
 3462.00000   14.16040   11.14480   15.75660    8.56380    0.46060    0.07500   66.34750   62.10930   60.75050   62.91330  119.58250  119.42140    0.05230    5.70950 76754.82940 1082.41470   21.86730    2.89950    2.00630    7.36790    0.13900 2075.68730 2027.74600 2125.54960   -0.00630    1.90970
 3462.50000   13.24590   10.58770   15.09810    9.61780    0.49280    0.05930   70.35330   64.05180   63.93590   64.76690  119.68760  118.61500    0.05240    6.48440 45765.73850  786.88760    7.27640    2.87510    1.98280    8.73340    0.16240 2027.62720 2016.00940 2172.62530    0.00790    1.87090
 3463.00000   12.33140    9.62610   13.23510   10.67180    0.53960    0.04350   70.59220   72.16480   68.57290   70.17760  119.04480  117.40540    0.05360    8.67910 9345.97170  491.36060    0.19970    2.87160    1.90540   10.71380    0.16190 1979.56720 2004.27290 2120.43300    0.02500    1.70250
 3463.50000   11.72620    8.80630   11.22740   14.29500    0.59380    0.03700   69.55060   75.97030   73.20990   75.58830  114.22340  112.76840    0.07080   10.60230 1806.33150  195.83350    0.20020    2.87160    1.82610   14.94060    0.15760 1937.55620 1992.53630 2053.91310    0.03880    1.50950
 3464.00000   11.50670    8.80630   11.24740   20.28140    0.65440    0.02900   69.54940   74.11610   74.45990   76.09900  109.40200  107.56690    0.09770   16.22260  824.97010   61.70720    0.20090    2.88550    1.74540   23.78780    0.16210 1988.05460 1992.53630 2000.69720    0.03410    1.44950
 3464.50000   11.58160    9.02880   11.40700   32.75670    0.68280    0.02080   71.34960   71.79880   72.21980   73.88470  104.28490  103.13150    0.13640   27.93300   37.65710   36.75340    0.20150    2.96830    1.66480   32.47380    0.17470 2058.46560 1992.53630 2029.35210    0.02830    1.43550
 3465.00000   11.60650    9.30690   11.22490   45.23190    0.68220    0.02020   72.27430   71.94420   70.22610   72.59900  102.20210  100.26870    0.19160   37.21070   26.53710   21.60480    0.20220    3.05100    1.60030   45.03700    0.17620 2073.86420 2039.09140 2100.98870    0.03640    1.44700
 3465.50000   11.24740    9.14880   10.61390   57.70710    0.64530    0.02030   72.98010   73.07820   71.39540   73.14760  104.38780  103.02400    0.24690   49.24850   24.31310   25.28560    0.21230    3.13380    1.60030   50.72430    0.17990 2070.78450 2116.68310 2172.62530    0.04990    1.45850
 3466.00000   10.90820    8.79310   10.36950   51.70420    0.59720    0.03110   73.68580   73.07700   72.24220   73.91900  107.17340  105.71210    0.25760   51.74250   28.87380   41.46960    0.24270    3.16430    1.64430   50.85600    0.18450 2030.25790 2178.75650 2229.93490    0.06340    1.47000
 3466.50000   11.19860    9.00880   10.90110   41.69930    0.54970    0.04840   74.18910   71.61970   70.36050   73.49470  106.03060  105.10730    0.23050   44.50750   60.90450   57.65360    0.22100    3.11650    1.71760   42.56470    0.18950 1998.84790 2201.48660 2212.02540    0.07510    1.47210
 3467.00000   11.77500   10.08750   11.78140   31.69440    0.52150    0.06570   74.50890   68.98150   67.67240   69.83040  101.38780  100.29110    0.19710   35.01600   98.23000   73.83760    0.80550    3.05670    1.79100   34.78230    0.19170 2008.27090 2191.80390 2203.07070    0.07420    1.47300
 3467.50000   12.29150   10.53220   12.66160   24.65070    0.50010    0.08300   74.10570   66.26320   64.98430   66.77040   98.60210   96.43810    0.17030   26.16480  135.55550   90.02160    3.79340    2.99700    1.86430   27.99990    0.17600 2047.53330 2152.15370 2184.08700    0.07260    1.47750
 3468.00000   12.76820   10.51700   13.54190   22.37790    0.48740    0.10040   69.65250   66.58250   65.09630   67.95970  100.91640   97.84940    0.17400   20.91940  172.88100  106.20560    1.50740    2.93730    1.92400   21.21750    0.15710 2053.20760 2122.89050 2162.59600    0.07180    1.48940
 3468.50000   13.45540   10.49170   13.51530   20.10520    0.50510    0.10820   67.37430   67.60360   66.88840   69.72760  106.38060  108.52200    0.18410   17.45810  267.40970  128.44110    0.52040    2.87160    1.92400   18.36790    0.14140 2047.76210 2096.27460 2141.10490    0.07230    1.55050
 3469.00000   13.51530   10.46630   12.95420   17.83250    0.53110    0.10820   70.10940   69.30580   67.68580   69.92040  117.20200  118.79140    0.18550   15.11180  435.66390  150.06440    0.68520    2.80190    1.91880   16.81290    0.15560 2019.75170 2089.59130 2119.61390    0.07260    1.67010
 3469.50000   13.70370   10.39450   12.17420   16.33710    0.55970    0.10280   72.84460   69.30450   67.80680   70.20970  129.36260  129.06080    0.17250   12.76930  603.91810  171.68770    0.21070    2.74610    1.87910   15.41490    0.18570 1976.55140 2085.84900 2115.31570    0.06910    1.83000
 3470.00000   13.71530   10.30760   11.78610   16.20540    0.58210    0.08340   73.97820   69.97260   68.41160   70.67030  137.10830  135.08020    0.16180   12.66960  772.17230  188.89600    0.21330    2.58140    1.83600   15.41490    0.18490 1952.11860 2084.06730 2115.31570    0.06010    1.93130
 3470.50000   13.63850   10.25550   12.37470   20.10520    0.60290    0.06410   75.18870   72.11530   70.30080   71.39860  137.68620  137.36540    0.16350   14.86430 1978.28800  481.92980    0.22630    2.41670    1.78170   20.26460    0.18500 1932.85870 2082.28550 2115.31570    0.05650    1.92480
 3471.00000   13.56180   10.54540   12.92330   26.16580    0.61130    0.04470   84.17020   74.25800   72.40850   74.16280  140.52390  138.57500    0.17430   17.39790 18832.28690  772.08420    0.42640    2.25200    1.74460   25.32330    0.24980 2028.35260 2049.99910 2115.31570    0.05650    1.89250
 3471.50000   13.62560   10.49130   12.61210   32.22640    0.61000    0.02530   93.15180   75.19450   74.58220   76.92700  144.61060  143.74560    0.23680   22.10120 10450.49710  601.49370    0.65360    2.08730    1.73310   35.95070    0.29940 2094.44350 2078.62060 2115.31570    0.07810    1.89460
 3472.00000   13.64160   10.42380   11.83390   32.72770    0.60840    0.00590   97.30410   77.60160   78.95150   81.84940  148.69720  148.31140    0.29920   26.04250 2068.70740  244.49420    0.24570    2.02140    1.72160   38.07610    0.35690 2116.43020 2073.29260 2115.31570    0.17250    1.89680
 3472.50000   13.45710   10.36070   11.38700   29.52300    0.64090    0.00030   93.54630   87.63920   85.64120   87.68390  153.50020  152.87720    0.43210   28.98520  761.19450   21.18590    0.20710    2.26180    1.70420   33.30010    0.33600 2128.13140 2054.53330 2115.31570    0.22320    1.75670
 3473.00000   13.18270   10.40450   11.81100   26.31820    0.64030    0.00200   87.41940   91.56860   91.79940   92.69810  155.30020  154.70350    0.47070   28.75700    8.04590    7.38630    0.20370    2.63930    1.68020   28.52410    0.30660 2059.18470 2046.64910 2077.10980    0.22810    1.68120
 3473.50000   13.18270   10.52200   12.23500   23.11340    0.58310    0.02530   81.29240   93.57040   92.60580   93.64100  152.32700  151.88100    0.46990   25.54820    8.09520    7.40180    0.25900    2.95520    1.70410   23.43390    0.21010 1999.63720 2072.76670 2071.91270    0.21570    1.63810
