~Version ---------------------------------------------------
VERS.   2.0 : CWLS log ASCII Standard -VERSION 2.0
WRAP.    NO : One line per depth step
DLM . SPACE : Column Data Section Delimiter
~Well ------------------------------------------------------
STRT .FT                  72.0 : START DEPTH
STOP .FT                5114.0 : STOP DEPTH
STEP .FT                   0.5 : STEP
NULL .                -9999.25 : NULL VALUE
COMP .                         : COMPANY
WELL .                         : WELL
FLD  .                         : FIELD
LOC  .                         : LOCATION
PROV .                         : PROVINCE
CNTY .                         : COUNTY
STAT .                         : STATE
CTRY .                         : COUNTRY
SRVC .                         : SERVICE COMPANY
DATE .                         : DATE
UWI  .                         : UNIQUE WELL ID
API  .                         : API NUMBER
SLAT .WGS84 3.1859088553595996 : SURFACE LATITUDE
SLON .WGS84  6.767986511777991 : SURFACE LONGITUDE
DATUM.F                3150.12 : DEPTH DATUM ELEV
~Curve Information -----------------------------------------
DEPT   .FT    : 
CAL1R  .IN    : CALIPER 1 FROM RESISTIVITY LOG
CALD   .IN    : CALIPER FROM DENSITY LOG
CALSR  .IN    : MICRO RESISTIVITY CALIPER FROM RESISTIVITY
CGRD   .GAPI  : CORRECTED GAMMA RAY FROM DENSITY LOG
DPHI_LS.DEC   : DENSITY POROSITY LIMESTONE
DRHO   .G/C3  : BULK DENSITY CORRECTION
DT     .US/F  : DELTA-T (INTERVAL TRANSIT TIME)
DTCO   .US/F  : DELTA-T COMPRESSIONAL
DTCO_1 .US/F  : DELTA-T COMPRESSIONAL
DTRP   .US/F  : DELTA-T COMPRESSIONAL, RECEIVER ARRAY - MONOPOLE P & S
DTRS   .US/F  : DELTA-T SHEAR, RECEIVER ARRAY - MONOPOLE P & S
DTSM   .US/F  : DELTA-T SHEAR
ENPH_LS.DEC   : EPITHERMAL NEUTRON POROSITY (LIMESTONE)
GRR    .GAPI  : GAMMA RAY FROM RESISTIVITY LOG
LLD    .OHMM  : LATEROLOG DEEP RESISTIVITY
LLS    .OHMM  : LATEROLOG SHALLOW RESISTIVITY
MSFL   .OHMM  : MICRO SPHERICALLY FOCUSED RESISTIVITY
PEF    .B/E   : PHOTOELECTRIC FACTOR
RHOB   .G/C3  : BULK DENSITY
SGRDD  .GAPI  : SPECTROSCOPY GAMMA RAY FROM DENSITY LOG
SPHI_LS.DEC   : SONIC POROSITY [LIMESTONE]
TEND   .LB    : TENSION FROM DENSITY LOG
TENR   .LB    : TENSION FROM RESISTIVITY LOG
TENS   .N/A   : TENSION FROM SONIC LOG
TNPH_LS.DEC   : THERMAL NEUTRON POROSITY [LIMESTONE]
VPVS   .VPVS  : COMPRESSIONAL TO SHEAR VELOCITY RATIO
~Params ----------------------------------------------------
~Other -----------------------------------------------------
~ASCII -----------------------------------------------------
# ...
 3946.50000   10.35470   12.03550    9.79860   16.99690    0.09590    0.05440   65.13200   86.26850   83.49760   86.02320  148.55790  146.03430    0.13440   39.73990   35.43060   40.19300    0.45430    4.44250    2.62920   30.18770    0.14410 2272.12710 2301.26750 2412.85750    0.14060    1.71960
 3947.00000   10.19690   11.66590    9.61220    9.55790   -0.02480    0.03580   60.18140   86.10990   84.74280   87.01730  145.14210  143.07740    0.07440   30.21150   73.41760  472.51070   11.41050    4.96350    2.82480   22.66450    0.10300 2288.43220 2310.13220 2392.37970    0.09490    1.66740
 3947.50000   10.14420   11.39020    9.48060    7.46070   -0.07360    0.02210   55.23070   79.92300   78.52400   83.71780  137.97230  133.08100    0.01450   22.25170  120.45180  904.82840  133.97710    4.99030    2.82480   15.14140    0.05420 2284.67710 2299.74530 2380.08880    0.04920    1.65980
 3948.00000   10.07820   11.36620    9.46630    6.30610   -0.05810    0.00850   53.25080   68.54460   68.52120   71.78120  122.19880  117.10370   -0.00460   13.27890  946.03310 1337.14610  285.50230    4.77160    2.79240    9.94170    0.05140 2200.68150 2237.76720 2300.08120    0.00350    1.70810
 3948.50000   10.04880   11.35850    9.44190    5.11070   -0.01990    0.00570   55.04850   59.96360   58.51840   62.71480  108.37660  103.49520   -0.01240    8.29200 1966.25110 1769.46370  299.81240    4.49700    2.73830    8.39810    0.05820 2133.48500 2172.06910 2220.07370   -0.00220    1.76390
 3949.00000   10.09920   11.35070    9.41750    3.91540    0.01830    0.00890   56.42320   58.61770   56.71950   59.21790  106.49440  104.70490   -0.01320    6.04660 8708.42860 2871.23140  851.80410    4.35340    2.68430    7.30620    0.06320 2146.35020 2113.27730 2235.06280   -0.00320    1.80610
 3949.50000   10.09950   11.32680    9.40320    3.12180    0.01030    0.01170   55.16010   59.00350   57.12270   59.15390  108.69930  106.51930   -0.01270    4.25260 15266.87250 3874.93610  475.11230    4.29730    2.67350    6.52530    0.05370 2162.92620 2157.25340 2260.05170   -0.00290    1.84020
 3950.00000   10.06780   11.29870    9.35990    2.71170   -0.02830    0.01350   53.97710   57.97010   56.47470   58.98700  108.31430  105.91450   -0.01020    4.05960 21825.31640 4878.64080   98.42060    4.38360    2.71280    6.05950    0.04220 2179.50220 2181.39970 2267.64040   -0.00260    1.81800
 3950.50000   10.00670   11.27070    9.30570    2.30170   -0.05910    0.01570   53.02730   56.93680   55.39480   57.86010  104.44260  102.35310   -0.00770    4.56810 24451.57010 5882.34550  421.89730    4.37540    2.79090    6.45870    0.03870 2196.07830 2192.32600 2275.22910   -0.00230    1.79580
 3951.00000    9.96980   11.26120    9.25160    4.32610   -0.04320    0.01530   53.02920   55.90350   54.31490   56.73330  100.84330   98.65700   -0.00530    5.45280 11651.95910 3761.24070 1417.50600    4.07110    2.78990   12.13350    0.04070 2209.33910 2196.61880 2282.81780   -0.00120    1.77360
 3951.50000    9.96960   11.28180    9.25140   10.20140   -0.00290    0.01240   53.98170   55.20380   53.29250   56.25700   98.59380   95.83450   -0.00280    8.46630 2051.17590 2129.58400 2014.87120    3.57850    2.63430   18.89670    0.04400 2209.33910 2179.02720 2290.40650    0.00300    1.75430
 3952.00000   10.01920   11.37260    9.25100   16.07680    0.04670    0.01090   55.55900   55.12560   53.09090   56.15430   96.98710   95.63290   -0.00030   12.44540 1148.11390  960.09300 2014.87060    3.19170    2.57310   26.87250    0.05220 2209.33910 2179.16540 2297.99520    0.00720    1.73490
 3952.50000   10.06890   11.46340    9.29060   21.95210    0.13330    0.01170   57.13620   55.36800   53.49410   55.89740   97.19830   95.63290    0.00220   19.81780  572.26550   74.12300  612.61100    3.08580    2.50360   34.95670    0.06400 2209.33910 2201.70920 2305.58390    0.01140    1.73710
 3953.00000   10.11860   11.63360    9.39940   26.06610    0.15500    0.01240   58.48380   55.85080   54.30060   56.50550   98.25090   96.69130    0.00470   27.19020  107.91010   70.52910   57.22950    2.97990    2.42090   36.36030    0.07580 2209.33910 2214.27780 2313.17260    0.01560    1.73650
 3953.50000   10.21790   11.73730    9.51060   25.45270    0.17660    0.01100   59.48710   57.02220   55.26830   58.02520   99.30350   98.32940    0.00890   34.56260  101.97510   68.89940   66.95830    2.89520    2.42020   35.95570    0.08410 2209.33910 2232.43110 2320.76130    0.01690    1.73560
 3954.00000   10.30530   11.74120    9.62180   24.60780    0.18270    0.01000   60.16960   58.19360   56.17550   59.24110   99.75490   99.96740    0.01300   34.38570   95.78880   80.86850   76.94960    2.84910    2.42010   34.87590    0.08730 2209.33910 2229.24830 2328.35000    0.01580    1.73480
 3954.50000   10.28960   11.74510    9.68510   24.39430    0.18280    0.00910   60.41140   58.89650   56.92150   59.31060  100.05170  101.47950    0.01390   33.87110   89.60240   95.82480  102.11510    2.79120    2.42010   34.75640    0.08970 2209.33910 2241.55450 2335.93870    0.01470    1.73400
 3955.00000   10.20090   11.74900    9.67640   25.16810    0.18180    0.00820   60.33220   58.89710   56.92150   59.16250  100.46380  101.27790    0.01260   33.35650   87.46860   95.39840  108.49420    2.72770    2.42010   35.48510    0.09050 2209.33910 2264.01690 2357.30590    0.01470    1.73310
 3955.50000   10.19600   11.71210    9.66780   25.62680    0.18230    0.00730   60.28010   58.97950   56.92150   59.01440  100.97890  101.27790    0.01150   33.48530   85.87220   93.53170   87.99410    2.70350    2.42010   36.21370    0.08890 2209.33910 2275.19970 2377.11810    0.01640    1.73310
 3956.00000   10.32040   11.67510    9.71740   26.23440    0.18090    0.00720   60.17440   59.24780   57.32470   59.51920  103.31970  102.62190    0.01150   34.22020   95.75420  102.79330  143.39950    2.75570    2.43000   39.70890    0.08830 2161.03370 2286.38240 2376.93160    0.02070    1.74830
 3956.50000   10.30620   11.67170    9.70720   28.85240    0.17080    0.00760   61.27900   59.80350   58.33270   61.54760  107.56320  104.86200    0.01700   37.17170   97.63330  103.91560   98.83360    2.80790    2.45480   43.89570    0.09500 2119.19300 2297.56520 2376.74510    0.03030    1.77370
 3957.00000   10.19700   11.51580    9.59870   32.24560    0.15680    0.00810   64.79280   61.38190   60.55040   63.57610  112.70720  112.16460    0.02460   40.69490   67.10060   70.58650 1549.80650    2.88240    2.47970   52.30330    0.11700 2103.31400 2277.16860 2376.55850    0.04680    1.79900
 3957.50000   10.03190   11.41880    9.48810   38.36970    0.14520    0.00850   68.30670   65.36150   64.61130   66.99120  119.20180  120.73290    0.06320   46.84140   32.59910   37.25730  666.73270    3.01290    2.50450   63.44970    0.14210 2104.74290 2261.15960 2344.78400    0.07690    1.81720
 3958.00000    9.92370   11.37770    9.37760   44.55620    0.13360    0.00900   71.82060   69.34110   68.42740   71.33090  126.25000  129.30110    0.12240   54.20130   12.83750   14.48380    4.29340    3.13250    2.50940   72.05140    0.17450 2106.17180 2236.06380 2313.00950    0.10690    1.80640
 3958.50000    9.75280   11.37930    9.26700   46.89220    0.12200    0.00950   75.50550   73.32070   72.24350   75.05980  134.12860  133.33330    0.16970   61.86270    6.87700    7.54370    3.86930    3.25210    2.50940   73.92210    0.21170 2101.60240 2202.90870 2281.23500    0.13700    1.79230
 3959.00000    9.74900   11.34180    9.26680   43.43400    0.12120    0.01050   77.62430   74.51750   72.44510   75.14590  135.70550  132.52680    0.16930   63.79820    7.13800    6.19430    3.37550    3.23710    2.50080   65.15670    0.21250 2095.53330 2180.56040 2272.58540    0.12920    1.77670
 3959.50000    9.74530   11.29060    9.26640   39.10660    0.12190    0.01200   73.94320   71.27600   70.83230   73.08070  128.31220  126.57940    0.12870   58.32210    7.42480   16.52590    3.10890    3.17520    2.49000   56.42060    0.19670 2089.46420 2194.06230 2287.82710    0.09830    1.74900
