~Version ---------------------------------------------------
VERS.   2.0 : CWLS log ASCII Standard -VERSION 2.0
WRAP.    NO : One line per depth step
DLM . SPACE : Column Data Section Delimiter
~Well ------------------------------------------------------
STRT .FT                  72.0 : START DEPTH
STOP .FT                5114.0 : STOP DEPTH
STEP .FT                   0.5 : STEP
NULL .                -9999.25 : NULL VALUE
COMP .                         : COMPANY
WELL .                         : WELL
FLD  .                         : FIELD
LOC  .                         : LOCATION
PROV .                         : PROVINCE
CNTY .                         : COUNTY
STAT .                         : STATE
CTRY .                         : COUNTRY
SRVC .                         : SERVICE COMPANY
DATE .                         : DATE
UWI  .                         : UNIQUE WELL ID
API  .                         : API NUMBER
SLAT .WGS84 3.1859088553595996 : SURFACE LATITUDE
SLON .WGS84  6.767986511777991 : SURFACE LONGITUDE
DATUM.F                3150.12 : DEPTH DATUM ELEV
~Curve Information -----------------------------------------
DEPT   .FT    : 
CAL1R  .IN    : CALIPER 1 FROM RESISTIVITY LOG
CALD   .IN    : CALIPER FROM DENSITY LOG
CALSR  .IN    : MICRO RESISTIVITY CALIPER FROM RESISTIVITY
CGRD   .GAPI  : CORRECTED GAMMA RAY FROM DENSITY LOG
DPHI_LS.DEC   : DENSITY POROSITY LIMESTONE
DRHO   .G/C3  : BULK DENSITY CORRECTION
DT     .US/F  : DELTA-T (INTERVAL TRANSIT TIME)
DTCO   .US/F  : DELTA-T COMPRESSIONAL
DTCO_1 .US/F  : DELTA-T COMPRESSIONAL
DTRP   .US/F  : DELTA-T COMPRESSIONAL, RECEIVER ARRAY - MONOPOLE P & S
DTRS   .US/F  : DELTA-T SHEAR, RECEIVER ARRAY - MONOPOLE P & S
DTSM   .US/F  : DELTA-T SHEAR
ENPH_LS.DEC   : EPITHERMAL NEUTRON POROSITY (LIMESTONE)
GRR    .GAPI  : GAMMA RAY FROM RESISTIVITY LOG
LLD    .OHMM  : LATEROLOG DEEP RESISTIVITY
LLS    .OHMM  : LATEROLOG SHALLOW RESISTIVITY
MSFL   .OHMM  : MICRO SPHERICALLY FOCUSED RESISTIVITY
PEF    .B/E   : PHOTOELECTRIC FACTOR
RHOB   .G/C3  : BULK DENSITY
SGRDD  .GAPI  : SPECTROSCOPY GAMMA RAY FROM DENSITY LOG
SPHI_LS.DEC   : SONIC POROSITY [LIMESTONE]
TEND   .LB    : TENSION FROM DENSITY LOG
TENR   .LB    : TENSION FROM RESISTIVITY LOG
TENS   .N/A   : TENSION FROM SONIC LOG
TNPH_LS.DEC   : THERMAL NEUTRON POROSITY [LIMESTONE]
VPVS   .VPVS  : COMPRESSIONAL TO SHEAR VELOCITY RATIO
~Params ----------------------------------------------------
~Other -----------------------------------------------------
~ASCII -----------------------------------------------------
# ...
 3150.00000    9.15140    7.25820    9.03270   34.42460    0.30020    0.01140   84.72590  107.42000   91.22250   88.23280  148.18950  151.99060    0.22770   52.35590   10.43210    7.79330    5.91260    2.98370   -9999.25   52.38360    0.27460 2079.25970 2104.78250 2110.50010    0.14270    1.79190
 3150.50000    9.20010    7.20550    9.07260   36.82600    0.20670    0.01430   82.25640  101.15720   81.35780   79.24260  139.91040  145.04720    0.17550   54.25670   17.78580   13.71500   12.15970    2.98950    2.20790   56.27660    0.23620 2057.41660 2158.80430 2197.07400    0.12800    1.85670
 3151.00000    9.24870    7.17910    9.12360   37.39220    0.19120    0.01200   79.62570   73.10810   71.49320   70.88540  136.22850  138.10370    0.13150   52.52830   22.14310   17.26130   16.74780    2.99420    2.41280   55.91580    0.21830 2035.57360 2258.56510 2143.73560    0.11340    1.91440
 3151.50000    9.29740    7.17910    9.16240   37.14780    0.18260    0.00920   76.75320   67.79320   66.59990   67.34960  132.54660  133.56470    0.09970   51.87450   24.41100   17.35220   13.32870    2.99420    2.41280   55.61220    0.20030 2033.15820 2267.48950 2090.39720    0.10810    1.93260
 3152.00000    9.34610    7.22630    9.20120   36.90340    0.18260    0.00800   75.54410   66.26970   64.14010   65.48530  131.90380  129.66880    0.07980   53.85350   22.31560   15.82390    8.94820    2.99420    2.41270   55.65410    0.19970 2030.74270 2244.03170 2084.70010    0.10770    1.94260
 3152.50000    9.39470    7.28520    9.23220   36.65900    0.19470    0.00980   76.16780   65.29670   64.67580   66.23840  130.74660  127.87690    0.07980   56.38390   19.70320   13.81570    4.60610    2.98020    2.41270   56.43890    0.20510 2028.32720 2220.57390 2112.10690    0.11060    1.95030
 3153.00000    9.44340    7.34420    9.29210   36.56120    0.21270    0.01250   77.78360   66.92670   66.28650   68.12100  128.26700  126.08490    0.09300   55.69830   17.39720   11.80750    1.36090    2.98020    2.41250   57.54940    0.22030 2025.91180 2197.11610 2139.51370    0.12130    1.87460
 3153.50000    9.49210    7.40310    9.39180   35.90900    0.23060    0.01610   82.55260   68.55670   67.62870   70.00370  124.47870  123.48520    0.10580   50.77820   17.17310   10.93130    0.58000    2.99420    2.41100   56.18290    0.24610 2023.49630 2173.65830 2175.59640    0.13190    1.77660
 3154.00000    9.57140    7.53490    9.58590   33.74220    0.26130    0.01830   93.46050   70.18130   68.43300   70.88540  116.92500  118.89480    0.11850   45.97640   21.05930   12.26730    0.30380    3.03600    2.38590   53.37830    0.29570 2021.08080 2145.33680 2217.38850    0.13850    1.68570
 3154.50000    9.64260    7.66660    9.87610   31.57530    0.30040    0.02100   93.34030   69.24610   68.70000   68.86490  109.37130  111.63330    0.12980   38.78490   25.66100   15.62560    0.43270    3.03600    2.33610   46.81140    0.31140 2018.66540 2142.84270 2216.36680    0.13580    1.59730
 3155.00000    9.71390    7.79610   10.05020   29.43880    0.31160    0.03160   92.77520   66.59250   65.15430   65.92610  101.81760  101.37330    0.13120   35.81410   30.26270   18.98400    1.59940    3.03600    2.28620   40.50360    0.32440 2016.24990 2140.34860 2215.00500    0.12870    1.51860
 3155.50000    9.81080    7.92400   10.05770   27.42380    0.32330    0.04690   92.14390   63.50930   61.60880   62.98730   93.54080   92.03550    0.13820   31.02550   33.94050   20.44970    1.36410    2.97230    2.23630   36.56250    0.31860 2013.83440 2158.80430 2214.49470    0.12150    1.46720
 3156.00000   10.10400    8.13050   10.07020   25.40880    0.34550    0.06310   92.07770   61.04270   59.82280   62.39950   88.36030   87.91880    0.15830   28.92780   31.53260   20.42310    0.63240    2.91750    2.18490   34.75720    0.31760 2011.41900 2198.70860 2214.49470    0.11430    1.46250
 3156.50000   10.52600    8.65140   10.21270   23.39370    0.38360    0.06960   98.46070   61.80430   62.77750   71.34250   91.63470   88.72120    0.19000   26.11840   25.56440   18.13790    0.19510    2.86280    2.13120   32.95190    0.33140 2015.27700 2198.70860 2214.49470    0.10720   -9999.25
 3157.00000   10.98800    9.17230   10.35520   22.85900    0.42180    0.06850  100.19200   63.50770   85.64860   92.41420   99.92760   98.96660    0.22690   25.60720   20.23390   15.25410    0.19970    2.82690    2.07740   32.47690    0.38720 2028.54530 2170.20550 2214.49470    0.10540   -9999.25
 3157.50000   11.22080    9.61280   10.46920   23.57850    0.49120    0.05890  108.15230   99.44090  110.77490  117.27460  108.22060  110.51460    0.26390   27.63370   14.90330   11.21610    0.21720    2.86700    2.02360   32.91270    0.44300 2041.81360 2158.80430 2214.49470    0.10530   -9999.25
 3158.00000   11.35140    9.93280   10.48920   24.33870    0.62240    0.04930  118.10250  125.11510  128.26680  133.88620  116.51360  122.06270    0.30080   29.51690    9.57280    7.17820    0.19650    2.91050    1.83710   33.67280    0.49870 2055.08190 2157.86090 2207.68530    0.10730   -9999.25
 3158.50000   11.45830   11.03070   10.80270   25.09880    0.69980    0.04550  120.03250  131.50410  130.94650  133.62910  124.80650  133.61080    0.49650   31.13770    4.24230    3.10200    0.19550    2.95410    1.64030   34.43290    0.50010 2037.45580 2139.35120 2207.68530    0.18760   -9999.25
 3159.00000   11.56520   11.93540   11.18750   25.23050    0.69980    0.04550  113.01100  130.86280  129.05610  126.30040  133.09950  139.80060    0.66910   32.15250    3.31200    2.90210    0.19440    2.99770    1.44350   34.64850    0.47950 2046.86670 2101.64360 2190.97500    0.22940   -9999.25
 3159.50000   11.24740   11.43140   11.58790   25.23050    0.69960    0.05220  105.98960  125.10460  119.83950  119.22890  138.54670  139.41570    0.66870   32.89710    6.78140    7.99070    0.19340    3.04120    1.44210   35.08390    0.43450 2056.27750 2061.00780 2151.57530    0.25450   -9999.25
 3160.00000   10.88540   10.80150   12.01350   24.70350    0.67750    0.06190  100.37320  118.45800  107.17050  106.77020  138.58980  138.34820    0.58510   29.55210   10.21000   16.27290    0.19230    3.06390    1.53450   33.93280    0.34790 2065.68840 2110.93970 2145.82180    0.25390    1.80130
 3160.50000   10.80180   10.17160   12.43920   22.92140    0.57260    0.07170   74.43410  108.89070   94.50150   91.14860  137.83460  137.28080    0.48070   26.21440   22.58130   24.55510    0.33520    3.09170    1.62690   29.75890    0.29890 2075.09930 2173.64290 2168.92280    0.22290    1.81410
 3161.00000   10.94010    9.80890   12.52430   17.96330    0.48900    0.08140   64.88180  100.28130   81.83250   75.51410  136.58900  136.21330    0.38320   18.25610   48.36680   32.83730    0.19930    3.13350    1.71930   23.05660    0.12140 2073.14170 2181.74040 2192.02370    0.17270    1.84970
 3161.50000   11.09970    9.73510   12.42050   13.00530    0.48800    0.09110   62.20940   71.55670   70.33340   68.63820  135.34350  135.14580    0.31380   12.37030  238.45310   41.11960    0.62440    3.14750    1.81170   17.55390    0.10730 2063.35360 2140.46040 2215.59160    0.12260    1.92050
 3162.00000   11.30540    9.73510   12.16120    8.04720    0.48720    0.10090   62.03330   66.80050   65.96510   67.68790  133.42990  134.33940    0.22250    8.76280  674.99080  176.75290    0.47080    3.23610    1.90400   11.44990    0.10840 2053.56550 2099.10350 2189.14110    0.07300    2.02400
 3162.50000   11.59560    9.76150   11.97560    4.54540    0.47480    0.11060   64.76020   65.99160   64.82260   66.73760  128.84410  130.64670    0.15190    5.89550 1311.60170  312.38620    0.32430    3.31070    1.92670    7.50830    0.12950 2043.77740 2066.08250 2156.07800    0.02330    2.02400
 3163.00000   11.90580    9.87310   12.51960    2.86560    0.45560    0.11240   67.48720   65.26280   64.28510   65.78730  124.25830  126.03090    0.12500    4.48160 1972.21030  423.26050    0.38160    3.37050    1.94940    5.33590    0.15140 2033.98930 2067.30570 2100.97290    0.02170    1.96340
