~Version ---------------------------------------------------
VERS.   2.0 : CWLS log ASCII Standard -VERSION 2.0
WRAP.    NO : One line per depth step
DLM . SPACE : Column Data Section Delimiter
~Well ------------------------------------------------------
STRT .FT                  72.0 : START DEPTH
STOP .FT                5114.0 : STOP DEPTH
STEP .FT                   0.5 : STEP
NULL .                -9999.25 : NULL VALUE
COMP .                         : COMPANY
WELL .                         : WELL
FLD  .                         : FIELD
LOC  .                         : LOCATION
PROV .                         : PROVINCE
CNTY .                         : COUNTY
STAT .                         : STATE
CTRY .                         : COUNTRY
SRVC .                         : SERVICE COMPANY
DATE .                         : DATE
UWI  .                         : UNIQUE WELL ID
API  .                         : API NUMBER
SLAT .WGS84 3.1859088553595996 : SURFACE LATITUDE
SLON .WGS84  6.767986511777991 : SURFACE LONGITUDE
DATUM.F                3150.12 : DEPTH DATUM ELEV
~Curve Information -----------------------------------------
DEPT   .FT    : 
CAL1R  .IN    : CALIPER 1 FROM RESISTIVITY LOG
CALD   .IN    : CALIPER FROM DENSITY LOG
CALSR  .IN    : MICRO RESISTIVITY CALIPER FROM RESISTIVITY
CGRD   .GAPI  : CORRECTED GAMMA RAY FROM DENSITY LOG
DPHI_LS.DEC   : DENSITY POROSITY LIMESTONE
DRHO   .G/C3  : BULK DENSITY CORRECTION
DT     .US/F  : DELTA-T (INTERVAL TRANSIT TIME)
DTCO   .US/F  : DELTA-T COMPRESSIONAL
DTCO_1 .US/F  : DELTA-T COMPRESSIONAL
DTRP   .US/F  : DELTA-T COMPRESSIONAL, RECEIVER ARRAY - MONOPOLE P & S
DTRS   .US/F  : DELTA-T SHEAR, RECEIVER ARRAY - MONOPOLE P & S
DTSM   .US/F  : DELTA-T SHEAR
ENPH_LS.DEC   : EPITHERMAL NEUTRON POROSITY (LIMESTONE)
GRR    .GAPI  : GAMMA RAY FROM RESISTIVITY LOG
LLD    .OHMM  : LATEROLOG DEEP RESISTIVITY
LLS    .OHMM  : LATEROLOG SHALLOW RESISTIVITY
MSFL   .OHMM  : MICRO SPHERICALLY FOCUSED RESISTIVITY
PEF    .B/E   : PHOTOELECTRIC FACTOR
RHOB   .G/C3  : BULK DENSITY
SGRDD  .GAPI  : SPECTROSCOPY GAMMA RAY FROM DENSITY LOG
SPHI_LS.DEC   : SONIC POROSITY [LIMESTONE]
TEND   .LB    : TENSION FROM DENSITY LOG
TENR   .LB    : TENSION FROM RESISTIVITY LOG
TENS   .N/A   : TENSION FROM SONIC LOG
TNPH_LS.DEC   : THERMAL NEUTRON POROSITY [LIMESTONE]
VPVS   .VPVS  : COMPRESSIONAL TO SHEAR VELOCITY RATIO
~Params ----------------------------------------------------
~Other -----------------------------------------------------
~ASCII -----------------------------------------------------
# ...
 4581.00000    8.47400    9.29830    8.87010    7.64160   -0.15350    0.01230   51.91460   51.57450   50.10520   57.56740   97.21550   96.32410    0.00010    8.50760  366.74960  393.80390 1620.08260    5.32440    2.96350    9.72270    0.03140 2366.64060 2557.85260 2553.06950   -0.00640    1.87900
 4581.50000    8.47390    9.30030    8.87610    8.82740   -0.14440    0.00660   52.42470   52.08990   50.47000   57.82450   98.14120   96.61720    0.00110   10.21960  348.54880  312.05470 1098.77160    5.00940    2.95010   12.22310    0.03390 2332.01620 2530.40180 2575.00480   -0.00480    1.87600
 4582.00000    8.47380    9.30030    8.88200    9.35440   -0.13520    0.00330   52.50490   52.34430   50.67170   58.12450   98.34690   96.55790    0.00200   12.31310  243.03290  230.30540  450.34120    4.69410    2.94000   14.44120    0.03350 2332.01620 2512.39730 2547.46200   -0.00230    1.87230
 4582.50000    8.47370    9.30030    8.87390    9.48610   -0.13250   -0.00040   51.89360   52.29980   50.87330   58.46740   98.65550   96.49860    0.00290   13.56230  220.56700  206.67470  378.58590    4.58650    2.93340   14.92130    0.03130 2335.31010 2498.52490 2517.28300    0.00030    1.86860
 4583.00000    8.47370    9.30030    8.89470    9.48610   -0.13490    0.00120   51.36760   52.19290   50.67170   58.46740   98.65550   96.43930    0.00270   12.72430  358.81910  316.37810 1172.77490    4.73340    2.92860   14.09330    0.02770 2351.77910 2501.18060 2487.10410    0.00000    1.86730
 4583.50000    8.47360    9.30030    8.91560    8.51440   -0.13790    0.00320   50.84150   52.11280   50.26840   58.33880   97.89630   96.40150    0.00160   11.66440  694.30010  585.38680  453.97220    4.91640    2.93110   12.78780    0.02400 2368.24810 2503.83630 2483.32370   -0.00160    1.86580
 4584.00000    8.46620    9.30030    8.93640    6.94990   -0.14080    0.00520   50.42070   51.79210   49.86520   57.90410   96.94740   95.20450    0.00010   11.67200 1029.78120  854.39540 1544.67820    5.09940    2.93370   11.56580    0.02040 2371.54190 2521.93620 2495.36240   -0.00320    1.86290
 4584.50000    8.46840    9.30030    8.94280    6.45580   -0.14230    0.00760   50.18020   51.07070   48.99160   57.13890   95.99840   94.00740    0.00010   12.36050 1231.01650 1123.40410 1850.45700    5.28240    2.93550   12.42170    0.01750 2371.54190 2531.91230 2508.66570   -0.00440    1.86180
 4585.00000    8.47400    9.30030    8.93940    8.25100   -0.14150    0.01000   50.10010   50.26910   48.31960   56.37360   95.04950   92.81040    0.00050   14.06620 1201.20920 1089.56170 1769.68200    5.30510    2.93120   15.48070    0.01790 2371.54190 2547.07600 2521.96890   -0.00350    1.86380
 4585.50000    8.47400    9.30030    8.93840   10.41500   -0.13210    0.01170   51.77400   50.62480   48.45400   55.60830   94.41270   92.91120    0.00250   17.45810 1028.74480  831.65160 1619.24200    5.02460    2.91780   18.99960    0.02590 2371.54190 2570.02120 2535.27220    0.00010    1.86290
 4586.00000    8.47400    9.30030    8.94660   13.99950   -0.11810    0.01310   53.44790   51.75200   49.29400   54.99600   96.62250   94.94740    0.00580   20.03110  798.21720  550.21170  842.77070    4.75810    2.90480   22.51850    0.03710 2371.54190 2582.64070 2548.57540    0.00910    1.86490
 4586.50000    8.47400    9.30030    8.93550   16.88340   -0.10730    0.01450   55.12190   52.87930   50.47000   54.86750   98.83230   97.50110    0.01060   22.77090  416.23470  352.28040   66.29950    4.53290    2.89330   25.49400    0.04840 2371.54190 2556.96660 2558.99100    0.01810    1.87600
 4587.00000    8.47400    9.30030    8.90950   17.50190   -0.10880    0.01600   55.90600   53.71600   51.64610   54.86750  101.04200  100.05480    0.01550   24.50970   86.45240  154.34910   32.19430    4.48520    2.88760   25.28520    0.05560 2371.54190 2531.29240 2558.99100    0.02710    1.87950
 4587.50000    8.47400    9.30030    8.90560   16.32410   -0.11030    0.01780   55.63110   53.95640   52.28450   54.86750  102.42680  101.07620    0.01980   24.40830   37.82760   35.58940   27.97840    4.33020    2.87940   22.54940    0.05560 2371.54190 2523.92870 2558.99100    0.03260    1.88120
 4588.00000    8.47400    9.30030    8.90900   13.51020   -0.10150    0.01450   54.71370   53.95640   52.28450   54.86750  102.96970  101.07620    0.02250   22.32450   39.93980   35.99250   68.41710    3.98340    2.86110   19.89450    0.05000 2371.54190 2533.90480 2558.99100    0.03720    1.88270
 4588.50000    8.47400    9.30030    8.92760   12.38470   -0.08530    0.01150   54.02790   54.03660   52.28450   54.89260  102.04110  100.66300    0.02780   20.67580   40.85970   38.01580   84.58920    3.68570    2.84270   19.76280    0.04670 2371.54190 2536.23250 2558.99100    0.04370    1.88370
 4589.00000    8.47400    9.30030    8.93710   13.90480   -0.06800    0.01050   54.66250   54.08470   52.28450   54.95530  101.48400  100.61260    0.03640   20.65040   37.83160   39.46940   43.47540    3.47650    2.82440   23.48950    0.04830 2371.54190 2527.91910 2545.67280    0.05470    1.87880
 4589.50000    8.47400    9.30030    8.94650   15.41500   -0.05120    0.01000   55.29710   54.25640   52.28450   55.01800  101.77970  100.56210    0.04500   23.29400   33.47570   37.48450   18.98660    3.36790    2.80610   28.65610    0.05230 2371.54190 2519.60570 2535.29700    0.06980    1.87400
 4590.00000    8.47400    9.30800    8.95600   15.21310   -0.04060    0.00950   55.63110   54.35550   52.68770   55.08070  101.97260  100.51170    0.05850   24.44850   29.36370   32.32900   23.66650    3.25690    2.78970   32.48810    0.05670 2371.54190 2500.20780 2524.92110    0.08490    1.86910
 4590.50000    8.47400    9.31560    8.96540   15.01130   -0.03350    0.00900   55.54770   54.50020   52.86050   55.14340  102.16540  100.47140    0.07540   25.45790   25.74050   30.71860   19.34390    3.14590    2.77610   32.80610    0.05850 2371.54190 2478.03870 2514.54530    0.09450    1.86420
 4591.00000    8.47400    9.32320    8.97490   14.81390   -0.03480    0.01050   55.34460   54.82770   53.09090   55.20610  102.35830  100.47140    0.08340   26.46740   25.61760   30.92300   16.90460    3.03490    2.76810   32.00090    0.05640 2371.54190 2478.03870 2504.16940    0.09680    1.86150
 4591.50000    8.47400    9.33080    8.98440   14.63410   -0.03690    0.00980   55.30160   55.15510   53.29250   55.26890  102.51260  100.47140    0.08200   27.23090   25.56260   31.45350   20.30500    2.94450    2.76850   31.35680    0.05510 2371.54190 2500.20780 2493.79360    0.09920    1.86270
 4592.00000    8.47400    9.33840    8.99380   16.26480   -0.03490    0.00910   55.76880   55.17810   53.29250   55.33160  102.89820  100.74020    0.07940   27.96990   25.39560   29.38620   20.24480    2.94950    2.76900   32.63720    0.05870 2371.54190 2519.15660 2529.61220    0.10120    1.86390
 4592.50000    8.47400    9.34600    9.00330   18.69320   -0.03280    0.00810   56.51400   55.22200   53.29250   55.38170  103.51400  101.07620    0.08410   30.82600   22.97570   27.31880   14.99390    3.19300    2.76940   35.83820    0.06470 2396.71320 2525.22450 2551.10320    0.10430    1.86510
 4593.00000    8.47400    9.35360    9.01270   21.12150   -0.03720    0.00610   57.25920   55.65410   54.19980   55.69030  104.12300  102.63410    0.08890   35.09360   21.39390   25.25150   12.74390    3.57170    2.77840   39.65720    0.06950 2378.76530 2531.29240 2572.59420    0.10470    1.86620
 4593.50000    8.47400    9.36130    9.01270   20.90360   -0.04740    0.00440   57.77430   56.08620   54.70380   56.59030  104.73210  104.19200    0.08850   38.50760   21.90990   24.00820   12.39550    4.03690    2.80040   38.28360    0.07070 2371.15860 2517.94300 2594.08520    0.10310    1.86860
 4594.00000    8.47400    9.36890    9.01530   17.38580   -0.06750    0.00560   56.89550   55.89620   54.30060   57.31030  105.34110  104.50360    0.07030   36.62880   26.04340   30.29020   17.77890    4.10650    2.82520   31.41590    0.06820 2370.44600 2517.94300 2594.08520    0.08870    1.86320
