~Version ---------------------------------------------------
VERS.   2.0 : CWLS log ASCII Standard -VERSION 2.0
WRAP.    NO : One line per depth step
DLM . SPACE : Column Data Section Delimiter
~Well ------------------------------------------------------
STRT .FT                  72.0 : START DEPTH
STOP .FT                5114.0 : STOP DEPTH
STEP .FT                   0.5 : STEP
NULL .                -9999.25 : NULL VALUE
COMP .                         : COMPANY
WELL .                         : WELL
FLD  .                         : FIELD
LOC  .                         : LOCATION
PROV .                         : PROVINCE
CNTY .                         : COUNTY
STAT .                         : STATE
CTRY .                         : COUNTRY
SRVC .                         : SERVICE COMPANY
DATE .                         : DATE
UWI  .                         : UNIQUE WELL ID
API  .                         : API NUMBER
SLAT .WGS84 3.1859088553595996 : SURFACE LATITUDE
SLON .WGS84  6.767986511777991 : SURFACE LONGITUDE
DATUM.F                3150.12 : DEPTH DATUM ELEV
~Curve Information -----------------------------------------
DEPT   .FT    : 
CAL1R  .IN    : CALIPER 1 FROM RESISTIVITY LOG
CALD   .IN    : CALIPER FROM DENSITY LOG
CALSR  .IN    : MICRO RESISTIVITY CALIPER FROM RESISTIVITY
CGRD   .GAPI  : CORRECTED GAMMA RAY FROM DENSITY LOG
DPHI_LS.DEC   : DENSITY POROSITY LIMESTONE
DRHO   .G/C3  : BULK DENSITY CORRECTION
DT     .US/F  : DELTA-T (INTERVAL TRANSIT TIME)
DTCO   .US/F  : DELTA-T COMPRESSIONAL
DTCO_1 .US/F  : DELTA-T COMPRESSIONAL
DTRP   .US/F  : DELTA-T COMPRESSIONAL, RECEIVER ARRAY - MONOPOLE P & S
DTRS   .US/F  : DELTA-T SHEAR, RECEIVER ARRAY - MONOPOLE P & S
DTSM   .US/F  : DELTA-T SHEAR
ENPH_LS.DEC   : EPITHERMAL NEUTRON POROSITY (LIMESTONE)
GRR    .GAPI  : GAMMA RAY FROM RESISTIVITY LOG
LLD    .OHMM  : LATEROLOG DEEP RESISTIVITY
LLS    .OHMM  : LATEROLOG SHALLOW RESISTIVITY
MSFL   .OHMM  : MICRO SPHERICALLY FOCUSED RESISTIVITY
PEF    .B/E   : PHOTOELECTRIC FACTOR
RHOB   .G/C3  : BULK DENSITY
SGRDD  .GAPI  : SPECTROSCOPY GAMMA RAY FROM DENSITY LOG
SPHI_LS.DEC   : SONIC POROSITY [LIMESTONE]
TEND   .LB    : TENSION FROM DENSITY LOG
TENR   .LB    : TENSION FROM RESISTIVITY LOG
TENS   .N/A   : TENSION FROM SONIC LOG
TNPH_LS.DEC   : THERMAL NEUTRON POROSITY [LIMESTONE]
VPVS   .VPVS  : COMPRESSIONAL TO SHEAR VELOCITY RATIO
~Params ----------------------------------------------------
~Other -----------------------------------------------------
~ASCII -----------------------------------------------------
# ...
 2826.00000   11.18110   -9999.25   11.88410   -9999.25   -9999.25   -9999.25   82.95590   81.18570   78.46780   79.67340  153.92110  157.72990   -9999.25   32.20620  188.57620   45.82210    3.27760   -9999.25   -9999.25   34.79540    0.24760 1993.10300 1914.20300 1947.73080    0.03020    1.93260
 2826.50000   11.18090   -9999.25   11.63830   -9999.25   -9999.25   -9999.25   86.87960   84.34720   82.70160   83.27470  158.96390  157.52830   -9999.25   36.71250   20.19320   18.49100    4.64050   -9999.25   -9999.25   41.97230    0.27800 1987.01630 1914.20300 1946.01150    0.06790    1.89430
 2827.00000   11.18500   -9999.25   11.53990   -9999.25   -9999.25   -9999.25   86.23830   84.34720   82.97040   84.30410  158.96590  156.31860   -9999.25   36.66310   16.36720   18.17530    5.00810   -9999.25   -9999.25   45.08100    0.27910 1980.92950 1914.20300 1954.74780    0.08280    1.85980
 2827.50000   11.20620   -9999.25   11.57160   -9999.25   -9999.25   -9999.25   82.32130   83.41200   81.29550   84.17630  155.68040  152.20590   -9999.25   34.51190   17.97780   18.85080    3.67390   -9999.25   -9999.25   45.18300    0.24890 1974.84280 1914.20300 1963.48400    0.07750    1.82530
 2828.00000   11.22730   -9999.25   11.60130   -9999.25   -9999.25   -9999.25   78.40440   81.67520   79.84810   82.93430  150.90160  148.07290   -9999.25   32.51380   20.99580   24.59790    0.93980   -9999.25   -9999.25   43.51270    0.21530 1968.75610 1927.82870 1972.22020    0.06910    1.80070
 2828.50000   11.23320   -9999.25   11.53850   -9999.25   -9999.25   -9999.25   76.49870   79.93840   78.40070   81.69230  144.87480  142.73040   -9999.25   31.41340   25.98040   30.34490    1.95520   -9999.25   -9999.25   40.79190    0.20530 1965.10400 1943.05500 1980.95650    0.06080    1.79860
 2829.00000   11.21620   -9999.25   11.33480   -9999.25   -9999.25   -9999.25   77.39050   79.69790   78.13180   80.32180  143.54230  142.74380   -9999.25   30.88980   29.45870   33.81000    4.42080   -9999.25   -9999.25   38.94720    0.20640 1965.41600 1952.51570 1989.69270    0.05550    1.83010
 2829.50000   11.19920   -9999.25   11.13110   -9999.25   -9999.25   -9999.25   78.54280   79.53760   78.13180   80.19400  146.81950  148.45600   -9999.25   30.25820   27.96850   32.26420    2.28230   -9999.25   -9999.25   37.68680    0.21350 1976.15940 1961.97640 1998.42900    0.05770    1.87200
 2830.00000   11.18210   -9999.25   10.96800   -9999.25   -9999.25   -9999.25   79.50470   79.21690   78.13180   80.17840  150.09680  154.16820   -9999.25   29.73420   26.47830   28.28410    2.53780   -9999.25   -9999.25   35.59900    0.22180 2001.62920 1971.43710 2007.16520    0.06040    1.91380
 2830.50000   11.16510   -9999.25   10.88820   -9999.25   -9999.25   -9999.25   79.50470   78.57570   78.13180   80.10210  153.37410  156.11700   -9999.25   29.22580   24.98820   24.94720    3.24420   -9999.25   -9999.25   33.54680    0.22560 2027.09910 1980.89780 2015.90140    0.06320    1.95650
 2831.00000   11.14810   -9999.25   10.90320   -9999.25   -9999.25   -9999.25   77.30960   76.26120   77.05660   79.58000  155.81270  154.42670   -9999.25   27.63370   23.49800   25.10000    2.81930   -9999.25   -9999.25   31.88590    0.21200 2031.33420 1990.35840 2015.92940    0.06370    2.00230
 2831.50000   11.13110   -9999.25   11.02320   -9999.25   -9999.25   -9999.25   74.11860   73.94670   73.72340   76.88050  156.11470  151.01490   -9999.25   24.24180   32.20260   33.85560    1.23260   -9999.25   -9999.25   27.45150    0.19200 2002.31250 1999.81910 2013.06380    0.05870    2.04040
 2832.00000   11.35170   -9999.25   11.18160   -9999.25   -9999.25   -9999.25   70.92750   71.63220   70.22890   73.72030  151.00630  147.60310   -9999.25   22.40230   56.19950   58.71940    1.01300   -9999.25   -9999.25   25.13780    0.17190 1930.87530 2009.27980 2010.19830    0.04560    2.06630
 2832.50000   11.71240   -9999.25   11.34010   -9999.25   -9999.25   -9999.25   70.88750   71.45560   68.72360   71.82440  148.01910  146.03670   -9999.25   19.73800   80.19640   83.58330    3.20490   -9999.25   -9999.25   22.72670    0.16820 1839.65020 2000.80650 2007.33270    0.03250    2.08310
 2833.00000   12.07310   -9999.25   11.46680   -9999.25   -9999.25   -9999.25   72.48620   72.88710   70.94130   72.91830  151.11960  152.80490   -9999.25   18.78700   89.24920   88.34180    0.88950   -9999.25   -9999.25   21.87500    0.18180 1826.74740 2014.95620 2004.46720    0.02720    2.09460
 2833.50000   12.14520   -9999.25   11.49680   -9999.25   -9999.25   -9999.25   75.38090   74.31850   72.84530   74.52670  156.07170  157.32670   -9999.25   19.64710   68.00860   64.43950    1.09740   -9999.25   -9999.25   21.68310    0.19790 1868.32520 1985.08980 2001.60160    0.03080    2.10250
 2834.00000   11.94970   -9999.25   11.52670   -9999.25   -9999.25   -9999.25   76.92620   75.75000   74.90610   76.07070  158.13940  156.26820   -9999.25   20.40100   46.76800   40.53710    1.58990   -9999.25   -9999.25   21.78760    0.21230 1911.41360 1955.22330 1998.73610    0.04870    2.08960
 2834.50000   11.70530   -9999.25   11.48870   -9999.25   -9999.25   -9999.25   77.72120   77.18140   75.98140   77.35720  158.18420  156.11700   -9999.25   21.49960   33.00110   26.19570    0.61230   -9999.25   -9999.25   22.53770    0.21470 1954.50200 1925.35680 1995.87050    0.06670    2.06860
 2835.00000   11.46090   -9999.25   11.45070   -9999.25   -9999.25   -9999.25   78.32240   77.01250   76.45180   78.64380  157.52190  156.31860   -9999.25   21.60530   34.18940   27.50650    0.76670   -9999.25   -9999.25   23.71770    0.21310 1997.59050 1919.38350 1993.00500    0.06750    2.04770
 2835.50000   11.21640   -9999.25   11.41270   -9999.25   -9999.25   -9999.25   76.61900   76.31110   76.51900   78.32600  156.41680  155.03340   -9999.25   22.04710   40.05850   33.87650    0.96660   -9999.25   -9999.25   26.03260    0.20890 2019.81040 1919.38350 1990.13940    0.06290    2.02680
 2836.00000   11.01150   -9999.25   11.37470   -9999.25   -9999.25   -9999.25   76.81940   76.29680   75.71250   77.79580  155.31180  152.89130   -9999.25   23.39510   51.97290   41.20380    0.62810   -9999.25   -9999.25   28.34750    0.20610 2023.69090 1919.38350 1988.99320    0.05840    2.01490
 2836.50000   10.82950   -9999.25   11.36710   -9999.25   -9999.25   -9999.25   77.14000   76.64030   75.26460   77.26560  154.20680  153.77340   -9999.25   27.42420   62.85740   48.12350   12.58530   -9999.25   -9999.25   31.19360    0.20720 2009.38970 1919.38350 1987.40130    0.05380    2.03940
 2837.00000   10.64760   -9999.25   11.47590   -9999.25   -9999.25   -9999.25   76.21010   76.13930   74.90610   76.73540  155.61140  156.16740   -9999.25   30.57660   67.73860   53.41310   50.27040   -9999.25   -9999.25   34.17240    0.19990 1991.28100 1919.38350 1979.44170    0.04920    2.07100
 2837.50000   10.46570   -9999.25   11.58470   -9999.25   -9999.25   -9999.25   74.37450   75.73850   74.90610   76.20510  157.36670  157.86430   -9999.25   33.62710   71.64350   58.70260   18.34970   -9999.25   -9999.25   37.15130    0.19110 1973.17240 1929.75460 1971.48210    0.04460    2.10250
 2838.00000   10.37450   -9999.25   11.84090   -9999.25   -9999.25   -9999.25   75.97770   76.15980   74.90610   76.20580  158.07010  157.93150   -9999.25   35.85760   70.34360   60.81850    1.73440   -9999.25   -9999.25   38.97680    0.19630 1955.06370 1940.12560 1963.52250    0.04000    2.07270
 2838.50000   10.29960   -9999.25   11.62400   -9999.25   -9999.25   -9999.25   77.73120   77.13280   74.90610   77.13520  157.68640  156.92350   -9999.25   37.24060   63.70030   54.99420    0.77720   -9999.25   -9999.25   40.51410    0.20690 1928.27240 1950.49670 1962.13390    0.04180    2.03540
 2839.00000   10.22480   -9999.25   11.33360   -9999.25   -9999.25   -9999.25   78.90350   76.69190   75.44380   77.63120  156.40270  155.20540   -9999.25   37.51000   56.99170   48.63680    0.51700   -9999.25   -9999.25   41.43740    0.21760 1924.05780 1960.86770 1971.11040    0.05170    2.00120
