~Version ---------------------------------------------------
VERS.   2.0 : CWLS log ASCII Standard -VERSION 2.0
WRAP.    NO : One line per depth step
DLM . SPACE : Column Data Section Delimiter
~Well ------------------------------------------------------
STRT .FT                  72.0 : START DEPTH
STOP .FT                5114.0 : STOP DEPTH
STEP .FT                   0.5 : STEP
NULL .                -9999.25 : NULL VALUE
COMP .                         : COMPANY
WELL .                         : WELL
FLD  .                         : FIELD
LOC  .                         : LOCATION
PROV .                         : PROVINCE
CNTY .                         : COUNTY
STAT .                         : STATE
CTRY .                         : COUNTRY
SRVC .                         : SERVICE COMPANY
DATE .                         : DATE
UWI  .                         : UNIQUE WELL ID
API  .                         : API NUMBER
SLAT .WGS84 3.1859088553595996 : SURFACE LATITUDE
SLON .WGS84  6.767986511777991 : SURFACE LONGITUDE
DATUM.F                3150.12 : DEPTH DATUM ELEV
~Curve Information -----------------------------------------
DEPT   .FT    : 
CAL1R  .IN    : CALIPER 1 FROM RESISTIVITY LOG
CALD   .IN    : CALIPER FROM DENSITY LOG
CALSR  .IN    : MICRO RESISTIVITY CALIPER FROM RESISTIVITY
CGRD   .GAPI  : CORRECTED GAMMA RAY FROM DENSITY LOG
DPHI_LS.DEC   : DENSITY POROSITY LIMESTONE
DRHO   .G/C3  : BULK DENSITY CORRECTION
DT     .US/F  : DELTA-T (INTERVAL TRANSIT TIME)
DTCO   .US/F  : DELTA-T COMPRESSIONAL
DTCO_1 .US/F  : DELTA-T COMPRESSIONAL
DTRP   .US/F  : DELTA-T COMPRESSIONAL, RECEIVER ARRAY - MONOPOLE P & S
DTRS   .US/F  : DELTA-T SHEAR, RECEIVER ARRAY - MONOPOLE P & S
DTSM   .US/F  : DELTA-T SHEAR
ENPH_LS.DEC   : EPITHERMAL NEUTRON POROSITY (LIMESTONE)
GRR    .GAPI  : GAMMA RAY FROM RESISTIVITY LOG
LLD    .OHMM  : LATEROLOG DEEP RESISTIVITY
LLS    .OHMM  : LATEROLOG SHALLOW RESISTIVITY
MSFL   .OHMM  : MICRO SPHERICALLY FOCUSED RESISTIVITY
PEF    .B/E   : PHOTOELECTRIC FACTOR
RHOB   .G/C3  : BULK DENSITY
SGRDD  .GAPI  : SPECTROSCOPY GAMMA RAY FROM DENSITY LOG
SPHI_LS.DEC   : SONIC POROSITY [LIMESTONE]
TEND   .LB    : TENSION FROM DENSITY LOG
TENR   .LB    : TENSION FROM RESISTIVITY LOG
TENS   .N/A   : TENSION FROM SONIC LOG
TNPH_LS.DEC   : THERMAL NEUTRON POROSITY [LIMESTONE]
VPVS   .VPVS  : COMPRESSIONAL TO SHEAR VELOCITY RATIO
~Params ----------------------------------------------------
~Other -----------------------------------------------------
~ASCII -----------------------------------------------------
# ...
 4743.00000    8.23460    8.99930    8.30050    7.91180   -0.07570    0.01220   49.95980   51.49150   49.67080   54.95890   95.73360   93.54960    0.03560   14.86430  684.00870  627.98930  581.49260    3.64450    2.84110   16.83190    0.01670 2442.22570 2524.30290 2560.17760    0.05060    1.82630
 4743.50000    8.23460    8.98970    8.29440    8.79260   -0.07100    0.01010   50.30710   51.33120   49.68880   54.74460   95.13090   92.81040    0.03970   16.40530  681.92660  609.11010  502.41570    3.47370    2.82220   18.52140    0.01950 2445.08510 2553.04130 2566.64650    0.05270    1.83530
 4744.00000    8.23460    8.98010    8.29440    9.72140   -0.06640    0.00780   50.61110   51.47690   49.70680   54.31610   94.21030   93.51600    0.04440   18.21460  587.99650  478.03770  351.70770    3.48840    2.80320   20.20740    0.02300 2404.76450 2577.88860 2598.99140    0.05860    1.85040
 4744.50000    8.23460    8.97050    8.29440   10.65030   -0.06110    0.00540   51.06200   51.62270   49.72480   54.16090   93.29190   94.62480    0.04920   19.85230  448.66080  346.96530  206.34830    3.56210    2.79190   21.87950    0.02650 2364.44390 2597.76640 2631.33620    0.06480    1.86080
 4745.00000    8.23650    8.96080    8.29440   11.02700   -0.05400    0.00540   51.51290   51.78750   49.74280   54.11660   92.37360   94.62480    0.05560   22.24010  309.32510  215.89290   81.72630    3.67430    2.79190   23.34940    0.03000 2364.12550 2589.45300 2631.33620    0.07280    1.85000
 4745.50000    8.23850    8.95120    8.29440   10.25350   -0.05190    0.00610   51.96380   51.88000   49.76080   54.07220   91.45520   94.63440    0.06020   23.41940  169.98930   83.79160   39.87110    3.69530    2.79190   23.61600    0.03210 2364.12550 2581.13970 2610.44190    0.07620    1.83920
 4746.00000    8.24050    8.94160    8.31600    8.30820   -0.05550    0.00690   52.12410   51.97250   49.77880   54.02790   90.55810   94.65840    0.05770   24.64810   86.38790   81.27260   40.05410    3.58590    2.79430   23.88230    0.03190 2365.35140 2562.32040 2589.54760    0.07400    1.83570
 4746.50000    8.24240    8.92870    8.32410    7.52190   -0.06040    0.00780   51.85160   52.03310   49.79680   53.98360   90.01420   94.68240    0.05460   25.86800  119.95830   81.27260  102.41300    3.47870    2.80030   26.52500    0.03000 2381.02490 2556.00760 2568.65330    0.07100    1.84350
 4747.00000    8.24440    8.92870    8.33220    8.28180   -0.06060    0.00760   51.61110   51.99540   49.81480   53.93920   89.47020   94.70640    0.05160   26.57440   85.26500   80.77850   71.20690    3.58210    2.80620   31.28060    0.02770 2396.69850 2524.94130 2547.75900    0.06870    1.85140
 4747.50000    8.24630    8.92920    8.34030    9.23740   -0.06120    0.00250   51.37060   51.75290   49.83280   53.94640   89.36140   94.73040    0.05080   27.31610   64.44900   60.26420   40.00090    3.74380    2.81220   31.28430    0.02740 2405.07610 2508.08590 2531.04360    0.06450    1.86100
 4748.00000    8.24830    8.92960    8.34840    8.44780   -0.06610    0.00220   51.68320   51.51040   49.85080   53.75890   89.42190   94.75440    0.04780   27.86310   77.43320   62.57540   37.46140    3.98440    2.81820   27.97880    0.03060 2411.62980 2481.76980 2510.57580    0.05680    1.86290
 4748.50000    8.25020    8.93730    8.35650    9.98060   -0.07440    0.00250   52.04390   51.26790   49.66360   53.57140   89.49750   94.77840    0.04150   27.77440   99.71200   77.78890   76.72780    4.22500    2.84340   28.31090    0.03140 2418.18350 2463.33900 2490.10800    0.04820    1.86430
 4749.00000    8.25220    8.94510    8.36450   12.09560   -0.08540    0.00310   52.04390   51.09070   49.66360   53.38390   89.57320   94.80240    0.03520   28.00270   97.60390   87.98430   77.61160    4.30890    2.85280   29.56570    0.03070 2424.73720 2481.42080 2473.73380    0.03910    1.86720
 4749.50000    8.25410    8.95280    8.37260   12.76000   -0.09430    0.00380   52.92750   51.41140   49.66360   53.19640   89.74710   94.82640    0.02900   27.79760  123.94510   91.40650   82.18150    4.17770    2.85280   29.96410    0.03510 2431.29090 2508.88880 2502.40210    0.03880    1.87030
 4750.00000    8.25450    8.96050    8.38070   13.41690   -0.08860    0.00440   55.13640   52.53360   50.36920   53.82450   92.70420   97.31690    0.02650   27.72760  215.34920  103.11550  183.99870    3.84350    2.83070   30.82990    0.04710 2435.22310 2536.09630 2538.23740    0.03880    1.87150
 4750.50000    8.27450    8.96830    8.38880   15.41610   -0.06950    0.00550   57.34530   54.13680   51.88130   55.22360   98.16840   99.80730    0.03660   28.66460  235.05900   72.15470  168.83600    3.50920    2.80850   34.78110    0.06320 2435.22310 2560.16380 2574.07270    0.04920    1.87010
 4751.00000    8.27450    8.97600    8.39690   19.38300   -0.04530    0.00670   59.55420   55.74000   53.39330   56.62270  103.63250  102.29770    0.05340   33.81880  159.27310   41.82070   82.35420    3.45080    2.78640   38.86020    0.07920 2435.22310 2585.51000 2602.74090    0.06580    1.86770
 4751.50000    8.27450    8.98370    8.40500   21.23890   -0.03680    0.00790   59.57900   57.34320   54.90540   58.02180  106.26820  104.10030    0.07020   38.60730   66.32690   29.32700   13.16870    3.58500    2.77660   41.75070    0.08280 2435.22310 2604.74920 2602.74090    0.08720    1.86360
 4752.00000    8.27450    8.99150    8.41310   20.01870   -0.04260    0.00900   58.11270   57.42340   56.11500   58.08740  106.97530  104.70520    0.07640   39.98970   29.32700   35.99450   13.21400    3.77490    2.78160   39.95700    0.07570 2449.85640 2608.76620 2602.74090    0.10430    1.85910
 4752.50000    8.27450    8.99920    8.42120   18.43230   -0.05330    0.00900   56.64640   56.98250   55.91340   57.55170  106.56930  105.10840    0.06900   38.79460   40.21750   44.10430   24.52540    3.96480    2.79380   36.97090    0.06780 2430.87850 2597.57580 2600.57010    0.09880    1.85430
 4753.00000    8.27450    9.00210    8.42930   17.70950   -0.06690    0.00900   55.64630   56.38130   54.82980   57.01600  105.55430  103.32490    0.05690   34.41730   51.10800   48.97020  166.31720    4.25140    2.81930   34.36390    0.05990 2415.69610 2577.81430 2598.39930    0.07510    1.85600
 4753.50000    8.27450    9.01430    8.43410   16.98680   -0.08510    0.00900   55.58410   55.90030   53.69580   56.48030  104.53930  101.54150    0.04780   29.24810   53.99400   48.97020   67.57630    4.51170    2.85230   29.74030    0.05400 2456.42010 2577.81430 2596.22840    0.05140    1.86290
 4754.00000    8.27450    9.01390    8.43410   16.26400   -0.10000    0.00900   55.58070   55.67320   53.09090   55.94460  103.52430  100.37060    0.03950   22.47290   64.93320   78.85230    8.33170    4.83890    2.88530   23.44000    0.05580 2506.93300 2587.79040 2594.05760    0.03280    1.85280
 4754.50000    8.27450    9.01350    8.42640   15.54120   -0.12320    0.00900   55.57720   55.90700   53.30690   56.20170  102.91620  100.47140    0.03110   17.16670   76.91630  146.64420   90.47390    4.97890    2.90520   17.10480    0.05840 2537.55440 2604.59130 2591.88670    0.02180    1.84270
 4755.00000    8.25450    9.01310    8.41680   15.13190   -0.12440    0.00810   55.57380   56.14080   53.52290   56.98740  102.73250  100.81700    0.02280   14.26020   80.77850  214.43610  141.51460    4.97890    2.91080   15.26110    0.06040 2518.18900 2615.96610 2589.71590    0.01300    1.83260
 4755.50000    8.25450    9.01280    8.40720   14.60280   -0.12130    0.00720   55.45650   56.06070   53.69580   56.76840  102.56890  101.27790    0.01550   14.10880   83.28150   67.26250  116.38300    4.96500    2.91060   15.05120    0.05900 2498.82360 2555.46800 2588.41340    0.00810    1.83490
 4756.00000    8.25450    8.98720    8.39770   14.07370   -0.12170    0.00720   55.28470   55.52960   53.29250   56.14930  102.51050  100.67300    0.00900   14.69720  118.94530  116.33920   80.80360    4.87810    2.90820   14.07950    0.05400 2487.75030 2532.02420 2588.41340    0.00700    1.84570
