~Version ---------------------------------------------------
VERS.   2.0 : CWLS log ASCII Standard -VERSION 2.0
WRAP.    NO : One line per depth step
DLM . SPACE : Column Data Section Delimiter
~Well ------------------------------------------------------
STRT .FT                  72.0 : START DEPTH
STOP .FT                5114.0 : STOP DEPTH
STEP .FT                   0.5 : STEP
NULL .                -9999.25 : NULL VALUE
COMP .                         : COMPANY
WELL .                         : WELL
FLD  .                         : FIELD
LOC  .                         : LOCATION
PROV .                         : PROVINCE
CNTY .                         : COUNTY
STAT .                         : STATE
CTRY .                         : COUNTRY
SRVC .                         : SERVICE COMPANY
DATE .                         : DATE
UWI  .                         : UNIQUE WELL ID
API  .                         : API NUMBER
SLAT .WGS84 3.1859088553595996 : SURFACE LATITUDE
SLON .WGS84  6.767986511777991 : SURFACE LONGITUDE
DATUM.F                3150.12 : DEPTH DATUM ELEV
~Curve Information -----------------------------------------
DEPT   .FT    : 
CAL1R  .IN    : CALIPER 1 FROM RESISTIVITY LOG
CALD   .IN    : CALIPER FROM DENSITY LOG
CALSR  .IN    : MICRO RESISTIVITY CALIPER FROM RESISTIVITY
CGRD   .GAPI  : CORRECTED GAMMA RAY FROM DENSITY LOG
DPHI_LS.DEC   : DENSITY POROSITY LIMESTONE
DRHO   .G/C3  : BULK DENSITY CORRECTION
DT     .US/F  : DELTA-T (INTERVAL TRANSIT TIME)
DTCO   .US/F  : DELTA-T COMPRESSIONAL
DTCO_1 .US/F  : DELTA-T COMPRESSIONAL
DTRP   .US/F  : DELTA-T COMPRESSIONAL, RECEIVER ARRAY - MONOPOLE P & S
DTRS   .US/F  : DELTA-T SHEAR, RECEIVER ARRAY - MONOPOLE P & S
DTSM   .US/F  : DELTA-T SHEAR
ENPH_LS.DEC   : EPITHERMAL NEUTRON POROSITY (LIMESTONE)
GRR    .GAPI  : GAMMA RAY FROM RESISTIVITY LOG
LLD    .OHMM  : LATEROLOG DEEP RESISTIVITY
LLS    .OHMM  : LATEROLOG SHALLOW RESISTIVITY
MSFL   .OHMM  : MICRO SPHERICALLY FOCUSED RESISTIVITY
PEF    .B/E   : PHOTOELECTRIC FACTOR
RHOB   .G/C3  : BULK DENSITY
SGRDD  .GAPI  : SPECTROSCOPY GAMMA RAY FROM DENSITY LOG
SPHI_LS.DEC   : SONIC POROSITY [LIMESTONE]
TEND   .LB    : TENSION FROM DENSITY LOG
TENR   .LB    : TENSION FROM RESISTIVITY LOG
TENS   .N/A   : TENSION FROM SONIC LOG
TNPH_LS.DEC   : THERMAL NEUTRON POROSITY [LIMESTONE]
VPVS   .VPVS  : COMPRESSIONAL TO SHEAR VELOCITY RATIO
~Params ----------------------------------------------------
~Other -----------------------------------------------------
~ASCII -----------------------------------------------------
# ...
 4108.50000   10.58100    7.72680   11.08060   45.80200    0.17360   -0.00090   67.31430   61.71170   61.48910   62.86930  109.95190  108.53060    0.11360   50.09640   87.21720   56.37070   22.44140    3.11440    2.43280   58.16950    0.14370 2233.11490 2285.17670 2310.24600    0.10530    1.75300
 4109.00000   10.64080    7.75320   11.13370   45.21220    0.17970    0.00240   68.81070   62.91420   61.88990   63.74380  110.19380  108.92310    0.13320   49.74730   74.12920   49.71880   21.29190    3.10080    2.43280   57.42030    0.14650 2211.72510 2314.43950 2335.24520    0.11720    1.73430
 4109.50000   10.70070    7.80600   11.18670   44.61250    0.19140    0.00770   71.54950   63.55550   61.88470   64.03580  110.24270  108.50790    0.15280   49.74730   61.04110   43.06680   14.49280    3.07330    2.43280   56.83650    0.15620 2175.30550 2334.39160 2340.24510    0.12140    1.73290
 4110.00000   10.76050    7.91140   11.23980   43.78830    0.22000    0.01300   74.28830   62.91420   61.15480   63.65160  108.75070  107.33090    0.17250   49.74730   47.95310   37.28900   12.30550    2.97090    2.28480   55.98800    0.18460 2202.50560 2317.09800 2320.24570    0.12550    1.72300
 4110.50000   10.86080    8.06820   11.29280   43.08400    0.27710    0.01830   75.09720   62.83400   61.60840   63.75350  106.88530  106.11610    0.20430   49.74730   34.86510   32.68880    9.38460    2.81790    2.16960   53.83870    0.19500 2247.22070 2290.49300 2300.24630    0.14530    1.67940
 4111.00000   11.02290    8.19970   11.34590   40.53790    0.35490    0.02040   76.00810   64.63760   62.99810   65.75400  106.61470  105.71290    0.24420   49.15370   29.44270   28.08860    7.58550    2.72190    2.07630   50.39830    0.20110 2236.18200 2263.88800 2300.24630    0.16480    1.63590
 4111.50000   11.18500    8.33120   11.42690   35.47660    0.46230    0.01950   76.12530   66.59150   65.59020   67.50080  106.54410  105.17530    0.28410   47.51310   26.16270   23.48840    6.36310    2.60810    2.00160   43.21050    0.20630 2221.50570 2237.28300 2300.24630    0.19930    1.59600
 4112.00000   11.40700    8.51670   11.71550   29.16340    0.59500    0.01780   73.68710   68.54550   66.19500   68.86720  106.37330  104.50330    0.31550   43.98920   26.48420   20.86910    2.94190    2.42050    1.72950   35.23130    0.18980 2201.74440 2260.04320 2310.24600    0.19930    1.56170
 4112.50000   11.65970    9.07590   12.07610   22.85010    0.66010    0.01340   71.24890   69.80800   67.40460   70.68360  106.88850  104.70490    0.37830   36.99100   27.98130   22.45670    0.20500    2.12200    1.56050   28.06700    0.16580 2174.35570 2296.99140 2326.91220    0.18650    1.52740
 4113.00000   11.91240    9.81020   12.40170   16.53690    0.69990    0.00790   70.68110   73.25490   72.04160   76.47020  120.39030  115.72610    0.44110   30.52670   65.73890   34.81690    0.36780    1.82340    1.39150   20.90280    0.16540 2210.20850 2325.07260 2338.20090    0.16510    1.57650
 4113.50000   12.16520   10.54450   12.58700   10.22370    0.69990    0.00240   69.66900   80.68320   76.67850   81.57090  133.89210  128.99850    0.50390   19.85230  103.49660   63.58230    0.47350    1.70420    1.25640   16.07740    0.16580 2335.05780 2325.07260 2327.97990    0.15610    1.62260
 4114.00000   12.45450   11.27880   13.49200    8.96120    0.69990   -0.00310   67.87540   83.84510   81.71870   83.92860  139.29350  137.36520    0.59540   13.72800  153.13190   96.44890    0.19670    1.85140    1.27850   16.07790    0.15080 2339.63490 2325.07260 2317.75890    0.15610    1.66490
 4114.50000   12.90340   11.71940   14.35990   10.96480    0.69960   -0.00550   67.55480   84.71790   82.72670   85.60050  135.78760  136.35710    0.59480   11.24840  211.41960  128.10470    0.19730    2.02710    1.38470   18.46650    0.14330 2253.98300 2325.07260 2307.53800    0.17200    1.62790
 4115.00000   12.82360   11.15670   13.74140   14.08420    0.69820   -0.00620   67.67500   83.73380   82.52510   84.10960  132.28170  132.59380    0.52410   12.59830  168.96330  119.58210    0.19790    2.20270    1.49090   21.98150    0.14490 2199.04320 2331.72280 2380.47840    0.19260    1.60450
 4115.50000   12.11420    9.78240   12.91000   17.20360    0.65090   -0.00620   71.72320   80.94900   80.73310   82.24590  131.71000  128.89770    0.45980   16.46050  126.50700   87.72740    0.19860    2.37830    1.59720   27.18610    0.16610 2149.32710 2381.60330 2448.92200    0.19300    1.60450
 4116.00000   11.22740    9.34320   12.07870   20.53690    0.57290   -0.00330   74.68910   80.76680   79.09780   81.61640  134.56900  130.39850    0.41420   20.47910   84.05070   55.87260    0.56180    2.55390    1.70340   32.39070    0.19300 2119.41130 2373.28990 2405.34950    0.19220    1.63970
 4116.50000   11.09970    8.93170   11.74620   24.01290    0.48370   -0.00050   74.76930   80.03880   78.69460   80.71690  137.07090  133.64670    0.34730   25.33920   41.59450   23.58170    0.19760    2.72950    1.80960   37.59530    0.18730 2159.53800 2327.56640 2373.86090    0.18370    1.68750
 4117.00000   10.96800    8.63170   11.74620   27.48880    0.39170    0.00240   73.37450   77.12780   76.73350   78.79820  137.24350  135.34910    0.28670   28.93060   23.61300   21.35430    0.42590    2.91910    1.91590   42.79990    0.17620 2229.28150 2281.84280 2327.64540    0.17090    1.74450
 4117.50000   10.98800    8.35950   11.74620   30.96470    0.29980    0.00520   71.96370   74.21690   74.13710   76.72100  133.92160  133.65560    0.22360   33.81880   21.38550   20.74210    1.54910    2.94730    2.00080   48.00450    0.17380 2249.73660 2245.26400 2306.64600    0.15810    1.74550
 4118.00000   11.00790    8.32010   11.77470   33.74570    0.19590    0.00810   71.80330   73.38320   71.54060   74.41650  128.64720  128.21220    0.17470   38.51760   22.86850   20.99710   10.67120    2.97550    2.29270   50.22330    0.17180 2224.81890 2245.26400 2285.64660    0.13830    1.74270
 4118.50000   11.04660    8.29380   11.80320   31.25250    0.17930    0.01090   70.76120   70.85010   68.94420   71.84550  123.36690  122.76890    0.13520   41.03010   28.30540   23.29520   14.32000    3.00470    2.32370   45.27530    0.15950 2209.78210 2245.26400 2264.64730    0.11450    1.77270
 4119.00000   11.07780    8.29390   11.83170   27.09630    0.17930    0.01380   69.63900   66.04040   66.34770   69.27450  117.95810  117.32550    0.10720   40.55510   43.89980   34.97950   14.40760    3.01200    2.35470   38.71040    0.14030 2234.06820 2245.26400 2263.25400    0.09070    1.74000
 4119.50000   11.10890    8.33350   11.86020   22.94020    0.18140    0.01750   65.90350   63.40520   63.75130   66.57490  113.73880  111.88210    0.07930   35.61450   66.26570   46.37720   21.31570    3.01930    2.38580   34.90530    0.12110 2274.68790 2255.90690 2298.28630    0.06690    1.73220
 4120.00000   11.14010    8.38470   11.88510   23.45860    0.19090    0.02010   62.13600   62.19280   61.15370   64.25710  109.77670  106.72080    0.06290   30.72450   88.63150   57.77500   30.54650    3.01450    2.40440   34.38740    0.10190 2260.36050 2266.54980 2333.31860    0.04310    1.72800
 4120.50000   11.17130    8.40850   11.89470   25.38960    0.20040    0.01790   59.85950   61.55160   59.83210   61.93930  106.93690  104.90570    0.05420   30.51370  110.99740   84.76260   55.93050    3.01480    2.39870   38.79740    0.08680 2279.64010 2277.19270 2338.76960    0.03610    1.72380
 4121.00000   11.20250    8.39800   11.92070   27.32050    0.20810    0.01490   60.30480   61.31110   58.94450   61.93950  106.11490  103.69600    0.04820   32.22260  145.02870  114.72500   74.56540    3.01520    2.39160   42.62300    0.08960 2269.12290 2287.83560 2334.48140    0.03370    1.71260
 4121.50000   11.22740    8.37170   11.94350   29.25140    0.20990    0.01410   61.01740   61.05060   58.98650   61.93950  105.98710  103.49440    0.04410   38.14530  225.72170  138.69490  265.62310    3.01560    2.38450   44.39530    0.09400 2236.48980 2284.27750 2301.44630    0.03240    1.70790
