~Version ---------------------------------------------------
VERS.   2.0 : CWLS log ASCII Standard -VERSION 2.0
WRAP.    NO : One line per depth step
DLM . SPACE : Column Data Section Delimiter
~Well ------------------------------------------------------
STRT .FT                1162.0 : START DEPTH
STOP .FT                9365.0 : STOP DEPTH
STEP .FT                   0.5 : STEP
NULL .                -9999.25 : NULL VALUE
COMP .                         : COMPANY
WELL .                         : WELL
FLD  .                         : FIELD
LOC  .                         : LOCATION
PROV .                         : PROVINCE
CNTY .                         : COUNTY
STAT .                         : STATE
CTRY .                         : COUNTRY
SRVC .                         : SERVICE COMPANY
DATE .                         : DATE
UWI  .                         : UNIQUE WELL ID
API  .                         : API NUMBER
SLAT .WGS84 6.0167945315952025 : SURFACE LATITUDE
SLON .WGS84  2.904402533678308 : SURFACE LONGITUDE
DATUM.F                    nan : DEPTH DATUM ELEV
~Curve Information -----------------------------------------
DEPT   .FT    : 
AT10   .OHMM  : ARRAY INDUCTION TWO FOOT RESISTIVITY A10
AT20   .OHMM  : ARRAY INDUCTION TWO FOOT RESISTIVITY A20
AT30   .OHMM  : ARRAY INDUCTION TWO FOOT RESISTIVITY A30
AT60   .OHMM  : ARRAY INDUCTION TWO FOOT RESISTIVITY A60
AT90   .OHMM  : ARRAY INDUCTION TWO FOOT RESISTIVITY A90
DPHZ_LS.DEC   : HGRD STANDARD RESOLUTION DENSITY POROSITY
DTCO   .US/F  : DELTA-T COMPRESSIONAL
DTSM   .US/F  : DELTA-T SHEAR
ECGRD  .GAPI  : ENVIRONMENTALLY CORRECTED GAMMA RAY FROM DENSITY LOG
HCALD  .IN    : HRCC CALIPER CALIBRATED FROM DENSITY LOG
HCALS  .IN    : HRCC CALIPER CALIBRATED FROM SONIC LOG
HDRA   .G/C3  : HRDD SPINE AND RIBS DENSITY CORRECTION
PEFZ   .B/E   : HRDD STANDARD RESOLUTION FORMATION PHOTOELECTRIC FACTOR
RHOZ   .G/C3  : HRDD STANDARD RESOLUTION FORMATION DENSITY
SPHI_LS.DEC   : SONIC POROSITY [LIMESTONE]
SPR    .MV    : SPONTANEOUS POTENTIAL FROM RESISTIVITY LOG
TEND   .LBF   : TENSION FROM DENSITY LOG
TENR   .LB    : TENSION FROM RESISTIVITY LOG
TENS   .LBF   : TENSION FROM SONIC LOG
TNPH_LS.DEC   : THERMAL NEUTRON POROSITY [LIMESTONE]
~Params ----------------------------------------------------
~Other -----------------------------------------------------
~ASCII -----------------------------------------------------
# ...
 2019.50000    0.99320    1.20640    1.28200    1.38670    1.42180    0.14690   97.24230  211.70340   99.31100   15.12030   14.70770    0.08750    3.87570    2.46260   -9999.25 -164.09080 3052.81440 3021.44890 3006.58050    0.31830
 2020.00000    0.99600    1.19790    1.28200    1.37250    1.41010    0.13810   94.05950  209.26730   97.70880   14.58860   14.63370    0.08980    3.81050    2.47700   -9999.25 -164.18040 3058.09260 2990.87780 3009.92210    0.30870
 2020.50000    1.00860    1.19100    1.29510    1.39340    1.43680    0.13940   94.08110  208.31040   98.50310   14.83030   14.83570    0.09210    3.80060    2.46900   -9999.25 -164.62800 3063.37080 2984.76360 3013.26370    0.31860
 2021.00000    1.01870    1.19100    1.34720    1.42450    1.47010    0.15350   94.51110  207.60080  102.69580   14.50380   14.47750    0.08880    3.83980    2.43860   -9999.25 -165.07560 3068.64900 3089.67820 3016.60530    0.30140
 2021.50000    0.99420    1.16240    1.29770    1.42370    1.43410    0.17680   93.91830  207.26680  108.00290   14.87560   15.03990    0.07850    3.96510    2.39570   -9999.25 -165.52320 3124.24680 3119.26940 3019.94690    0.28770
 2022.00000    0.96360    1.12680    1.23530    1.41970    1.40690    0.19930   92.96870  204.16010  105.04680   14.88180   14.14990    0.07760    4.11070    2.36150   -9999.25 -165.97080 3126.07260 3032.80280 3023.28850    0.29980
 2022.50000    0.93970    1.09800    1.21250    1.41570    1.38740    0.21400   91.94880  202.96260  106.86300   16.03380   15.71460    0.08520    4.26620    2.33200   -9999.25 -166.23930 3127.89840 3055.37960 3046.20320    0.32210
 2023.00000    0.91080    1.06180    1.17280    1.35370    1.32770    0.23960   91.71200  204.41760  107.45750   15.53490   15.39060    0.08440    4.48760    2.28620   -9999.25 -166.23930 3137.24860 3110.30220 3091.84160    0.35360
 2023.50000    0.92220    1.03280    1.14670    1.35560    1.33000    0.26460   92.07110  205.00180  105.65270   15.21090   15.21320    0.07500    4.67390    2.25230   -9999.25 -166.23930 3157.88560 2998.21610 3037.45340    0.35140
 2024.00000    1.01880    1.18010    1.32540    1.54780    1.61040    0.26020   92.85840  205.54310  102.17310   15.36520   15.28720    0.07270    4.77540    2.26930   -9999.25 -165.73580 3178.52250 3060.98400 3077.41210    0.31660
 2024.50000    1.13230    1.34810    1.53440    1.66310    1.74530    0.24520   93.01050  207.46440   97.27270   15.46810   15.49930    0.07770    4.73840    2.29080   -9999.25 -165.23230 3199.15950 3173.07220 3117.37070    0.29230
 2025.00000    1.04690    1.31760    1.44910    1.52170    1.58910    0.24300   92.58800  208.92390   90.94170   14.51400   14.16960    0.08230    4.62640    2.29320   -9999.25 -164.72890 3172.30750 3127.67630 3119.83420    0.29760
 2025.50000    0.92800    1.20690    1.29090    1.46930    1.43290    0.24940   92.76730  208.65110   91.80950   14.54580   14.84450    0.09090    4.50700    2.28440   -9999.25 -164.62820 3133.58330 3052.01650 3103.64840    0.32500
 2026.00000    0.94530    1.15570    1.25070    1.52460    1.45340    0.23290   93.15060  208.65570   95.28170   15.58710   15.80150    0.10070    4.35420    2.32180   -9999.25 -164.72890 3094.85910 3076.22710 3099.28530    0.33930
 2026.50000    0.98840    1.23190    1.41180    1.59380    1.55860    0.20340   93.43190  211.42660  100.77490   16.28070   16.31670    0.10540    4.14920    2.37530   -9999.25 -164.89670 3099.26950 3103.12850 3094.92230    0.34250
 2027.00000    1.03160    1.30800    1.57290    1.66310    1.66380    0.18120   94.81910  217.80440  104.63060   15.61210   15.78490    0.09680    3.86890    2.40300   -9999.25 -165.06450 3112.95600 3119.26940 3093.27260    0.33060
 2027.50000    1.03200    1.28460    1.46550    1.62860    1.70580    0.17930   96.41520  219.30610  107.82680   15.81780   15.68250    0.08330    3.71550    2.40190   -9999.25 -165.16520 3126.64250 3092.36920 3123.76570    0.31640
 2028.00000    0.96840    1.18790    1.35810    1.54220    1.57110    0.18600   97.08240  220.04640  110.75990   15.72520   15.79490    0.07680    3.69720    2.39010   -9999.25 -165.11150 3153.57840 3081.67450 3148.18400    0.33110
 2028.50000    0.90480    1.09120    1.25070    1.52490    1.45780    0.18980   97.17100  224.54540  111.91610   15.87440   15.68220    0.08480    3.83310    2.38560   -9999.25 -165.02190 3126.33400 3085.11870 3066.52760    0.33620
 2029.00000    0.88130    1.09210    1.23530    1.57460    1.48040    0.18410   97.57220  227.31590  116.92590   16.63040   16.58170    0.09280    3.94180    2.39660   -9999.25 -164.93240 3099.08950 3088.56300 3039.43250    0.34150
 2029.50000    0.91800    1.14270    1.29210    1.62430    1.59280    0.17430   98.32600  229.38120  115.08460   16.55840   16.39500    0.10070    3.84890    2.41440   -9999.25 -164.84280 3071.84510 3127.72040 3055.97140    0.31450
 2030.00000    0.95460    1.19320    1.37410    1.67390    1.75250    0.16590  100.64290  232.63540  111.28420   15.39910   15.51820    0.10110    3.76220    2.43000   -9999.25 -164.75330 3058.10100 3166.87780 3097.07810    0.30870
 2030.50000    0.96930    1.24380    1.41570    1.72610    1.86120    0.16830  102.44880  235.34620  105.37120   14.45000   14.41370    0.09010    3.67410    2.42100   -9999.25 -164.66370 3053.35700 3112.60270 3121.78960    0.31860
 2031.00000    0.93910    1.19860    1.40690    1.68680    1.82820    0.18110  103.17520  236.84590  106.55300   14.72800   14.47500    0.07640    3.62530    2.39700   -9999.25 -164.62790 3048.61310 3042.83630 3082.77140    0.32950
 2031.50000    0.90900    1.13620    1.33130    1.59640    1.71240    0.20050  104.02530  239.02530  113.52360   14.90310   15.10840    0.06460    3.61000    2.36350   -9999.25 -164.45600 2999.95830 2984.93280 3040.31470    0.35230
 2032.00000    0.87880    1.07870    1.24850    1.50600    1.60840    0.21880  104.46670  239.97830  120.62700   15.38660   15.38960    0.06700    3.68240    2.33320   -9999.25 -164.24120 2998.38810 3060.82120 3040.50580    0.37670
 2032.50000    0.84870    1.04590    1.16570    1.41570    1.50360    0.22900  104.89390  239.94990  118.63860   15.53080   15.68610    0.08160    3.83630    2.31840   -9999.25 -164.02640 2996.81780 3128.67000 3043.40070    0.39190
 2033.00000    0.82460    1.02640    1.13260    1.36080    1.46900    0.23460  105.35070  239.80370  124.34160   15.70590   15.59390    0.09890    3.99120    2.30840   -9999.25 -163.81160 2995.24760 3111.11450 3050.39910    0.40470
 2033.50000    0.85430    1.06600    1.17030    1.37250    1.51220    0.22500  106.05830  239.08270  132.10590   15.66660   15.82390    0.11620    4.08500    2.32330   -9999.25 -163.59670 2993.67740 3093.55890 3054.67000    0.41060
 2034.00000    0.88500    1.13490    1.22930    1.47840    1.61720    0.20670  105.87220  240.01380  137.64330   15.99430   15.97720    0.11700    4.08500    2.35560   -9999.25 -163.52740 2992.10720 3076.00340 3054.86110    0.40010
 2034.50000    0.91570    1.18360    1.28820    1.57290    1.70530    0.18150  105.57780  239.60560  132.96660   15.13040   15.47580    0.10070    3.91090    2.39650   -9999.25 -163.46150 2990.53700 3065.47010 3032.31180    0.38520
 2035.00000    0.94590    1.20580    1.34720    1.61240    1.76580    0.16700  105.70210  239.80530  126.57140   15.20270   15.20970    0.08000    3.75340    2.42310   -9999.25 -163.39570 3002.15450 3074.96470 3014.30180    0.36110
 2035.50000    0.97580    1.20580    1.32070    1.59220    1.64930    0.16540  105.76450  239.88520  123.16770   15.47030   15.35610    0.06650    3.65180    2.42800   -9999.25 -163.32980 3033.55380 3090.78910 3028.10650    0.35600
 2036.00000    0.99370    1.20580    1.30650    1.54190    1.60420    0.16890  105.85010  240.18140  121.43550   15.13110   15.03550    0.05970    3.64520    2.42090   -9999.25 -163.26390 3064.95300 3106.61340 3073.11820    0.34970
 2036.50000    0.98360    1.18640    1.28410    1.49150    1.56440    0.17420  104.43050  233.17410  118.10130   15.60410   15.51100    0.06240    3.62550    2.41200   -9999.25 -163.19800 3096.35230 3112.54780 3096.68330    0.34170
