~Version ---------------------------------------------------
VERS.   2.0 : CWLS log ASCII Standard -VERSION 2.0
WRAP.    NO : One line per depth step
DLM . SPACE : Column Data Section Delimiter
~Well ------------------------------------------------------
STRT .FT                1162.0 : START DEPTH
STOP .FT                9365.0 : STOP DEPTH
STEP .FT                   0.5 : STEP
NULL .                -9999.25 : NULL VALUE
COMP .                         : COMPANY
WELL .                         : WELL
FLD  .                         : FIELD
LOC  .                         : LOCATION
PROV .                         : PROVINCE
CNTY .                         : COUNTY
STAT .                         : STATE
CTRY .                         : COUNTRY
SRVC .                         : SERVICE COMPANY
DATE .                         : DATE
UWI  .                         : UNIQUE WELL ID
API  .                         : API NUMBER
SLAT .WGS84 6.0167945315952025 : SURFACE LATITUDE
SLON .WGS84  2.904402533678308 : SURFACE LONGITUDE
DATUM.F                    nan : DEPTH DATUM ELEV
~Curve Information -----------------------------------------
DEPT   .FT    : 
AT10   .OHMM  : ARRAY INDUCTION TWO FOOT RESISTIVITY A10
AT20   .OHMM  : ARRAY INDUCTION TWO FOOT RESISTIVITY A20
AT30   .OHMM  : ARRAY INDUCTION TWO FOOT RESISTIVITY A30
AT60   .OHMM  : ARRAY INDUCTION TWO FOOT RESISTIVITY A60
AT90   .OHMM  : ARRAY INDUCTION TWO FOOT RESISTIVITY A90
DPHZ_LS.DEC   : HGRD STANDARD RESOLUTION DENSITY POROSITY
DTCO   .US/F  : DELTA-T COMPRESSIONAL
DTSM   .US/F  : DELTA-T SHEAR
ECGRD  .GAPI  : ENVIRONMENTALLY CORRECTED GAMMA RAY FROM DENSITY LOG
HCALD  .IN    : HRCC CALIPER CALIBRATED FROM DENSITY LOG
HCALS  .IN    : HRCC CALIPER CALIBRATED FROM SONIC LOG
HDRA   .G/C3  : HRDD SPINE AND RIBS DENSITY CORRECTION
PEFZ   .B/E   : HRDD STANDARD RESOLUTION FORMATION PHOTOELECTRIC FACTOR
RHOZ   .G/C3  : HRDD STANDARD RESOLUTION FORMATION DENSITY
SPHI_LS.DEC   : SONIC POROSITY [LIMESTONE]
SPR    .MV    : SPONTANEOUS POTENTIAL FROM RESISTIVITY LOG
TEND   .LBF   : TENSION FROM DENSITY LOG
TENR   .LB    : TENSION FROM RESISTIVITY LOG
TENS   .LBF   : TENSION FROM SONIC LOG
TNPH_LS.DEC   : THERMAL NEUTRON POROSITY [LIMESTONE]
~Params ----------------------------------------------------
~Other -----------------------------------------------------
~ASCII -----------------------------------------------------
# ...
 1494.50000   -9999.25   -9999.25   -9999.25   -9999.25   -9999.25   -9999.25  101.83440  222.01980   56.87100   -9999.25   -9999.25   -9999.25   -9999.25   -9999.25   -9999.25   -9999.25   -9999.25   -9999.25   -9999.25    0.69900
 1495.00000   -9999.25   -9999.25   -9999.25   -9999.25   -9999.25   -9999.25  101.74160  222.70500   58.31240   -9999.25   -9999.25   -9999.25   -9999.25   -9999.25   -9999.25   -9999.25   -9999.25   -9999.25   -9999.25    0.69900
 1495.50000   -9999.25   -9999.25   -9999.25   -9999.25   -9999.25   -9999.25  101.47100  223.39020   63.82540   -9999.25   -9999.25   -9999.25   -9999.25   -9999.25   -9999.25   -9999.25   -9999.25   -9999.25   -9999.25    0.61260
 1496.00000    0.39230   -9999.25    0.94880    0.93150    1.05920    0.03110  101.44550  222.89840   69.73940   12.27530   12.26300    0.14980    6.90610    2.84440   -9999.25 -189.34930 2686.63670 2711.20620 2732.50490    0.62210
 1496.50000    0.64110    0.44110    0.84160    0.89730    0.93820    0.08340   98.86340  219.82390   74.17400   12.83790   12.88960    0.10530    5.26440    2.56870   -9999.25 -197.05420 2686.63670 2712.70910 2716.10870    0.59580
 1497.00000    1.21340    0.77030    1.41520    1.31290    1.70680    0.17990   94.27210  216.74940   76.51750   12.97110   12.99970    0.14340    4.61710    2.37970   -9999.25 -192.81030 2686.63670 2719.58090 2710.77640    0.60470
 1497.50000    1.78570    1.25910    1.93280    2.03100    2.48440    0.22430   93.12930  213.67490   79.67600   13.12250   13.08050    0.14740    4.33900    2.32590   -9999.25 -187.25500 2686.63670 2726.45270 2713.09440    0.51780
 1498.00000    1.43750    1.50010    1.79140    1.96860    2.13600    0.22150   92.45390  210.10200   81.44920   13.30530   13.22040    0.13820    4.16980    2.33400   -9999.25 -178.72420 2686.63670 2726.80770 2715.41240    0.52510
 1498.50000    0.96480    1.14630    1.52750    1.73430    1.55580    0.19910   91.72840  206.44490   85.95580   13.91610   13.82810    0.11610    3.92830    2.37110   -9999.25 -173.42760 2686.63670 2722.81830 2717.73050    0.49320
 1499.00000    0.93070    0.96930    1.26360    1.50140    1.09520    0.17800   90.89550  202.25080   92.07580   14.68430   14.89840    0.07010    3.66500    2.40720   -9999.25 -169.31360 2686.63670 2718.82880 2720.04850    0.59210
 1499.50000    0.86400    0.90330    1.03010    1.25460    0.92300    0.17010   90.86700  195.84660   97.36960   16.03220   16.68540    0.04370    3.42800    2.41890   -9999.25 -167.12490 2686.63670 2714.83940 2722.36650    0.64730
 1500.00000    0.79740    0.86360    0.91810    1.01310    0.88080    0.17570   91.30760  192.06990   97.46520   16.71440   16.71480    0.03570    3.27400    2.40870   -9999.25 -166.33440 2686.63670 2710.84990 2724.68460    0.65020
 1500.50000    0.80940    0.88670    0.89020    0.92390    0.86390    0.18440   92.42600  188.70660   91.89150   16.65950   16.63950    0.02760    3.25890    2.39310   -9999.25 -165.97060 2686.63670 2681.88070 2727.00260    0.62920
 1501.00000    0.86590    0.91550    0.89570    0.98530    0.90930    0.18650   93.80790  187.21620   88.41840   16.60170   16.60710    0.02510    3.29840    2.39210   -9999.25 -167.29240 2686.63670 2635.21600 2718.26970    0.60560
 1501.50000    0.86340    0.94430    0.97880    1.06640    1.01270    0.18230   95.15800  188.37640   90.78240   16.56920   16.55990    0.02910    3.34720    2.40060   -9999.25 -167.89430 2686.63670 2674.67670 2709.53680    0.59570
 1502.00000    0.86100    0.97320    1.06190    1.14750    1.12630    0.17730   97.17580  192.70050   88.55000   16.57180   16.54820    0.04320    3.40130    2.40950   -9999.25 -167.69650 2686.63670 2670.11530 2700.80400    0.56110
 1502.50000    0.86400    1.00200    1.07870    1.14330    1.15940    0.18290   98.87890  195.68170   85.85420   16.51630   16.53350    0.06430    3.46420    2.38950   -9999.25 -167.31300 2686.63670 2604.73260 2704.40440    0.52900
 1503.00000    0.86100    1.00820    1.04570    1.12640    1.19330    0.20710  100.15750  199.29320   82.88420   16.36610   16.43010    0.08330    3.58320    2.34060   -9999.25 -166.92940 2680.38250 2605.53320 2679.00230    0.49010
 1503.50000    0.84590    0.99760    1.04250    1.13220    1.20630    0.23700  100.88760  203.68660   83.54740   16.04160   16.10450    0.10010    3.68790    2.29540   -9999.25 -166.54590 2664.74690 2616.04380 2653.60020    0.48190
 1504.00000    0.84470    0.98970    1.04950    1.12640    1.19210    0.25350  101.90530  210.12670   88.34840   14.72020   15.04430    0.11600    3.78470    2.26780   -9999.25 -166.23900 2649.11130 2618.08560 2640.93120    0.56660
 1504.50000    0.84350    0.99740    1.03610    1.10650    1.16460    0.25390  103.12090  214.35410   86.43680   13.53600   13.48570    0.12530    3.82690    2.28550   -9999.25 -165.51480 2657.14280 2620.12750 2653.89530    0.52180
 1505.00000    0.83090    1.00200    1.02270    1.09880    1.14190    0.23180  103.27090  215.54130   90.32610   13.52650   13.52540    0.11330    3.81310    2.32100   -9999.25 -164.81320 2680.95230 2663.49850 2666.85950    0.53500
 1505.50000    0.82250    0.94510    1.00930    1.07780    1.11190    0.21970  102.39520  217.68910   91.25020   13.29770   13.26850    0.10170    3.84390    2.33520   -9999.25 -164.75010 2704.76190 2660.33230 2679.82360    0.46750
 1506.00000    0.82100    0.94440    0.98900    1.06530    1.08800    0.21530  101.11930  220.38590   91.52380   13.26590   13.32110    0.08500    3.90540    2.34300   -9999.25 -164.68700 2708.64660 2657.16610 2689.13610    0.41620
 1506.50000    0.83120    0.96220    0.98900    1.07730    1.09360    0.20750   99.49590  221.66930   87.79060   13.33340   13.16450    0.07640    3.91200    2.35700   -9999.25 -164.62390 2680.45110 2650.40800 2683.84170    0.37560
 1507.00000    0.84390    0.98000    0.99580    1.09880    1.10060    0.19010   98.34330  215.01160   83.02070   13.13080   13.09300    0.06460    3.83590    2.38410   -9999.25 -164.01800 2652.25560 2638.26210 2678.54730    0.39040
 1507.50000    0.83050    0.97780    1.01380    1.09340    1.07150    0.18290   95.70790  201.43620   81.63350   12.77640   12.73080    0.05140    3.71880    2.39720   -9999.25 -164.64010 2624.06010 2626.11620 2673.25300    0.42080
 1508.00000    0.80530    0.94880    0.98670    1.06630    1.03020    0.18670   93.23580  197.34450   84.39160   12.58250   12.65060    0.03530    3.59500    2.38960   -9999.25 -164.71210 2607.14280 2629.43190 2660.46140    0.45000
 1508.50000    0.78550    0.91980    0.95290    1.03920    0.98900    0.19290   91.98500  194.27580   87.30460   12.67790   12.64200    0.01810    3.54130    2.38010   -9999.25 -164.94000 2607.14280 2655.94010 2670.39850    0.44630
 1509.00000    0.78520    0.89080    0.95290    1.04860    0.99780    0.20140   91.75740  195.86480   87.98510   12.63020   12.57510    0.01120    3.58020    2.36310   -9999.25 -165.79100 2607.14280 2682.44830 2680.33570    0.44280
 1509.50000    0.78490    0.90600    0.96490    1.09570    1.03980    0.21470   92.02760  198.45340   83.95670   12.58250   12.59340    0.03470    3.75130    2.32990   -9999.25 -166.64200 2613.09520 2660.36060 2676.57690    0.45270
 1510.00000    0.78750    0.93020    0.97690    1.13340    1.08170    0.25340   92.50740  200.32040   79.15500   12.67790   12.66550    0.06190    3.98040    2.23220   -9999.25 -167.49310 2642.85710 2668.96870 2676.91960    0.48650
 1510.50000    0.77350    0.91370    0.97410    1.11720    1.07530    0.29380   93.09950  201.64080   81.17850   13.85130   14.01760    0.08910    4.18790    2.19020   -9999.25 -167.91880 2672.61900 2677.57680 2680.57040    0.52810
 1511.00000    0.75580    0.88640    0.95440    1.09010    1.06710    0.29940   94.07120  206.24390   84.73500   15.01090   15.35170    0.09610    4.31250    2.17410   -9999.25 -167.23160 2702.38090 2686.18500 2684.22110    0.55900
 1511.50000    0.74200    0.85910    0.94110    1.08610    1.06390    0.29940   96.01480  208.95830   92.65520   16.25350   16.43940    0.08420    4.23160    2.17310   -9999.25 -166.49590 2713.69710 2694.52540 2679.49610    0.60120
