~Version ---------------------------------------------------
VERS.   2.0 : CWLS log ASCII Standard -VERSION 2.0
WRAP.    NO : One line per depth step
DLM . SPACE : Column Data Section Delimiter
~Well ------------------------------------------------------
STRT .FT                1162.0 : START DEPTH
STOP .FT                9365.0 : STOP DEPTH
STEP .FT                   0.5 : STEP
NULL .                -9999.25 : NULL VALUE
COMP .                         : COMPANY
WELL .                         : WELL
FLD  .                         : FIELD
LOC  .                         : LOCATION
PROV .                         : PROVINCE
CNTY .                         : COUNTY
STAT .                         : STATE
CTRY .                         : COUNTRY
SRVC .                         : SERVICE COMPANY
DATE .                         : DATE
UWI  .                         : UNIQUE WELL ID
API  .                         : API NUMBER
SLAT .WGS84 6.0167945315952025 : SURFACE LATITUDE
SLON .WGS84  2.904402533678308 : SURFACE LONGITUDE
DATUM.F                    nan : DEPTH DATUM ELEV
~Curve Information -----------------------------------------
DEPT   .FT    : 
AT10   .OHMM  : ARRAY INDUCTION TWO FOOT RESISTIVITY A10
AT20   .OHMM  : ARRAY INDUCTION TWO FOOT RESISTIVITY A20
AT30   .OHMM  : ARRAY INDUCTION TWO FOOT RESISTIVITY A30
AT60   .OHMM  : ARRAY INDUCTION TWO FOOT RESISTIVITY A60
AT90   .OHMM  : ARRAY INDUCTION TWO FOOT RESISTIVITY A90
DPHZ_LS.DEC   : HGRD STANDARD RESOLUTION DENSITY POROSITY
DTCO   .US/F  : DELTA-T COMPRESSIONAL
DTSM   .US/F  : DELTA-T SHEAR
ECGRD  .GAPI  : ENVIRONMENTALLY CORRECTED GAMMA RAY FROM DENSITY LOG
HCALD  .IN    : HRCC CALIPER CALIBRATED FROM DENSITY LOG
HCALS  .IN    : HRCC CALIPER CALIBRATED FROM SONIC LOG
HDRA   .G/C3  : HRDD SPINE AND RIBS DENSITY CORRECTION
PEFZ   .B/E   : HRDD STANDARD RESOLUTION FORMATION PHOTOELECTRIC FACTOR
RHOZ   .G/C3  : HRDD STANDARD RESOLUTION FORMATION DENSITY
SPHI_LS.DEC   : SONIC POROSITY [LIMESTONE]
SPR    .MV    : SPONTANEOUS POTENTIAL FROM RESISTIVITY LOG
TEND   .LBF   : TENSION FROM DENSITY LOG
TENR   .LB    : TENSION FROM RESISTIVITY LOG
TENS   .LBF   : TENSION FROM SONIC LOG
TNPH_LS.DEC   : THERMAL NEUTRON POROSITY [LIMESTONE]
~Params ----------------------------------------------------
~Other -----------------------------------------------------
~ASCII -----------------------------------------------------
# ...
 2527.00000    1.09130    1.46580    1.65930    1.83420    1.58310    0.18060   93.37520  196.93390   86.90260   13.51960   12.81640    0.10070    4.77200    2.40430    0.29920 -168.68210 3353.05150 3308.11740 3271.87050    0.38000
 2527.50000    1.03550    1.36160    1.67080    1.76680    1.61070    0.21250   94.53150  199.95180   91.31270   12.99210   13.06190    0.11310    5.04790    2.34620    0.29920 -169.82080 3299.56410 3290.24000 3246.26820    0.40420
 2528.00000    0.91870    1.19250    1.42750    1.59840    1.49620    0.23800   95.16730  201.00680   95.72260   12.45110   12.73000    0.13300    5.32390    2.29740    0.29920 -171.54090 3246.07680 3261.48480 3222.67300    0.38830
 2528.50000    0.80090    1.02330    1.18420    1.31920    1.29620    0.27300   96.61150  203.72000   99.28830   13.04490   13.43010    0.15290    5.54470    2.22190    0.29920 -173.60960 3203.28690 3232.72950 3257.57950    0.42750
 2529.00000    0.74250    0.92190    1.03810    1.21740    1.27890    0.28010   98.62320  203.58430  102.22900   14.46060   14.54170    0.14890    5.51720    2.22050    0.29920 -174.54810 3247.76800 3253.50460 3292.48600    0.42830
 2529.50000    0.73660    0.97950    1.07150    1.26710    1.33580    0.24520   99.30350  204.33740  104.78330   14.91300   14.74400    0.12870    5.14750    2.29460    0.29920 -174.81770 3292.24910 3261.01280 3320.41120    0.42010
 2530.00000    0.78540    1.07550    1.11330    1.39060    1.43950    0.20560  102.43540  208.94310  106.19290   14.69030   14.72850    0.10850    4.77780    2.36870    0.29920 -176.28770 3288.69060 3300.51640 3301.10620    0.41210
 2530.50000    0.85360    1.17150    1.35970    1.60700    1.87330    0.20700  105.25350  212.48360  107.21900   15.00740   15.02580    0.08830    4.50500    2.32090    0.29920 -176.85760 3241.54100 3336.30990 3268.93120    0.45030
 2531.00000    0.88620    1.24830    1.54320    1.97880    2.22450    0.27000  106.46950  217.20360  108.92730   14.82730   15.01220    0.07620    4.66200    2.22980    0.29910 -176.66520 3186.68170 3317.17200 3228.43560    0.50780
 2531.50000    0.87800    1.22070    1.55770    2.10410    2.33740    0.29660  106.49070  218.06230  112.23790   15.67370   15.17250    0.07690    4.80600    2.19780    0.29910 -176.47270 3168.55770 3171.61330 3287.81660    0.57110
 2532.00000    0.88030    1.18630    1.47530    1.91640    2.06930    0.29580  105.20210  216.79940  113.98560   16.85710   16.66250    0.08380    4.91960    2.20720    0.29910 -176.28020 3170.77530 3481.34620 3371.98610    0.60960
 2532.50000    0.86670    1.15870    1.39780    1.77100    2.00020    0.28870  104.84670  216.43290  108.51840   16.85700   16.71700    0.10370    4.99910    2.21960    0.29910 -176.08770 3141.34290 3363.28920 3390.57940    0.48470
 2533.00000    0.86140    1.16420    1.33570    1.68680    1.92110    0.28350  110.28150  219.54170  103.38040   14.88180   14.92840    0.12820    5.07860    2.22740    0.29910 -175.27930 3111.91050 3118.14970 3365.45530    0.43230
 2533.50000    0.90300    1.22060    1.47330    1.81420    2.09780    0.26720  117.39360  223.09280   99.13710   13.59250   13.62380    0.16900    5.15800    2.26380    0.29910 -174.29930 3167.69220 3251.83870 3340.33110    0.35910
 2534.00000    0.90790    1.22040    1.38020    1.75350    2.08320    0.23740  113.04990  223.94440  101.07200   13.86670   13.85290    0.19870    5.29190    2.30600    0.29910 -173.96570 3280.28320 3385.52760 3315.20690    0.32960
 2534.50000    0.86670    1.13510    1.30710    1.67700    1.86990    0.22990  109.11650  223.72890   97.51150   13.44140   13.43920    0.22540    5.30190    2.31610    0.29910 -175.67180 3361.07440 3465.60260 3281.60570    0.35220
 2535.00000    0.80000    1.02190    1.18840    1.42990    1.58220    0.24480  105.77510  217.55940   98.98050   13.18070   13.11640    0.24670    5.22490    2.28380    0.29910 -177.35030 3314.66630 3258.87550 3245.88520    0.38840
 2535.50000    0.69550    0.89020    1.00130    1.14010    1.18320    0.25840  104.92640  209.96050  105.72360   14.51800   14.62350    0.23680    5.03970    2.27190    0.29910 -179.02880 3268.25820 3274.56520 3210.16470    0.40230
 2536.00000    0.72960    0.86390    1.00140    1.07790    1.09560    0.24550  104.41970  206.05960  111.83860   15.65320   15.57820    0.20460    4.71930    2.29130    0.29910 -180.70730 3221.85010 3271.62760 3174.44420    0.39760
 2536.50000    0.83050    1.02490    1.14370    1.21200    1.27590    0.21940  103.36560  203.85620  114.56430   14.06220   13.82560    0.17230    4.29970    2.33630    0.29910 -180.47750 3205.06640 3301.70760 3186.45940    0.38580
 2537.00000    0.95350    1.17750    1.27540    1.32650    1.38460    0.19710  102.65600  200.26050  113.74080   14.56020   14.55040    0.14000    3.95390    2.37280    0.29910 -179.53510 3209.51520 3266.66950 3230.29830    0.35520
 2537.50000    1.14850    1.29630    1.36450    1.38910    1.44580    0.17660  100.93690  197.19110  106.61950   15.22420   13.96200    0.10410    3.67390    2.40880    0.29910 -178.59260 3213.96410 3220.62820 3274.13720    0.30080
 2538.00000    1.35460    1.41510    1.59650    1.55980    1.77950    0.16220   98.10180  193.91590   99.49820   14.39960   14.43940    0.08420    3.59450    2.43130    0.29910 -177.65010 3246.80020 3270.27820 3282.05250    0.24470
 2538.50000    1.22040    1.53380    1.67360    1.75760    1.82460    0.17320   94.47640  191.21360   95.24220   13.03320   13.00730    0.07480    3.75630    2.41110    0.29910 -176.89610 3231.87470 3309.24330 3280.98680    0.22230
 2539.00000    1.17280    1.45040    1.58400    1.86490    1.64780    0.18890   92.85910  187.20720   95.01750   12.96500   12.99090    0.08510    4.00660    2.38300    0.29910 -175.27930 3216.94920 3296.73010 3279.92110    0.26510
 2539.50000    1.15050    1.37530    1.53740    1.83680    1.45960    0.19150   92.58960  184.99830   95.02350   13.68230   13.63470    0.09880    4.23820    2.39180    0.29910 -173.48220 3275.52230 3284.21690 3267.96370    0.29930
 2540.00000    1.17100    1.31510    1.61990    1.85610    1.51600    0.15890   92.62560  183.26550   94.76450   14.23040   14.28930    0.11250    4.29210    2.45190    0.29910 -171.93730 3297.42980 3285.22770 3248.74510    0.33520
 2540.50000    1.22410    1.39220    1.70250    1.89720    1.57290    0.10710   93.97400  189.48490   92.15250   13.79580   13.59100    0.11130    4.19280    2.52920    0.29910 -170.37590 3319.33740 3295.25450 3229.52660    0.30600
 2541.00000    1.32550    1.48090    1.75200    1.95390    1.80080    0.07710   93.45420  195.69110   88.58430   13.66300   13.13000    0.10260    4.12160    2.57800    0.29910 -169.56720 3341.24490 3309.36080 3254.23060    0.29960
 2541.50000    1.28220    1.42250    1.56400    2.30000    1.97340    0.11390   92.78620  197.29380   88.53560   12.99910   13.05050    0.09200    4.26250    2.50100    0.29910 -170.68590 3349.37620 3272.91860 3267.17240    0.29900
 2542.00000    1.10450    1.24360    1.41140    1.59140    1.72280    0.21460   94.52550  198.42260   91.01220   12.98690   13.06190    0.07830    4.61740    2.31300    0.29910 -172.04580 3354.06350 3219.75960 3280.11420    0.36370
 2542.50000    0.92200    1.10010    1.40050    1.44900    1.52230    0.29960   97.39030  200.53090   96.92970   13.39730   13.59650    0.07480    4.97240    2.12180    0.29910 -172.15950 3358.75080 3223.42260 3295.31730    0.40690
 2543.00000    0.93210    1.07960    1.38960    1.51420    1.60250    0.30030   98.97710  207.72960  101.37440   13.32480   13.33460    0.08770    5.25630    2.17520    0.29910 -171.84520 3380.25650 3259.15940 3336.69060    0.42900
 2543.50000    0.97350    1.13800    1.32360    1.40400    1.50270    0.26000  100.14280  206.21830  101.14610   15.02630   15.13500    0.09250    4.84440    2.30440    0.29910 -171.53080 3412.97440 3277.11030 3378.06390    0.36120
 2544.00000    1.01740    1.14780    1.29720    1.43960    1.60200    0.19900  100.58410  207.96680   96.76470   14.73260   14.76670    0.07820    4.37330    2.37000    0.29910 -172.03520 3445.69240 3347.30370 3419.43710    0.35000
