~Version ---------------------------------------------------
VERS.   2.0 : CWLS log ASCII Standard -VERSION 2.0
WRAP.    NO : One line per depth step
DLM . SPACE : Column Data Section Delimiter
~Well ------------------------------------------------------
STRT .FT                1162.0 : START DEPTH
STOP .FT                9365.0 : STOP DEPTH
STEP .FT                   0.5 : STEP
NULL .                -9999.25 : NULL VALUE
COMP .                         : COMPANY
WELL .                         : WELL
FLD  .                         : FIELD
LOC  .                         : LOCATION
PROV .                         : PROVINCE
CNTY .                         : COUNTY
STAT .                         : STATE
CTRY .                         : COUNTRY
SRVC .                         : SERVICE COMPANY
DATE .                         : DATE
UWI  .                         : UNIQUE WELL ID
API  .                         : API NUMBER
SLAT .WGS84 6.0167945315952025 : SURFACE LATITUDE
SLON .WGS84  2.904402533678308 : SURFACE LONGITUDE
DATUM.F                    nan : DEPTH DATUM ELEV
~Curve Information -----------------------------------------
DEPT   .FT    : 
AT10   .OHMM  : ARRAY INDUCTION TWO FOOT RESISTIVITY A10
AT20   .OHMM  : ARRAY INDUCTION TWO FOOT RESISTIVITY A20
AT30   .OHMM  : ARRAY INDUCTION TWO FOOT RESISTIVITY A30
AT60   .OHMM  : ARRAY INDUCTION TWO FOOT RESISTIVITY A60
AT90   .OHMM  : ARRAY INDUCTION TWO FOOT RESISTIVITY A90
DPHZ_LS.DEC   : HGRD STANDARD RESOLUTION DENSITY POROSITY
DTCO   .US/F  : DELTA-T COMPRESSIONAL
DTSM   .US/F  : DELTA-T SHEAR
ECGRD  .GAPI  : ENVIRONMENTALLY CORRECTED GAMMA RAY FROM DENSITY LOG
HCALD  .IN    : HRCC CALIPER CALIBRATED FROM DENSITY LOG
HCALS  .IN    : HRCC CALIPER CALIBRATED FROM SONIC LOG
HDRA   .G/C3  : HRDD SPINE AND RIBS DENSITY CORRECTION
PEFZ   .B/E   : HRDD STANDARD RESOLUTION FORMATION PHOTOELECTRIC FACTOR
RHOZ   .G/C3  : HRDD STANDARD RESOLUTION FORMATION DENSITY
SPHI_LS.DEC   : SONIC POROSITY [LIMESTONE]
SPR    .MV    : SPONTANEOUS POTENTIAL FROM RESISTIVITY LOG
TEND   .LBF   : TENSION FROM DENSITY LOG
TENR   .LB    : TENSION FROM RESISTIVITY LOG
TENS   .LBF   : TENSION FROM SONIC LOG
TNPH_LS.DEC   : THERMAL NEUTRON POROSITY [LIMESTONE]
~Params ----------------------------------------------------
~Other -----------------------------------------------------
~ASCII -----------------------------------------------------
# ...
 7742.00000    6.20310   11.95350   13.89010   15.31920   14.25850    0.05960   62.32190  108.29100   52.14980   11.73770   11.74400   -0.00250    2.78120    2.60750    0.10440 -287.05280 5100.71280 5115.82520 5124.64930    0.20970
 7742.50000    6.42310   12.10430   13.84850   15.27340   14.12760    0.06270   62.63080  108.74060   49.37400   11.72760   11.72670   -0.00250    2.76000    2.60250    0.10660 -288.94550 5100.71280 5101.84320 5124.64930    0.19680
 7743.00000    6.62890   12.25710   13.76400   15.18030   14.12910    0.06400   63.17570  108.85050   48.97250   11.70740   11.71890   -0.00250    2.79910    2.60020    0.11090 -288.98250 5100.71280 5115.27520 5124.64930    0.18380
 7743.50000    6.27050   11.66340   12.93550   14.29940   13.17580    0.06560   63.34800  109.02630   48.20000   11.72420   11.72330    0.00110    2.83500    2.59780    0.11200 -289.99150 5100.71280 5130.90250 5132.04580    0.17090
 7744.00000    5.78210   10.11240   11.23790   12.66980   11.65120    0.06990   63.61600  109.64690   47.76920   11.71630   11.72230    0.00260    2.84050    2.59060    0.11440 -290.07280 5100.71280 5114.66830 5148.49700    0.17110
 7744.50000    5.23760    8.76330    9.66030   11.04010   10.12670    0.07550   63.85190  110.37140   47.71730   11.70850   11.71790    0.00310    2.78330    2.58110    0.11600 -291.20510 5100.71280 5113.46710 5164.94810    0.18480
 7745.00000    4.80520    7.78370    8.34620    9.41050    8.82440    0.07620   64.50620  111.27030   51.37840   11.70480   11.71690    0.00360    2.71730    2.58040    0.12060 -291.33260 5100.71280 5134.02780 5181.39930    0.20560
 7745.50000    4.51030    6.91240    7.56750    8.42520    8.10520    0.07390   64.99300  112.10240   57.24140   11.74470   11.74450    0.00410    2.63470    2.58490    0.12350 -291.46010 5100.71280 5154.04960 5180.70730    0.22190
 7746.00000    4.39180    6.52350    7.37140    7.83210    7.72330    0.06830   65.44760  112.94440   60.99600   11.74760   11.76620    0.00410    2.62270    2.59360    0.12680 -291.58770 5100.71280 5211.98290 5173.98490    0.20970
 7746.50000    4.44940    7.13390    7.55950    7.84470    7.77220    0.06670   65.67490  113.77960   60.98030   11.73700   11.74040    0.00410    2.62800    2.59580    0.12780 -291.68970 5100.71280 5234.53500 5167.26250    0.19750
 7747.00000    4.53370    7.64620    7.77310    8.14730    8.04350    0.06750   65.49830  114.12480   56.73670   11.73400   11.73430    0.00400    2.63320    2.59390    0.12620 -290.96630 5100.71280 5163.42170 5147.81140    0.19230
 7747.50000    4.54380    7.58470    7.72560    8.25970    8.17030    0.06890   64.95580  114.13230   54.92700   11.73090   11.72250    0.00380    2.63850    2.59240    0.12350 -291.59330 5100.71280 5092.30580 5143.91110    0.19790
 7748.00000    4.48760    7.41340    7.60700    8.28620    8.14570    0.07100   64.41340  113.90910   57.10860   11.72780   11.71390    0.00370    2.65620    2.59070    0.11960 -291.11170 5100.71280 5102.13020 5140.01080    0.20320
 7748.50000    4.58460    7.62450    8.15130    9.22430    8.90300    0.06800   63.98710  113.33240   58.95800   11.71260   11.71010    0.00350    2.65910    2.59390    0.11600 -290.63010 5100.71280 5142.37160 5136.11050    0.20300
 7749.00000    4.95690    8.50460   10.15320   10.91370   11.00510    0.06470   63.69730  112.79930   54.86530   11.71450   11.70630    0.00340    2.70830    2.59970    0.11400 -290.14840 5100.71280 5121.90000 5155.99210    0.19140
 7749.50000    5.51740   10.41270   12.15510   12.91240   13.10720    0.05880   63.56090  112.29540   49.81580   11.70590   11.70240    0.00320    2.75110    2.61080    0.11200 -289.66680 5100.71280 5113.76580 5150.97990    0.18880
 7750.00000    6.11530   12.54520   13.51680   16.14770   15.20930    0.05400   63.39040  111.79160   46.01560   11.69720   11.69860    0.00210    2.81310    2.62050    0.11200 -289.18520 5100.71280 5116.34500 5145.96780    0.18260
 7750.50000    5.96070   12.27890   14.71520   16.63880   16.42900    0.05150   63.42450  111.63780   47.21670   11.68860   11.69190    0.00110    2.88050    2.62160    0.11210 -288.70360 5100.71280 5118.92420 5140.95570    0.17750
 7751.00000    5.62160   11.22050   13.23840   15.10180   14.34310    0.05640   63.60090  111.55000   48.35420   11.68130   11.69570    0.00110    2.85830    2.61340    0.11370 -288.22190 5100.71280 5150.89600 5130.95310    0.16510
 7751.50000    5.28610   10.24430   11.88770   13.15580   12.20350    0.06860   63.96040  112.01440   50.86160   11.66410   11.67920    0.00110    2.83490    2.59080    0.11680 -287.74030 5100.71280 5049.25670 5129.65890    0.17140
 7752.00000    4.90220    9.09280   10.35310   11.56290   10.84360    0.08150   64.60790  112.94120   55.27810   11.60890   11.64010    0.00110    2.81150    2.56860    0.12130 -287.25870 5100.71280 5082.70640 5128.36460    0.18820
 7752.50000    4.56550    7.94140    8.81850   10.25830    9.48370    0.09010   65.34470  114.05260   59.98930   11.51850   11.54220    0.00110    2.78810    2.55530    0.12710 -286.77710 5100.71280 5093.98400 5111.81870    0.20980
 7753.00000    4.43410    7.69070    8.32820    9.24280    8.91580    0.08910   65.82460  114.89780   64.77430   11.52390   11.54980    0.00210    2.76470    2.55940    0.12910 -285.62650 5100.71280 5085.34930 5110.84560    0.21200
 7753.50000    4.48500    7.57930    8.48510    9.32940    9.08370    0.08390   65.93020  115.68680   64.54050   11.61620   11.64700    0.00210    2.75910    2.56830    0.13000 -284.89900 5100.71280 5060.30720 5109.87250    0.20290
 7754.00000    4.52700    7.74620    8.61850    9.68420    9.39360    0.07810   66.11910  116.54590   64.98450   11.62480   11.67050    0.00210    2.74350    2.57720    0.13110 -284.25550 5100.71280 5035.33710 5108.89940    0.19370
 7754.50000    4.56440    7.88990    8.72600    9.92830    9.54970    0.07670   66.55470  117.85440   64.57810   11.61540   11.64750    0.00210    2.75810    2.57980    0.13400 -282.80110 5100.71280 5035.33710 5108.72440    0.19490
 7755.00000    4.60810    8.00160    8.94530   10.21010    9.92650    0.07250   66.49370  118.72790   62.87320   11.61100   11.62450    0.00210    2.76000    2.58530    0.13400 -281.63530 5100.71280 5126.44760 5111.02460    0.20410
 7755.50000    4.70540    8.11620    9.22000   10.46730   10.35150    0.07350   66.43780  118.94890   57.94590   11.61480   11.65130    0.00210    2.76190    2.58760    0.13370 -280.65770 5100.71280 5101.13910 5113.32480    0.22000
 7756.00000    4.75050    8.14150    9.49480   10.73110   10.49740    0.06840   66.55030  119.25500   52.21770   11.61140   11.64460    0.00160    2.76390    2.59280    0.13430 -279.62630 5100.71280 5075.83060 5115.62500    0.22570
 7756.50000    4.78340    8.22990    9.69940   10.89940   10.64540    0.06940   66.63660  119.57680   55.02270   11.60000   11.62930    0.00160    2.77890    2.59080    0.13450 -277.69290 5100.71280 5109.57530 5119.01870    0.22180
 7757.00000    4.86460    8.58360    9.88210   11.10470   10.79540    0.06630   66.60620  120.43470   62.54890   11.59240   11.62270    0.00160    2.79810    2.59650    0.13470 -276.88240 5100.71280 5156.81770 5126.78670    0.22090
 7757.50000    4.89700    8.91420   10.13120   11.45060   11.19040    0.06500   66.87640  120.85800   70.72630   11.57650   11.59320    0.00050    2.80120    2.59860    0.13690 -274.98320 5100.71280 5156.81770 5134.55470    0.22880
 7758.00000    4.96830    9.19310   10.51840   12.31050   11.89160    0.06430   67.43900  121.29170   74.58200   11.57230   11.56910    0.00000    2.83030    2.59880    0.14060 -273.08410 5100.71280 5136.57100 5142.32270    0.23620
 7758.50000    5.07050    9.36470   10.98450   12.81290   12.17200    0.06550   67.93080  121.55310   75.95120   11.69110   11.70490    0.00000    2.85940    2.59790    0.14300 -271.18490 5100.71280 5116.32420 5143.67090    0.23730
 7759.00000    5.04720    9.24890   10.77440   12.30580   11.53130    0.06430   68.14120  122.06010   78.40760   11.68670   11.69980    0.00000    2.87790    2.60150    0.14490 -270.23840 5100.71280 5085.95400 5102.48050    0.24250
