~Version ---------------------------------------------------
VERS.   2.0 : CWLS log ASCII Standard -VERSION 2.0
WRAP.    NO : One line per depth step
DLM . SPACE : Column Data Section Delimiter
~Well ------------------------------------------------------
STRT .FT                1162.0 : START DEPTH
STOP .FT                9365.0 : STOP DEPTH
STEP .FT                   0.5 : STEP
NULL .                -9999.25 : NULL VALUE
COMP .                         : COMPANY
WELL .                         : WELL
FLD  .                         : FIELD
LOC  .                         : LOCATION
PROV .                         : PROVINCE
CNTY .                         : COUNTY
STAT .                         : STATE
CTRY .                         : COUNTRY
SRVC .                         : SERVICE COMPANY
DATE .                         : DATE
UWI  .                         : UNIQUE WELL ID
API  .                         : API NUMBER
SLAT .WGS84 6.0167945315952025 : SURFACE LATITUDE
SLON .WGS84  2.904402533678308 : SURFACE LONGITUDE
DATUM.F                    nan : DEPTH DATUM ELEV
~Curve Information -----------------------------------------
DEPT   .FT    : 
AT10   .OHMM  : ARRAY INDUCTION TWO FOOT RESISTIVITY A10
AT20   .OHMM  : ARRAY INDUCTION TWO FOOT RESISTIVITY A20
AT30   .OHMM  : ARRAY INDUCTION TWO FOOT RESISTIVITY A30
AT60   .OHMM  : ARRAY INDUCTION TWO FOOT RESISTIVITY A60
AT90   .OHMM  : ARRAY INDUCTION TWO FOOT RESISTIVITY A90
DPHZ_LS.DEC   : HGRD STANDARD RESOLUTION DENSITY POROSITY
DTCO   .US/F  : DELTA-T COMPRESSIONAL
DTSM   .US/F  : DELTA-T SHEAR
ECGRD  .GAPI  : ENVIRONMENTALLY CORRECTED GAMMA RAY FROM DENSITY LOG
HCALD  .IN    : HRCC CALIPER CALIBRATED FROM DENSITY LOG
HCALS  .IN    : HRCC CALIPER CALIBRATED FROM SONIC LOG
HDRA   .G/C3  : HRDD SPINE AND RIBS DENSITY CORRECTION
PEFZ   .B/E   : HRDD STANDARD RESOLUTION FORMATION PHOTOELECTRIC FACTOR
RHOZ   .G/C3  : HRDD STANDARD RESOLUTION FORMATION DENSITY
SPHI_LS.DEC   : SONIC POROSITY [LIMESTONE]
SPR    .MV    : SPONTANEOUS POTENTIAL FROM RESISTIVITY LOG
TEND   .LBF   : TENSION FROM DENSITY LOG
TENR   .LB    : TENSION FROM RESISTIVITY LOG
TENS   .LBF   : TENSION FROM SONIC LOG
TNPH_LS.DEC   : THERMAL NEUTRON POROSITY [LIMESTONE]
~Params ----------------------------------------------------
~Other -----------------------------------------------------
~ASCII -----------------------------------------------------
# ...
 7217.00000    5.95670    8.67770    9.43080    9.65590    9.86980    0.04930   68.49160  116.08880   98.14800   12.12500   12.14320   -0.00110    2.96720    2.62730    0.14770 -273.66230 4983.88640 4878.64300 4917.50730    0.12320
 7217.50000    5.92600    8.66740    9.17440    9.52310    9.82640    0.05180   68.58640  115.89200   95.99600   12.14970   12.14950   -0.00140    2.97110    2.62160    0.14820 -273.50060 4983.88640 4878.69630 4916.54650    0.13320
 7218.00000    5.95780    8.68330    9.17440    9.53020    9.83290    0.05230   68.61990  115.62160   94.24630   12.14200   12.14540   -0.00190    2.99360    2.62230    0.14880 -273.20180 4983.88640 4878.74960 4915.58570    0.13920
 7218.50000    5.96140    8.69920    9.17440    9.53720    9.83950    0.04700   68.67130  115.98500   97.26340   12.14470   12.14130   -0.00250    2.95500    2.63000    0.14930 -273.09640 4983.88640 4878.80280 4914.62490    0.14020
 7219.00000    5.96510    8.71190    9.17440    9.54430    9.84600    0.05000   68.74450  116.12340   99.30030   12.13210   12.13730   -0.00310    2.93610    2.62390    0.14950 -273.16450 4983.88640 4878.85610 4913.66400    0.13610
 7219.50000    5.96870    8.74810    9.17440    9.55140    9.85250    0.05360   68.74340  116.26190   99.67210   12.13490   12.13820   -0.00370    2.92480    2.61900    0.14900 -273.23270 4983.88640 4878.90930 4912.70320    0.13320
 7220.00000    5.97230    8.70750    9.17440    9.55850    9.85900    0.05760   68.64640  116.34110   99.69240   12.12480   12.13940   -0.00440    2.95610    2.60950    0.14820 -273.30080 4983.88640 4878.96260 4911.74240    0.13040
 7220.50000    5.91690    8.60960    9.17440    9.56550    9.86550    0.05950   68.54940  116.33150   98.79950   12.11470   12.13780   -0.00500    2.97860    2.60860    0.14790 -273.36890 4983.88640 4879.01590 4910.78160    0.12760
 7221.00000    5.91140    8.57680    9.17440    9.57260    9.87210    0.06040   68.53510  116.16600   99.09780   12.10930   12.13610   -0.00510    2.99520    2.60800    0.14810 -273.43700 4983.88640 4879.06910 4909.82080    0.12050
 7221.50000    5.90580    8.64590    9.17440    9.57970    9.87860    0.06140   68.44710  116.07390   99.47550   12.12640   12.13450   -0.00370    3.01180    2.60470    0.14800 -273.50510 4983.88640 4879.12240 4908.86000    0.12310
 7222.00000    5.90030    8.71500    9.29680    9.63660    9.88510    0.05950   68.58620  116.01000   98.09800   12.13050   12.12750   -0.00240    3.02840    2.60910    0.14820 -273.57320 4983.88640 4879.17560 4907.89910    0.12470
 7222.50000    5.98190    8.78410    9.50090    9.72680    9.97340    0.05460   68.62400  115.94600   95.29330   12.13460   12.13630   -0.00120    2.99770    2.61620    0.14880 -273.64140 4983.88640 4879.22890 4906.93830    0.12210
 7223.00000    6.07220    8.85330    9.58250    9.87320   10.27600    0.04790   68.63910  116.00810   93.24830   12.13860   12.13890   -0.00110    2.95390    2.62790    0.14910 -273.70950 4983.88640 4879.28220 4905.97750    0.11880
 7223.50000    5.97840    8.92240    9.35620    9.84150   10.31180    0.04290   68.62840  116.22730   95.54110   12.12760   12.13750   -0.00130    2.88970    2.63630    0.14900 -273.77760 4983.88640 4879.33540 4905.01670    0.11740
 7224.00000    5.77070    8.70080    9.13000    9.62340    9.88510    0.04560   68.57900  116.16080   99.92420   12.11480   12.12390   -0.00150    2.86890    2.63320    0.14850 -273.84570 4983.88640 4879.38870 4904.05590    0.12420
 7224.50000    5.74450    8.64540    9.00480    9.40540    9.88510    0.05100   68.56430  116.07750  102.60400   12.10860   12.13320   -0.00170    2.89090    2.62490    0.14820 -273.91380 4983.88640 4879.44200 4903.09510    0.12580
 7225.00000    5.74990    8.59000    9.10460    9.40540    9.88510    0.05560   68.58040  115.99430  103.71880   12.10860   12.13880   -0.00180    2.92410    2.61630    0.14810 -273.98190 4983.88640 4879.49520 4902.13430    0.12710
 7225.50000    5.74520    8.57890    9.20450    9.53740    9.88510    0.05500   68.54940  115.91110  101.13140   12.11300   12.13160   -0.00200    2.95470    2.61570    0.14810 -274.05010 4983.88640 4879.54850 4901.17340    0.12780
 7226.00000    5.70350    8.75450    9.30430    9.56120    9.88510    0.05310   68.50720  115.92030   98.35080   12.12760   12.13900   -0.00220    2.96980    2.61900    0.14810 -274.11820 4983.88640 4879.60170 4900.21260    0.12930
 7226.50000    5.85280    8.93000    9.40420    9.58510    9.88510    0.05230   68.53910  116.22550   95.94140   12.14420   12.14240   -0.00240    2.95900    2.62110    0.14790 -274.18630 4983.88640 4879.65500 4899.25180    0.12580
 7227.00000    5.98270    9.10550    9.46410    9.60890    9.92220    0.05450   68.44710  116.09660   99.11500   12.12620   12.13000   -0.00260    2.94810    2.61710    0.14750 -274.25440 4983.88640 4879.70830 4898.29100    0.12240
 7227.50000    5.88020    9.01900    9.43310    9.63270    9.98410    0.06130   68.55670  116.22730  101.93400   12.10240   12.11760   -0.00270    2.93720    2.60430    0.14810 -274.34260 4983.88640 4879.76150 4897.33020    0.11900
 7228.00000    5.75770    8.81620    9.27800    9.63070   10.00880    0.07110   68.60240  115.97490   99.75560   12.10010   12.12100   -0.00290    2.95810    2.58970    0.14850 -274.51100 4983.88640 4879.81480 4896.36940    0.12390
 7228.50000    5.68320    8.61340    9.12300    9.60180    9.99200    0.07140   68.64800  115.55960   94.45210   12.09790   12.10580    0.00170    2.99350    2.58930    0.14910 -274.67950 4983.88640 4879.86810 4895.40850    0.12630
 7229.00000    5.65720    8.57790    9.06100    9.57290    9.97100    0.06300   68.69370  115.91810   88.94810   12.05700   12.06820    0.01340    3.00170    2.60450    0.14920 -274.84790 4983.88640 4891.84080 4894.44770    0.12670
 7229.50000    5.65100    8.58410    9.04970    9.54410    9.94990    0.05410   68.81670  116.13780   90.68310   12.05700   12.07830    0.01360    3.00980    2.61810    0.15010 -275.01630 4983.88640 4897.46460 4893.48690    0.12240
 7230.00000    5.66730    8.59040    9.03570    9.51520    9.92890    0.05780   68.90500  116.05980   96.27220   12.09810   12.10500    0.00750    3.01050    2.61150    0.15020 -275.18480 4983.88640 4897.03140 4892.52610    0.11870
 7230.50000    5.70140    8.59670    9.02170    9.48630    9.90790    0.06290   68.84610  116.32190  102.48240   12.11010   12.13160    0.00340    2.99990    2.60310    0.15030 -275.35320 4983.88640 4896.59810 4891.56530    0.11600
 7231.00000    5.63840    8.60300    9.00760    9.45740    9.88690    0.06340   68.94680  116.28260  108.29260   12.11390   12.13040    0.00230    2.97150    2.60140    0.15080 -275.52160 4983.88640 4896.16490 4890.60450    0.11890
 7231.50000    5.59470    8.62820    9.03150    9.42850    9.86590    0.06310   68.93910  116.24320  103.38560   12.11770   12.14830    0.00130    2.96940    2.60230    0.15080 -275.05280 4983.88640 4895.73170 4893.01010    0.12060
 7232.00000    5.59750    8.65810    9.16500    9.44540    9.84480    0.06040   68.89670  116.16740   99.30760   12.13450   12.15330    0.00030    2.92920    2.60570    0.15060 -274.53730 4983.88640 4895.29840 4896.25740    0.12330
 7232.50000    5.54180    8.68800    9.29860    9.64530    9.82380    0.05430   68.81820  116.38800   95.76210   12.14670   12.15830    0.00000    2.93560    2.61750    0.15020 -274.01020 4983.88640 4894.86520 4899.50470    0.12420
 7233.00000    5.59440    8.76430    9.46410    9.84510   10.14700    0.04750   68.82020  116.41040   95.08380   12.14770   12.15660   -0.00030    2.94210    2.62860    0.15020 -273.90480 4983.88640 4894.43200 4902.75200    0.12330
 7233.50000    5.70060    9.02630    9.70470   10.14040   10.47020    0.04580   68.90850  116.38330   94.59050   12.14970   12.15500   -0.00060    2.94850    2.63130    0.15070 -274.05150 4983.88640 4893.99870 4905.99920    0.12010
 7234.00000    5.71880    9.28820    9.88510   10.45940   10.79330    0.05110   68.95020  116.02990   94.85380   12.14970   12.15330   -0.00090    2.98600    2.62200    0.15080 -274.17850 4983.88640 4893.56550 4909.24650    0.11780
