~Version ---------------------------------------------------
VERS.   2.0 : CWLS log ASCII Standard -VERSION 2.0
WRAP.    NO : One line per depth step
DLM . SPACE : Column Data Section Delimiter
~Well ------------------------------------------------------
STRT .FT                1162.0 : START DEPTH
STOP .FT                9365.0 : STOP DEPTH
STEP .FT                   0.5 : STEP
NULL .                -9999.25 : NULL VALUE
COMP .                         : COMPANY
WELL .                         : WELL
FLD  .                         : FIELD
LOC  .                         : LOCATION
PROV .                         : PROVINCE
CNTY .                         : COUNTY
STAT .                         : STATE
CTRY .                         : COUNTRY
SRVC .                         : SERVICE COMPANY
DATE .                         : DATE
UWI  .                         : UNIQUE WELL ID
API  .                         : API NUMBER
SLAT .WGS84 6.0167945315952025 : SURFACE LATITUDE
SLON .WGS84  2.904402533678308 : SURFACE LONGITUDE
DATUM.F                    nan : DEPTH DATUM ELEV
~Curve Information -----------------------------------------
DEPT   .FT    : 
AT10   .OHMM  : ARRAY INDUCTION TWO FOOT RESISTIVITY A10
AT20   .OHMM  : ARRAY INDUCTION TWO FOOT RESISTIVITY A20
AT30   .OHMM  : ARRAY INDUCTION TWO FOOT RESISTIVITY A30
AT60   .OHMM  : ARRAY INDUCTION TWO FOOT RESISTIVITY A60
AT90   .OHMM  : ARRAY INDUCTION TWO FOOT RESISTIVITY A90
DPHZ_LS.DEC   : HGRD STANDARD RESOLUTION DENSITY POROSITY
DTCO   .US/F  : DELTA-T COMPRESSIONAL
DTSM   .US/F  : DELTA-T SHEAR
ECGRD  .GAPI  : ENVIRONMENTALLY CORRECTED GAMMA RAY FROM DENSITY LOG
HCALD  .IN    : HRCC CALIPER CALIBRATED FROM DENSITY LOG
HCALS  .IN    : HRCC CALIPER CALIBRATED FROM SONIC LOG
HDRA   .G/C3  : HRDD SPINE AND RIBS DENSITY CORRECTION
PEFZ   .B/E   : HRDD STANDARD RESOLUTION FORMATION PHOTOELECTRIC FACTOR
RHOZ   .G/C3  : HRDD STANDARD RESOLUTION FORMATION DENSITY
SPHI_LS.DEC   : SONIC POROSITY [LIMESTONE]
SPR    .MV    : SPONTANEOUS POTENTIAL FROM RESISTIVITY LOG
TEND   .LBF   : TENSION FROM DENSITY LOG
TENR   .LB    : TENSION FROM RESISTIVITY LOG
TENS   .LBF   : TENSION FROM SONIC LOG
TNPH_LS.DEC   : THERMAL NEUTRON POROSITY [LIMESTONE]
~Params ----------------------------------------------------
~Other -----------------------------------------------------
~ASCII -----------------------------------------------------
# ...
 5659.50000    5.12630    6.41740    8.01110   11.75300    6.29070    0.04730   69.63420  127.05650   93.37100   12.22690   12.18750    0.05450    3.54790    2.62880    0.15570   -3.65720 4494.89790 4509.20760 4535.22390    0.14060
 5660.00000    5.23210    6.18590    7.39280    9.42520    6.65270    0.04250   68.98150  126.98380   98.82620   12.77720   12.77240    0.06630    3.62530    2.63650    0.15020   -4.25460 4545.91830 4536.76990 4538.66410    0.15130
 5660.50000    4.57780    5.82510    6.24700    7.09170    6.03260    0.04320   68.29570  127.48400  100.12080   12.68290   12.20250    0.07440    3.65710    2.63740    0.14820   -5.03000 4596.93870 4556.33540 4551.01550    0.15500
 5661.00000    4.05460    5.51370    6.17530    6.65600    5.80030    0.06870   71.49300  129.29550  100.82690   12.21140   12.21140    0.07850    3.73010    2.59100    0.16860   -5.81690 4592.83680 4524.37490 4517.18940    0.16500
 5661.50000    3.73760    5.16440    5.67170    6.57880    5.97610    0.08900   73.39460  133.43820  101.06310   12.24230   12.21580    0.09680    3.83280    2.55550    0.18170   -7.09310 4568.99350 4475.29280 4483.36340    0.17920
 5662.00000    3.56830    4.33460    4.47900    5.07680    4.94030    0.10720   74.18890  132.75220  103.15360   12.45660   12.27020    0.11010    3.90270    2.52950    0.18770   -8.65260 4491.07140 4495.12680 4480.14580    0.19640
 5662.50000    3.42260    4.10470    5.55070    6.27940    4.86750    0.10750   74.78290  133.32430  105.73700   12.81140   13.25860    0.11750    3.97270    2.50960    0.19130   -8.81830 4477.27270 4518.64840 4525.11110    0.18660
 5663.00000    3.13270    3.86900    4.92200    6.14390    4.62730    0.15650   74.77890  135.49560  104.68850   12.16000   12.16080    0.11580    4.07720    2.41300    0.19360   -9.40860 4542.20770 4606.10150 4592.50660    0.20340
 5663.50000    2.83080    3.39270    4.00560    5.10050    4.47550    0.20620   74.77500  134.14780  109.55310   12.32460   12.62980    0.13310    4.33740    2.35260    0.19190   -8.73300 4607.14280 4542.14320 4581.10260    0.22600
 5664.00000    2.81450    3.01170    3.85810    6.07840    5.26910    0.19590   73.95720  133.40380  119.83610   13.55890   13.60580    0.14750    4.46880    2.37450    0.18760   -8.73500 4583.28430 4456.63520 4544.67220    0.27980
 5664.50000    3.35120    4.19650    5.11310    7.38510    6.18090    0.13120   72.85490  133.76050  128.21050   13.28460   12.67860    0.14170    4.31900    2.51060    0.17890   -8.73710 4553.46110 4414.19890 4508.24180    0.26060
 5665.00000    4.30120    5.58870    6.50440   10.22710   10.42820    0.08240   72.56230  134.70510  127.87570   12.40690   12.38290    0.11520    3.92630    2.58880    0.17560   -8.73910 4523.63800 4555.60390 4514.20960    0.21160
 5665.50000    4.93390    9.66360   13.69110   19.35800   17.94530    0.06590   73.42810  136.63770  116.33430   12.13640   12.06460    0.08860    3.71860    2.59500    0.18160   -8.74120 4568.90260 4737.75700 4640.06810    0.16270
 5666.00000    4.72140    8.33130   13.62910   22.21870   21.28070    0.07050   73.42830  138.95060  101.37050   12.20470   12.22800    0.08660    3.62710    2.58520    0.18320   -8.74320 4515.87920 4677.01740 4688.30060    0.14990
 5666.50000    4.21110    6.18580    8.90280   13.92200   14.51010    0.08460   73.38930  140.19700   97.20380   12.24160   12.35060    0.11400    3.74180    2.55290    0.18030   -8.74530 4462.85570 4555.96480 4557.94750    0.15530
 5667.00000    3.24860    3.96550    4.17640    5.62530    7.63290    0.11560   75.57660  140.28470  102.90120   12.27310   12.17320    0.14140    3.91760    2.50700    0.19550   -8.74730 4583.12660 4459.36480 4417.31050    0.18620
 5667.50000    2.69840    3.37290    4.00480    4.30830    4.39290    0.12700   79.35670  140.64750  110.03840   12.38630   12.77960    0.16540    4.16060    2.49400    0.22290   -9.71990 4660.25040 4509.07280 4488.68540    0.23170
 5668.00000    2.42520    2.89970    3.38840    3.89460    4.04160    0.12580   83.35520  141.07900  119.33530   13.12790   13.72380    0.17160    4.31120    2.49850    0.25160  -10.30890 4737.37410 4591.21910 4610.80950    0.25530
 5668.50000    2.22750    2.42660    2.75380    3.04980    3.18830    0.11870   86.02680  144.19530  126.90310   13.84540   14.10050    0.17590    4.46190    2.50630    0.26930  -10.32600 4718.12890 4695.07870 4708.56940    0.28280
 5669.00000    1.97790    2.14270    2.22530    2.37390    2.46380    0.13690   88.04310  147.32270  129.65650   13.96140   13.79470    0.15680    4.49790    2.47430    0.28730  -10.62600 4602.74560 4609.37210 4610.30450    0.30080
 5669.50000    2.21910    2.63970    3.08550    3.20020    3.21650    0.16420   86.92540  147.64800  130.26880   14.62520   14.59270    0.14230    4.50030    2.44010    0.27870  -10.99680 4487.36230 4539.56800 4512.03950    0.32240
 5670.00000    2.46470    3.54740    4.16070    4.23310    4.45210    0.21310   85.43620  146.88460  126.82590   14.60640   14.43430    0.12440    4.59130    2.35090    0.26720  -11.36750 4477.67850 4493.61740 4435.73890    0.31970
 5670.50000    3.12160    3.81210    4.16190    4.52970    5.02900    0.22850   82.49460  142.97490  129.29440   15.12240   15.09410    0.11840    4.64320    2.32000    0.24870  -11.15590 4500.00000 4492.02500 4452.66810    0.32580
 5671.00000    3.51310    3.57880    3.75160    3.94660    4.34450    0.19630   79.16230  139.98730  113.99360   13.97030   13.76850    0.11300    4.52990    2.37640    0.22120  -10.07050 4522.32140 4500.65820 4486.58710    0.31260
 5671.50000    4.00420    4.33820    4.58470    6.22740    5.12360    0.11000   74.53360  133.10560   95.25340   12.62290   12.44290    0.10020    4.20440    2.54450    0.19000   -8.98520 4524.72520 4493.88500 4512.65050    0.19990
 5672.00000    4.81420    5.54790    7.96260    9.93600    9.39450    0.03550   72.26610  128.17560   78.90350   12.18990   12.18900    0.07350    3.75380    2.66290    0.17650   -7.97870 4497.25270 4493.32600 4497.68790    0.11740
 5672.50000    5.41820    9.22330   10.10660   13.64460   11.32110    0.01130   69.77620  126.44690   73.05400   12.18870   12.17630    0.04420    3.45630    2.68850    0.15760   -7.23110 4469.78020 4455.64470 4482.72540    0.10340
 5673.00000    5.46090    7.95140    8.62340   12.79620    9.78330    0.01690   68.45730  129.37680   68.78570   12.18370   12.17940    0.01880    3.32640    2.67270    0.14680   -6.85300 4497.01170 4458.69900 4467.76290    0.09680
 5673.50000    4.71190    6.52170    6.85760    7.91510    7.91300    0.03170   68.36750  126.87900   72.91120   12.17150   12.17040    0.01460    3.27570    2.64800    0.14720   -6.88860 4484.42480 4450.35140 4459.20260    0.09500
 5674.00000    4.29220    5.96370    6.73730    7.27010    7.90560    0.04680   67.72610  123.79710   78.04330   12.16800   12.17500    0.01790    3.28570    2.62380    0.14210   -6.92430 4471.83780 4468.33680 4476.25120    0.11050
 5674.50000    4.14370    5.92220    6.84680    7.16930    7.33920    0.05310   68.87770  127.95410   84.85110   12.16450   12.17390    0.03290    3.33590    2.61730    0.14950   -6.95990 4473.15440 4503.87750 4493.29980    0.13340
 5675.00000    3.83890    5.46940    6.24700    6.81660    7.16200    0.06060   70.26270  130.09180   90.84090   12.16090   12.19510    0.05140    3.48660    2.60340    0.16000   -6.99550 4495.32640 4501.15160 4510.34840    0.15790
 5675.50000    3.60590    5.04420    5.49740    6.10150    6.36380    0.07360   71.44780  132.18360   96.65630   12.23400   12.25720    0.08790    3.63730    2.57650    0.17040   -7.03120 4517.49840 4517.46600 4514.45800    0.18170
 5676.00000    3.39560    4.61900    5.03440    5.38650    5.67730    0.09750   72.12000  133.55900  103.95530   12.57790   12.72090    0.12480    3.84170    2.53850    0.17470   -7.73550 4492.85880 4475.96890 4507.68350    0.20140
 5676.50000    3.25620    4.19380    4.96290    5.10050    5.54640    0.10580   73.30610  135.91870  111.25440   12.46860   12.96640    0.15200    4.04340    2.52830    0.18630   -7.11250 4537.50170 4441.94080 4500.90900    0.21580
