~Version ---------------------------------------------------
VERS.   2.0 : CWLS log ASCII Standard -VERSION 2.0
WRAP.    NO : One line per depth step
DLM . SPACE : Column Data Section Delimiter
~Well ------------------------------------------------------
STRT .FT                1162.0 : START DEPTH
STOP .FT                9365.0 : STOP DEPTH
STEP .FT                   0.5 : STEP
NULL .                -9999.25 : NULL VALUE
COMP .                         : COMPANY
WELL .                         : WELL
FLD  .                         : FIELD
LOC  .                         : LOCATION
PROV .                         : PROVINCE
CNTY .                         : COUNTY
STAT .                         : STATE
CTRY .                         : COUNTRY
SRVC .                         : SERVICE COMPANY
DATE .                         : DATE
UWI  .                         : UNIQUE WELL ID
API  .                         : API NUMBER
SLAT .WGS84 6.0167945315952025 : SURFACE LATITUDE
SLON .WGS84  2.904402533678308 : SURFACE LONGITUDE
DATUM.F                    nan : DEPTH DATUM ELEV
~Curve Information -----------------------------------------
DEPT   .FT    : 
AT10   .OHMM  : ARRAY INDUCTION TWO FOOT RESISTIVITY A10
AT20   .OHMM  : ARRAY INDUCTION TWO FOOT RESISTIVITY A20
AT30   .OHMM  : ARRAY INDUCTION TWO FOOT RESISTIVITY A30
AT60   .OHMM  : ARRAY INDUCTION TWO FOOT RESISTIVITY A60
AT90   .OHMM  : ARRAY INDUCTION TWO FOOT RESISTIVITY A90
DPHZ_LS.DEC   : HGRD STANDARD RESOLUTION DENSITY POROSITY
DTCO   .US/F  : DELTA-T COMPRESSIONAL
DTSM   .US/F  : DELTA-T SHEAR
ECGRD  .GAPI  : ENVIRONMENTALLY CORRECTED GAMMA RAY FROM DENSITY LOG
HCALD  .IN    : HRCC CALIPER CALIBRATED FROM DENSITY LOG
HCALS  .IN    : HRCC CALIPER CALIBRATED FROM SONIC LOG
HDRA   .G/C3  : HRDD SPINE AND RIBS DENSITY CORRECTION
PEFZ   .B/E   : HRDD STANDARD RESOLUTION FORMATION PHOTOELECTRIC FACTOR
RHOZ   .G/C3  : HRDD STANDARD RESOLUTION FORMATION DENSITY
SPHI_LS.DEC   : SONIC POROSITY [LIMESTONE]
SPR    .MV    : SPONTANEOUS POTENTIAL FROM RESISTIVITY LOG
TEND   .LBF   : TENSION FROM DENSITY LOG
TENR   .LB    : TENSION FROM RESISTIVITY LOG
TENS   .LBF   : TENSION FROM SONIC LOG
TNPH_LS.DEC   : THERMAL NEUTRON POROSITY [LIMESTONE]
~Params ----------------------------------------------------
~Other -----------------------------------------------------
~ASCII -----------------------------------------------------
# ...
 6184.50000    3.87310    5.39760    6.19150    6.26320    6.69050    0.06610   78.39670  139.81050  126.20450   12.52340   12.48900    0.12520    3.85300    2.59540    0.21600  -23.44570 4660.92170 4703.11110 4697.12210    0.21420
 6185.00000    3.87770    5.33450    5.68160    5.93700    6.08530    0.06810   78.00440  139.99230  122.58270   12.98970   13.04820    0.12960    3.85520    2.59400    0.21540  -23.56070 4632.30130 4651.92580 4688.09650    0.21070
 6185.50000    3.87720    5.27740    5.80160    5.90930    6.10400    0.06250   78.43240  140.21970  117.56990   13.07200   13.10280    0.13130    3.87020    2.60280    0.21890  -23.76960 4659.42550 4687.28050 4683.09920    0.20920
 6186.00000    3.85290    5.18220    5.89760    5.95910    6.29090    0.06190   76.83190  138.20830  114.33470   12.61940   12.63910    0.11490    3.87090    2.60140    0.20420  -24.35360 4714.17250 4712.14290 4694.21530    0.21150
 6186.50000    3.87870    5.23590    5.83380    6.00890    6.39540    0.06970   76.19070  135.94600  117.40390   13.11320   13.14370    0.11140    3.87060    2.59080    0.20230  -24.34000 4768.91960 4743.83210 4705.33140    0.21590
 6187.00000    3.99620    5.43490    5.88510    6.13400    6.58520    0.06730   76.57160  135.64570  118.68790   12.94170   12.85250    0.10870    3.87030    2.59460    0.20490  -24.00740 4730.09890 4760.57880 4716.44750    0.22210
 6187.50000    4.21820    6.05520    6.37790    6.63890    7.59180    0.05380   75.78520  136.03510  115.38780   12.89930   12.91520    0.10590    3.83990    2.62280    0.19940  -24.15290 4681.57310 4737.66450 4721.83490    0.20970
 6188.00000    4.44790    6.76680    7.08930    7.36480    7.97020    0.03480   75.27730  136.42450  110.64990   12.59140   12.63130    0.10310    3.75150    2.64890    0.19440  -24.29840 4704.86550 4671.55470 4723.40310    0.19390
 6188.50000    4.39450    6.76680    7.49860    7.96450    8.30560    0.04040   74.85310  136.81390  106.72250   12.47730   12.46630    0.10350    3.76230    2.63860    0.19240  -24.45430 4724.43760 4684.53800 4724.97140    0.18460
 6189.00000    3.94530    5.79470    6.58240    7.39650    7.96270    0.04910   75.07890  137.14260  108.37360   12.50230   12.55720    0.11900    3.79930    2.62570    0.19380  -24.65180 4709.61030 4713.46190 4732.02140    0.20540
 6189.50000    3.60380    4.72530    5.45890    5.97630    6.83650    0.05290   74.91780  137.36850  111.91110   12.69870   12.62540    0.13640    3.88370    2.62090    0.19370  -24.84930 4717.61760 4708.79640 4721.37260    0.21830
 6190.00000    3.70170    4.68160    5.12640    5.40830    5.90800    0.04620   74.18770  136.66020  116.11140   13.01720   12.68000    0.15130    3.96390    2.63080    0.18590  -25.04680 4713.62410 4701.02050 4710.72380    0.22090
 6190.50000    3.68610    4.94140    5.71130    5.96280    6.27250    0.04690   75.22780  137.69380  113.39580   13.22290   13.22550    0.14640    3.95440    2.62960    0.19430  -25.24430 4709.63050 4693.24470 4700.07500    0.21820
 6191.00000    3.76400    5.22770    6.17920    6.54780    6.95550    0.05240   76.41850  139.40000  109.18490   12.86290   12.82770    0.14200    3.96540    2.61760    0.20340  -25.44180 4705.63700 4691.65430 4706.92870    0.21810
 6191.50000    3.52040    4.99790    5.61530    6.22230    6.66290    0.07780   77.68570  140.33840  109.32990   12.88030   13.00310    0.15420    4.08710    2.56470    0.21360  -25.63930 4736.59930 4708.48770 4740.03610    0.21710
 6192.00000    3.34000    4.56050    5.05150    5.44660    5.93140    0.09560   78.55880  141.60320  114.60120   13.14970   12.77540    0.17060    4.25070    2.54330    0.21890  -24.74010 4718.02730 4814.65590 4773.14350    0.23990
 6192.50000    3.22790    4.45620    5.02200    5.70360    5.75220    0.09630   78.49430  141.85620  118.53260   13.09750   13.25280    0.17310    4.35140    2.55060    0.21790  -24.52250 4724.36810 4766.53410 4735.83440    0.27210
 6193.00000    3.47170    4.80910    5.51220    6.07270    6.31940    0.08150   78.35240  141.85620  123.25700   13.73510   13.75740    0.16310    4.26780    2.57540    0.21900  -24.58220 4732.11000 4731.79360 4726.50040    0.28290
 6193.50000    3.68920    5.13820    5.72920    6.33750    6.54630    0.07000   79.59810  141.85620  127.53700   13.45380   13.38830    0.15440    4.16320    2.59420    0.22750  -24.53170 4739.85180 4727.10740 4717.16640    0.26780
 6194.00000    3.61470    5.13360    5.64810    6.22330    6.39820    0.06560   79.34890  142.51630  129.75090   13.14060   13.18120    0.12580    4.08970    2.59610    0.22430  -24.48120 4747.59370 4722.42110 4711.60260    0.25580
 6194.50000    3.56750    5.12900    5.56690    6.08060    6.25010    0.06140   79.52970  143.69110  128.40100   13.29830   13.36090    0.11860    3.98280    2.60860    0.22620  -24.43070 4750.75170 4717.73490 4711.69420    0.27380
 6195.00000    3.57340    5.12440    5.58550    5.93790    6.10210    0.05220   79.93850  146.09870  125.25180   13.46890   13.47780    0.10460    3.91820    2.62170    0.22960  -24.38020 4747.03410 4658.80590 4711.78590    0.28380
 6195.50000    3.64360    5.11980    5.62890    5.88190    6.09270    0.04620   80.32310  146.81260  122.35090   13.42820   13.41510    0.08960    3.87370    2.63130    0.23080  -24.32970 4743.31640 4674.24570 4711.87750    0.28420
 6196.00000    3.70170    5.11520    5.59630    5.88190    6.08320    0.04590   80.33450  147.06890  122.32800   13.39150   13.40280    0.08560    3.81980    2.63140    0.23080  -24.29470 4763.94340 4643.31830 4716.70300    0.27780
 6196.50000    3.70570    5.11520    5.56370    5.88190    6.04740    0.04540   80.34580  147.32530  126.59600   13.22290   13.22380    0.08250    3.81760    2.63180    0.23090  -24.28290 4755.64980 4712.19060 4728.62940    0.27280
 6197.00000    3.73970    5.07570    5.55070    5.83550    5.92900    0.04430   80.41530  147.58160  128.31380   13.26060   13.10280    0.08350    3.83900    2.63410    0.23120  -24.27120 4747.35620 4701.84700 4740.55590    0.28550
 6197.50000    3.76310    5.05600    5.46100    5.71960    5.84310    0.04240   80.34680  147.83800  131.35770   13.41430   13.44330    0.08820    3.87920    2.63780    0.23080  -24.25940 4739.06270 4718.61170 4752.48230    0.28390
 6198.00000    3.85250    5.04410    5.45280    5.75300    5.92730    0.04760   80.25350  148.39220  128.78210   13.34180   13.34250    0.09610    3.92150    2.62680    0.23060  -24.30530 4730.76910 4709.81620 4733.38800    0.27870
 6198.50000    3.96080    5.19360    5.60270    5.92030    6.04420    0.05960   80.67020  148.44700  132.68070   13.21500   13.19530    0.10780    3.96380    2.60950    0.23350  -24.23000 4722.47550 4703.79080 4709.52020    0.27990
 6199.00000    3.97620    5.32990    5.65520    6.04880    6.16120    0.06280   80.90730  148.44530  134.16640   13.16270   13.15790    0.11790    4.00620    2.60270    0.23550  -24.99560 4714.18190 4669.09770 4685.65230    0.27260
 6199.50000    3.99930    5.38450    5.71240    5.93260    6.10420    0.06110   80.98560  148.25370  133.01650   12.97020   12.94570    0.11640    4.03200    2.60690    0.23660  -25.10400 4705.88830 4664.82850 4695.28970    0.26780
 6200.00000    4.02230    5.25420    5.76950    5.96520    6.16730    0.05680   80.83290  147.18030  130.87080   12.92250   12.89530    0.11380    4.03300    2.61490    0.23480  -25.73670 4697.59470 4685.46080 4731.31690    0.26780
 6200.50000    4.04540    5.03720    5.81520    6.10490    6.30610    0.05370   80.51040  146.10700  131.28160   12.96260   12.97970    0.11120    4.01860    2.61370    0.23230  -26.36940 4689.30120 4723.22250 4767.34420    0.27480
 6201.00000    4.06850    5.05360    5.58210    5.95180    6.03100    0.06630   79.76750  143.01800  132.97220   12.96070   12.98250    0.10580    3.94760    2.59620    0.22780  -27.00210 4681.00760 4735.50320 4766.68020    0.27140
 6201.50000    4.20450    5.33870    5.57530    5.79870    6.00380    0.07510   79.37300  141.18950  132.98280   13.02840   13.02880    0.09900    3.90580    2.58230    0.22470  -28.28610 4672.71400 4706.92070 4720.76110    0.26400
