~Version ---------------------------------------------------
VERS.   2.0 : CWLS log ASCII Standard -VERSION 2.0
WRAP.    NO : One line per depth step
DLM . SPACE : Column Data Section Delimiter
~Well ------------------------------------------------------
STRT .FT                1162.0 : START DEPTH
STOP .FT                9365.0 : STOP DEPTH
STEP .FT                   0.5 : STEP
NULL .                -9999.25 : NULL VALUE
COMP .                         : COMPANY
WELL .                         : WELL
FLD  .                         : FIELD
LOC  .                         : LOCATION
PROV .                         : PROVINCE
CNTY .                         : COUNTY
STAT .                         : STATE
CTRY .                         : COUNTRY
SRVC .                         : SERVICE COMPANY
DATE .                         : DATE
UWI  .                         : UNIQUE WELL ID
API  .                         : API NUMBER
SLAT .WGS84 6.0167945315952025 : SURFACE LATITUDE
SLON .WGS84  2.904402533678308 : SURFACE LONGITUDE
DATUM.F                    nan : DEPTH DATUM ELEV
~Curve Information -----------------------------------------
DEPT   .FT    : 
AT10   .OHMM  : ARRAY INDUCTION TWO FOOT RESISTIVITY A10
AT20   .OHMM  : ARRAY INDUCTION TWO FOOT RESISTIVITY A20
AT30   .OHMM  : ARRAY INDUCTION TWO FOOT RESISTIVITY A30
AT60   .OHMM  : ARRAY INDUCTION TWO FOOT RESISTIVITY A60
AT90   .OHMM  : ARRAY INDUCTION TWO FOOT RESISTIVITY A90
DPHZ_LS.DEC   : HGRD STANDARD RESOLUTION DENSITY POROSITY
DTCO   .US/F  : DELTA-T COMPRESSIONAL
DTSM   .US/F  : DELTA-T SHEAR
ECGRD  .GAPI  : ENVIRONMENTALLY CORRECTED GAMMA RAY FROM DENSITY LOG
HCALD  .IN    : HRCC CALIPER CALIBRATED FROM DENSITY LOG
HCALS  .IN    : HRCC CALIPER CALIBRATED FROM SONIC LOG
HDRA   .G/C3  : HRDD SPINE AND RIBS DENSITY CORRECTION
PEFZ   .B/E   : HRDD STANDARD RESOLUTION FORMATION PHOTOELECTRIC FACTOR
RHOZ   .G/C3  : HRDD STANDARD RESOLUTION FORMATION DENSITY
SPHI_LS.DEC   : SONIC POROSITY [LIMESTONE]
SPR    .MV    : SPONTANEOUS POTENTIAL FROM RESISTIVITY LOG
TEND   .LBF   : TENSION FROM DENSITY LOG
TENR   .LB    : TENSION FROM RESISTIVITY LOG
TENS   .LBF   : TENSION FROM SONIC LOG
TNPH_LS.DEC   : THERMAL NEUTRON POROSITY [LIMESTONE]
~Params ----------------------------------------------------
~Other -----------------------------------------------------
~ASCII -----------------------------------------------------
# ...
 3577.00000    5.60080    6.23650    6.59240    6.82320    6.90860    0.06710   66.88520  133.25950   71.30130   13.18950   13.12190    0.00190    4.09720    2.59280    0.13600 -256.84100 3807.93190 3812.31640 3800.88960    0.11270
 3577.50000    6.01510    6.53460    6.88080    7.23080    7.17070    0.07480   66.89400  134.86090   71.30130   13.26670   13.24920    0.00190    4.13320    2.58200    0.13610 -256.14100 3808.13580 3774.10170 3800.75510    0.11650
 3578.00000    7.05160    7.47460    7.71470    8.62920    8.94900    0.07010   66.90270  134.40290   69.75840   13.36830   13.38270    0.00820    4.24300    2.59410    0.13640 -256.12920 3808.33970 3758.25540 3800.62060    0.11260
 3578.50000    8.08820    8.84270    9.28900   10.02750   10.72740    0.05000   66.77020  133.71840   63.17540   13.47000   13.51610    0.02240    4.37720    2.63440    0.13510 -256.16950 3808.54360 3801.05500 3798.30490    0.10570
 3579.00000    9.12470    9.89290   10.77060   11.42580   12.50570    0.03260   66.08330  132.67330   56.59240   13.43370   13.59620    0.03530    4.50510    2.66710    0.13080 -256.41820 3808.74750 3821.92270 3792.71740    0.09620
 3579.50000    9.69420    9.93320   11.17890   12.54440   13.02150    0.01860   66.49450  132.06390   50.00940   13.12920   12.97810    0.03850    4.55480    2.67350    0.13230 -256.66700 3808.95140 3805.09510 3787.12990    0.08090
 3580.00000    8.11010    8.37830    8.84620    9.19130   10.41010    0.02880   65.24700  130.58340   52.08660   12.82470   12.88610    0.03960    4.60450    2.65470    0.12030 -255.99300 3809.15540 3802.81970 3781.54240    0.08410
 3580.50000    6.52600    7.89090    7.94010    7.96650    8.26950    0.03680   62.36100  127.85480   60.93000   12.95710   12.87750    0.04040    4.63540    2.64680    0.10320 -255.80450 3809.35930 3816.52800 3775.95500    0.09360
 3581.00000    6.93430    8.93890    9.09670   10.66160    9.40250    0.03590   61.45680  126.89370   60.89180   13.24000   13.35190    0.04110    4.66890    2.64800    0.09800 -255.95560 3809.56320 3752.43760 3770.36750    0.10210
 3581.50000    7.79330   11.31190   12.30130   13.64260   10.53540    0.03230   61.09370  128.70720   55.76660   13.06000   13.17830    0.02670    4.74000    2.65470    0.09710 -255.81870 3809.76710 3689.13550 3739.80340    0.09360
 3582.00000    8.41160   13.01770   14.33400   16.48990   11.21510    0.03430   60.69890  132.51410   52.17460   12.94520   13.00480    0.01420    4.83480    2.64950    0.09240 -254.75560 3809.97100 3733.50420 3748.23910    0.08060
 3582.50000    9.02980   19.76450   24.16600   31.29610   14.03050    0.03670   61.38920  130.07040   49.39480   12.81590   12.84700    0.00640    4.89650    2.64720    0.09890 -254.00820 3810.17490 3774.61470 3756.67470    0.06340
 3583.00000    9.64810   23.21790   33.80860   44.04360   25.16850    0.03350   62.29950  131.93910   46.61500   12.74680   12.77200    0.00730    4.92120    2.65290    0.10330 -252.48160 3810.37880 3759.61610 3765.11030    0.05730
 3583.50000    8.96960   15.25840   20.32220   34.97500   22.45530    0.03600   63.28160  135.05360   47.51950   12.67770   12.66240    0.01270    4.95290    2.64660    0.10540 -251.29550 3810.58270 3783.11140 3773.54590    0.06720
 3584.00000    4.95900    6.26650    8.41120   24.65660   11.97980    0.05070   66.91790  138.26390   55.93450   12.63620   12.63380    0.05810    5.02830    2.61820    0.14040 -247.90200 3810.78670 3806.60660 3781.98150    0.08130
 3584.50000    2.89910    3.83350    4.48660   14.33830    5.13800    0.09750   70.08400  142.43250   67.57790   12.83040   12.90500    0.08740    5.10370    2.53210    0.16190 -246.21490 3810.99060 3794.44660 3790.41710    0.13780
 3585.00000    2.30310    3.32480    3.60470    4.01990    4.09570    0.14990   74.73820  151.18690   77.16430   13.52950   13.62500    0.11070    5.17910    2.44610    0.19620 -244.12230 3811.19450 3784.23730 3798.85270    0.19430
 3585.50000    2.46670    3.56610    4.05680    4.07020    4.63820    0.17010   77.92560  170.55730   77.16430   13.41560   13.51000    0.12510    5.23580    2.42070    0.21680 -242.02960 3811.39840 3774.02800 3800.53980    0.23810
 3586.00000    2.68490    3.66210    3.82770    4.99730    5.52020    0.15170   81.91350  181.68890   74.11340   13.27060   13.52440    0.12970    5.03180    2.45530    0.24560 -240.35550 3811.60230 3758.48830 3782.53510    0.23150
 3586.50000    1.95100    2.48920    2.55580    3.51510    4.12120    0.15010   85.59830  189.05660   71.49910   12.78120   12.83030    0.13240    4.75180    2.44310    0.26920 -240.35550 3811.80620 3741.61600 3773.04790    0.26040
 3587.00000    1.21700    1.53290    1.74150    1.66250    2.37240    0.19540   89.24940  187.00840   73.96560   13.40710   13.45660    0.12230    4.54210    2.35390    0.29200 -240.35550 3812.01010 3740.16980 3780.79070    0.29990
 3587.50000    1.23180    1.39610    1.49070    1.60160    1.67290    0.24620   92.78450  178.77870   77.99180   14.38270   14.45390    0.12220    4.55850    2.27370    0.29930 -240.44340 3812.21400 3783.55580 3793.66560    0.37430
 3588.00000    1.66740    1.84500    1.87830    2.26430    2.83760    0.25620   96.52830  163.40340   76.79590   13.21620   13.06440    0.14100    4.81750    2.29550    0.29930 -241.93720 3812.41800 3826.94180 3806.54060    0.39700
 3588.50000    2.40950    2.76920    2.59270    4.16330    6.11000    0.18880   49.05440  151.68880   70.10920   13.82680   13.83030    0.15350    5.07660    2.40880    0.01410 -243.43100 3812.62190 3851.84850 3815.41550    0.34290
 3589.00000    4.91820    8.61540    9.09700    9.30630   15.00550    0.10040   50.01990  139.97410   60.61180   12.89210   13.08580    0.13530    5.22890    2.54200    0.01620 -244.92480 3812.82580 3846.22440 3808.29010    0.29960
 3589.50000    5.87580   15.69500   17.40460   23.66160   30.51910    0.04050   56.32050  132.22660   49.71930   12.52000   12.54690    0.09760    5.22860    2.65330    0.06330 -246.41860 3813.02970 3829.00430 3801.16470    0.12250
 3590.00000    5.55290   14.06180   22.42840   32.47620   32.88340    0.00790   62.62110  134.69420   47.23220   12.31550   12.29780    0.04350    5.16450    2.69650    0.11170 -246.75540 3813.23360 3794.39020 3794.03940    0.07120
 3590.50000    4.89570   10.57650   16.69440   27.76780   26.13630    0.03680   69.63640  138.32780   50.14090   12.07880   12.05840    0.04080    5.15060    2.65620    0.17050 -247.09230 3813.43750 3794.45420 3786.91400    0.06540
 3591.00000    3.77490    6.50020    7.36920   17.99140   16.56870    0.10960   77.72380  141.96140   61.59850   12.06450   12.07310    0.05370    5.17060    2.52650    0.22790 -247.42920 3813.64140 3776.64570 3779.78860    0.10010
 3591.50000    2.21580    2.89350    4.08850    8.21500    7.00110    0.19030   85.41010  145.59500   72.09400   12.37410   12.54790    0.08220    5.25970    2.33030    0.26370 -247.76610 3813.84540 3758.83710 3772.66320    0.17550
 3592.00000    1.77940    1.91410    2.31130    2.73390    2.84010    0.26830   90.49100  150.80210   75.54140   13.01680   13.28770    0.10870    5.41540    2.15930    0.29930 -248.10300 3814.04930 3758.37830 3782.07530    0.24400
 3592.50000    1.43030    1.89190    2.07270    2.44440    2.49050    0.29990   88.56290  157.01910   77.85270   14.26750   14.84110    0.12580    5.44280    2.14430    0.29230 -248.43990 3814.25320 3761.57600 3776.83500    0.29880
 3593.00000    1.58860    1.94370    2.20620    2.57790    2.66080    0.28030   88.72280  159.89630   79.85050   15.84440   15.84240    0.14390    5.32540    2.24110    0.29010 -248.37820 3814.45710 3764.77370 3771.59470    0.43200
 3593.50000    1.68970    2.10450    2.36180    2.87340    2.94450    0.21950   89.19800  163.77660   80.25010   15.42390   15.49800    0.14760    4.97060    2.35050    0.29590 -248.27540 3814.66100 3767.97140 3766.35440    0.48470
 3594.00000    1.74530    2.30780    2.49690    2.89130    3.18950    0.17070   87.29800  168.32080   79.63290   15.15570   15.15360    0.15480    4.61590    2.41230    0.28120 -248.17260 3814.86490 3790.46820 3765.45580    0.51570
