~Version ---------------------------------------------------
VERS.   2.0 : CWLS log ASCII Standard -VERSION 2.0
WRAP.    NO : One line per depth step
DLM . SPACE : Column Data Section Delimiter
~Well ------------------------------------------------------
STRT .FT                1162.0 : START DEPTH
STOP .FT                9365.0 : STOP DEPTH
STEP .FT                   0.5 : STEP
NULL .                -9999.25 : NULL VALUE
COMP .                         : COMPANY
WELL .                         : WELL
FLD  .                         : FIELD
LOC  .                         : LOCATION
PROV .                         : PROVINCE
CNTY .                         : COUNTY
STAT .                         : STATE
CTRY .                         : COUNTRY
SRVC .                         : SERVICE COMPANY
DATE .                         : DATE
UWI  .                         : UNIQUE WELL ID
API  .                         : API NUMBER
SLAT .WGS84 6.0167945315952025 : SURFACE LATITUDE
SLON .WGS84  2.904402533678308 : SURFACE LONGITUDE
DATUM.F                    nan : DEPTH DATUM ELEV
~Curve Information -----------------------------------------
DEPT   .FT    : 
AT10   .OHMM  : ARRAY INDUCTION TWO FOOT RESISTIVITY A10
AT20   .OHMM  : ARRAY INDUCTION TWO FOOT RESISTIVITY A20
AT30   .OHMM  : ARRAY INDUCTION TWO FOOT RESISTIVITY A30
AT60   .OHMM  : ARRAY INDUCTION TWO FOOT RESISTIVITY A60
AT90   .OHMM  : ARRAY INDUCTION TWO FOOT RESISTIVITY A90
DPHZ_LS.DEC   : HGRD STANDARD RESOLUTION DENSITY POROSITY
DTCO   .US/F  : DELTA-T COMPRESSIONAL
DTSM   .US/F  : DELTA-T SHEAR
ECGRD  .GAPI  : ENVIRONMENTALLY CORRECTED GAMMA RAY FROM DENSITY LOG
HCALD  .IN    : HRCC CALIPER CALIBRATED FROM DENSITY LOG
HCALS  .IN    : HRCC CALIPER CALIBRATED FROM SONIC LOG
HDRA   .G/C3  : HRDD SPINE AND RIBS DENSITY CORRECTION
PEFZ   .B/E   : HRDD STANDARD RESOLUTION FORMATION PHOTOELECTRIC FACTOR
RHOZ   .G/C3  : HRDD STANDARD RESOLUTION FORMATION DENSITY
SPHI_LS.DEC   : SONIC POROSITY [LIMESTONE]
SPR    .MV    : SPONTANEOUS POTENTIAL FROM RESISTIVITY LOG
TEND   .LBF   : TENSION FROM DENSITY LOG
TENR   .LB    : TENSION FROM RESISTIVITY LOG
TENS   .LBF   : TENSION FROM SONIC LOG
TNPH_LS.DEC   : THERMAL NEUTRON POROSITY [LIMESTONE]
~Params ----------------------------------------------------
~Other -----------------------------------------------------
~ASCII -----------------------------------------------------
# ...
 5134.50000    4.15040    3.55220    3.15510    2.76530    2.54820    0.13200   72.50150  122.70320   65.24310   12.38300   12.40570    0.00120    2.55390    2.48430    0.27330  -35.08470 4394.30720 4390.52050 4415.64480    0.14790
 5135.00000    3.97000    3.35890    3.07760    2.68060    2.54820    0.13910   73.12180  123.64380   69.55300   12.38100   12.39120    0.01270    2.54560    2.47160    0.27330  -34.02110 4410.22940 4373.11250 4412.54100    0.14620
 5135.50000    3.74950    3.23590    2.98340    2.60210    2.47500    0.14040   73.30260  124.85860   72.28500   12.37900   12.37550    0.03120    2.68800    2.47060    0.27330  -32.55690 4414.92650 4354.97290 4409.43720    0.15080
 5136.00000    3.56900    3.15640    2.89210    2.53860    2.40540    0.14310   73.44940  126.11960   74.96230   12.33720   12.35980    0.04970    2.86790    2.46570    0.27330  -30.34160 4419.62370 4372.12150 4418.81330    0.16620
 5136.50000    3.31950    3.04170    2.73090    2.47520    2.35860    0.14630   74.77160  126.81260   73.06000   12.39850   12.41560    0.06150    2.96860    2.46020    0.27330  -29.39040 4424.32080 4407.11500 4436.44990    0.17790
 5137.00000    3.12840    2.94770    2.60200    2.41170    2.20870    0.14750   73.94870  127.20210   68.31810   12.38880   12.38850    0.04900    2.94600    2.45590    0.27330  -30.80330 4429.01800 4409.05870 4429.44960    0.19520
 5137.50000    3.27940    3.18040    2.75260    2.53150    2.28810    0.13900   72.80190  127.80910   60.94660   12.32910   12.36770    0.03440    2.83590    2.47370    0.27330  -31.74330 4433.71510 4410.18040 4422.44920    0.16380
 5138.00000    3.51080    3.52950    3.08870    2.73110    2.41290    0.12900   72.90470  128.41600   52.27840   12.33720   12.35730    0.01970    2.80540    2.48890    0.27330  -32.30680 4438.41220 4432.77930 4411.06490    0.13900
 5138.50000    3.65890    3.87850    3.35760    2.73640    2.63180    0.12290   73.08040  129.28760   48.65350   12.29700   12.29160    0.01490    2.77490    2.49710    0.27330  -30.88620 4469.35510 4458.91860 4396.75780    0.11250
 5139.00000    3.47390    3.67080    3.17860    2.67790    2.62670    0.12110   72.73950  130.00160   47.67700   12.26960   12.25860    0.01630    2.74440    2.50130    0.27330  -28.77710 4448.13090 4407.39070 4382.45070    0.11560
 5139.50000    3.28890    3.28960    2.95490    2.63110    2.48010    0.12240   72.23620  130.10920   54.30640   12.28590   12.26500    0.02500    2.77870    2.49960    0.27320  -24.68310 4426.90680 4412.94520 4395.20800    0.12910
 5140.00000    3.10390    2.98460    2.89210    2.64750    2.39460    0.11690   72.33360  130.58140   68.65870   12.31300   12.26780    0.03380    2.87800    2.51090    0.27320  -20.58910 4405.68260 4449.09820 4384.73110    0.14880
 5140.50000    3.12990    3.35950    3.17930    3.19790    3.02680    0.10440   73.63010  131.90260   87.21980   12.52710   12.61050    0.04260    2.98720    2.53030    0.27320  -16.75540 4384.45840 4394.83450 4374.25420    0.16280
 5141.00000    3.44480    3.73440    3.62800    3.71520    3.65910    0.08780   75.04510  133.51490   98.87670   12.60020   12.56440    0.05410    3.13000    2.55900    0.27320  -13.87230 4363.23430 4323.58030 4363.77730    0.18340
 5141.50000    3.75960    4.10930    4.07660    4.23250    4.29130    0.08230   76.39880  136.68590   99.07080   12.54630   12.60430    0.06540    3.24920    2.56950    0.27320  -10.61230 4358.04740 4392.58540 4373.10290    0.19690
 5142.00000    3.94500    4.36130    4.52530    4.74980    4.92350    0.07590   77.21320  138.26000   93.82100   12.61940   12.46870    0.07680    3.37390    2.57990    0.27320   -7.45810 4376.91640 4352.39340 4388.64570    0.19980
 5142.50000    3.62000    4.23140    4.49320    4.86950    5.11320    0.07300   78.35930  140.29540   98.05470   12.45490   12.51830    0.08200    3.47480    2.58590    0.27320   -5.93410 4395.78550 4384.57760 4404.18850    0.20910
 5143.00000    3.36630    4.10160    4.39280    4.73440    5.09050    0.07180   78.75660  141.82360  106.08660   12.60600   12.72580    0.08300    3.57560    2.58680    0.27320   -4.67920 4359.24480 4358.06870 4405.37960    0.23000
 5143.50000    3.32250    3.99770    4.33250    4.60440    5.08150    0.07410   79.21650  142.53960  113.34780   12.75720   12.82470    0.08420    3.64260    2.58380    0.27320   -3.57970 4386.34180 4364.92830 4407.09470    0.25650
 5144.00000    3.41640    4.09950    4.48620    4.78200    5.35090    0.07090   79.32060  143.15340  111.06220   12.70910   12.71370    0.08540    3.62250    2.59250    0.27320   -2.88580 4413.43880 4359.55830 4408.80970    0.25160
 5144.50000    3.50370    4.22890    4.69730    4.93340    5.64800    0.06380   79.35650  143.97170  113.61530   12.74330   12.78940    0.08680    3.59030    2.60350    0.27310    0.02350 4428.15660 4366.60220 4404.69360    0.23790
 5145.00000    3.44670    4.30740    4.69730    5.08610    5.45560    0.06230   79.42970  144.86680  116.17980   12.91840   12.71720    0.08880    3.58180    2.60360    0.27310    0.46140 4424.30550 4328.56530 4412.28670    0.22460
 5145.50000    3.44420    4.30740    4.69220    5.11780    5.37390    0.06210   78.85210  146.01750  116.77950   12.66650   12.69220    0.09300    3.61120    2.60400    0.27310    0.54890 4420.45450 4349.80720 4419.87980    0.22530
 5146.00000    3.49980    4.29770    4.68360    5.11780    5.30270    0.06210   78.58820  146.01750  118.07980   12.75090   12.74060    0.09740    3.66450    2.59890    0.27310   -1.36520 4416.60340 4435.61630 4453.85240    0.22530
 5146.50000    3.47560    4.28560    4.67500    5.11780    5.11320    0.07100   79.23830  146.63130  119.33920   12.74600   12.81290    0.09980    3.70280    2.58880    0.27310   -1.42040 4412.75240 4482.14200 4439.07250    0.23180
 5147.00000    3.50100    4.28070    4.66820    5.02320    5.11320    0.08010   79.60510  149.42720  121.52850   12.78500   12.70390    0.09920    3.71520    2.57330    0.27310   -1.47560 4408.90130 4415.83400 4404.72700    0.22400
 5147.50000    3.45050    4.28070    4.53190    4.96110    5.08150    0.08620   79.22540  147.04040  114.80440   12.72020   12.82010    0.09620    3.71150    2.56220    0.27310   -1.53070 4354.55130 4275.32840 4354.33810    0.24250
 5148.00000    3.44520    4.28070    4.41410    4.57590    4.77510    0.08650   78.41380  145.19920  118.75480   12.86850   12.68710    0.09360    3.77970    2.56060    0.27310   -1.58590 4359.22850 4300.81710 4358.28780    0.24040
 5148.50000    3.54400    4.53120    4.90000    4.91710    5.22920    0.08790   77.53490  144.99460  114.48030   12.68210   12.72940    0.09570    3.91120    2.55900    0.27310   -1.64110 4363.90570 4336.21230 4362.23740    0.24250
 5149.00000    3.65010    5.10780    5.38590    5.34370    5.75440    0.08010   76.68610  142.58780  117.92950   12.73330   12.64780    0.09840    4.05130    2.57400    0.27310   -1.69620 4368.58290 4343.50330 4366.18710    0.22640
 5149.50000    3.97110    5.57220    6.09170    6.79620    7.58590    0.06640   75.65390  140.18090  110.21560   12.75420   12.90440    0.09570    4.29630    2.59510    0.27310   -1.75140 4373.26010 4350.79430 4370.13670    0.21500
 5150.00000    5.12430    7.15490    7.68770    8.87550   10.30290    0.05050   74.30160  137.77410   98.83870   12.78670   12.83510    0.07900    4.52250    2.62610    0.27300   -1.80660 4377.93730 4392.03820 4374.08630    0.19580
 5150.50000    6.27760    8.73760    9.28360   10.95470   13.01990    0.03260   73.35730  135.92620   82.92090   12.50010   12.54750    0.05870    4.67910    2.65460    0.27300   -1.86170 4382.61450 4367.14290 4378.03600    0.15390
 5151.00000    6.28500    8.56350    9.72300   10.83490   14.46840    0.03350   71.72040  134.02230   70.74200   12.45830   12.44470    0.07700    4.77860    2.65240    0.27300   -1.91690 4387.29170 4340.65750 4374.00640    0.12040
 5151.50000    5.01260    6.54550    7.46360    8.15640    8.84130    0.04380   70.21660  130.65460   69.40950   12.44880   12.47790    0.10640    4.80450    2.63600    0.27300   -1.97210 4391.96890 4316.68720 4374.00640    0.13480
