~Version ---------------------------------------------------
VERS.   2.0 : CWLS log ASCII Standard -VERSION 2.0
WRAP.    NO : One line per depth step
DLM . SPACE : Column Data Section Delimiter
~Well ------------------------------------------------------
STRT .FT                1162.0 : START DEPTH
STOP .FT                9365.0 : STOP DEPTH
STEP .FT                   0.5 : STEP
NULL .                -9999.25 : NULL VALUE
COMP .                         : COMPANY
WELL .                         : WELL
FLD  .                         : FIELD
LOC  .                         : LOCATION
PROV .                         : PROVINCE
CNTY .                         : COUNTY
STAT .                         : STATE
CTRY .                         : COUNTRY
SRVC .                         : SERVICE COMPANY
DATE .                         : DATE
UWI  .                         : UNIQUE WELL ID
API  .                         : API NUMBER
SLAT .WGS84 6.0167945315952025 : SURFACE LATITUDE
SLON .WGS84  2.904402533678308 : SURFACE LONGITUDE
DATUM.F                    nan : DEPTH DATUM ELEV
~Curve Information -----------------------------------------
DEPT   .FT    : 
AT10   .OHMM  : ARRAY INDUCTION TWO FOOT RESISTIVITY A10
AT20   .OHMM  : ARRAY INDUCTION TWO FOOT RESISTIVITY A20
AT30   .OHMM  : ARRAY INDUCTION TWO FOOT RESISTIVITY A30
AT60   .OHMM  : ARRAY INDUCTION TWO FOOT RESISTIVITY A60
AT90   .OHMM  : ARRAY INDUCTION TWO FOOT RESISTIVITY A90
DPHZ_LS.DEC   : HGRD STANDARD RESOLUTION DENSITY POROSITY
DTCO   .US/F  : DELTA-T COMPRESSIONAL
DTSM   .US/F  : DELTA-T SHEAR
ECGRD  .GAPI  : ENVIRONMENTALLY CORRECTED GAMMA RAY FROM DENSITY LOG
HCALD  .IN    : HRCC CALIPER CALIBRATED FROM DENSITY LOG
HCALS  .IN    : HRCC CALIPER CALIBRATED FROM SONIC LOG
HDRA   .G/C3  : HRDD SPINE AND RIBS DENSITY CORRECTION
PEFZ   .B/E   : HRDD STANDARD RESOLUTION FORMATION PHOTOELECTRIC FACTOR
RHOZ   .G/C3  : HRDD STANDARD RESOLUTION FORMATION DENSITY
SPHI_LS.DEC   : SONIC POROSITY [LIMESTONE]
SPR    .MV    : SPONTANEOUS POTENTIAL FROM RESISTIVITY LOG
TEND   .LBF   : TENSION FROM DENSITY LOG
TENR   .LB    : TENSION FROM RESISTIVITY LOG
TENS   .LBF   : TENSION FROM SONIC LOG
TNPH_LS.DEC   : THERMAL NEUTRON POROSITY [LIMESTONE]
~Params ----------------------------------------------------
~Other -----------------------------------------------------
~ASCII -----------------------------------------------------
# ...
 8774.50000   12.44790   32.38480   38.88570   46.63220   43.06420   -0.01290   61.24040  109.23650   44.63620   12.07780   12.09520    0.02100    5.19390    2.73450    0.09540 -284.25600 5456.29830 5467.71960 5481.25520    0.04550
 8775.00000    9.63520   19.83870   27.18750   33.24370   26.46350   -0.01610   61.78230  111.30680   50.68440   12.09800   12.09320    0.02770    5.01430    2.73830    0.09990 -284.42470 5456.29830 5463.68970 5472.15540    0.05210
 8775.50000    7.41700   15.67700   12.23290   16.04220   10.37350   -0.01070   63.08260  113.68730   59.17420   12.09380   12.07150    0.03310    4.83480    2.72640    0.10920 -284.59350 5456.29830 5455.08920 5462.00610    0.07430
 8776.00000    7.32270   12.26380   12.00560   13.22750   12.17410    0.00820   64.75040  115.53330   68.93190   12.04550   12.04980    0.05180    4.72210    2.68650    0.12010 -284.76230 5456.29830 5428.20650 5451.15700    0.10340
 8776.50000    7.24810   11.61550   13.17740   16.74790   14.26150    0.02960   64.81410  117.49050   78.68950   12.00120   12.01420    0.07230    4.62510    2.65800    0.12240 -284.93100 5456.29830 5424.23630 5440.30800    0.13660
 8777.00000    7.17330   11.45790   12.48830   13.75830   13.60200    0.03140   65.24720  118.39010   86.66660   11.94440   11.95520    0.08470    4.61720    2.65550    0.12490 -284.49230 5456.29830 5409.64290 5429.45900    0.15390
 8777.50000    7.41400   11.57390   11.63480   13.38900   12.96780    0.01810   65.45120  118.29180   88.48320   11.94620   11.97220    0.08540    4.63430    2.68180    0.12610 -284.60130 5456.29830 5441.10870 5418.61000    0.14160
 8778.00000    7.74740   11.77020   12.96980   13.66260   13.32260    0.01200   65.00060  117.73860   83.38940   12.00700   12.01970    0.05870    4.62920    2.68930    0.12330 -284.88070 5456.29830 5441.10870 5407.76100    0.12530
 8778.50000    8.21620   13.03810   14.48030   16.73230   15.32310    0.01200   64.07220  116.21070   75.24070   12.03900   12.07950    0.03420    4.58290    2.68890    0.11660 -285.16000 5456.29830 5357.10290 5396.91190    0.10090
 8779.00000    8.96610   15.68080   16.55470   19.80200   18.20200    0.01470   62.09910  114.12700   69.56880   12.07100   12.09020    0.00980    4.51150    2.68270    0.10430 -285.43940 5456.29830 5338.27700 5422.48520    0.09290
 8779.50000    9.34680   17.08040   18.62910   22.87170   21.08090    0.01920   59.16580  109.81240   64.28390   12.09180   12.10010    0.00920    4.49200    2.67630    0.08270 -285.71870 5456.29830 5372.69910 5454.45180    0.08780
 8780.00000    9.14650   16.62860   20.70340   25.94130   23.95980    0.01460   57.72000  108.08490   62.06440   12.09600   12.08840    0.01020    4.55430    2.68290    0.07310 -285.99810 5456.29830 5399.36730 5486.41840    0.08360
 8780.50000    9.49660   18.67350   23.72640   29.39410   26.83870    0.00870   56.22110  105.69540   57.35990   12.09470   12.09690    0.01110    4.70560    2.69490    0.06230 -286.54730 5456.29830 5422.31310 5500.49570    0.07930
 8781.00000   11.31180   27.20260   31.00680   43.78190   36.07510    0.00130   54.98830  103.54450   51.38340   12.07960   12.11250    0.01210    4.85680    2.70910    0.05250 -287.50140 5456.29830 5410.51660 5478.38900    0.06100
 8781.50000   13.16090   37.29750   47.92780   60.52030   51.72630    0.00550   54.21210  102.08510   45.40690   12.08150   12.10300    0.01050    5.03560    2.69980    0.04730 -288.45550 5456.29830 5392.02590 5456.28220    0.04450
 8782.00000   14.04200   46.00210   55.49630   73.40530   58.82420    0.00890   53.27150   98.71940   42.82530   12.08350   12.10880   -0.00170    5.17860    2.69440    0.04110 -289.40960 5456.29830 5371.83300 5434.17540    0.02900
 8782.50000   13.92570   47.29300   63.20400   93.18260   80.74960    0.00610   52.19170   97.53820   45.04290   12.08540   12.10520   -0.00170    5.24400    2.69870    0.03380 -290.36370 5456.29830 5346.14040 5447.98430    0.02210
 8783.00000   14.23830   50.43040   75.09630  128.22460  111.64540   -0.00130   51.05420   95.48010   45.57610   12.07580   12.10630    0.00110    5.17460    2.71420    0.02450 -291.31780 5456.29830 5471.58340 5537.53580    0.01960
 8783.50000   14.69430   59.58350   92.21990  199.09550  159.70650   -0.01100   50.65430   95.34060   44.00890   12.09150   12.11480    0.00600    5.17700    2.72940    0.02200 -292.27190 5456.29830 5570.64920 5605.93210    0.01750
 8784.00000   15.07230   68.73660  111.89250  269.96650  212.34080   -0.01420   50.42670   94.81140   41.96920   12.09480   12.11180    0.00750    5.19630    2.73480    0.02050 -293.12220 5456.29830 5652.87860 5585.32160    0.01520
 8784.50000   15.45560   79.29510  134.63370  383.97940  256.31640   -0.01500   50.14340   92.47720   42.87510   12.09800   12.11030    0.00680    5.20050    2.73530    0.01860 -293.94660 5456.29830 5548.40660 5526.52870    0.01080
 8785.00000   15.71090   81.29200  155.66870  670.55970  300.29190   -0.01290   50.00900   92.21370   42.71330   12.10130   12.11460    0.00600    5.20460    2.73230    0.01680 -294.77090 5456.29830 5443.93450 5459.27270    0.00720
 8785.50000   15.75650   80.79410  167.87700  957.14010  338.37900   -0.01180   49.87460   91.95010   40.88700   12.09710   12.11900    0.00590    5.19200    2.72940    0.01630 -295.59530 5456.29830 5374.60020 5448.85690    0.00490
 8786.00000   15.76660   85.41300  181.37630 1257.94410  380.97830   -0.00680   49.75350   91.68660   39.78540   12.10000   12.12520    0.00580    5.16610    2.72060    0.01550 -296.75980 5456.29830 5368.11720 5463.15090    0.00440
 8786.50000   15.77670   87.47290  194.56980 1604.03950  451.18820    0.00050   49.65950   91.42300   41.41950   12.10290   12.12610    0.00570    5.18020    2.70620    0.01470 -297.43000 5456.29830 5387.90070 5477.44490    0.00500
 8787.00000   16.00450   90.76010  203.71390 1950.32550  561.21070    0.00770   49.51320   91.11970   43.95610   12.10290   12.12690    0.00560    5.19730    2.69470    0.01390 -299.18290 5456.29830 5395.69080 5491.73890    0.00560
 8787.50000   16.07670   93.40560  211.24610 1953.96090  670.51000    0.01040   49.44670   90.65720   44.87910   12.10290   12.13380    0.00550    5.20900    2.69180    0.01370 -300.65930 5456.29830 5381.97330 5506.03300    0.00430
 8788.00000   16.09650   93.20180  209.42270 1957.59630  759.46770    0.00970   49.38790   90.25880   43.29880   12.10290   12.10950    0.00540    5.23270    2.69360    0.01310 -301.84200 5456.29830 5399.13960 5520.32700    0.00080
 8788.50000   16.24050   93.23840  208.14890 1961.23170  834.85720    0.00830   49.18540   90.76020   42.38520   12.10860   12.12630    0.00400    5.27770    2.69550    0.01220 -303.41170 5456.20950 5432.08480 5521.93270   -0.00080
 8789.00000   16.37410   93.27510  206.87520 1964.86710  918.11810    0.00180   49.13750   90.08200   40.37750   12.10470   12.11990    0.00290    5.32960    2.70840    0.01180 -305.43270 5456.20950 5426.60180 5487.61570    0.00000
 8789.50000   16.43770   93.45370  214.07810 1968.50250 1034.59360   -0.00970   49.08700   89.70300   39.57250   12.09890   12.11350    0.00980    5.37570    2.73370    0.01120 -306.52390 5456.20950 5456.72150 5463.18570    0.00120
 8790.00000   16.62230   94.48860  220.54440 1972.13790 1117.96680   -0.02440   48.93890   89.87910   39.66450   12.09600   12.10710    0.01670    5.36920    2.75580    0.00980 -307.81550 5456.20950 5454.22210 5438.75570    0.00050
 8790.50000   16.57300   95.52350  232.38350 1975.77330 1183.46280   -0.02570   48.90710   90.01620   39.37850   12.09740   12.10280    0.01680    5.36260    2.75170    0.00860 -309.17280 5456.20950 5448.87090 5422.11030   -0.00160
 8791.00000   16.52520   96.92390  244.30400 1979.40870 1226.24570   -0.01650   48.90500   89.97780   39.09240   12.09890   12.10710    0.01280    5.35610    2.73540    0.00840 -310.53020 5456.20950 5456.52950 5436.60330   -0.00210
 8791.50000   16.46980  102.97830  264.58730 1983.04410 1205.81430   -0.00330   48.86610   89.93940   38.47040   12.10040   12.10480    0.00550    5.32570    2.71760    0.00840 -311.15020 5456.20950 5490.11940 5451.09630   -0.00170
