~Version ---------------------------------------------------
VERS.   2.0 : CWLS log ASCII Standard -VERSION 2.0
WRAP.    NO : One line per depth step
DLM . SPACE : Column Data Section Delimiter
~Well ------------------------------------------------------
STRT .FT                1162.0 : START DEPTH
STOP .FT                9365.0 : STOP DEPTH
STEP .FT                   0.5 : STEP
NULL .                -9999.25 : NULL VALUE
COMP .                         : COMPANY
WELL .                         : WELL
FLD  .                         : FIELD
LOC  .                         : LOCATION
PROV .                         : PROVINCE
CNTY .                         : COUNTY
STAT .                         : STATE
CTRY .                         : COUNTRY
SRVC .                         : SERVICE COMPANY
DATE .                         : DATE
UWI  .                         : UNIQUE WELL ID
API  .                         : API NUMBER
SLAT .WGS84 6.0167945315952025 : SURFACE LATITUDE
SLON .WGS84  2.904402533678308 : SURFACE LONGITUDE
DATUM.F                    nan : DEPTH DATUM ELEV
~Curve Information -----------------------------------------
DEPT   .FT    : 
AT10   .OHMM  : ARRAY INDUCTION TWO FOOT RESISTIVITY A10
AT20   .OHMM  : ARRAY INDUCTION TWO FOOT RESISTIVITY A20
AT30   .OHMM  : ARRAY INDUCTION TWO FOOT RESISTIVITY A30
AT60   .OHMM  : ARRAY INDUCTION TWO FOOT RESISTIVITY A60
AT90   .OHMM  : ARRAY INDUCTION TWO FOOT RESISTIVITY A90
DPHZ_LS.DEC   : HGRD STANDARD RESOLUTION DENSITY POROSITY
DTCO   .US/F  : DELTA-T COMPRESSIONAL
DTSM   .US/F  : DELTA-T SHEAR
ECGRD  .GAPI  : ENVIRONMENTALLY CORRECTED GAMMA RAY FROM DENSITY LOG
HCALD  .IN    : HRCC CALIPER CALIBRATED FROM DENSITY LOG
HCALS  .IN    : HRCC CALIPER CALIBRATED FROM SONIC LOG
HDRA   .G/C3  : HRDD SPINE AND RIBS DENSITY CORRECTION
PEFZ   .B/E   : HRDD STANDARD RESOLUTION FORMATION PHOTOELECTRIC FACTOR
RHOZ   .G/C3  : HRDD STANDARD RESOLUTION FORMATION DENSITY
SPHI_LS.DEC   : SONIC POROSITY [LIMESTONE]
SPR    .MV    : SPONTANEOUS POTENTIAL FROM RESISTIVITY LOG
TEND   .LBF   : TENSION FROM DENSITY LOG
TENR   .LB    : TENSION FROM RESISTIVITY LOG
TENS   .LBF   : TENSION FROM SONIC LOG
TNPH_LS.DEC   : THERMAL NEUTRON POROSITY [LIMESTONE]
~Params ----------------------------------------------------
~Other -----------------------------------------------------
~ASCII -----------------------------------------------------
# ...
 4609.50000    2.74860    3.57170    3.89050    4.11480    4.33330    0.11170   76.91940  146.23720  100.29620   12.55090   12.56620    0.01030    3.02320    2.52070    0.28330   -7.69210 4153.21490 4132.59580 4208.62930    0.19370
 4610.00000    2.68390    3.50230    3.85040    4.10520    4.25470    0.11090   77.35150  146.99380  105.79360   12.58480   12.57780    0.01130    3.04370    2.52300    0.28330   -7.06890 4211.63370 4173.08940 4217.03620    0.19560
 4610.50000    2.62840    3.46970    3.74770    4.05760    4.09740    0.10910   79.41220  148.98250  115.56310   12.68250   12.59480    0.04790    3.17740    2.52210    0.28330   -6.44570 4199.37030 4173.09860 4215.84480    0.20900
 4611.00000    2.54350    3.43750    3.72670    4.03870    4.10340    0.11120   79.53340  152.10260  120.65110   12.94520   12.91050    0.08450    3.38110    2.52220    0.28330   -6.61890 4199.01490 4206.84240 4214.65340    0.22100
 4611.50000    2.50490    3.28100    3.70940    4.07660    4.13300    0.10420   80.14210  154.09580  123.21720   12.85650   12.83490    0.09380    3.56750    2.53050    0.28330   -6.37070 4198.65950 4227.08910 4206.61420    0.25970
 4612.00000    2.46250    3.16570    3.65790    4.01070    4.16270    0.10560   81.55520  156.42020  119.50950   13.32510   13.39120    0.10690    3.69890    2.52820    0.28330   -6.24600 4198.30410 4114.60760 4183.35410    0.29830
 4612.50000    2.42420    3.05040    3.57360    3.87070    4.09110    0.10350   82.39080  159.12920  125.12910   13.25410   13.22550    0.11470    3.81480    2.53030    0.28330   -6.15230 4197.94860 4124.16710 4160.09410    0.31040
 4613.00000    2.30400    2.93510    3.30550    3.73070    3.80280    0.11820   83.81740  163.20480  122.41950   12.81010   12.94300    0.12180    3.93620    2.50340    0.28330   -6.05850 4197.59320 4149.47560 4166.35600    0.32120
 4613.50000    2.26780    2.86590    3.15080    3.70260    3.84260    0.13400   84.83310  164.92200  120.21920   13.04460   13.30350    0.13840    4.05770    2.47700    0.28320   -5.96470 4197.23780 4174.78410 4158.68420    0.33730
 4614.00000    2.32130    2.95710    3.35820    3.89630    4.04150    0.13880   85.48660  165.40520  115.03970   13.46980   13.34830    0.15620    4.13110    2.48370    0.28320   -5.87100 4196.88240 4200.09260 4151.01240    0.33000
 4614.50000    2.40550    3.07120    3.56560    4.09000    4.20060    0.10930   86.73130  166.36130  119.57270   13.37380   13.32100    0.15780    4.10190    2.52810    0.28320   -5.77720 4196.52700 4166.34790 4143.34060    0.31240
 4615.00000    2.45750    3.13140    3.54860    3.93310    4.06100    0.08570   89.40140  167.55340  124.66620   13.75780   13.86650    0.15760    4.01710    2.56270    0.28320   -4.93470 4206.94300 4132.60320 4147.50530    0.30050
 4615.50000    2.37250    3.01520    3.40260    3.67160    3.77710    0.08550   94.15300  167.40760  130.99210   13.44230   13.38920    0.13800    3.95590    2.55940    0.28320   -4.72390 4224.54010 4132.60490 4169.42480    0.28800
 4616.00000    2.21590    2.88800    3.22510    3.54490    3.50750    0.09970   92.40020  165.90910  135.63380   13.19550   13.50920    0.12010    3.95520    2.53660    0.28320   -4.71300 4210.06720 4150.60180 4191.34420    0.29970
 4616.50000    2.04890    2.76090    2.88360    3.03130    2.98390    0.10250   84.73710  164.18440  139.58300   13.80810   13.55290    0.12390    3.98000    2.53390    0.28320   -4.90710 4209.45360 4186.59560 4185.44220    0.32710
 4617.00000    2.34630    2.88970    3.10920    3.18310    3.40950    0.09770   63.79300  155.98810  135.44340   13.59660   13.71310    0.12960    4.07230    2.54420    0.28320   -5.77880 4208.83990 4186.59560 4192.37510    0.34270
 4617.50000    2.51870    3.33890    3.50750    3.56560    3.59590    0.09490   49.03750  148.39710  130.46160   13.82630   13.54260    0.13070    4.16460    2.54800    0.28320   -6.08000 4208.22630 4186.59560 4207.15360    0.31580
 4618.00000    2.68610    3.67010    3.77830    3.83680    4.12300    0.08750   55.36410  140.80600  124.77720   12.89370   12.89820    0.12760    4.25690    2.56160    0.28320   -6.40190 4207.61260 4186.59560 4221.93210    0.27880
 4618.50000    3.66970    7.31350   10.79100   15.40320   16.47240    0.08070   77.89330  133.21490  113.06360   13.20920   13.13460    0.09970    4.43350    2.57490    0.28320   -6.99470 4206.99900 4197.39080 4223.29790    0.21310
 4619.00000    5.39870   13.06490   19.48920   26.96960   28.79620    0.06290  100.42250  131.38980   93.61970   12.59200   12.62470    0.06520    4.70780    2.61140    0.28310   -8.34210 4206.38530 4190.63630 4185.79140    0.14740
 4619.50000    6.36540   17.91490   28.31910   38.53600   35.48300    0.04120  102.71780  130.99790   71.16190   12.40680   12.53300    0.02440    4.95980    2.64810    0.28310   -9.68940 4205.77170 4183.88180 4148.28480    0.08990
 4620.00000    5.75560   16.45890   28.45150   43.36440   37.25350    0.02130  101.45970  130.56790   54.76100   12.39550   12.41870   -0.00490    5.06360    2.68220    0.28310   -9.71730 4205.15800 4177.12730 4145.43550    0.04810
 4620.50000    4.56280   10.83440   21.25340   38.94450   24.08850    0.02210  101.50720  135.11170   62.13640   12.37210   12.36360   -0.00180    5.03620    2.66060    0.28310  -10.03960 4204.54440 4173.07460 4162.18040    0.03750
 4621.00000    3.20630    5.20980   12.91310   20.85230   12.49140    0.06530  103.94800  138.49440   80.19800   12.34860   12.38800    0.05680    4.84440    2.58070    0.28310  -10.82990 4203.93070 4208.23870 4178.92540    0.08570
 4621.50000    2.48100    3.31480    4.55150    5.91660    8.19450    0.12550  102.28650  141.82690  102.92370   12.51040   12.52550    0.10690    4.55040    2.47920    0.28310  -10.76610 4203.31710 4221.85500 4171.92270    0.14600
 4622.00000    2.01210    2.51620    3.34460    4.34160    4.52260    0.16140  101.50500  144.67380  121.15560   13.18090   13.29370    0.12560    4.28460    2.42090    0.28310  -11.13040 4202.70340 4235.47120 4171.14050    0.21250
 4622.50000    1.74940    2.20070    2.46480    2.95490    3.35100    0.17890   95.17080  148.12200  126.75870   13.22290   13.32780    0.13790    4.09880    2.40280    0.28310  -11.15890 4202.08980 4249.08750 4198.25270    0.29840
 4623.00000    1.73050    2.13340    2.44760    2.74240    3.02130    0.17560   90.24550  151.55900  129.91100   14.07120   14.04390    0.12880    3.92760    2.41090    0.28310  -10.81820 4201.47610 4234.62690 4225.36480    0.32790
 4623.50000    2.01100    2.74130    3.05840    3.31400    3.78310    0.16780   85.39840  154.03560  133.03580   13.98540   14.12570    0.12100    3.84560    2.42740    0.28310  -10.23150 4200.86250 4176.72500 4223.13590    0.35710
 4624.00000    2.41290    3.34920    3.66930    3.98000    4.92600    0.14520   85.35570  156.60070  135.73500   14.04100   14.11200    0.12910    3.79350    2.46470    0.28300   -9.64470 4200.24880 4154.83440 4227.29990    0.35790
 4624.50000    2.80910    3.95710    4.28010    4.64610    5.84030    0.11720   85.28710  154.27990  129.29440   13.75430   13.65740    0.13660    3.74130    2.51540    0.28300   -9.05800 4199.63520 4186.79670 4231.46380    0.32240
 4625.00000    3.00990    4.58370    4.81340    5.09930    6.17650    0.09630   81.87410  150.26420  121.45580   13.43550   13.36190    0.14150    3.73320    2.54740    0.28300   -8.47120 4229.53800 4251.23980 4235.62770    0.22720
 4625.50000    3.06570    4.55530    4.78940    4.91170    5.48120    0.08610   79.30190  147.17910  114.48260   13.02400   13.03460    0.14550    3.76640    2.56370    0.28300   -7.88450 4267.06990 4228.25000 4218.09100    0.18980
 4626.00000    3.01910    4.36140    4.55680    4.67730    4.87670    0.08060   78.86540  145.37380  110.49620   12.82130   12.75500    0.14390    3.74600    2.57400    0.28300   -7.71800 4209.59680 4205.26030 4211.17130    0.17770
 4626.50000    2.97250    4.15430    4.32410    4.44290    4.61130    0.07390   78.04930  144.47850  107.25450   12.71260   12.73450    0.13880    3.68410    2.58470    0.28300   -7.25890 4206.63080 4182.27050 4204.25170    0.17800
