~Version ---------------------------------------------------
VERS.   2.0 : CWLS log ASCII Standard -VERSION 2.0
WRAP.    NO : One line per depth step
DLM . SPACE : Column Data Section Delimiter
~Well ------------------------------------------------------
STRT .FT                1162.0 : START DEPTH
STOP .FT                9365.0 : STOP DEPTH
STEP .FT                   0.5 : STEP
NULL .                -9999.25 : NULL VALUE
COMP .                         : COMPANY
WELL .                         : WELL
FLD  .                         : FIELD
LOC  .                         : LOCATION
PROV .                         : PROVINCE
CNTY .                         : COUNTY
STAT .                         : STATE
CTRY .                         : COUNTRY
SRVC .                         : SERVICE COMPANY
DATE .                         : DATE
UWI  .                         : UNIQUE WELL ID
API  .                         : API NUMBER
SLAT .WGS84 6.0167945315952025 : SURFACE LATITUDE
SLON .WGS84  2.904402533678308 : SURFACE LONGITUDE
DATUM.F                    nan : DEPTH DATUM ELEV
~Curve Information -----------------------------------------
DEPT   .FT    : 
AT10   .OHMM  : ARRAY INDUCTION TWO FOOT RESISTIVITY A10
AT20   .OHMM  : ARRAY INDUCTION TWO FOOT RESISTIVITY A20
AT30   .OHMM  : ARRAY INDUCTION TWO FOOT RESISTIVITY A30
AT60   .OHMM  : ARRAY INDUCTION TWO FOOT RESISTIVITY A60
AT90   .OHMM  : ARRAY INDUCTION TWO FOOT RESISTIVITY A90
DPHZ_LS.DEC   : HGRD STANDARD RESOLUTION DENSITY POROSITY
DTCO   .US/F  : DELTA-T COMPRESSIONAL
DTSM   .US/F  : DELTA-T SHEAR
ECGRD  .GAPI  : ENVIRONMENTALLY CORRECTED GAMMA RAY FROM DENSITY LOG
HCALD  .IN    : HRCC CALIPER CALIBRATED FROM DENSITY LOG
HCALS  .IN    : HRCC CALIPER CALIBRATED FROM SONIC LOG
HDRA   .G/C3  : HRDD SPINE AND RIBS DENSITY CORRECTION
PEFZ   .B/E   : HRDD STANDARD RESOLUTION FORMATION PHOTOELECTRIC FACTOR
RHOZ   .G/C3  : HRDD STANDARD RESOLUTION FORMATION DENSITY
SPHI_LS.DEC   : SONIC POROSITY [LIMESTONE]
SPR    .MV    : SPONTANEOUS POTENTIAL FROM RESISTIVITY LOG
TEND   .LBF   : TENSION FROM DENSITY LOG
TENR   .LB    : TENSION FROM RESISTIVITY LOG
TENS   .LBF   : TENSION FROM SONIC LOG
TNPH_LS.DEC   : THERMAL NEUTRON POROSITY [LIMESTONE]
~Params ----------------------------------------------------
~Other -----------------------------------------------------
~ASCII -----------------------------------------------------
# ...
 8267.00000    8.74050   15.27770   16.97960   19.79160   18.69220    0.04780   66.27660  121.85640  103.58170   12.01820   12.03310   -0.00430    3.14900    2.62920    0.13180  -12.87040 5260.59430 5260.33330 5283.66910    0.15480
 8267.50000    8.82830   15.62010   17.48730   20.23350   19.07790    0.05190   65.88490  121.94850   99.82640   12.05700   12.07210   -0.00400    3.17880    2.62190    0.12970  -12.39230 5262.25120 5231.38010 5265.44850    0.14390
 8268.00000    8.82440   15.39720   17.70610   20.09700   18.95960    0.05300   66.22320  121.91730   98.08620   12.04510   12.07070   -0.00240    3.19980    2.61890    0.13290  -12.09110 5263.90810 5189.47040 5247.22780    0.14740
 8268.50000    8.77390   15.05250   16.94440   19.42720   18.22510    0.04720   68.63550  121.70120  102.00020   12.03970   12.05570    0.00120    3.17280    2.62650    0.14470  -12.28170 5265.56500 5190.61260 5250.00650    0.15650
 8269.00000    8.58170   14.84560   16.12930   18.52680   17.39130    0.03610   73.23600  125.48900  105.96010   12.02480   12.05380    0.00480    3.09770    2.64820    0.17970  -11.61000 5267.22190 5191.77250 5253.17600    0.15980
 8269.50000    8.64910   14.45460   15.63630   17.66820   16.84700    0.02980   73.88310  127.63060  110.25840   12.00990   12.05180    0.00840    3.04580    2.65870    0.18560  -11.60520 5268.87880 5223.40820 5256.34550    0.16410
 8270.00000    8.29410   13.96970   15.49060   17.31270   16.53560    0.05770   74.11910  129.27190  114.55670   12.02390   12.04990    0.01210    2.96910    2.61570    0.18770  -10.44800 5270.53570 5224.67370 5259.51500    0.19020
 8270.50000    7.99380   13.22980   16.23000   17.31270   16.74250    0.13100   73.91310  131.67080  111.98770   12.00610   12.03720    0.01110    2.86870    2.48580    0.18630  -10.28050 5272.19260 5244.19740 5264.49350    0.24450
 8271.00000    8.18750   14.44850   16.43300   17.54900   17.00490    0.24720   73.06800  131.24510  102.64310   11.98940   12.04620    0.00640    2.67580    2.33070    0.18080   -8.79280 5273.84950 5280.35260 5291.05170    0.34470
 8271.50000    7.53060   12.13320   13.60310   14.90900   13.93820    0.22870   72.72390  130.82470   94.33330   12.03590   12.10500    0.00390    2.48290    2.29980    0.17660   -8.63280 5275.50640 5304.94980 5317.61000    0.26760
 8272.00000    6.82060    9.59170   10.77320   10.34230   10.03880    0.13370   72.41420  130.64450   87.73630   12.03860   12.05000    0.00500    2.42570    2.43120    0.18540   -7.61740 5277.16330 5297.41130 5319.17880    0.18580
 8272.50000    6.10640    8.98970    9.57610   10.13420    9.83670    0.07420   65.24550  129.96720   85.22740   12.04230   12.05790    0.00620    2.54170    2.55830    0.12650   -6.89130 5278.82010 5268.44900 5310.73520    0.11230
 8273.00000    5.95460    9.05080    9.57610   10.13420    9.83670    0.05730   64.07520  127.65870   82.36510   12.04590   12.07080    0.00620    2.67990    2.60880    0.11740   -6.26350 5280.47700 5291.03780 5302.29160    0.08650
 8273.50000    6.00530    9.34900    9.94840   10.64730   10.21910    0.05620   63.62520  124.38950   80.68550   12.06710   12.08830    0.00470    2.75690    2.61370    0.11340   -6.01450 5282.13390 5298.99200 5293.84800    0.08130
 8274.00000    6.12060    9.75150   10.35110   11.27190   10.63280    0.05320   63.13180  122.14630   79.04980   12.05930   12.08750    0.00320    2.80120    2.61810    0.11000   -5.76540 5283.79080 5306.45720 5318.40630    0.07330
 8274.50000    6.44450   10.01950   10.89240   13.10140   11.18890    0.04870   62.94590  113.33130   75.09880   12.07800   12.09660    0.00170    2.87360    2.62560    0.10840   -5.51640 5285.44770 5276.26720 5311.86990    0.06530
 8275.00000    7.34520   12.66760   13.91520   17.36300   15.96210    0.04640   62.43450  110.91350   69.23280   12.09330   12.10580    0.00010    2.98660    2.63060    0.10550   -4.60790 5287.10460 5277.24060 5305.33350    0.05880
 8275.50000    8.46000   15.24750   17.89200   21.62460   20.73520    0.04390   61.99350  110.81360   62.67150   12.09510   12.10990   -0.00140    3.16070    2.63480    0.10300   -3.91500 5288.76150 5286.00490 5298.79710    0.04720
 8276.00000    9.00550   17.82740   21.20500   23.64780   22.95370    0.04010   62.37540  110.91760   64.39100   12.09990   12.11530   -0.00300    3.28080    2.64010    0.10450   -3.31980 5290.41840 5270.76390 5302.46200    0.04350
 8276.50000    8.62420   17.82740   20.81310   22.85950   22.18880    0.03500   63.32310  111.02160   68.12390   12.09360   12.10800   -0.00380    3.31390    2.64810    0.11110   -2.14860 5292.07530 5271.69880 5308.67730    0.04570
 8277.00000    8.14760   15.81490   18.15700   20.43140   19.57270    0.03030   64.66730  111.88530   75.02810   12.09750   12.12210    0.00170    3.31620    2.65800    0.12010   -1.19370 5293.73220 5285.95800 5314.89250    0.05340
 8277.50000    7.51140   13.80230   15.50090   18.00330   16.95660    0.02620   65.39900  113.21440   83.02000   12.10150   12.12060    0.00700    3.31850    2.66450    0.12550   -0.84580 5295.38910 5267.28320 5296.59930    0.06750
 8278.00000    6.96110   11.78970   13.82980   16.24340   14.97540    0.02140   66.26570  115.29050   91.79500   12.09550   12.11910    0.01490    3.33840    2.67340    0.13270   -0.49780 5297.04600 5254.92560 5283.69940    0.09980
 8278.50000    6.63600   11.34280   12.67340   15.28750   13.97510    0.01560   66.84820  116.51170  103.83050   12.11800   12.12280    0.02550    3.36040    2.68210    0.13780   -0.14980 5297.37740 5222.64950 5270.79950    0.12000
 8279.00000    6.47060   11.09200   12.12080   14.33150   12.97490    0.01400   67.78960  118.16710  111.62690   12.10280   12.11090    0.03320    3.35910    2.68610    0.14280    0.19810 5297.37740 5250.29220 5257.89960    0.13840
 8279.50000    6.31860   10.72730   11.56820   13.37560   12.51500    0.01550   67.94680  119.35880  116.54230   12.11390   12.13010    0.04280    3.35780    2.68380    0.14350    0.74840 5297.37740 5260.10590 5288.14740    0.14280
 8280.00000    6.28920   10.36830   11.38660   12.41940   12.05510    0.01480   67.83400  120.55050  112.16540   12.12890   12.13650    0.04570    3.37500    2.68260    0.14250    1.29870 5297.37740 5309.83070 5308.72650    0.14230
 8280.50000    6.44860   10.08590   11.54660   12.24960   11.81000    0.01680   67.72090  121.29100  105.77060   12.14390   12.14290    0.04870    3.39990    2.68100    0.14190    1.84900 5297.37740 5303.81950 5329.30560    0.13760
 8281.00000    6.84720   10.99870   11.81450   13.02540   12.63300    0.01940   67.68000  121.44020  100.73000   12.12230   12.12760    0.05170    3.40690    2.67720    0.14180    2.11350 5297.37740 5283.87430 5345.76890    0.12770
 8281.50000    7.22740   11.86280   13.07790   14.34200   13.89050    0.02760   67.71720  121.83780   97.28110   12.08890   12.06320    0.05430    3.41390    2.66370    0.14170    2.18750 5297.37740 5268.90050 5335.14670    0.11970
 8282.00000    7.11190   11.94100   13.05730   14.63330   13.53150    0.03600   67.66520  121.86240   96.73990   12.09430   12.08170    0.07140    3.49730    2.64790    0.14110    2.84300 5297.37740 5264.35500 5321.86900    0.11390
 8282.50000    6.91030   11.56700   12.38910   14.30210   12.77800    0.03670   67.70610  122.50900   96.26950   12.03780   12.06280    0.08680    3.60700    2.64640    0.14220    2.87350 5297.37740 5270.48020 5308.59130    0.11050
 8283.00000    6.78280   11.30400   11.96330   13.64500   12.25670    0.03030   68.04250  123.79600   97.53120   11.97960   12.03720    0.09230    3.68380    2.65710    0.14370    2.85460 5297.37740 5269.79860 5295.31360    0.11180
 8283.50000    6.69370   11.04100   11.61390   12.98780   11.79540    0.02230   68.22850  124.74520  101.27660   12.05280   12.03780    0.07390    3.62830    2.67090    0.14510    2.88600 5297.37740 5276.32290 5282.03590    0.11790
 8284.00000    6.65240   10.77800   11.24990   12.44430   11.55600    0.02400   68.47400  125.38580  106.45960   12.16000   12.16190    0.05650    3.53580    2.66910    0.14740    3.11880 5297.37740 5268.94130 5261.51010    0.12550
