~Version ---------------------------------------------------
VERS.   2.0 : CWLS log ASCII Standard -VERSION 2.0
WRAP.    NO : One line per depth step
DLM . SPACE : Column Data Section Delimiter
~Well ------------------------------------------------------
STRT .FT                1162.0 : START DEPTH
STOP .FT                9365.0 : STOP DEPTH
STEP .FT                   0.5 : STEP
NULL .                -9999.25 : NULL VALUE
COMP .                         : COMPANY
WELL .                         : WELL
FLD  .                         : FIELD
LOC  .                         : LOCATION
PROV .                         : PROVINCE
CNTY .                         : COUNTY
STAT .                         : STATE
CTRY .                         : COUNTRY
SRVC .                         : SERVICE COMPANY
DATE .                         : DATE
UWI  .                         : UNIQUE WELL ID
API  .                         : API NUMBER
SLAT .WGS84 6.0167945315952025 : SURFACE LATITUDE
SLON .WGS84  2.904402533678308 : SURFACE LONGITUDE
DATUM.F                    nan : DEPTH DATUM ELEV
~Curve Information -----------------------------------------
DEPT   .FT    : 
AT10   .OHMM  : ARRAY INDUCTION TWO FOOT RESISTIVITY A10
AT20   .OHMM  : ARRAY INDUCTION TWO FOOT RESISTIVITY A20
AT30   .OHMM  : ARRAY INDUCTION TWO FOOT RESISTIVITY A30
AT60   .OHMM  : ARRAY INDUCTION TWO FOOT RESISTIVITY A60
AT90   .OHMM  : ARRAY INDUCTION TWO FOOT RESISTIVITY A90
DPHZ_LS.DEC   : HGRD STANDARD RESOLUTION DENSITY POROSITY
DTCO   .US/F  : DELTA-T COMPRESSIONAL
DTSM   .US/F  : DELTA-T SHEAR
ECGRD  .GAPI  : ENVIRONMENTALLY CORRECTED GAMMA RAY FROM DENSITY LOG
HCALD  .IN    : HRCC CALIPER CALIBRATED FROM DENSITY LOG
HCALS  .IN    : HRCC CALIPER CALIBRATED FROM SONIC LOG
HDRA   .G/C3  : HRDD SPINE AND RIBS DENSITY CORRECTION
PEFZ   .B/E   : HRDD STANDARD RESOLUTION FORMATION PHOTOELECTRIC FACTOR
RHOZ   .G/C3  : HRDD STANDARD RESOLUTION FORMATION DENSITY
SPHI_LS.DEC   : SONIC POROSITY [LIMESTONE]
SPR    .MV    : SPONTANEOUS POTENTIAL FROM RESISTIVITY LOG
TEND   .LBF   : TENSION FROM DENSITY LOG
TENR   .LB    : TENSION FROM RESISTIVITY LOG
TENS   .LBF   : TENSION FROM SONIC LOG
TNPH_LS.DEC   : THERMAL NEUTRON POROSITY [LIMESTONE]
~Params ----------------------------------------------------
~Other -----------------------------------------------------
~ASCII -----------------------------------------------------
# ...
 4102.00000    2.44150    3.18550    3.70360    3.85600    3.93860    0.08070   85.37430  169.86750  105.00410   12.92620   13.00690    0.14150    4.11420    2.57160    0.29300 -258.67000 4022.04030 3915.72230 3927.32370    0.24680
 4102.50000    2.36500    3.08960    3.44780    3.70180    3.72690    0.08710   84.95980  167.76000  110.51420   13.74190   13.13620    0.14540    4.07540    2.56220    0.29300 -259.29620 4022.24420 3925.75330 3960.38250    0.25550
 4103.00000    2.30190    2.99360    3.34550    3.63340    3.64230    0.09210   85.01470  165.78140  115.35360   13.24340   13.39500    0.13720    4.01640    2.55530    0.29300 -259.35320 4022.44810 3935.78440 3958.26800    0.25590
 4103.50000    2.32130    2.91780    3.34550    3.55110    3.66500    0.09060   85.00530  164.61480  119.02110   13.74190   13.36620    0.13070    3.94340    2.55210    0.29290 -259.75740 4022.65200 3953.11560 3956.15350    0.23930
 4104.00000    2.31090    2.85340    3.30420    3.47510    3.69130    0.09900   85.12580  165.01540  120.76500   13.39750   13.48120    0.12250    3.88650    2.53910    0.29290 -259.75740 4022.85590 3945.59110 3927.13620    0.25800
 4104.50000    2.25380    2.78910    3.21430    3.39320    3.75730    0.10860   85.83680  164.45210  121.01160   13.83250   13.62500    0.11530    3.88940    2.52010    0.29290 -259.29550 4023.05980 3930.58840 3922.48000    0.29260
 4105.00000    2.20180    2.77620    3.12440    3.41440    3.57490    0.11760   86.09480  166.22650  120.80030   13.36120   13.47170    0.11570    3.90460    2.51230    0.29290 -259.09630 4023.26370 3913.71600 3915.16800    0.33160
 4105.50000    2.30300    2.88480    3.29200    3.66580    3.81040    0.11160   86.13550  165.99820  119.80210   13.68450   13.79750    0.11610    3.91980    2.51990    0.29290 -258.94900 4023.46770 3903.59260 3907.85590    0.30260
 4106.00000    2.54130    3.02050    3.67260    4.01350    4.20290    0.11350   86.16660  166.14570  115.13690   13.65580   13.75430    0.11410    3.93310    2.51640    0.29290 -259.03970 4023.67160 3903.59260 3893.40810    0.24790
 4106.50000    2.45050    3.18320    3.55920    3.72440    4.19470    0.11730   86.37540  165.85340  110.83530   13.39520   13.30870    0.11150    3.92850    2.50610    0.29290 -259.75170 4023.87550 3903.59260 3868.25670    0.23700
 4107.00000    2.24930    3.06260    3.33210    3.35130    3.62810    0.12740   86.59000  165.56120  108.17030   13.72010   13.36620    0.10840    3.92400    2.48970    0.29290 -259.28430 4024.07940 3854.05540 3843.10520    0.27090
 4107.50000    2.20050    2.82850    3.10500    3.26360    3.33880    0.13010   85.79570  165.22260  112.09550   14.21310   14.21430    0.10580    3.90060    2.48800    0.29290 -258.49580 4024.28330 3806.40710 3823.51590    0.27150
 4108.00000    2.25880    2.87720    3.13320    3.20850    3.31790    0.13100   84.53810  164.69870  111.10420   13.80990   13.76870    0.10320    3.92030    2.48710    0.29290 -257.70720 4024.48720 3880.04850 3898.42080    0.26920
 4108.50000    2.28310    2.99890    3.27440    3.33520    3.48160    0.13470   84.31090  164.59050  111.02410   13.40670   13.43810    0.10240    3.96600    2.48080    0.29290 -256.91870 4024.69110 3948.04790 3973.32560    0.26440
 4109.00000    2.34720    3.28190    3.44900    3.54630    3.68780    0.12620   84.73880  164.58720  108.24910   14.14730   13.98430    0.11530    3.98060    2.49900    0.29280 -256.13020 4024.89500 3957.95200 4048.23040    0.25250
 4109.50000    2.61690    3.53810    3.89190    4.00830    4.38580    0.11350   85.70820  166.29650  106.16950   13.71530   13.74480    0.12260    3.98550    2.51680    0.29280 -255.34170 4025.09900 3963.80770 4026.66630    0.23690
 4110.00000    2.75000    3.28600    4.56550    4.92770    5.22390    0.10170   86.72580  167.76540  101.90070   13.60210   13.55790    0.12950    3.96360    2.53540    0.29280 -255.50730 4025.30290 3953.46990 3995.94980    0.22520
 4110.50000    2.46800    2.97080    3.91620    4.05210    4.74460    0.10810   88.13940  169.03780  102.85820   13.48900   13.51000    0.13220    3.94930    2.51780    0.29280 -254.71550 4025.50680 3943.13210 3965.23320    0.22810
 4111.00000    2.17600    2.65570    3.04760    3.47530    3.99970    0.12350   89.57780  171.95920  104.51570   14.13360   14.12810    0.12810    3.93500    2.49510    0.29280 -253.99500 4025.71070 3932.79430 3951.06550    0.25020
 4111.50000    1.98560    2.43590    2.80300    3.15750    3.34250    0.12630   90.42680  173.82510  106.98430   13.77700   13.79750    0.12400    3.92070    2.49410    0.29280 -253.33110 4025.91460 3922.45650 3941.03500    0.27740
 4112.00000    1.88530    2.28120    2.56060    2.90210    3.04130    0.12530   90.11120  176.31730  109.36040   14.11990   14.17120    0.11850    3.86930    2.49600    0.29280 -253.32880 4026.11850 3942.98470 3931.00450    0.29990
 4112.50000    1.80930    2.17840    2.44720    2.72380    3.00510    0.12110   89.60520  175.18180  113.23300   13.92790   13.94120    0.10980    3.78990    2.50050    0.29280 -253.32640 4026.32240 3944.85220 3931.76080    0.31120
 4113.00000    1.77700    2.34710    2.40630    2.61330    2.82390    0.12180   89.87150  174.19020  115.76130   14.35300   14.38680    0.10580    3.77580    2.50400    0.29280 -253.36830 4026.52630 3956.51190 3948.69720    0.31420
 4113.50000    1.86340    2.39130    2.59670    2.66250    3.02970    0.11330   89.97860  174.26540  117.60180   14.17470   14.17120    0.10400    3.87340    2.52180    0.29280 -253.58700 4026.73030 3946.13460 3965.63360    0.30450
 4114.00000    2.16750    2.90840    3.07410    3.27220    3.54220    0.09950   89.16340  173.23780  112.89110   13.67760   13.70400    0.10220    4.01920    2.54550    0.29270 -253.80580 4026.93420 3919.17400 3967.89210    0.22610
 4114.50000    2.92640    3.97570    4.41850    5.48530    7.05840    0.09480   87.80390  172.21010  105.66650   13.40670   13.36620    0.11310    4.19910    2.54500    0.29270 -254.02450 4027.13810 3888.06740 3974.54350    0.19750
 4115.00000    3.25110    4.52630    5.40010    6.02420    7.35500    0.09930   86.46790  170.47270   98.44200   13.14610   13.03560    0.13770    4.23570    2.53960    0.29270 -254.13700 4027.34200 3903.89550 3981.19500    0.18570
 4115.50000    2.43760    3.15580    3.51640    3.95670    5.00100    0.10850   85.60630  168.26610   95.55210   12.96780   12.99250    0.15810    4.21150    2.52650    0.29270 -253.62650 4027.54590 4070.15210 3997.70500    0.20430
 4116.00000    2.08210    2.57660    2.86980    3.05790    3.07930    0.10460   85.53680  165.80970  107.32470   13.88220   13.98440    0.16080    4.14610    2.52910    0.29270 -253.40900 4027.74980 4050.09620 4012.60340    0.21560
 4116.50000    2.20330    2.67030    2.88170    3.11770    3.24960    0.11080   85.28710  164.05920  115.29250   13.94160   13.86940    0.14120    4.00700    2.52290    0.29270 -253.43850 4027.95370 3972.36700 3956.79530    0.22720
 4117.00000    2.41210    2.89690    3.13300    3.44220    3.57900    0.09890   85.03180  162.30860  115.01670   13.99920   13.97860    0.12160    3.91190    2.54300    0.29270 -253.46800 4028.15770 3923.12940 3913.69750    0.23950
 4117.50000    2.58120    3.11180    3.40850    3.70180    3.84260    0.08820   86.13280  160.96480  107.27830   13.68100   13.74960    0.10570    3.88560    2.56180    0.29270 -253.49760 4028.36160 3873.89180 3940.34000    0.24130
 4118.00000    2.86630    3.28370    3.74620    4.06540    4.37250    0.07800   87.61150  159.60940  102.77280   13.87300   13.67770    0.10370    3.89250    2.57650    0.29270 -254.31670 4028.56550 3968.35550 3991.70430    0.21010
 4118.50000    2.92230    3.36680    4.00660    4.28860    4.33740    0.07480   87.61250  161.24980   99.97720   13.09590   12.93500    0.09920    3.86870    2.58260    0.29270 -256.17490 4028.76940 4065.54030 4038.81740    0.18840
 4119.00000    2.77920    3.30420    3.53810    3.72490    3.86400    0.07360   85.62130  161.36150  100.09240   13.08100   12.92060    0.09480    3.74680    2.58530    0.29270 -256.75490 4028.97330 3951.09540 4002.72830    0.18080
