~Version ---------------------------------------------------
VERS.   2.0 : CWLS log ASCII Standard -VERSION 2.0
WRAP.    NO : One line per depth step
DLM . SPACE : Column Data Section Delimiter
~Well ------------------------------------------------------
STRT .FT                1162.0 : START DEPTH
STOP .FT                9365.0 : STOP DEPTH
STEP .FT                   0.5 : STEP
NULL .                -9999.25 : NULL VALUE
COMP .                         : COMPANY
WELL .                         : WELL
FLD  .                         : FIELD
LOC  .                         : LOCATION
PROV .                         : PROVINCE
CNTY .                         : COUNTY
STAT .                         : STATE
CTRY .                         : COUNTRY
SRVC .                         : SERVICE COMPANY
DATE .                         : DATE
UWI  .                         : UNIQUE WELL ID
API  .                         : API NUMBER
SLAT .WGS84 6.0167945315952025 : SURFACE LATITUDE
SLON .WGS84  2.904402533678308 : SURFACE LONGITUDE
DATUM.F                    nan : DEPTH DATUM ELEV
~Curve Information -----------------------------------------
DEPT   .FT    : 
AT10   .OHMM  : ARRAY INDUCTION TWO FOOT RESISTIVITY A10
AT20   .OHMM  : ARRAY INDUCTION TWO FOOT RESISTIVITY A20
AT30   .OHMM  : ARRAY INDUCTION TWO FOOT RESISTIVITY A30
AT60   .OHMM  : ARRAY INDUCTION TWO FOOT RESISTIVITY A60
AT90   .OHMM  : ARRAY INDUCTION TWO FOOT RESISTIVITY A90
DPHZ_LS.DEC   : HGRD STANDARD RESOLUTION DENSITY POROSITY
DTCO   .US/F  : DELTA-T COMPRESSIONAL
DTSM   .US/F  : DELTA-T SHEAR
ECGRD  .GAPI  : ENVIRONMENTALLY CORRECTED GAMMA RAY FROM DENSITY LOG
HCALD  .IN    : HRCC CALIPER CALIBRATED FROM DENSITY LOG
HCALS  .IN    : HRCC CALIPER CALIBRATED FROM SONIC LOG
HDRA   .G/C3  : HRDD SPINE AND RIBS DENSITY CORRECTION
PEFZ   .B/E   : HRDD STANDARD RESOLUTION FORMATION PHOTOELECTRIC FACTOR
RHOZ   .G/C3  : HRDD STANDARD RESOLUTION FORMATION DENSITY
SPHI_LS.DEC   : SONIC POROSITY [LIMESTONE]
SPR    .MV    : SPONTANEOUS POTENTIAL FROM RESISTIVITY LOG
TEND   .LBF   : TENSION FROM DENSITY LOG
TENR   .LB    : TENSION FROM RESISTIVITY LOG
TENS   .LBF   : TENSION FROM SONIC LOG
TNPH_LS.DEC   : THERMAL NEUTRON POROSITY [LIMESTONE]
~Params ----------------------------------------------------
~Other -----------------------------------------------------
~ASCII -----------------------------------------------------
# ...
 3052.00000    2.27500    3.12650    4.99660    5.17800    6.01620   -0.02430   59.75390  120.40850   39.34100   12.56290   12.69740    0.03610    5.09120    2.75340    0.29950 -252.71600 3593.90800 3545.26720 3586.36730    0.10810
 3052.50000    3.23710    5.44590    6.87770    7.78360   15.50480   -0.03190   58.24910  131.50120   45.82390   12.57140   12.65570    0.02340    5.02560    2.76620    0.29950 -252.44100 3591.96170 3551.63050 3586.36730    0.12600
 3053.00000    3.87140    5.20320    7.96250    8.72930   10.93280   -0.03910   56.42810  157.31090   40.77560   12.55220   12.50910    0.01060    4.97860    2.77420    0.29950 -252.16600 3590.01540 3557.99370 3598.84650    0.10620
 3053.50000    2.66490    3.69500    5.20050    6.37850    6.82350   -0.01340   54.81910  157.06220   43.25600   12.52820   12.53060    0.01720    4.93160    2.73120    0.29950 -251.89110 3588.06910 3577.04780 3619.64520    0.09830
 3054.00000    1.40030    1.31740    2.43860    2.70470    2.24890    0.04540   53.44780  154.41320   49.82860   12.50420   12.57150    0.05280    4.89530    2.55840    0.29950 -251.61610 3586.12280 3697.10560 3680.31320    0.13580
 3054.50000    0.92920    0.99270    1.05300    1.26940    1.36870    0.14750   52.07660  155.18030   59.52010   12.53030   12.81230    0.08840    4.84410    2.41710    0.29950 -251.34110 3584.17660 3640.56670 3643.90600    0.25130
 3055.00000    1.00920    1.10520    1.14990    1.23470    1.28660    0.17380   50.33810  149.29840   65.61320   12.79770   13.15390    0.12420    4.98890    2.41240    0.29950 -251.06620 3582.23030 3499.14870 3545.45090    0.37150
 3055.50000    1.30540    1.36310    1.63470    2.89810    2.46500    0.09690   49.38020  145.12830   59.81850   13.61910   13.67220    0.13340    5.20280    2.56960    0.29950 -250.79120 3580.28400 3520.74550 3542.91150    0.30100
 3056.00000    2.82980    3.26050    7.73340    6.17370    6.36860   -0.04390   50.28360  129.90380   45.03770   12.73750   12.83480    0.12290    5.41660    2.74070    0.29950 -250.51620 3578.33770 3574.73730 3555.69100    0.13410
 3056.50000    8.53070    8.68140   13.83210   22.17570   13.73010   -0.10040   50.59390   80.80410   36.11720   12.56120   12.59280    0.07420    5.56000    2.90070    0.29950 -250.29630 3576.39140 3594.53460 3568.47050    0.03550
 3057.00000   15.08350   50.49480   52.49700   46.66210   99.03850   -0.10050   51.15290   88.89640   27.21230   12.55530   12.57330    0.02540    5.56100    2.95920    0.29950 -250.42310 3574.44510 3563.03980 3571.03740   -0.00270
 3057.50000   18.52480  180.53690  248.66900  291.91730  716.84610   -9999.25   51.04250  102.15630   22.82650   12.52590   12.55380    0.01310    5.47070    2.97610    0.29950 -250.74010 3630.14780 3531.54510 3601.02650   -0.01110
 3058.00000   19.55020  445.19880  568.56220 1104.32730 1788.42550   -9999.25   51.46440   99.32560   21.37020   12.49650   12.46560    0.00990    5.38060    2.98740    0.29950 -251.05710 3630.14780 3512.64820 3641.70100   -0.01550
 3058.50000   20.06330  418.65560  525.33290  714.40510  951.54720   -9999.25   51.52250   94.57310   20.59170   12.48460   12.50200    0.00670    5.36000    2.98550    0.29950 -251.37410 3630.14780 3548.64200 3649.20300   -0.01670
 3059.00000   20.84370  286.19640  340.27780  421.96350  135.32970   -9999.25   51.14150   92.80300   20.57470   12.51320   12.50540    0.00510    5.40730    2.97590    0.29950 -251.43240 3630.14780 3584.63570 3634.59010   -0.01710
 3059.50000   22.73660  181.25180  253.40240  706.75620  103.98700   -9999.25   51.18710   92.18410   21.07880   12.52900   12.54070    0.00350    5.44160    2.97120    0.29950 -251.50520 3630.14780 3620.62950 3619.97710   -0.01750
 3060.00000   23.89240  176.57180  213.69660  820.67330   82.96230   -9999.25   51.31440   92.36160   21.45130   12.52260   12.58410    0.00190    5.41340    2.97440    0.29950 -251.57810 3630.14780 3611.10040 3616.07510   -0.01790
 3060.50000   24.61470  120.69290  192.48940  508.29030   73.61050   -9999.25   51.38800   92.38740   20.55150   12.52590   12.61800    0.00190    5.38520    2.97800    0.29950 -251.65090 3630.14780 3587.27770 3603.35150   -0.01710
 3061.00000   25.21380  125.85640  171.28210  484.13380   76.48700   -9999.25   51.35800   92.56420   20.89030   12.54060   12.55750    0.00160    5.36210    2.97070    0.29950 -251.72370 3630.14780 3563.45500 3590.62790   -0.01380
 3061.50000   26.48560  125.81700  150.07490  435.83040   95.64390   -9999.25   51.55750   95.26660   23.57550   12.54110   12.56290    0.00120    5.26280    2.95650    0.29950 -251.79650 3630.14780 3539.63230 3577.90430   -0.00860
 3062.00000   27.28400  142.74430  128.86760  355.32480  102.02290   -9999.25   51.48550   94.75090   28.04980   12.54080   12.55870    0.00070    5.12290    2.94030    0.29950 -251.86940 3630.14780 3559.87940 3574.12840   -0.00230
 3062.50000   28.05030  137.32460  131.37820  274.81920  120.44470   -9999.25   51.46190   94.76540   31.11390   12.54060   12.57860    0.00490    5.03900    2.93020    0.29950 -252.05210 3630.14780 3593.62450 3572.58950    0.00400
 3063.00000   28.89940  170.87740  133.88880  324.09660  138.86640   -9999.25   51.45700   94.80650   32.51630   12.57650   12.60440    0.01220    5.09170    2.95600    0.29950 -252.39980 3630.14780 3608.35660 3571.05050    0.00090
 3063.50000   30.19590  192.80280  136.39940  289.98090  134.19860   -9999.25   51.42540   94.34920   28.75370   12.62600   12.63030    0.01950    5.17980    2.98110    0.29950 -252.74750 3630.14780 3606.62750 3587.15280   -0.00440
 3064.00000   31.28770  207.54090  135.41630  254.46350  131.30870   -9999.25   51.37610   93.28920   24.74260   12.63340   12.63530    0.02100    5.26790    2.99660    0.29950 -253.09530 3630.14780 3589.75520 3583.03910   -0.00970
 3064.50000   32.93890  217.48740  133.55980  271.81630  133.81840   -9999.25   51.32670   92.69400   21.06050   12.58260   12.59500    0.01030    5.31360    2.98970    0.29950 -253.44300 3630.14780 3572.88290 3578.92540   -0.01480
 3065.00000   34.27310  226.39680  136.47780  228.89070  126.56700   -9999.25   51.27740   92.04750   18.32340   12.54680   12.57980    0.00720    5.34880    2.98470    0.29950 -253.79070 3630.14780 3559.38510 3574.81170   -0.01780
 3065.50000   35.01530  231.15780  140.58930  202.85000  132.57870   -9999.25   51.22810   91.92240   17.43470   12.54570   12.60700    0.00910    5.38390    2.98490    0.29950 -254.06880 3630.14780 3591.89240 3568.36440   -0.01850
 3066.00000   36.34730  225.43610  143.05620  183.71340  129.25190   -9999.25   51.20830   91.86440   18.01940   12.58890   12.63430    0.00760    5.36820    2.97130    0.29950 -254.06880 3630.14780 3624.39970 3558.41660   -0.01870
 3066.50000   37.07730  194.16470  132.18070  169.89320  117.92890   -9999.25   51.17210   91.84890   18.92420   12.63970   12.66150    0.00520    5.32330    2.97360    0.29950 -255.22370 3630.14780 3592.50710 3548.46880   -0.01860
 3067.00000   36.87160  180.32240  119.76980  159.61720  106.60580   -9999.25   51.20780   91.83340   19.55280   12.69050   12.67900    0.00290    5.30090    2.97710    0.29950 -256.37860 3630.14780 3583.49170 3539.79970   -0.01800
 3067.50000   36.88090  164.53280  112.09290  153.45160  100.94470   -9999.25   51.17160   91.48140   18.82530   12.66860   12.66600    0.00190    5.24370    2.98780    0.29950 -257.53340 3630.14780 3574.47620 3536.24510   -0.01740
 3068.00000   38.93730  145.82230  107.48670  195.79200   92.12330   -9999.25   51.30950   91.46850   18.59720   12.62550   12.63410    0.00540    5.24910    2.99730    0.29950 -258.68830 3630.14780 3576.64930 3532.69050   -0.01750
 3068.50000   36.59160  150.78470  121.09110  216.96210  108.59060   -9999.25   51.41150   92.05590   17.74330   12.54200   12.59810    0.00970    5.28270    4.00580    0.29950 -258.56000 3630.14780 3578.82230 3529.13590   -0.01730
 3069.00000   41.37100  237.96010  149.12680  218.97760  125.05800   -9999.25   51.25420   92.79330   18.87190   12.56760   12.56200    0.01400    5.28720    4.00000    0.29950 -258.11090 3630.14780 3572.85890 3541.29980   -0.01810
