~Version ---------------------------------------------------
VERS.   2.0 : CWLS log ASCII Standard -VERSION 2.0
WRAP.    NO : One line per depth step
DLM . SPACE : Column Data Section Delimiter
~Well ------------------------------------------------------
STRT .FT                1162.0 : START DEPTH
STOP .FT                9365.0 : STOP DEPTH
STEP .FT                   0.5 : STEP
NULL .                -9999.25 : NULL VALUE
COMP .                         : COMPANY
WELL .                         : WELL
FLD  .                         : FIELD
LOC  .                         : LOCATION
PROV .                         : PROVINCE
CNTY .                         : COUNTY
STAT .                         : STATE
CTRY .                         : COUNTRY
SRVC .                         : SERVICE COMPANY
DATE .                         : DATE
UWI  .                         : UNIQUE WELL ID
API  .                         : API NUMBER
SLAT .WGS84 6.0167945315952025 : SURFACE LATITUDE
SLON .WGS84  2.904402533678308 : SURFACE LONGITUDE
DATUM.F                    nan : DEPTH DATUM ELEV
~Curve Information -----------------------------------------
DEPT   .FT    : 
AT10   .OHMM  : ARRAY INDUCTION TWO FOOT RESISTIVITY A10
AT20   .OHMM  : ARRAY INDUCTION TWO FOOT RESISTIVITY A20
AT30   .OHMM  : ARRAY INDUCTION TWO FOOT RESISTIVITY A30
AT60   .OHMM  : ARRAY INDUCTION TWO FOOT RESISTIVITY A60
AT90   .OHMM  : ARRAY INDUCTION TWO FOOT RESISTIVITY A90
DPHZ_LS.DEC   : HGRD STANDARD RESOLUTION DENSITY POROSITY
DTCO   .US/F  : DELTA-T COMPRESSIONAL
DTSM   .US/F  : DELTA-T SHEAR
ECGRD  .GAPI  : ENVIRONMENTALLY CORRECTED GAMMA RAY FROM DENSITY LOG
HCALD  .IN    : HRCC CALIPER CALIBRATED FROM DENSITY LOG
HCALS  .IN    : HRCC CALIPER CALIBRATED FROM SONIC LOG
HDRA   .G/C3  : HRDD SPINE AND RIBS DENSITY CORRECTION
PEFZ   .B/E   : HRDD STANDARD RESOLUTION FORMATION PHOTOELECTRIC FACTOR
RHOZ   .G/C3  : HRDD STANDARD RESOLUTION FORMATION DENSITY
SPHI_LS.DEC   : SONIC POROSITY [LIMESTONE]
SPR    .MV    : SPONTANEOUS POTENTIAL FROM RESISTIVITY LOG
TEND   .LBF   : TENSION FROM DENSITY LOG
TENR   .LB    : TENSION FROM RESISTIVITY LOG
TENS   .LBF   : TENSION FROM SONIC LOG
TNPH_LS.DEC   : THERMAL NEUTRON POROSITY [LIMESTONE]
~Params ----------------------------------------------------
~Other -----------------------------------------------------
~ASCII -----------------------------------------------------
# ...
 9299.50000    4.89170    6.97820    7.38250    7.81280    7.58350   -9999.25   79.34190  146.76900   -9999.25   -9999.25   -9999.25   -9999.25   -9999.25   -9999.25    0.22420 -298.72540 5562.30950 5538.86940 5561.34360   -9999.25
 9300.00000    4.59390    6.35540    6.54930    6.93110    6.72760   -9999.25   79.34050  146.86010   -9999.25   -9999.25   -9999.25   -9999.25   -9999.25   -9999.25    0.22410 -298.72230 5547.21300 5546.16410 5560.96300   -9999.25
 9300.50000    4.23630    5.73270    5.68650    6.01800    5.96150   -9999.25   79.33900  146.89440   -9999.25   -9999.25   -9999.25   -9999.25   -9999.25   -9999.25    0.22430 -298.71930 5548.69280 5553.45870 5559.14630   -9999.25
 9301.00000    3.92380    5.19900    5.45930    5.77770    5.60790   -9999.25   79.33760  146.84320   -9999.25   -9999.25   -9999.25   -9999.25   -9999.25   -9999.25    0.22430 -298.71620 5550.17260 5556.78960 5551.58530   -9999.25
 9301.50000    3.81170    5.16380    5.34890    5.66080    5.49460   -9999.25   79.33620  146.79760   -9999.25   -9999.25   -9999.25   -9999.25   -9999.25   -9999.25    0.22430 -298.71310 5551.65230 5530.46570 5544.02430   -9999.25
 9302.00000    3.79530    5.16310    5.24080    5.54630    5.38340   -9999.25   79.33480  146.76040   -9999.25   -9999.25   -9999.25   -9999.25   -9999.25   -9999.25    0.22430 -298.71010 5553.13210 5522.68330 5533.24110   -9999.25
 9302.50000    3.75930    5.02450    5.24040    5.54580    5.34660   -9999.25   79.33340  146.75290   -9999.25   -9999.25   -9999.25   -9999.25   -9999.25   -9999.25    0.22430 -298.70700 5554.61190 5480.68990 5525.88550   -9999.25
 9303.00000    3.65430    4.65250    4.92970    5.21710    5.06390   -9999.25   79.33200  146.81220   -9999.25   -9999.25   -9999.25   -9999.25   -9999.25   -9999.25    0.22420 -298.70390 5556.09170 5522.51490 5534.36620   -9999.25
 9303.50000    3.50250    4.28060    4.48200    4.74330    4.60400   -9999.25   79.33060  146.81060   -9999.25   -9999.25   -9999.25   -9999.25   -9999.25   -9999.25    0.22420 -298.70080 5557.57140 5553.35830 5542.84690   -9999.25
 9304.00000    3.31880    3.90860    4.13370    4.37460    4.24620   -9999.25   79.32920  146.80890   -9999.25   -9999.25   -9999.25   -9999.25   -9999.25   -9999.25    0.22420 -299.10730 5559.05120 5541.65390 5539.37700   -9999.25
 9304.50000    3.18000    3.76130    3.80890    4.03100    3.91260   -9999.25   79.32780  146.80730   -9999.25   -9999.25   -9999.25   -9999.25   -9999.25   -9999.25    0.22420 -299.28500 5560.53100 5535.97560 5543.65220   -9999.25
 9305.00000    3.07310    3.71920    3.74470    3.96290    3.84660   -9999.25   79.32630  146.80570   -9999.25   -9999.25   -9999.25   -9999.25   -9999.25   -9999.25    0.22420 -299.46280 5562.01080 5485.35120 5547.92730   -9999.25
 9305.50000    3.02810    3.67710    3.69750    3.94600    3.81390   -9999.25   79.32490  146.70140   -9999.25   -9999.25   -9999.25   -9999.25   -9999.25   -9999.25    0.22420 -299.66750 5563.49060 5526.83580 5549.63830   -9999.25
 9306.00000    3.00180    3.63500    3.64020    3.94030    3.78140   -9999.25   79.32350  146.86380   -9999.25   -9999.25   -9999.25   -9999.25   -9999.25   -9999.25    0.22420 -299.73290 5564.97030 5551.21250 5547.50310   -9999.25
 9306.50000    2.97540    3.55870    3.58290    3.93470    3.70500   -9999.25   79.32210  146.75480   -9999.25   -9999.25   -9999.25   -9999.25   -9999.25   -9999.25    0.22420 -299.75320 5566.45010 5557.77070 5545.36780   -9999.25
 9307.00000    2.90890    3.45060    3.52560    3.93330    3.56870   -9999.25   79.32070  146.77180   -9999.25   -9999.25   -9999.25   -9999.25   -9999.25   -9999.25    0.22420 -299.77360 5567.92990 5558.57770 5548.82520   -9999.25
 9307.50000    2.85670    3.34250    3.51390    3.85380    3.46160   -9999.25   79.31930  146.78880   -9999.25   -9999.25   -9999.25   -9999.25   -9999.25   -9999.25    0.22420 -299.67250 5569.40970 5559.15630 5570.26950   -9999.25
 9308.00000    2.83300    3.38150    3.55760    3.77600    3.47150   -9999.25   79.31870  146.80570   -9999.25   -9999.25   -9999.25   -9999.25   -9999.25   -9999.25    0.22420 -299.45020 5570.88940 5595.94660 5585.13820   -9999.25
 9308.50000    2.83900    3.43020    3.67340    3.80140    3.48810   -9999.25   79.32130  146.73800   -9999.25   -9999.25   -9999.25   -9999.25   -9999.25   -9999.25    0.22420 -299.65230 5572.36920 5586.51880 5600.00700   -9999.25
 9309.00000    2.80250    3.47900    3.73850    3.87920    3.50470   -9999.25   79.32390  146.81250   -9999.25   -9999.25   -9999.25   -9999.25   -9999.25   -9999.25    0.22420 -299.77360 5573.84900 5558.24400 5599.45770   -9999.25
 9309.50000    2.78710    3.52780    3.63780    3.75090    3.50780   -9999.25   79.32650  146.82740   -9999.25   -9999.25   -9999.25   -9999.25   -9999.25   -9999.25    0.22410 -299.77360 5575.32880 5548.36780 5583.08790   -9999.25
 9310.00000    2.63230    3.52750    3.51260    3.67390    3.37670   -9999.25   79.32910  146.84220   -9999.25   -9999.25   -9999.25   -9999.25   -9999.25   -9999.25    0.22410 -299.87180 5576.80860 5579.24870 5566.71810   -9999.25
 9310.50000    2.42380    3.42160    3.44770    3.62440    3.21170   -9999.25   79.33170  146.85700   -9999.25   -9999.25   -9999.25   -9999.25   -9999.25   -9999.25    0.22370 -300.11730 5578.28830 5521.02800 5550.34820   -9999.25
 9311.00000    2.24730    3.34130    3.35470    3.52740    3.13330   -9999.25   79.33430  146.87190   -9999.25   -9999.25   -9999.25   -9999.25   -9999.25   -9999.25    0.22380 -300.36280 5579.76810 5484.65740 5562.10750   -9999.25
 9311.50000    2.16850    3.13970    3.19960    3.40990    3.04220   -9999.25   79.33690  146.86260   -9999.25   -9999.25   -9999.25   -9999.25   -9999.25   -9999.25    0.22390 -300.60830 5581.24790 5550.29360 5576.80670   -9999.25
 9312.00000    2.07080    2.91410    3.04450    3.24310    2.86470   -9999.25   79.33950  146.84730   -9999.25   -9999.25   -9999.25   -9999.25   -9999.25   -9999.25    0.22390 -300.85390 5582.72770 5626.58500 5591.50580   -9999.25
 9312.50000    1.93770    2.68850    2.95130    3.05940    2.67450   -9999.25   79.34210  146.83210   -9999.25   -9999.25   -9999.25   -9999.25   -9999.25   -9999.25    0.22390 -301.09940 5584.20740 5598.02670 5606.20500   -9999.25
 9313.00000    1.87750    2.46280    2.83860    2.91760    2.56790   -9999.25   79.34480  146.88960   -9999.25   -9999.25   -9999.25   -9999.25   -9999.25   -9999.25    0.22380 -301.46050 5585.68720 5570.80000 5601.65680   -9999.25
 9313.50000    1.83080    2.28540    2.74340    2.87830    2.49920   -9999.25   79.34740  147.04690   -9999.25   -9999.25   -9999.25   -9999.25   -9999.25   -9999.25    0.22420 -301.91740 5587.16700 5543.57320 5592.29680   -9999.25
 9314.00000    1.69110    2.08440    2.51110    2.67060    2.39960   -9999.25   79.35000  146.86340   -9999.25   -9999.25   -9999.25   -9999.25   -9999.25   -9999.25    0.22410 -302.20600 5588.64680 5543.57320 5582.93680   -9999.25
 9314.50000    1.54830    1.88340    2.18740    2.29910    2.05320   -9999.25   79.35260  147.11230   -9999.25   -9999.25   -9999.25   -9999.25   -9999.25   -9999.25    0.22430 -302.21840 5590.12660 5535.81180 5573.57680   -9999.25
 9315.00000    1.43280    1.77580    2.01970    2.06480    2.01190   -9999.25   79.35470  147.01560   -9999.25   -9999.25   -9999.25   -9999.25   -9999.25   -9999.25    0.22430 -302.23080 5591.60630 5497.00470 5574.19300   -9999.25
 9315.50000    1.35740    1.70020    1.91930    1.91310    1.86420   -9999.25   -9999.25   -9999.25   -9999.25   -9999.25   -9999.25   -9999.25   -9999.25   -9999.25   -9999.25 -302.24310 5593.08610 5521.30150 5577.30320   -9999.25
 9316.00000    1.27650    1.63980    1.76150    1.81530    1.69820   -9999.25   -9999.25   -9999.25   -9999.25   -9999.25   -9999.25   -9999.25   -9999.25   -9999.25   -9999.25 -302.25550 5594.56590 5533.44980 5580.41340   -9999.25
 9316.50000    1.35090    1.69660    1.87040    2.04570    1.84670   -9999.25   -9999.25   -9999.25   -9999.25   -9999.25   -9999.25   -9999.25   -9999.25   -9999.25   -9999.25 -302.26790 5596.04570 5560.71160 5584.58150   -9999.25
