~Version ---------------------------------------------------
VERS.   2.0 : CWLS log ASCII Standard -VERSION 2.0
WRAP.    NO : One line per depth step
DLM . SPACE : Column Data Section Delimiter
~Well ------------------------------------------------------
STRT .FT                1162.0 : START DEPTH
STOP .FT                9365.0 : STOP DEPTH
STEP .FT                   0.5 : STEP
NULL .                -9999.25 : NULL VALUE
COMP .                         : COMPANY
WELL .                         : WELL
FLD  .                         : FIELD
LOC  .                         : LOCATION
PROV .                         : PROVINCE
CNTY .                         : COUNTY
STAT .                         : STATE
CTRY .                         : COUNTRY
SRVC .                         : SERVICE COMPANY
DATE .                         : DATE
UWI  .                         : UNIQUE WELL ID
API  .                         : API NUMBER
SLAT .WGS84 6.0167945315952025 : SURFACE LATITUDE
SLON .WGS84  2.904402533678308 : SURFACE LONGITUDE
DATUM.F                    nan : DEPTH DATUM ELEV
~Curve Information -----------------------------------------
DEPT   .FT    : 
AT10   .OHMM  : ARRAY INDUCTION TWO FOOT RESISTIVITY A10
AT20   .OHMM  : ARRAY INDUCTION TWO FOOT RESISTIVITY A20
AT30   .OHMM  : ARRAY INDUCTION TWO FOOT RESISTIVITY A30
AT60   .OHMM  : ARRAY INDUCTION TWO FOOT RESISTIVITY A60
AT90   .OHMM  : ARRAY INDUCTION TWO FOOT RESISTIVITY A90
DPHZ_LS.DEC   : HGRD STANDARD RESOLUTION DENSITY POROSITY
DTCO   .US/F  : DELTA-T COMPRESSIONAL
DTSM   .US/F  : DELTA-T SHEAR
ECGRD  .GAPI  : ENVIRONMENTALLY CORRECTED GAMMA RAY FROM DENSITY LOG
HCALD  .IN    : HRCC CALIPER CALIBRATED FROM DENSITY LOG
HCALS  .IN    : HRCC CALIPER CALIBRATED FROM SONIC LOG
HDRA   .G/C3  : HRDD SPINE AND RIBS DENSITY CORRECTION
PEFZ   .B/E   : HRDD STANDARD RESOLUTION FORMATION PHOTOELECTRIC FACTOR
RHOZ   .G/C3  : HRDD STANDARD RESOLUTION FORMATION DENSITY
SPHI_LS.DEC   : SONIC POROSITY [LIMESTONE]
SPR    .MV    : SPONTANEOUS POTENTIAL FROM RESISTIVITY LOG
TEND   .LBF   : TENSION FROM DENSITY LOG
TENR   .LB    : TENSION FROM RESISTIVITY LOG
TENS   .LBF   : TENSION FROM SONIC LOG
TNPH_LS.DEC   : THERMAL NEUTRON POROSITY [LIMESTONE]
~Params ----------------------------------------------------
~Other -----------------------------------------------------
~ASCII -----------------------------------------------------
# ...
 6692.00000    6.34460    8.55140    9.47330    9.77980    9.96520    0.05710   69.35020  118.85200   91.22690   12.13040   12.18520    0.00670    3.07180    2.61310    0.15400 -278.50580 4773.80950 4807.81410 4776.44490    0.14450
 6692.50000    6.45430    8.73840    9.59800   10.15000   10.27910    0.05270   69.36400  118.63650   91.46250   12.15000   12.18240    0.00550    3.07230    2.62110    0.15380 -278.59470 4766.28760 4794.34780 4759.49360    0.14250
 6693.00000    6.34930    8.92550    9.33080    9.82660   10.40410    0.05020   69.37780  118.92100   93.10690   12.15070   12.17970    0.00420    3.08920    2.62420    0.15450 -278.68360 4783.27280 4792.54610 4769.35750    0.14340
 6693.50000    6.11110    8.94400    9.06360    9.28850    9.59220    0.05010   69.45750  119.20540   93.42500   12.15140   12.17700    0.00350    3.11080    2.62500    0.15460 -278.58570 4784.14480 4783.59910 4779.22130    0.14420
 6694.00000    5.93750    8.75080    8.83270    9.07240    9.17680    0.05030   69.42250  119.57650   96.00220   12.15910   12.17420    0.00400    3.14800    2.62390    0.15470 -278.04950 4785.01670 4795.18010 4775.49510    0.14570
 6694.50000    5.93280    8.55760    8.74700    9.05230    9.16060    0.05210   69.83360  120.29410   97.21290   12.16970   12.17150    0.00450    3.14700    2.62140    0.15780 -277.59040 4791.36510 4765.39620 4782.99450    0.13940
 6695.00000    5.92800    8.36450    8.66120    9.03240    9.14450    0.05210   70.10990  121.01170   95.25080   12.14200   12.16880    0.00490    3.12870    2.62180    0.15950 -277.13130 4819.61930 4812.43480 4808.13610    0.13770
 6695.50000    5.87800    8.17130    8.57550    9.01250    9.12830    0.04940   70.36800  121.72930   93.56530   12.12350   12.16610    0.00540    3.10810    2.62680    0.16040 -276.67220 4847.87350 4830.72050 4833.27780    0.13840
 6696.00000    5.73930    7.97820    8.43570    8.81760    8.97340    0.04440   70.71730  122.65240   94.13660   12.15280   12.16330    0.00590    3.07290    2.63500    0.16420 -276.21310 4851.14970 4752.86300 4828.45880    0.14090
 6696.50000    5.60060    7.78500    8.26120    8.62260    8.78390    0.03980   71.20340  123.51740   99.28990   12.15660   12.16230    0.00640    3.06830    2.64190    0.16700 -275.75400 4848.18150 4780.32840 4826.11600    0.14340
 6697.00000    5.49640    7.65400    8.08670    8.42770    8.59430    0.04400   71.57680  124.82480  104.36450   12.15560   12.16400    0.00660    3.10770    2.63180    0.16980 -275.83750 4845.21330 4786.64490 4823.77320    0.14780
 6697.50000    5.39510    7.53840    7.91220    8.23280    8.46610    0.04920   72.07820  125.89030  107.15650   12.15200   12.16560    0.01340    3.24240    2.62830    0.17310 -275.03790 4840.59140 4745.93460 4821.43040    0.15390
 6698.00000    5.26200    7.42290    7.77140    8.09100    8.33600    0.04360   72.29200  127.15310  108.93490   12.16050   12.16720    0.03600    3.34430    2.63840    0.17460 -274.94920 4829.35440 4738.61140 4819.08760    0.15750
 6698.50000    5.17470    7.30730    7.68110    7.98470    8.20580    0.03760   72.53380  128.13760  109.82830   12.17320   12.17020    0.05250    3.39190    2.65030    0.17600 -275.04900 4818.11740 4780.15630 4816.74470    0.16400
 6699.00000    5.08510    7.19180    7.59070    7.87840    8.08420    0.03170   73.07560  129.22440  109.95840   12.16700   12.17870    0.05120    3.37460    2.65490    0.18050 -274.96430 4806.88040 4783.91920 4814.40190    0.16270
 6699.50000    5.02560    7.07620    7.50150    7.77210    7.99740    0.03310   73.44180  130.31490  107.55950   12.15070   12.17020    0.05070    3.32830    2.65390    0.18240 -274.87960 4795.64330 4803.12260 4812.05910    0.16890
 6700.00000    4.96620    7.00630    7.41690    7.66570    7.91050    0.03290   73.54360  131.09000  108.93470   12.17400   12.17330    0.05070    3.29080    2.65390    0.18360 -274.52840 4784.40630 4830.51030 4809.71630    0.17770
 6700.50000    4.90430    7.00630    7.33230    7.55940    7.82360    0.03650   73.62160  131.86510  111.25590   12.20730   12.16930    0.05060    3.33490    2.64580    0.18470 -274.44210 4773.16930 4834.92160 4807.37350    0.18300
 6701.00000    4.79350    6.91980    7.24360    7.38350    7.69300    0.04280   74.15200  132.78700  113.95950   12.24060   12.20790    0.05280    3.39550    2.63660    0.18890 -274.67860 4761.93230 4828.16160 4805.03070    0.18210
 6701.50000    4.61980    6.67460    7.02160    7.16110    7.38720    0.04130   75.24960  134.13730  117.78050   12.17200   12.21150    0.06750    3.50470    2.63940    0.19540 -274.69800 4750.69530 4810.84360 4805.16520    0.19400
 6702.00000    4.46590    6.40830    6.79960    6.93880    7.08140    0.03890   75.61950  134.75900  119.79860   12.12690   12.20810    0.07740    3.60170    2.64300    0.19810 -274.71740 4739.45830 4806.65230 4809.01560    0.20910
 6702.50000    4.43250    6.14200    6.57770    6.80540    6.93350    0.04070   76.34400  135.24380  119.70660   12.17590   12.20470    0.08550    3.65510    2.64020    0.20360 -274.73680 4818.45230 4766.31690 4812.86600    0.21480
 6703.00000    4.31640    6.01160    6.35570    6.84780    6.98190    0.04750   76.43860  135.87550  117.40040   12.10570   12.20260    0.08850    3.73000    2.62910    0.20400 -274.75620 4803.57140 4755.02560 4816.71650    0.21420
 6703.50000    4.24380    5.97180    6.35570    6.84780    7.03040    0.05210   76.84940  136.69700  115.09420   11.84280   12.00490    0.09930    3.79210    2.62150    0.20880 -274.77570 4788.69040 4752.12620 4820.56690    0.21550
 6704.00000    4.24050    5.93200    6.42000    6.88860    7.07890    0.05580   77.46890  136.75380  112.82300   12.44630   12.20720    0.11260    3.86190    2.61560    0.20970 -274.79510 4812.50000 4779.53890 4824.41730    0.21410
 6704.50000    4.28190    5.95500    6.50030    6.99060    7.14930    0.05660   76.80860  136.68910  110.69210   12.00740   12.18900    0.12610    3.93960    2.61320    0.20440 -274.81450 4845.98210 4810.20600 4828.26780    0.21120
 6705.00000    4.31270    6.03250    6.58060    7.09250    7.25250    0.05440   76.12420  136.19500  109.71330   12.25430   12.09010    0.13660    3.98160    2.61750    0.20140 -274.83390 4879.46420 4853.89040 4853.87200    0.20810
 6705.50000    4.31680    6.11000    6.66090    7.19450    7.35570    0.04940   76.02490  135.70100  108.26540   12.03290   12.06960    0.12530    4.01090    2.62540    0.19990 -274.85330 4858.48990 4854.19500 4840.67580    0.21030
 6706.00000    4.32080    6.18740    6.74120    7.29650    7.45890    0.04510   75.48610  134.70440  108.93770   12.06230   12.14640    0.10520    3.94860    2.63180    0.19850 -274.87280 4864.88820 4825.05700 4827.47960    0.20560
 6706.50000    4.32480    6.31450    6.82370    7.39600    7.56220    0.04530   75.33210  133.72290  111.26140   12.18570   12.16170    0.08480    3.84030    2.63360    0.19560 -274.89220 4874.57000 4834.93000 4816.92270    0.19290
 6707.00000    4.39170    6.44170    6.91500    7.48550    7.66540    0.04510   75.04490  133.83660  114.24680   12.12110   12.09350    0.07870    3.75510    2.63230    0.19300 -274.91160 4881.84980 4847.51150 4838.70340    0.18700
 6707.50000    4.39290    6.54340    7.00620    7.57510    7.76860    0.04940   74.93510  134.09440  116.60590   12.03480   12.09800    0.07380    3.77610    2.62740    0.19320 -274.93100 4879.52180 4852.21200 4849.20500    0.19610
 6708.00000    4.36650    6.54340    7.09750    7.61090    7.85120    0.04920   74.33360  134.34520  116.15260   12.17170   12.18900    0.08200    3.79710    2.62210    0.18960 -274.95040 4877.19370 4869.41680 4859.70670    0.19650
 6708.50000    4.28080    6.54340    7.10800    7.45430    7.68020    0.05340   74.16810  135.25350  115.42010   12.13660   12.14350    0.09020    3.83260    2.61850    0.18790 -274.96990 4870.83940 4890.33350 4870.20830    0.19260
 6709.00000    4.03120    5.96840    6.80150    7.25860    7.50920    0.05050   74.85030  135.67990  115.34150   12.10860   12.12990    0.09750    3.89380    2.62400    0.19300 -274.98930 4848.37990 4833.61400 4861.08950    0.19650
