~Version ---------------------------------------------------
VERS.   2.0 : CWLS log ASCII Standard -VERSION 2.0
WRAP.    NO : One line per depth step
DLM . SPACE : Column Data Section Delimiter
~Well ------------------------------------------------------
STRT .F                 4610.0 : START DEPTH
STOP .F                12880.5 : STOP DEPTH
STEP .F                    0.5 : STEP
NULL .                -9999.25 : NULL VALUE
COMP .                         : COMPANY
WELL .                         : WELL
FLD  .                         : FIELD
LOC  .                         : LOCATION
PROV .                         : PROVINCE
CNTY .                         : COUNTY
STAT .                         : STATE
CTRY .                         : COUNTRY
SRVC .                         : SERVICE COMPANY
DATE .                         : DATE
UWI  .                         : UNIQUE WELL ID
API  .                         : API NUMBER
SLAT .WGS84  5.935362675678498 : SURFACE LATITUDE
SLON .WGS84 4.1218173947355865 : SURFACE LONGITUDE
DATUM.F                1904.53 : DEPTH DATUM ELEV
~Curve Information -----------------------------------------
DEPT .F     : 
SFLU .OHMM  : SPHERICALLY FOCUSED LOG UNAVERAGED RESISTIVITY
ILD  .OHMM  : INDUCTION LOG DEEP
ILM  .OHMM  : INDUCTION LOG MEDIUM
SPR  .MV    : SPONTANEOUS POTENTIAL FROM RES. LOG
GRR  .GAPI  : GAMMA RAY FROM RES. LOG
CALD .IN    : CALIPER FROM DENSITY LOG
RHOB .G/C3  : BULK DENSITY
DRHO .G/C3  : DENSITY CORRECTION
NPHI .DEC   : NEUTRON POROSITY LIMESTONE
DPHI .DEC   : DENSITY POROSITY LIMESTONE
NPHI1.DEC   : NEUTRON POROSITY LIMESTONE
DTCO .US/F  : COMPRESSIONAL-WAVE INTERVAL TRANSIT TIME ACOUSTIC SLOWNESS
DTSM .US/F  : Delta-T Shear Measurement
~Params ----------------------------------------------------
~Other -----------------------------------------------------
~ASCII -----------------------------------------------------
# ...
 7106.00000   10.24600   10.55170    7.03100  -28.94830  100.74410   12.34300    2.00690   -0.01920    0.41130    0.29960   -9999.25   -9999.25   -9999.25
 7106.50000    8.78520   10.19090    7.50930  -28.51570   98.41990   13.28960    2.13810   -0.01950    0.40340    0.29840   -9999.25   -9999.25   -9999.25
 7107.00000    7.69410    9.84230    8.11490  -28.34420   98.92610   14.22590    2.26140   -0.01060    0.35950    0.25000   -9999.25   -9999.25   -9999.25
 7107.50000    7.90970    9.50570    8.72870  -28.36230  101.93080   13.92310    2.35630   -0.00310    0.32270    0.18900   -9999.25   -9999.25   -9999.25
 7108.00000    8.40150    9.18060    8.53470  -28.35410  102.62390   13.06040    2.43440    0.00500    0.28050    0.12450   -9999.25   -9999.25   -9999.25
 7108.50000    8.92390    8.88750    8.39110  -28.35950  101.72720   11.95310    2.49700    0.00700    0.27350    0.14660   -9999.25   -9999.25   -9999.25
 7109.00000    9.55190    9.50220    8.24990  -28.38320  102.79170   12.08280    2.41710    0.00460    0.28230    0.17000   -9999.25   -9999.25   -9999.25
 7109.50000    9.55190   10.11650    8.12160  -28.68980  105.01080   12.76290    2.35100    0.00270    0.29010    0.19340   -9999.25   -9999.25   -9999.25
 7110.00000    9.55190   10.77050    8.43890  -28.94570  105.37080   13.45180    2.38090    0.01210    0.29880    0.21960   -9999.25   -9999.25   -9999.25
 7110.50000    9.55190   11.46680    8.94330  -29.22280  100.78580   14.19250    2.44050    0.02370    0.27780    0.17370   -9999.25   -9999.25   -9999.25
 7111.00000    9.55190   12.29360    9.74730  -29.49050   96.29700   14.56140    2.50020    0.02720    0.25390    0.12140   -9999.25   -9999.25   -9999.25
 7111.50000    9.55190   12.51720    9.70670  -29.75970   96.72560   14.40620    2.55040    0.02630    0.23070    0.09210   -9999.25   -9999.25   -9999.25
 7112.00000    9.96490   11.03300    9.75040  -30.03100   97.98470   13.88580    2.48960    0.00880    0.23800    0.12930   -9999.25   -9999.25   -9999.25
 7112.50000   10.64280    9.82840    7.95350  -30.29830   96.85480   12.89560    2.29710   -0.00750    0.27110    0.29960   -9999.25   -9999.25   -9999.25
 7113.00000   10.30080    8.75540    6.37570  -30.57160   95.13770   13.61480    2.10470   -0.02420    0.29800    0.41810   -9999.25   -9999.25   -9999.25
 7113.50000    9.24740    8.12160    5.12510  -30.83950   84.71500   14.55680    1.88970   -0.03870    0.40150    0.54040   -9999.25   -9999.25   -9999.25
 7114.00000    8.30170    8.20890    4.40040  -31.10170   76.75720   15.58110    1.52080   -0.03640    0.43980    0.69330   -9999.25   -9999.25   -9999.25
 7114.50000    7.45270    8.33360    4.40040  -31.40100   73.16110   16.02750    1.52520   -0.03390    0.49760    0.67850   -9999.25   -9999.25   -9999.25
 7115.00000    6.69050    8.41970    5.63180  -31.31830   74.40060   15.77120    1.58560   -0.03180    0.45280    0.63510   -9999.25   -9999.25   -9999.25
 7115.50000    6.08690    8.02840    7.02590  -30.96020   83.50070   15.44050    1.81990   -0.01930    0.40490    0.52770   -9999.25   -9999.25   -9999.25
 7116.00000    5.97820    7.62390    9.72560  -30.63810   90.97520   14.60060    2.00300    0.00730    0.35690    0.39490   -9999.25   -9999.25   -9999.25
 7116.50000    6.47550    7.28910    9.20710  -30.31440   98.96070   13.04190    2.19360    0.03210    0.30280    0.26400   -9999.25   -9999.25   -9999.25
 7117.00000    7.52950    8.03740    8.30260  -29.98690   99.21750   13.01300    2.31610    0.05720    0.31340    0.23210   -9999.25   -9999.25   -9999.25
 7117.50000    8.57280    8.77680    7.28910  -29.66440   99.38090   13.04920    2.36390    0.06430    0.32570    0.20020   -9999.25   -9999.25   -9999.25
 7118.00000    9.21370    9.56780    7.40300  -29.31880   99.29580   13.24150    2.41160    0.05590    0.33760    0.16820   -9999.25   -9999.25   -9999.25
 7118.50000    8.87870   10.82580    7.74560  -29.09110   99.34700   13.72050    2.46150    0.04060    0.32960    0.13010   -9999.25   -9999.25   -9999.25
 7119.00000    8.29620   10.69390    8.10400  -29.02470   99.21780   14.18640    2.48140    0.02660    0.32190    0.12360   -9999.25   -9999.25   -9999.25
 7119.50000    7.42170   10.25880    8.57280  -28.93650  100.62610   14.65290    2.50220    0.01250    0.31400    0.11550   -9999.25   -9999.25   -9999.25
 7120.00000    7.54300    9.84220    8.53320  -28.85010  104.13580   14.97880    2.52330   -0.00230    0.30630    0.10740   -9999.25   -9999.25   -9999.25
 7120.50000    7.89210    9.44270    8.42360  -28.76750  107.45220   14.04420    2.54410   -0.00830    0.29960    0.09930   -9999.25   -9999.25   -9999.25
 7121.00000    8.25740    9.05880    8.31540  -28.68150  109.93040   14.24480    2.55640   -0.00790    0.29880    0.09120   -9999.25   -9999.25   -9999.25
 7121.50000    8.63950    8.57900    8.24690  -28.59700  112.25630   14.69140    2.56040   -0.00610    0.29800    0.08650   -9999.25   -9999.25   -9999.25
 7122.00000    9.04910    8.60880    8.20770  -28.51220  115.00060   15.20590    2.55080    0.00020    0.29720    0.09280   -9999.25   -9999.25   -9999.25
 7122.50000    8.91870    8.60420    8.16870  -28.42730  113.78080   14.68310    2.53840    0.00650    0.29600    0.09840   -9999.25   -9999.25   -9999.25
 7123.00000    8.69730    8.65180    8.12990  -28.34240  109.30760   13.66060    2.53270    0.01280    0.29520    0.10470   -9999.25   -9999.25   -9999.25
 7123.50000    8.48150    8.67380    8.09130  -28.25750  104.57720   13.59280    2.53920    0.01910    0.29440    0.09730   -9999.25   -9999.25   -9999.25
 7124.00000    8.26930    8.69670    8.05280  -28.17250   99.88610   13.49750    2.55330    0.02540    0.29190    0.08870   -9999.25   -9999.25   -9999.25
 7124.50000    8.42990    8.72040    8.01460  -28.08760   95.49800   13.42200    2.56660    0.03180    0.28260    0.08020   -9999.25   -9999.25   -9999.25
 7125.00000    8.59490    8.74460    7.97650  -28.00250   95.57380   13.33750    2.55840    0.03790    0.27970    0.08810   -9999.25   -9999.25   -9999.25
 7125.50000    8.76320    8.76910    8.04450  -27.91750   99.28080   13.28820    2.54700    0.04450    0.28090    0.09920   -9999.25   -9999.25   -9999.25
 7126.00000    8.93480    8.79340    8.11300  -27.83330  102.58580   13.30620    2.55410    0.05070    0.27730    0.09180   -9999.25   -9999.25   -9999.25
 7126.50000    9.10970    8.81780    8.18210  -27.74630  106.06670   13.31660    2.57530    0.05250    0.27270    0.07890   -9999.25   -9999.25   -9999.25
 7127.00000    9.21370    8.84220    8.25180  -27.66400  108.32000   13.32930    2.58820    0.03900    0.27610    0.07230   -9999.25   -9999.25   -9999.25
 7127.50000    9.21590    8.86680    8.32210  -27.58420  107.60190   13.36470    2.58450    0.02760    0.28140    0.07400   -9999.25   -9999.25   -9999.25
 7128.00000    9.21240    8.89140    8.41970  -27.61370  106.99930   13.40740    2.57840    0.01550    0.27720    0.07690   -9999.25   -9999.25   -9999.25
 7128.50000    9.21450    8.91610    8.34060  -27.64560  107.54950   13.45100    2.57200    0.00340    0.26910    0.08020   -9999.25   -9999.25   -9999.25
 7129.00000    9.21360    8.94040    8.21580  -27.68220  111.48660   13.49330    2.57420    0.00070    0.26160    0.07940   -9999.25   -9999.25   -9999.25
 7129.50000    9.21290    8.96520    8.09280  -27.71610  113.74620   13.53590    2.58020    0.00410    0.26240    0.07590   -9999.25   -9999.25   -9999.25
 7130.00000    9.21230    8.99040    7.97650  -27.75070  114.11180   13.58260    2.58440    0.00700    0.26320    0.07270   -9999.25   -9999.25   -9999.25
 7130.50000    9.21570    9.01590    8.12800  -27.78550  110.20230   13.61130    2.58750    0.00990    0.25790    0.07150   -9999.25   -9999.25   -9999.25
 7131.00000    9.21370    9.04720    8.27650  -27.82000  106.92890   13.60790    2.58630    0.00800    0.25290    0.07310   -9999.25   -9999.25   -9999.25
 7131.50000    9.35010    9.02180    8.42760  -27.85470  103.23160   13.60880    2.58870    0.00440    0.24780    0.07310   -9999.25   -9999.25   -9999.25
