~Version ---------------------------------------------------
VERS.   2.0 : CWLS log ASCII Standard -VERSION 2.0
WRAP.    NO : One line per depth step
DLM . SPACE : Column Data Section Delimiter
~Well ------------------------------------------------------
STRT .F                 4610.0 : START DEPTH
STOP .F                12880.5 : STOP DEPTH
STEP .F                    0.5 : STEP
NULL .                -9999.25 : NULL VALUE
COMP .                         : COMPANY
WELL .                         : WELL
FLD  .                         : FIELD
LOC  .                         : LOCATION
PROV .                         : PROVINCE
CNTY .                         : COUNTY
STAT .                         : STATE
CTRY .                         : COUNTRY
SRVC .                         : SERVICE COMPANY
DATE .                         : DATE
UWI  .                         : UNIQUE WELL ID
API  .                         : API NUMBER
SLAT .WGS84  5.935362675678498 : SURFACE LATITUDE
SLON .WGS84 4.1218173947355865 : SURFACE LONGITUDE
DATUM.F                1904.53 : DEPTH DATUM ELEV
~Curve Information -----------------------------------------
DEPT .F     : 
SFLU .OHMM  : SPHERICALLY FOCUSED LOG UNAVERAGED RESISTIVITY
ILD  .OHMM  : INDUCTION LOG DEEP
ILM  .OHMM  : INDUCTION LOG MEDIUM
SPR  .MV    : SPONTANEOUS POTENTIAL FROM RES. LOG
GRR  .GAPI  : GAMMA RAY FROM RES. LOG
CALD .IN    : CALIPER FROM DENSITY LOG
RHOB .G/C3  : BULK DENSITY
DRHO .G/C3  : DENSITY CORRECTION
NPHI .DEC   : NEUTRON POROSITY LIMESTONE
DPHI .DEC   : DENSITY POROSITY LIMESTONE
NPHI1.DEC   : NEUTRON POROSITY LIMESTONE
DTCO .US/F  : COMPRESSIONAL-WAVE INTERVAL TRANSIT TIME ACOUSTIC SLOWNESS
DTSM .US/F  : Delta-T Shear Measurement
~Params ----------------------------------------------------
~Other -----------------------------------------------------
~ASCII -----------------------------------------------------
# ...
 12514.00000   33.73150   18.83380   21.11120  -18.52320   74.96720    8.19680    2.65620   -0.02840    0.13550    0.03030    0.09400   69.53740  119.04610
 12514.50000   46.03260   18.09430   20.42500  -18.45100   73.62350    8.20970    2.65820   -0.02600    0.13910    0.02880    0.10250   68.84430  117.57300
 12515.00000   51.05930   17.38390   18.80550  -18.37950   71.71530    8.22280    2.66400   -0.02360    0.14960    0.02590    0.10290   65.04990  116.09990
 12515.50000   34.34500   16.70140   17.31440  -18.30840   75.47830    8.23340    2.67200   -0.02110    0.16550    0.02300    0.08770   60.00400  114.55090
 12516.00000   25.28080   16.04560   15.94150  -18.23350   79.06520    8.23890    2.67720   -0.01870    0.15460    0.02030    0.07630   55.30840  114.42910
 12516.50000   21.11120   15.41570   14.67750  -18.20030   82.39960    8.24380    2.67650   -0.01630    0.13870    0.02030    0.09040   53.79100  114.41520
 12517.00000   19.29190   14.45870   14.20040  -18.20350   84.84610    8.24860    2.67580   -0.01380    0.14680    0.02030    0.10530   53.80620  113.48660
 12517.50000   19.50160   14.48480   14.28600  -18.20310   86.94460    8.25350    2.67830   -0.01270    0.16080    0.01930    0.12020   54.10260  112.55800
 12518.00000   19.64270   14.55020   14.50220  -18.20270   89.28440    8.25830    2.68170   -0.01210    0.17490    0.01780    0.12800   54.30940  108.57060
 12518.50000   22.48590   14.61590   14.72170  -18.20320   89.70610    8.26320    2.68520   -0.01140    0.18550    0.01620    0.13410   54.53170  103.72930
 12519.00000   25.16720   14.72110   14.98940  -18.20300   86.66950    8.26790    2.68610   -0.01060    0.18300    0.01470    0.14010   54.84660   98.88800
 12519.50000   28.16810   14.67400   14.75960  -18.20310   84.69390    8.27230    2.68670   -0.01000    0.18050    0.01400    0.14530   55.16090   94.04670
 12520.00000   25.57550   14.55580   14.47740  -18.20310   84.46090    8.26970    2.68690   -0.00970    0.17890    0.01590    0.13920   55.46910   89.20530
 12520.50000   23.22140   14.43850   14.20040  -18.20310   85.95820    8.26690    2.68110   -0.01430    0.17890    0.01850    0.12910   54.88280   84.36400
 12521.00000   21.49520   14.32240   13.92880  -18.20310   87.83610    8.26380    2.67590   -0.01820    0.18560    0.02100    0.12530   54.30880   81.20460
 12521.50000   19.29190   14.20700   13.66240  -18.20310   90.93950    8.26090    2.67000   -0.02310    0.19240    0.02350    0.13020   53.88890   80.60220
 12522.00000   17.94990   14.31540   13.45300  -18.20310   94.19030    8.25800    2.67010   -0.02140    0.19930    0.02250    0.13840   53.97670   81.47110
 12522.50000   18.11240   14.45870   13.82170  -18.20310   96.07740    8.25510    2.67480   -0.01960    0.20610    0.02030    0.14670   54.06340   82.33990
 12523.00000   19.95500   14.20040   14.13660  -18.20310   94.32810    8.25210    2.68130   -0.01800    0.21300    0.01580    0.15500   53.92130   83.20870
 12523.50000   23.10210   13.97190   14.72170  -18.20310   91.73190    8.24920    2.69080   -0.01650    0.22230    0.01170    0.15870   53.37140   84.01200
 12524.00000   29.20210   13.78440   14.47060  -18.20290   91.52590    8.24630    2.69590   -0.01490    0.21990    0.00820    0.16030   53.26740   84.79730
 12524.50000   27.60960   13.59930   14.06150  -18.20320   93.22520    8.24330    2.69640   -0.01340    0.20990    0.00730    0.14770   53.82880   86.87640
 12525.00000   24.07960   13.45300   13.66400  -18.20260   94.80750    8.24040    2.69740   -0.01190    0.19860    0.00610    0.13350   54.07790   88.95540
 12525.50000   20.92400   13.72010   13.27780  -18.20300   95.07410    8.23740    2.70230   -0.01020    0.20190    0.00360    0.11910   53.27500   91.53330
 12526.00000   17.67000   14.06150   12.97670  -18.20390   92.84710    8.23450    2.70750   -0.00950    0.21030    0.00050    0.11540   53.27270   95.24510
 12526.50000   16.69310   14.41140   13.92750  -18.19920   91.45210    8.23160    2.70720   -0.01010    0.21920    0.00190    0.13360   54.06440   98.95680
 12527.00000   17.30140   14.77640   14.78720  -18.24300   91.95260    8.22870    2.69930   -0.01050    0.22110    0.00470    0.14690   54.25790  102.66860
 12527.50000   19.78170   14.99650   15.68260  -18.32550   93.20340    8.22570    2.69310   -0.01100    0.22310    0.00760    0.15580   54.45910  106.38030
 12528.00000   25.35050   14.95600   16.63340  -18.40250   92.13580    8.22280    2.69010   -0.01150    0.22490    0.01010    0.15970   54.66030  110.09210
 12528.50000   32.50030   14.88870   17.64390  -18.47950   82.19360    8.21980    2.68840   -0.01200    0.21880    0.01130    0.15230   54.87030  113.32040
 12529.00000   44.20310   14.82160   16.83930  -18.55760   72.75510    8.21690    2.68700   -0.01250    0.21110    0.01240    0.13840   54.69430  116.10120
 12529.50000   43.41350   14.75520   15.57830  -18.63480   66.13200    8.21400    2.68580   -0.01300    0.19350    0.01330    0.11960   54.46220  118.92030
 12530.00000   31.06360   14.57030   14.41030  -18.71240   71.11220    8.21110    2.69090   -0.01350    0.17080    0.01180    0.10070   54.36800  120.92090
 12530.50000   22.22690   14.30990   13.32720  -18.79000   79.46750    8.20810    2.69550   -0.01390    0.15760    0.00780    0.08460   54.95610  122.70420
 12531.00000   16.11000   14.05310   12.51830  -18.86750   87.51710    8.20520    2.69780   -0.01440    0.17680    0.00660    0.08260   54.74490  124.48760
 12531.50000   16.40300   13.80000   12.92880  -18.94500   93.02670    8.20220    2.69940   -0.01490    0.20680    0.00540    0.11620   54.87130  126.27090
 12532.00000   17.00510   13.33170   13.21140  -19.02250   97.38690    8.19930    2.69440   -0.01540    0.20420    0.00780    0.14050   55.21090  127.52490
 12532.50000   22.89490   12.74020   12.51730  -19.10000   98.49630    8.19660    2.68620   -0.01590    0.19470    0.01210    0.15050   55.86830  127.47710
 12533.00000   25.28080   11.86480   11.96840  -19.17750   97.46780    8.19300    2.68090   -0.01640    0.18520    0.01620    0.15290   57.87890  127.74320
 12533.50000   23.10210   12.06430   11.44280  -19.25510   99.49770    8.20190    2.67780   -0.01690    0.17690    0.01860    0.12970   63.53490  128.41380
 12534.00000   18.44190   12.62080   11.03670  -19.33260   99.80690    8.21660    2.67740   -0.01730    0.19330    0.01850    0.11420   68.85750  128.52290
 12534.50000   16.11000   13.21270   12.40660  -19.40990   96.25780    8.23020    2.67810   -0.01880    0.21280    0.01810    0.12330   71.64210  128.52290
 12535.00000   18.22940   13.45300   13.94680  -19.48810   90.78140    8.24370    2.67990   -0.01990    0.21120    0.01690    0.13800   71.70860  128.37470
 12535.50000   22.39920   13.05490   13.69770  -19.56490   85.05290    8.25750    2.68350   -0.02110    0.19740    0.01540    0.15020   70.90380  127.79980
 12536.00000   28.68040   12.73210   13.02870  -19.64200   82.96710    8.27100    2.69100   -0.01950    0.18160    0.01330    0.15320   70.89170  127.22500
 12536.50000   30.27400   12.41730   12.39250  -19.72470   80.95150    8.28470    2.69250   -0.01790    0.16630    0.01090    0.13260   71.23750  126.92410
 12537.00000   24.07400   12.29360   11.78730  -19.76980   82.61540    8.29830    2.68780   -0.01610    0.16870    0.01200    0.11420   70.90220  126.89260
 12537.50000   19.73780   12.56240   11.43850  -19.76500   86.32930    8.31200    2.68250   -0.01440    0.17950    0.01500    0.11740   70.59270  128.64940
 12538.00000   14.99750   12.74490   12.40490  -19.76560   90.10120    8.32560    2.67860   -0.01270    0.19030    0.01810    0.12710   71.04750  132.04310
 12538.50000   15.80100   12.45290   13.45300  -19.76590   88.85680    8.33920    2.67940   -0.01100    0.19780    0.01690    0.14150   72.25470  135.46350
 12539.00000   19.76730   12.21470   13.14480  -19.74640   83.30850    8.35290    2.68530   -0.00940    0.19920    0.01410    0.15610   73.46190  136.35870
 12539.50000   24.91780   12.07400   12.64680  -19.72160   77.22730    8.36650    2.69270   -0.00950    0.20020    0.01140    0.16570   73.76650  134.92160
