~Version ---------------------------------------------------
VERS.   2.0 : CWLS log ASCII Standard -VERSION 2.0
WRAP.    NO : One line per depth step
DLM . SPACE : Column Data Section Delimiter
~Well ------------------------------------------------------
STRT .F                 4610.0 : START DEPTH
STOP .F                12880.5 : STOP DEPTH
STEP .F                    0.5 : STEP
NULL .                -9999.25 : NULL VALUE
COMP .                         : COMPANY
WELL .                         : WELL
FLD  .                         : FIELD
LOC  .                         : LOCATION
PROV .                         : PROVINCE
CNTY .                         : COUNTY
STAT .                         : STATE
CTRY .                         : COUNTRY
SRVC .                         : SERVICE COMPANY
DATE .                         : DATE
UWI  .                         : UNIQUE WELL ID
API  .                         : API NUMBER
SLAT .WGS84  5.935362675678498 : SURFACE LATITUDE
SLON .WGS84 4.1218173947355865 : SURFACE LONGITUDE
DATUM.F                1904.53 : DEPTH DATUM ELEV
~Curve Information -----------------------------------------
DEPT .F     : 
SFLU .OHMM  : SPHERICALLY FOCUSED LOG UNAVERAGED RESISTIVITY
ILD  .OHMM  : INDUCTION LOG DEEP
ILM  .OHMM  : INDUCTION LOG MEDIUM
SPR  .MV    : SPONTANEOUS POTENTIAL FROM RES. LOG
GRR  .GAPI  : GAMMA RAY FROM RES. LOG
CALD .IN    : CALIPER FROM DENSITY LOG
RHOB .G/C3  : BULK DENSITY
DRHO .G/C3  : DENSITY CORRECTION
NPHI .DEC   : NEUTRON POROSITY LIMESTONE
DPHI .DEC   : DENSITY POROSITY LIMESTONE
NPHI1.DEC   : NEUTRON POROSITY LIMESTONE
DTCO .US/F  : COMPRESSIONAL-WAVE INTERVAL TRANSIT TIME ACOUSTIC SLOWNESS
DTSM .US/F  : Delta-T Shear Measurement
~Params ----------------------------------------------------
~Other -----------------------------------------------------
~ASCII -----------------------------------------------------
# ...
 8588.00000    8.50330    6.90530    6.73080  -39.29690  113.79420    9.75750    2.53850    0.01210    0.27560    0.10110   -9999.25   -9999.25   -9999.25
 8588.50000    8.57990    6.90530    6.71190  -39.29690  111.39680    9.77760    2.53020    0.01120    0.28060    0.10500   -9999.25   -9999.25   -9999.25
 8589.00000    8.65730    6.90520    6.69310  -39.29690  109.57760    9.79690    2.52740    0.01040    0.28060    0.10420   -9999.25   -9999.25   -9999.25
 8589.50000    8.72870    6.90520    6.67440  -39.29690  109.66430    9.81810    2.53120    0.00930    0.27300    0.10200   -9999.25   -9999.25   -9999.25
 8590.00000    8.64420    6.90520    6.65570  -39.29690  111.49370    9.83050    2.53510    0.00850    0.26490    0.09980   -9999.25   -9999.25   -9999.25
 8590.50000    8.56690    6.82180    6.63720  -39.29690  115.46680    9.82890    2.53680    0.00760    0.27060    0.10200   -9999.25   -9999.25   -9999.25
 8591.00000    8.49040    6.72820    6.61850  -39.29690  118.00090    9.82950    2.52080    0.00640    0.27650    0.11330   -9999.25   -9999.25   -9999.25
 8591.50000    8.41450    6.63590    6.59970  -39.29690  117.74110    9.82930    2.50400    0.00950    0.28240    0.12310   -9999.25   -9999.25   -9999.25
 8592.00000    8.33930    6.54490    6.58150  -39.29690  113.52430    9.82920    2.48710    0.01900    0.28710    0.13390   -9999.25   -9999.25   -9999.25
 8592.50000    8.26480    6.45510    6.56420  -39.29690  109.39430    9.83020    2.46990    0.02810    0.29090    0.13830   -9999.25   -9999.25   -9999.25
 8593.00000    8.19100    6.42480    6.54420  -39.29690  105.03390    9.82690    2.46970    0.03730    0.29520    0.12950   -9999.25   -9999.25   -9999.25
 8593.50000    8.11780    6.42500    6.52050  -39.29690  101.99000    9.85640    2.48790    0.04720    0.29950    0.12170   -9999.25   -9999.25   -9999.25
 8594.00000    8.04520    6.42510    6.46770  -39.29690  103.40960    9.92060    2.50430    0.05190    0.30590    0.11390   -9999.25   -9999.25   -9999.25
 8594.50000    7.97650    6.40920    6.41710  -39.29690  107.79920    9.96210    2.52400    0.04690    0.30280    0.10670   -9999.25   -9999.25   -9999.25
 8595.00000    8.02340    6.37340    6.36690  -39.29690  111.20350    9.98430    2.52320    0.03640    0.29090    0.10940   -9999.25   -9999.25   -9999.25
 8595.50000    8.06850    6.33770    6.31710  -39.29690  111.96530   10.01020    2.51660    0.02440    0.30040    0.11590   -9999.25   -9999.25   -9999.25
 8596.00000    8.12160    6.29730    6.26760  -39.29690  109.46700   10.03420    2.50010    0.01950    0.30600    0.12530   -9999.25   -9999.25   -9999.25
 8596.50000    8.00870    6.24100    6.21860  -39.29690  107.00160   10.05780    2.48290    0.02650    0.31120    0.13480   -9999.25   -9999.25   -9999.25
 8597.00000    7.87510    6.18520    6.17000  -39.29690  105.42820   10.08960    2.46470    0.03240    0.31650    0.14420   -9999.25   -9999.25   -9999.25
 8597.50000    7.74360    6.12980    6.12170  -39.29690  103.99080   10.17260    2.45360    0.03870    0.32170    0.15070   -9999.25   -9999.25   -9999.25
 8598.00000    7.61440    6.07510    6.07380  -39.29690  102.16920   10.25360    2.45080    0.04500    0.32870    0.15190   -9999.25   -9999.25   -9999.25
 8598.50000    7.48730    6.02080    6.02630  -39.29690   99.70570   10.33950    2.45080    0.05130    0.33600    0.15210   -9999.25   -9999.25   -9999.25
 8599.00000    7.36240    5.96700    5.97910  -39.29680   96.48980   10.42040    2.45060    0.05740    0.33340    0.15230   -9999.25   -9999.25   -9999.25
 8599.50000    7.23950    5.91370    5.93240  -39.29680   96.52260   10.49720    2.45030    0.06350    0.33090    0.15260   -9999.25   -9999.25   -9999.25
 8600.00000    7.11870    5.86080    5.88600  -39.29700   96.95190   10.46680    2.44260    0.06120    0.32890    0.15720   -9999.25   -9999.25   -9999.25
 8600.50000    6.99990    5.80840    5.83990  -39.29650  104.80130   10.43470    2.43500    0.05670    0.33090    0.16180   -9999.25   -9999.25   -9999.25
 8601.00000    6.90540    5.75650    5.79420  -39.29710  111.80970   10.39440    2.42710    0.05230    0.33340    0.16640   -9999.25   -9999.25   -9999.25
 8601.50000    6.92080    5.70510    5.66350  -39.29810  116.21640   10.36480    2.41920    0.04810    0.33600    0.17100   -9999.25   -9999.25   -9999.25
 8602.00000    6.94020    5.66350    5.64560  -39.32230  114.33590   10.31590    2.41160    0.04370    0.33830    0.17560   -9999.25   -9999.25   -9999.25
 8602.50000    6.95970    5.64530    5.62750  -39.34740  109.89570   10.36340    2.40380    0.03950    0.33380    0.17900   -9999.25   -9999.25   -9999.25
 8603.00000    6.97920    5.62990    5.60950  -39.37340  107.03300   10.40580    2.40160    0.03510    0.32990    0.17760   -9999.25   -9999.25   -9999.25
 8603.50000    6.99890    5.61460    5.59160  -39.39890  106.04180   10.46590    2.40810    0.03090    0.32600    0.17230   -9999.25   -9999.25   -9999.25
 8604.00000    7.01850    5.59940    5.57370  -39.42450  106.14610   10.41200    2.40200    0.02670    0.32210    0.17700   -9999.25   -9999.25   -9999.25
 8604.50000    7.03100    5.58420    5.56230  -39.45010  109.56080   10.28390    2.38640    0.02180    0.31820    0.18610   -9999.25   -9999.25   -9999.25
 8605.00000    6.97590    5.56900    5.53950  -39.47570  113.70760   10.17280    2.37460    0.02370    0.31430    0.19500   -9999.25   -9999.25   -9999.25
 8605.50000    6.91920    5.55380    5.51570  -39.50130  118.08170   10.04120    2.37270    0.03180    0.31040    0.19180   -9999.25   -9999.25   -9999.25
 8606.00000    6.86300    5.53870    5.49250  -39.52690  120.06970   10.11560    2.38800    0.03940    0.30510    0.17900   -9999.25   -9999.25   -9999.25
 8606.50000    6.78210    5.52380    5.46910  -39.55250  118.55360   10.22240    2.42100    0.04680    0.30910    0.16620   -9999.25   -9999.25   -9999.25
 8607.00000    6.80290    5.50900    5.44590  -39.57810  114.88370   10.33030    2.45390    0.05350    0.31520    0.14860   -9999.25   -9999.25   -9999.25
 8607.50000    6.84120    5.49430    5.42320  -39.60370  110.56530   10.43590    2.44910    0.05390    0.32130    0.15370   -9999.25   -9999.25   -9999.25
 8608.00000    6.90540    5.47950    5.40140  -39.62930  105.97130   10.40810    2.41930    0.05450    0.32740    0.17670   -9999.25   -9999.25   -9999.25
 8608.50000    6.86250    5.46350    5.36350  -39.65490  101.46230   10.32730    2.37880    0.05480    0.33350    0.19450   -9999.25   -9999.25   -9999.25
 8609.00000    6.73540    5.63740    5.37110  -39.68050  101.35900   10.24840    2.37690    0.05510    0.33960    0.19180   -9999.25   -9999.25   -9999.25
 8609.50000    6.61060    5.83020    5.52290  -39.70610  105.54360   10.17140    2.38480    0.05610    0.34470    0.18500   -9999.25   -9999.25   -9999.25
 8610.00000    6.48810    6.03000    5.66640  -39.73170  106.37300   10.09270    2.40290    0.05120    0.33450    0.17810   -9999.25   -9999.25   -9999.25
 8610.50000    6.31030    6.36630    5.88260  -39.75730  107.49230   10.01460    2.41600    0.03970    0.31760    0.17230   -9999.25   -9999.25   -9999.25
 8611.00000    6.82520    6.77600    6.26410  -39.78290  108.81140    9.93710    2.41990    0.02880    0.29960    0.17080   -9999.25   -9999.25   -9999.25
 8611.50000    7.95040    7.21280    6.67030  -39.80850  110.32890    9.85870    2.44790    0.01790    0.26170    0.15890   -9999.25   -9999.25   -9999.25
 8612.00000    9.26100    7.67740    7.10290  -39.83410  111.69690    9.80920    2.47200    0.00680    0.25460    0.13830   -9999.25   -9999.25   -9999.25
 8612.50000   11.64650    8.17120    7.56350  -39.85970  113.26030    9.77680    2.47440    0.00130    0.27090    0.16090   -9999.25   -9999.25   -9999.25
 8613.00000   11.51710    8.41970    8.05390  -39.88530  114.14800    9.74220    2.38600    0.00020    0.28870    0.20530   -9999.25   -9999.25   -9999.25
 8613.50000   10.60430    8.06190    8.54680  -39.91090  113.08800    9.71640    2.31280   -0.00030    0.31460    0.24980   -9999.25   -9999.25   -9999.25
