~Version ---------------------------------------------------
VERS.   2.0 : CWLS log ASCII Standard -VERSION 2.0
WRAP.    NO : One line per depth step
DLM . SPACE : Column Data Section Delimiter
~Well ------------------------------------------------------
STRT .F                 4610.0 : START DEPTH
STOP .F                12880.5 : STOP DEPTH
STEP .F                    0.5 : STEP
NULL .                -9999.25 : NULL VALUE
COMP .                         : COMPANY
WELL .                         : WELL
FLD  .                         : FIELD
LOC  .                         : LOCATION
PROV .                         : PROVINCE
CNTY .                         : COUNTY
STAT .                         : STATE
CTRY .                         : COUNTRY
SRVC .                         : SERVICE COMPANY
DATE .                         : DATE
UWI  .                         : UNIQUE WELL ID
API  .                         : API NUMBER
SLAT .WGS84  5.935362675678498 : SURFACE LATITUDE
SLON .WGS84 4.1218173947355865 : SURFACE LONGITUDE
DATUM.F                1904.53 : DEPTH DATUM ELEV
~Curve Information -----------------------------------------
DEPT .F     : 
SFLU .OHMM  : SPHERICALLY FOCUSED LOG UNAVERAGED RESISTIVITY
ILD  .OHMM  : INDUCTION LOG DEEP
ILM  .OHMM  : INDUCTION LOG MEDIUM
SPR  .MV    : SPONTANEOUS POTENTIAL FROM RES. LOG
GRR  .GAPI  : GAMMA RAY FROM RES. LOG
CALD .IN    : CALIPER FROM DENSITY LOG
RHOB .G/C3  : BULK DENSITY
DRHO .G/C3  : DENSITY CORRECTION
NPHI .DEC   : NEUTRON POROSITY LIMESTONE
DPHI .DEC   : DENSITY POROSITY LIMESTONE
NPHI1.DEC   : NEUTRON POROSITY LIMESTONE
DTCO .US/F  : COMPRESSIONAL-WAVE INTERVAL TRANSIT TIME ACOUSTIC SLOWNESS
DTSM .US/F  : Delta-T Shear Measurement
~Params ----------------------------------------------------
~Other -----------------------------------------------------
~ASCII -----------------------------------------------------
# ...
 11760.00000   29.81370   18.79000   20.51800  -35.37940   94.38050    9.09720    2.63550   -0.01900    0.13120    0.04220    0.09920   67.74700  118.96710
 11760.50000   24.36160   17.86480   19.34430  -35.37830  101.44300    9.07640    2.63610   -0.01750    0.14900    0.04090    0.11600   68.75570  120.50900
 11761.00000   20.36380   16.98520   18.23770  -35.35170  107.96250    9.05600    2.64240   -0.01590    0.17520    0.03740    0.12460   69.75550  120.69360
 11761.50000   20.11110   16.11000   17.19450  -35.32830  115.66560    9.03510    2.65130   -0.01520    0.17320    0.03300    0.12170   70.25160  120.32180
 11762.00000   20.12320   16.48010   16.70140  -35.30510  116.40040    9.01460    2.65990   -0.01530    0.16930    0.02870    0.11910   70.24070  120.79150
 11762.50000   19.94900   17.23660   17.49580  -35.28100  115.83250    8.99670    2.66710   -0.01530    0.16540    0.02470    0.11620   69.17010  122.05190
 11763.00000   20.76720   18.02780   18.24760  -35.25750  113.45100    8.99710    2.66500   -0.01530    0.16140    0.02530    0.10240   68.21060  120.39590
 11763.50000   25.27710   18.85530   19.03180  -35.23380  100.99440    8.99810    2.66080   -0.01530    0.15750    0.02690    0.08710   67.55840  117.85180
 11764.00000   30.23220   19.72080   19.84960  -35.21020   94.72450    8.99970    2.65460   -0.01530    0.15310    0.02980    0.07070   66.90620  116.41700
 11764.50000   34.97640   20.62600   20.70260  -35.18660   91.27820    9.00090    2.65050   -0.01530    0.10790    0.03260    0.07470   66.24750  115.88100
 11765.00000   32.71820   21.49520   21.59230  -35.16290   92.93190    9.00220    2.64620   -0.01530    0.11450    0.03550    0.08250   66.77150  115.33120
 11765.50000   30.37420   21.26250   21.88610  -35.13930   93.74350    9.00360    2.64210   -0.01530    0.12080    0.03820    0.09060   67.65340  114.78130
 11766.00000   28.79090   20.44370   20.96780  -35.11570   91.77920    9.00490    2.64480   -0.01530    0.12710    0.03820    0.09620   68.53540  114.33140
 11766.50000   27.94230   19.65650   19.96600  -35.09200   89.94110    9.00620    2.65590   -0.01530    0.13340    0.03090    0.09980   69.21360  114.25660
 11767.00000   27.17080   18.89950   19.01200  -35.06840   90.23790    9.00760    2.66690   -0.01530    0.13960    0.02000    0.09920   69.34800  114.17940
 11767.50000   25.24580   18.17170   18.10350  -35.04480   92.67590    9.00890    2.66760   -0.01530    0.14590    0.02160    0.10020   68.95630  114.15170
 11768.00000   23.56150   17.47190   17.23850  -35.02110   96.08730    9.01020    2.65790   -0.01530    0.15220    0.02710    0.10860   68.56290  114.15170
 11768.50000   21.98950   16.70140   16.41490  -34.99750   97.44620    9.01150    2.64840   -0.01530    0.15850    0.03270    0.11880   68.17400  113.95210
 11769.00000   20.52250   16.20560   15.63060  -34.97390   94.78930    9.01280    2.64280   -0.01530    0.16470    0.03640    0.12890   68.21360  116.37730
 11769.50000   18.94730   15.77500   14.88370  -34.95030   95.53850    9.01420    2.65110   -0.01530    0.16890    0.03430    0.13090   68.79870  118.64520
 11770.00000   18.81730   15.26210   14.20040  -34.92660   96.60410    9.01550    2.65760   -0.01530    0.16740    0.03010    0.12970   69.34130  121.13770
 11770.50000   18.66440   15.53360   14.20040  -34.90300  103.89210    9.01680    2.66220   -0.01540    0.16580    0.02710    0.12810   69.67730  120.12860
 11771.00000   18.51270   15.96860   14.65810  -34.87940  108.14120    9.01820    2.66160   -0.01690    0.16490    0.02710    0.13520   70.28510  119.14170
 11771.50000   18.36230   16.41580   15.22550  -34.85580  112.38900    9.01950    2.66180   -0.01870    0.17410    0.02690    0.14210   71.03790  120.32560
 11772.00000   17.94990   16.87550   15.81480  -34.83210  114.68850    9.02080    2.66300   -0.02040    0.18240    0.02670    0.14480   70.09980  121.51780
 11772.50000   18.91800   17.34800   16.42690  -34.80850  112.99630    9.02210    2.66210   -0.02230    0.19190    0.02630    0.14020   69.04190  119.78800
 11773.00000   19.91370   17.62930   17.06270  -34.78490  106.48680    9.02340    2.65600   -0.02280    0.18850    0.02840    0.13000   69.20160  118.32990
 11773.50000   20.66820   18.36790   17.31440  -34.76130  100.33810    9.02480    2.65170   -0.02150    0.18110    0.03080    0.12060   69.88730  118.98870
 11774.00000   20.36130   19.12500   17.31440  -34.73770   92.22320    9.02610    2.64810   -0.02040    0.17370    0.03270    0.11960   70.24280  119.66070
 11774.50000   20.05900   19.91330   17.31440  -34.71390   90.69400    9.02740    2.64970   -0.01930    0.16490    0.03390    0.12250   70.23840  120.33930
 11775.00000   19.76110   20.73410   19.29190  -34.69060   96.19400    9.02880    2.64420   -0.01810    0.16930    0.03560    0.12930   70.13570  122.51790
 11775.50000   19.64270   22.56850   22.07230  -34.66680  103.48490    9.03010    2.63740   -0.01700    0.18010    0.03910    0.13010   70.17230  124.74540
 11776.00000   21.11120   24.56510   25.25350  -34.64280  100.25810    9.03130    2.63060   -0.01580    0.19110    0.04250    0.11860   70.71610  127.65710
 11776.50000   36.94680   26.73840   28.89320  -34.62130   82.30150    9.03290    2.63070   -0.01470    0.19110    0.04540    0.09050   66.78780  119.22330
 11777.00000   64.95450   28.16810   33.12900  -34.58290   71.91640    9.03370    2.63590   -0.01360    0.17050    0.04160    0.06240   60.19960  105.30690
 11777.50000  103.12380   28.16810   33.12900  -34.53100   64.58080    9.03570    2.64070   -0.01240    0.13980    0.03850    0.03270   54.87030  101.77650
 11778.00000   92.55330   28.16810   31.84480  -34.48150   64.87980    9.03730    2.64560   -0.01130    0.09210    0.03510    0.03300   56.18760  102.70550
 11778.50000   63.08900   26.96100   28.67870  -34.43210   73.62120    9.07080    2.65080   -0.01000    0.10360    0.03320    0.04600   58.21360  106.23000
 11779.00000   42.59960   25.25120   25.82740  -34.38210   85.40420    9.10810    2.65510   -0.00980    0.12570    0.03130    0.06860   57.83200  110.01000
 11779.50000   28.76460   23.49930   23.25950  -34.33260   97.42260    9.14630    2.65750   -0.01150    0.14780    0.02950    0.09120   55.98100  113.78990
 11780.00000   24.47380   21.87060   20.94700  -34.28290  105.27140    9.18370    2.65600   -0.01310    0.16990    0.03030    0.11090   54.17170  117.94410
 11780.50000   22.37270   20.35470   18.86430  -34.23320  109.19050    9.22150    2.65440   -0.01470    0.18150    0.03110    0.11740   54.37460  118.62530
 11781.00000   21.11120   18.94380   17.56730  -34.18350  113.07460    9.25920    2.65560   -0.01640    0.18130    0.03190    0.12240   54.07190  119.06990
 11781.50000   21.11120   17.62980   17.39300  -34.13380  120.01480    9.29680    2.66260   -0.01800    0.18110    0.02910    0.12520   53.63470  118.46560
 11782.00000   21.53620   17.00190   17.22040  -34.08400  123.42560    9.33450    2.67140   -0.01920    0.18080    0.02280    0.12480   53.02990  117.86320
 11782.50000   22.81540   17.00120   17.00510  -34.03440  128.09370    9.37220    2.67520   -0.01750    0.18000    0.01920    0.12330   52.42520  117.56780
 11783.00000   24.17070   17.23710   17.24920  -33.98500  126.84440    9.41000    2.67290   -0.01530    0.17630    0.01920    0.12170   52.60440  119.16450
 11783.50000   24.82920   17.94330   17.99340  -33.93410  123.05850    9.44760    2.67130   -0.01310    0.17270    0.02080    0.12090   52.92790  120.74850
 11784.00000   25.10220   18.67850   18.76970  -33.88660  117.39670    9.48530    2.66950   -0.01150    0.16970    0.02110    0.12230   53.08500  121.53690
 11784.50000   26.50330   19.44380   19.57950  -33.83210  104.79020    9.52320    2.66760   -0.01330    0.18630    0.02350    0.12340   53.24120  119.66440
 11785.00000   27.73150   20.24050   20.42430  -33.82850   93.15570    9.56040    2.66580   -0.01480    0.18630    0.02450    0.11780   53.65450  117.27050
 11785.50000   30.82460   21.06980   21.30550  -33.82720   87.15610    9.59900    2.66390   -0.01660    0.18130    0.02460    0.10800   54.29600  114.87650
