~Version ---------------------------------------------------
VERS.   2.0 : CWLS log ASCII Standard -VERSION 2.0
WRAP.    NO : One line per depth step
DLM . SPACE : Column Data Section Delimiter
~Well ------------------------------------------------------
STRT .F                 4610.0 : START DEPTH
STOP .F                12880.5 : STOP DEPTH
STEP .F                    0.5 : STEP
NULL .                -9999.25 : NULL VALUE
COMP .                         : COMPANY
WELL .                         : WELL
FLD  .                         : FIELD
LOC  .                         : LOCATION
PROV .                         : PROVINCE
CNTY .                         : COUNTY
STAT .                         : STATE
CTRY .                         : COUNTRY
SRVC .                         : SERVICE COMPANY
DATE .                         : DATE
UWI  .                         : UNIQUE WELL ID
API  .                         : API NUMBER
SLAT .WGS84  5.935362675678498 : SURFACE LATITUDE
SLON .WGS84 4.1218173947355865 : SURFACE LONGITUDE
DATUM.F                1904.53 : DEPTH DATUM ELEV
~Curve Information -----------------------------------------
DEPT .F     : 
SFLU .OHMM  : SPHERICALLY FOCUSED LOG UNAVERAGED RESISTIVITY
ILD  .OHMM  : INDUCTION LOG DEEP
ILM  .OHMM  : INDUCTION LOG MEDIUM
SPR  .MV    : SPONTANEOUS POTENTIAL FROM RES. LOG
GRR  .GAPI  : GAMMA RAY FROM RES. LOG
CALD .IN    : CALIPER FROM DENSITY LOG
RHOB .G/C3  : BULK DENSITY
DRHO .G/C3  : DENSITY CORRECTION
NPHI .DEC   : NEUTRON POROSITY LIMESTONE
DPHI .DEC   : DENSITY POROSITY LIMESTONE
NPHI1.DEC   : NEUTRON POROSITY LIMESTONE
DTCO .US/F  : COMPRESSIONAL-WAVE INTERVAL TRANSIT TIME ACOUSTIC SLOWNESS
DTSM .US/F  : Delta-T Shear Measurement
~Params ----------------------------------------------------
~Other -----------------------------------------------------
~ASCII -----------------------------------------------------
# ...
 11266.00000    5.47070    4.09920    4.99900  -37.64940  104.26530   -9999.25   -9999.25   -9999.25   -9999.25   -9999.25    0.24090   82.60760  187.38520
 11266.50000    6.01340    4.07090    4.98710  -37.60460  108.09530   -9999.25   -9999.25   -9999.25   -9999.25   -9999.25    0.27880   81.94330  186.37720
 11267.00000    6.90540    4.01760    4.19730  -37.55750  104.69800   -9999.25   -9999.25   -9999.25   -9999.25   -9999.25    0.36050   81.60500  186.66510
 11267.50000    6.61750    3.94940    3.60540  -37.51100   99.26790   -9999.25   -9999.25   -9999.25   -9999.25   -9999.25    0.40940   81.90150  187.75070
 11268.00000    6.08690    3.97240    3.06860  -37.46470   94.12910   -9999.25   -9999.25   -9999.25   -9999.25   -9999.25    0.40430   82.19800  188.83620
 11268.50000    4.91630    4.04040    3.16850  -37.41810   89.15440   -9999.25   -9999.25   -9999.25   -9999.25   -9999.25    0.36300   82.17870  188.73250
 11269.00000    3.87880    4.10950    3.44520  -37.37170   83.42160   -9999.25   -9999.25   -9999.25   -9999.25   -9999.25    0.30060   81.24640  187.72450
 11269.50000    3.41910    4.16880    4.10790  -37.32510   83.25740   -9999.25   -9999.25   -9999.25   -9999.25   -9999.25    0.27960   80.38760  187.16180
 11270.00000    3.70040    4.43320    4.89810  -37.27860   88.61690   -9999.25   -9999.25   -9999.25   -9999.25   -9999.25    0.23020   82.72630  187.70460
 11270.50000    4.61350    4.67560    6.06870  -37.23210   94.34680   -9999.25   -9999.25   -9999.25   -9999.25   -9999.25    0.18810   86.58040  188.25590
 11271.00000    5.75200    4.93120    6.03450  -37.18550  100.03850   -9999.25   -9999.25   -9999.25   -9999.25   -9999.25    0.17090   90.43440  188.05980
 11271.50000    6.90540    5.20070    5.97820  -37.13900  105.96020   -9999.25   -9999.25   -9999.25   -9999.25   -9999.25    0.16770   94.18160  186.98100
 11272.00000    7.95350    5.48500    6.08690  -37.09280  108.04740   -9999.25   -9999.25   -9999.25   -9999.25   -9999.25    0.17140   96.52690  185.90110
 11272.50000    9.09740    5.78490    5.89900  -37.04550  106.87350   -9999.25   -9999.25   -9999.25   -9999.25   -9999.25    0.18460   97.08080  185.72360
 11273.00000    8.89390    6.08690    5.58730  -37.00000  105.11280   -9999.25   -9999.25   -9999.25   -9999.25   -9999.25    0.21740   96.77840  186.63070
 11273.50000    8.20550    6.08690    5.06470  -36.95550  102.54090   -9999.25   -9999.25   -9999.25   -9999.25   -9999.25    0.26000   96.29140  187.30540
 11274.00000    7.02300    5.25110    4.45060  -36.95350   98.43460   -9999.25   -9999.25   -9999.25   -9999.25   -9999.25    0.31990   95.48500  187.89830
 11274.50000    5.55920    4.63680    3.91090  -36.95250   96.07990   -9999.25   -9999.25   -9999.25   -9999.25   -9999.25    0.35750   94.76760  188.49130
 11275.00000    4.40040    4.09430    3.62530  -36.95330   95.86130   -9999.25   -9999.25   -9999.25   -9999.25   -9999.25    0.36450   94.19160  189.08420
 11275.50000    4.15850    3.61540    3.40670  -36.95300   96.68890   -9999.25   -9999.25   -9999.25   -9999.25   -9999.25    0.36950   93.61560  189.47110
 11276.00000    3.94800    3.35800    3.12440  -36.95300   96.11770   -9999.25   -9999.25   -9999.25   -9999.25   -9999.25    0.37130   92.85690  189.80710
 11276.50000    3.77330    3.25740    3.18120  -36.95310   94.69280   -9999.25   -9999.25   -9999.25   -9999.25   -9999.25    0.35310   91.98340  190.14310
 11277.00000    3.60640    3.16070    3.18120  -36.95310   93.04620   -9999.25   -9999.25   -9999.25   -9999.25   -9999.25    0.31260   91.10980  190.39920
 11277.50000    3.54460    3.12440    3.20380  -36.95310   93.83820   -9999.25   -9999.25   -9999.25   -9999.25   -9999.25    0.29980   90.73370  189.08650
 11278.00000    3.54460    3.13240    3.22620  -36.95320   96.98390   -9999.25   -9999.25   -9999.25   -9999.25   -9999.25    0.29790   90.62540  187.53560
 11278.50000    3.61210    3.15130    3.24870  -36.95320  101.23820   -9999.25   -9999.25   -9999.25   -9999.25   -9999.25    0.32910   89.86360  186.41230
 11279.00000    3.72270    3.17040    3.27140  -36.95310  105.97410   -9999.25   -9999.25   -9999.25   -9999.25   -9999.25    0.31980   88.73590  188.08380
 11279.50000    3.83660    3.18960    3.29800  -36.95340  105.76830   -9999.25   -9999.25   -9999.25   -9999.25   -9999.25    0.30350   89.20160  189.20160
 11280.00000    3.95410    3.20890    3.32750  -36.95310  105.33570   -9999.25   -9999.25   -9999.25   -9999.25   -9999.25    0.29940   89.72550  189.07960
 11280.50000    4.09430    3.22830    3.36310  -36.95300  104.60640   -9999.25   -9999.25   -9999.25   -9999.25   -9999.25    0.29300   89.47350  189.03580
 11281.00000    4.09430    3.27200    3.39910  -36.95490  105.37680   -9999.25   -9999.25   -9999.25   -9999.25   -9999.25    0.29750   89.76050  189.34620
 11281.50000    4.04610    3.34680    3.43550  -36.93280  105.92840   -9999.25   -9999.25   -9999.25   -9999.25   -9999.25    0.30880   90.13470  189.66050
 11282.00000    4.00060    3.42340    3.47220  -36.87680  104.32810   -9999.25   -9999.25   -9999.25   -9999.25   -9999.25    0.32560   88.61530  189.77080
 11282.50000    3.95560    3.50170    3.50940  -36.82310  102.48870   -9999.25   -9999.25   -9999.25   -9999.25   -9999.25    0.32850   86.83130  189.64570
 11283.00000    3.91110    3.62650    3.54630  -36.76890  102.13010   -9999.25   -9999.25   -9999.25   -9999.25   -9999.25    0.30320   85.60880  183.75120
 11283.50000    3.87880    3.81260    3.78130  -36.71440  100.44810   -9999.25   -9999.25   -9999.25   -9999.25   -9999.25    0.28160   82.21560  173.20090
 11284.00000    4.23740    4.00840    4.01590  -36.66030   99.37670   -9999.25   -9999.25   -9999.25   -9999.25   -9999.25    0.24140   77.25120  162.67970
 11284.50000    4.74070    4.21410    4.26470  -36.60590   99.75080   -9999.25   -9999.25   -9999.25   -9999.25   -9999.25    0.20320   75.11610  157.28570
 11285.00000    5.45220    4.43040    4.52900  -36.55160  100.04890   -9999.25   -9999.25   -9999.25   -9999.25   -9999.25    0.19070   75.57430  159.34590
 11285.50000    6.27050    4.65800    4.81000  -36.49740  100.42430   -9999.25   -9999.25   -9999.25   -9999.25   -9999.25    0.17930   76.02790  158.84560
 11286.00000    7.21160    4.89760    5.10900  -36.44300  100.75050   -9999.25   -9999.25   -9999.25   -9999.25   -9999.25    0.18910   74.67070  157.16570
 11286.50000    8.41970    5.17750    5.46730  -36.38870  101.11270   -9999.25   -9999.25   -9999.25   -9999.25   -9999.25    0.19970   73.51800  155.60340
 11287.00000    8.41970    5.17540    5.46300  -36.33480  101.46760   -9999.25   -9999.25   -9999.25   -9999.25   -9999.25    0.21520   73.02600  154.44040
 11287.50000    7.55670    5.26950    5.32120  -36.27960  101.87620   -9999.25   -9999.25   -9999.25   -9999.25   -9999.25    0.23440   72.24000  153.27730
 11288.00000    6.59720    4.79360    5.12440  -36.22660  103.47460   -9999.25   -9999.25   -9999.25   -9999.25   -9999.25    0.25410   74.72130  159.69350
 11288.50000    5.67370    4.45660    4.86590  -36.17460  105.72460   -9999.25   -9999.25   -9999.25   -9999.25   -9999.25    0.27390   80.52390  170.12920
 11289.00000    5.17920    4.14330    4.47600  -36.17230  108.17130   -9999.25   -9999.25   -9999.25   -9999.25   -9999.25    0.29360   86.35590  180.56470
 11289.50000    4.99220    3.85210    4.11730  -36.17110  109.38250   -9999.25   -9999.25   -9999.25   -9999.25   -9999.25    0.32030   88.80240  188.06190
 11290.00000    4.73310    3.58130    3.78740  -36.17210  108.31750   -9999.25   -9999.25   -9999.25   -9999.25   -9999.25    0.34700   88.40320  188.26350
 11290.50000    4.46560    3.32960    3.48390  -36.17170  102.48880   -9999.25   -9999.25   -9999.25   -9999.25   -9999.25    0.35890   88.00400  188.53850
 11291.00000    4.24460    3.12440    3.23710  -36.17180   97.57060   -9999.25   -9999.25   -9999.25   -9999.25   -9999.25    0.34670   88.59480  188.97950
 11291.50000    4.12600    3.27120    3.30480  -36.17190   92.57000   -9999.25   -9999.25   -9999.25   -9999.25   -9999.25    0.31800   90.06490  189.42050
