~Version ---------------------------------------------------
VERS.   2.0 : CWLS log ASCII Standard -VERSION 2.0
WRAP.    NO : One line per depth step
DLM . SPACE : Column Data Section Delimiter
~Well ------------------------------------------------------
STRT .F                 4610.0 : START DEPTH
STOP .F                12880.5 : STOP DEPTH
STEP .F                    0.5 : STEP
NULL .                -9999.25 : NULL VALUE
COMP .                         : COMPANY
WELL .                         : WELL
FLD  .                         : FIELD
LOC  .                         : LOCATION
PROV .                         : PROVINCE
CNTY .                         : COUNTY
STAT .                         : STATE
CTRY .                         : COUNTRY
SRVC .                         : SERVICE COMPANY
DATE .                         : DATE
UWI  .                         : UNIQUE WELL ID
API  .                         : API NUMBER
SLAT .WGS84  5.935362675678498 : SURFACE LATITUDE
SLON .WGS84 4.1218173947355865 : SURFACE LONGITUDE
DATUM.F                1904.53 : DEPTH DATUM ELEV
~Curve Information -----------------------------------------
DEPT .F     : 
SFLU .OHMM  : SPHERICALLY FOCUSED LOG UNAVERAGED RESISTIVITY
ILD  .OHMM  : INDUCTION LOG DEEP
ILM  .OHMM  : INDUCTION LOG MEDIUM
SPR  .MV    : SPONTANEOUS POTENTIAL FROM RES. LOG
GRR  .GAPI  : GAMMA RAY FROM RES. LOG
CALD .IN    : CALIPER FROM DENSITY LOG
RHOB .G/C3  : BULK DENSITY
DRHO .G/C3  : DENSITY CORRECTION
NPHI .DEC   : NEUTRON POROSITY LIMESTONE
DPHI .DEC   : DENSITY POROSITY LIMESTONE
NPHI1.DEC   : NEUTRON POROSITY LIMESTONE
DTCO .US/F  : COMPRESSIONAL-WAVE INTERVAL TRANSIT TIME ACOUSTIC SLOWNESS
DTSM .US/F  : Delta-T Shear Measurement
~Params ----------------------------------------------------
~Other -----------------------------------------------------
~ASCII -----------------------------------------------------
# ...
 6222.00000   10.51790    9.13700    8.57280  -35.64610  110.31130   10.17320    2.61770   -0.01710   -9999.25    0.05430   -9999.25   -9999.25   -9999.25
 6222.50000   10.31550    8.88750    8.67050  -35.31310  111.67180   10.20190    2.62200   -0.01300   -9999.25    0.05140   -9999.25   -9999.25   -9999.25
 6223.00000    9.97780    8.94450    8.89480  -35.00380  112.11290   10.20860    2.62180   -0.00910   -9999.25    0.05060   -9999.25   -9999.25   -9999.25
 6223.50000    9.55190    9.19220    9.12500  -34.63760  109.97930   10.20360    2.61550   -0.00510   -9999.25    0.05500   -9999.25   -9999.25   -9999.25
 6224.00000    9.99260    9.44670    9.36100  -34.61250  106.91350   10.19930    2.60650   -0.00210   -9999.25    0.05870   -9999.25   -9999.25   -9999.25
 6224.50000   10.74550    9.70830    9.60320  -34.60360  104.79950   10.19480    2.60800   -0.00520   -9999.25    0.06240   -9999.25   -9999.25   -9999.25
 6225.00000   11.55500    9.97720    9.85170  -34.61310  103.87210   10.19070    2.61510   -0.00930   -9999.25    0.05500   -9999.25   -9999.25   -9999.25
 6225.50000   12.39820   10.25350   10.10660  -34.60890  104.77890   10.18600    2.62240   -0.01340   -9999.25    0.04900   -9999.25   -9999.25   -9999.25
 6226.00000   12.88940   10.53740   10.36800  -34.60900  106.30600   10.18140    2.63090   -0.01740   -9999.25    0.04590   -9999.25   -9999.25   -9999.25
 6226.50000   13.13870   10.83640   10.64280  -34.61530  106.66490   10.17900    2.63360   -0.02160   -9999.25    0.04350   -9999.25   -9999.25   -9999.25
 6227.00000   13.39280   10.83640   10.11480  -34.60110  107.08940   10.16860    2.63860   -0.02550   -9999.25    0.04150   -9999.25   -9999.25   -9999.25
 6227.50000   13.14930   10.18420    9.60080  -34.60170  107.49410   10.20280    2.64040   -0.02910   -9999.25    0.03950   -9999.25   -9999.25   -9999.25
 6228.00000   12.65790    9.65770    8.77920  -34.01220  108.43880   10.22620    2.64610   -0.02460   -9999.25    0.04010   -9999.25   -9999.25   -9999.25
 6228.50000   11.09410    9.15850    7.79270  -33.22260  111.85810   10.24760    2.61410   -0.01990   -9999.25    0.07560   -9999.25   -9999.25   -9999.25
 6229.00000    9.44510    8.68500    6.91700  -32.45210  117.00580   10.26600    2.52230   -0.01480   -9999.25    0.11070   -9999.25   -9999.25   -9999.25
 6229.50000    8.51430    8.23600    6.08690  -31.66690  121.05170   10.27920    2.39590   -0.00990   -9999.25    0.16690   -9999.25   -9999.25   -9999.25
 6230.00000    7.83600    7.81020    6.16890  -31.58360  121.22420   10.39140    2.23060   -0.00500   -9999.25    0.27750   -9999.25   -9999.25   -9999.25
 6230.50000    7.15890    7.49110    6.32850  -31.92560  120.29830   10.68110    2.24330   -0.00010   -9999.25    0.27440   -9999.25   -9999.25   -9999.25
 6231.00000    7.22420    7.21720    6.52720  -32.25010  119.33640   10.95350    2.25760    0.00530   -9999.25    0.26210   -9999.25   -9999.25   -9999.25
 6231.50000    7.35460    6.95330    6.49090  -32.57020  119.49740   11.18830    2.27420    0.00730   -9999.25    0.24970   -9999.25   -9999.25   -9999.25
 6232.00000    7.49430    6.69910    6.42510  -32.89930  119.66720   11.19520    2.29010    0.00470   -9999.25    0.24460   -9999.25   -9999.25   -9999.25
 6232.50000    7.68270    6.42510    5.78210  -33.22170  114.54110   11.19970    2.28940    0.00250   -9999.25    0.24440   -9999.25   -9999.25   -9999.25
 6233.00000    7.48890    6.46620    5.08300  -33.54740  111.91130   11.19660    2.28860    0.00030   -9999.25    0.24430   -9999.25   -9999.25   -9999.25
 6233.50000    7.05570    6.55350    5.36960  -33.87600  114.81350   11.19790    2.28760   -0.00190   -9999.25    0.24430   -9999.25   -9999.25   -9999.25
 6234.00000    6.66900    6.64260    5.82810  -34.18990  113.22180   11.19780    2.28750   -0.00190   -9999.25    0.24420   -9999.25   -9999.25   -9999.25
 6234.50000    6.99010    6.73200    6.19760  -34.52050  107.43520   -9999.25   -9999.25   -9999.25   -9999.25   -9999.25   -9999.25   -9999.25   -9999.25
 6235.00000    7.30720    6.82280    6.15860  -34.34180  102.69750   -9999.25   -9999.25   -9999.25   -9999.25   -9999.25   -9999.25   -9999.25   -9999.25
 6235.50000    7.63890    6.91500    6.11290  -33.94090  105.56660   -9999.25   -9999.25   -9999.25   -9999.25   -9999.25   -9999.25   -9999.25   -9999.25
 6236.00000    7.97650    7.00850    6.06760  -33.54770  110.45230   -9999.25   -9999.25   -9999.25   -9999.25   -9999.25   -9999.25   -9999.25   -9999.25
 6236.50000    7.90300    7.10320    6.02250  -33.16130  113.37960   -9999.25   -9999.25   -9999.25   -9999.25   -9999.25   -9999.25   -9999.25   -9999.25
 6237.00000    7.73610    7.15950    5.97780  -32.77690  112.79580   -9999.25   -9999.25   -9999.25   -9999.25   -9999.25   -9999.25   -9999.25   -9999.25
 6237.50000    7.50310    7.02240    5.93340  -32.37370  112.81050   -9999.25   -9999.25   -9999.25   -9999.25   -9999.25   -9999.25   -9999.25   -9999.25
 6238.00000    7.27710    6.88890    5.88940  -32.33280  114.40610   -9999.25   -9999.25   -9999.25   -9999.25   -9999.25   -9999.25   -9999.25   -9999.25
 6238.50000    7.05790    6.75790    5.87140  -32.47260  113.59580   -9999.25   -9999.25   -9999.25   -9999.25   -9999.25   -9999.25   -9999.25   -9999.25
 6239.00000    6.84530    6.62920    5.68010  -32.59660  107.15480   -9999.25   -9999.25   -9999.25   -9999.25   -9999.25   -9999.25   -9999.25   -9999.25
 6239.50000    6.63910    6.50280    5.52360  -32.71200  101.63750   -9999.25   -9999.25   -9999.25   -9999.25   -9999.25   -9999.25   -9999.25   -9999.25
 6240.00000    6.43840    6.37860    5.36540  -32.83840   95.96610   -9999.25   -9999.25   -9999.25   -9999.25   -9999.25   -9999.25   -9999.25   -9999.25
 6240.50000    6.23570    6.25680    5.60060  -32.96720   98.67020   -9999.25   -9999.25   -9999.25   -9999.25   -9999.25   -9999.25   -9999.25   -9999.25
 6241.00000    6.31460    6.08860    5.85660  -32.94740  103.04670   -9999.25   -9999.25   -9999.25   -9999.25   -9999.25   -9999.25   -9999.25   -9999.25
 6241.50000    6.47550    6.16090    6.12430  -32.57730  107.83060   -9999.25   -9999.25   -9999.25   -9999.25   -9999.25   -9999.25   -9999.25   -9999.25
 6242.00000    6.64060    6.30010    6.05320  -32.22010  110.86280   -9999.25   -9999.25   -9999.25   -9999.25   -9999.25   -9999.25   -9999.25   -9999.25
 6242.50000    6.81000    6.44250    5.95260  -31.85560  109.34340   -9999.25   -9999.25   -9999.25   -9999.25   -9999.25   -9999.25   -9999.25   -9999.25
 6243.00000    6.98380    6.58810    5.85370  -31.47880  107.05230   -9999.25   -9999.25   -9999.25   -9999.25   -9999.25   -9999.25   -9999.25   -9999.25
 6243.50000    7.16200    6.73700    5.76650  -31.13510  104.72490   -9999.25   -9999.25   -9999.25   -9999.25   -9999.25   -9999.25   -9999.25   -9999.25
 6244.00000    7.30860    6.88930    6.05780  -30.73750  102.22990   -9999.25   -9999.25   -9999.25   -9999.25   -9999.25   -9999.25   -9999.25   -9999.25
 6244.50000    7.37420    7.04500    6.49860  -30.91060  101.14070   -9999.25   -9999.25   -9999.25   -9999.25   -9999.25   -9999.25   -9999.25   -9999.25
 6245.00000    7.43730    7.15890    7.03100  -31.14390  102.25770   -9999.25   -9999.25   -9999.25   -9999.25   -9999.25   -9999.25   -9999.25   -9999.25
 6245.50000    7.49290    7.15890    6.82060  -31.39830  104.35420   -9999.25   -9999.25   -9999.25   -9999.25   -9999.25   -9999.25   -9999.25   -9999.25
 6246.00000    7.55670    7.15890    6.39870  -31.63660  106.81520   -9999.25   -9999.25   -9999.25   -9999.25   -9999.25   -9999.25   -9999.25   -9999.25
 6246.50000    7.50140    7.15890    5.87140  -31.88100  109.74840   -9999.25   -9999.25   -9999.25   -9999.25   -9999.25   -9999.25   -9999.25   -9999.25
 6247.00000    7.38260    7.04660    5.88780  -32.12580  113.15350   -9999.25   -9999.25   -9999.25   -9999.25   -9999.25   -9999.25   -9999.25   -9999.25
 6247.50000    7.26570    6.94200    5.97820  -32.36730  115.69180   -9999.25   -9999.25   -9999.25   -9999.25   -9999.25   -9999.25   -9999.25   -9999.25
