~Version ---------------------------------------------------
VERS.   2.0 : CWLS log ASCII Standard -VERSION 2.0
WRAP.    NO : One line per depth step
DLM . SPACE : Column Data Section Delimiter
~Well ------------------------------------------------------
STRT .F                 4610.0 : START DEPTH
STOP .F                12880.5 : STOP DEPTH
STEP .F                    0.5 : STEP
NULL .                -9999.25 : NULL VALUE
COMP .                         : COMPANY
WELL .                         : WELL
FLD  .                         : FIELD
LOC  .                         : LOCATION
PROV .                         : PROVINCE
CNTY .                         : COUNTY
STAT .                         : STATE
CTRY .                         : COUNTRY
SRVC .                         : SERVICE COMPANY
DATE .                         : DATE
UWI  .                         : UNIQUE WELL ID
API  .                         : API NUMBER
SLAT .WGS84  5.935362675678498 : SURFACE LATITUDE
SLON .WGS84 4.1218173947355865 : SURFACE LONGITUDE
DATUM.F                1904.53 : DEPTH DATUM ELEV
~Curve Information -----------------------------------------
DEPT .F     : 
SFLU .OHMM  : SPHERICALLY FOCUSED LOG UNAVERAGED RESISTIVITY
ILD  .OHMM  : INDUCTION LOG DEEP
ILM  .OHMM  : INDUCTION LOG MEDIUM
SPR  .MV    : SPONTANEOUS POTENTIAL FROM RES. LOG
GRR  .GAPI  : GAMMA RAY FROM RES. LOG
CALD .IN    : CALIPER FROM DENSITY LOG
RHOB .G/C3  : BULK DENSITY
DRHO .G/C3  : DENSITY CORRECTION
NPHI .DEC   : NEUTRON POROSITY LIMESTONE
DPHI .DEC   : DENSITY POROSITY LIMESTONE
NPHI1.DEC   : NEUTRON POROSITY LIMESTONE
DTCO .US/F  : COMPRESSIONAL-WAVE INTERVAL TRANSIT TIME ACOUSTIC SLOWNESS
DTSM .US/F  : Delta-T Shear Measurement
~Params ----------------------------------------------------
~Other -----------------------------------------------------
~ASCII -----------------------------------------------------
# ...
 5988.00000    8.38730    6.86110    6.78210  -32.26700   75.63050   10.46240    2.37950    0.00580    0.32030    0.19930   -9999.25   -9999.25   -9999.25
 5988.50000    7.78030    6.81710    6.75390  -32.25890   84.78390   10.41080    2.35350    0.00910    0.32940    0.21230   -9999.25   -9999.25   -9999.25
 5989.00000    7.21920    6.77330    6.73060  -32.26930   88.99150   10.46250    2.32790    0.01230    0.33860    0.22450   -9999.25   -9999.25   -9999.25
 5989.50000    6.90340    6.72990    6.70730  -32.27210   89.41650   10.50350    2.34460    0.01550    0.34300    0.21790   -9999.25   -9999.25   -9999.25
 5990.00000    7.49990    6.66090    6.68410  -32.22560   89.39270   10.54880    2.37550    0.01870    0.33320    0.19530   -9999.25   -9999.25   -9999.25
 5990.50000    8.14720    6.70610    6.66090  -32.35310   90.56450   10.59310    2.40640    0.02190    0.32340    0.17260   -9999.25   -9999.25   -9999.25
 5991.00000    8.47890    6.82040    6.80500  -31.64230   90.68010   10.58610    2.43730    0.02510    0.31370    0.15000   -9999.25   -9999.25   -9999.25
 5991.50000    8.57530    6.93660    7.05220  -32.14530   87.87930   10.55910    2.46810    0.02830    0.30200    0.12890   -9999.25   -9999.25   -9999.25
 5992.00000    8.65040    7.03100    7.30830  -32.96690   85.14210   10.53260    2.49870    0.03140    0.30070    0.11360   -9999.25   -9999.25   -9999.25
 5992.50000    8.72870    7.37460    7.57370  -33.84510   83.22650   10.50690    2.52960    0.03470    0.29920    0.10120   -9999.25   -9999.25   -9999.25
 5993.00000    8.80780    7.67370    7.84880  -34.65510   81.16690   10.48050    2.54060    0.03040    0.29470    0.10120   -9999.25   -9999.25   -9999.25
 5993.50000    8.88750    7.98500    8.13380  -35.50800   77.34620   10.45450    2.53880    0.02260    0.28940    0.10120   -9999.25   -9999.25   -9999.25
 5994.00000    9.26230    8.30880    8.42490  -36.33760   71.65790   10.42820    2.53700    0.01500    0.28380    0.10120   -9999.25   -9999.25   -9999.25
 5994.50000    9.65290    8.64590    8.72480  -37.17220   70.80820   10.40210    2.54330    0.00760    0.26350    0.09840   -9999.25   -9999.25   -9999.25
 5995.00000   10.05990    9.21370    9.03340  -38.06380   72.49150   10.37560    2.54830   -0.00030    0.24210    0.09640   -9999.25   -9999.25   -9999.25
 5995.50000   10.48420    9.04910    9.42100  -38.55280   74.57620   10.35040    2.54890   -0.00510    0.23240    0.09700   -9999.25   -9999.25   -9999.25
 5996.00000   10.83640    8.85550    9.34810  -38.36050   74.79710   10.32260    2.54740   -0.00660    0.24350    0.09800   -9999.25   -9999.25   -9999.25
 5996.50000   10.68130    8.54200    7.42540  -38.20440   71.06760   10.29780    2.54420   -0.00860    0.25590    0.09910   -9999.25   -9999.25   -9999.25
 5997.00000   10.45270    7.95990    6.13070  -38.08650   66.48670   10.30630    2.53780   -0.00940    0.26500    0.10180   -9999.25   -9999.25   -9999.25
 5997.50000    7.89070    7.24880    5.06320  -37.91680   61.80410   10.33350    2.53160   -0.00760    0.26570    0.11740   -9999.25   -9999.25   -9999.25
 5998.00000    5.17540    6.60120    4.18230  -37.59490   59.97900   10.56520    2.45350   -0.00600    0.26640    0.16800   -9999.25   -9999.25   -9999.25
 5998.50000    4.64490    6.01140    3.72980  -36.96000   62.67980   11.39850    2.33810   -0.00420    0.35360    0.21380   -9999.25   -9999.25   -9999.25
 5999.00000    4.32180    5.47430    3.69750  -37.30630   65.92720   12.20150    2.22210   -0.00250    0.44460    0.35370   -9999.25   -9999.25   -9999.25
 5999.50000    4.28860    5.13560    3.84500  -37.49790   69.43230   13.02170    2.12320   -0.00070    0.49410    0.48700   -9999.25   -9999.25   -9999.25
 6000.00000    4.24460    5.03740    4.14470  -37.72810   69.88050   14.27950    2.04570    0.00000    0.50120    0.51700   -9999.25   -9999.25   -9999.25
 6000.50000    4.66170    4.90300    4.46820  -37.96860   68.24930   14.19400    1.94300   -0.00080    0.50040    0.54310   -9999.25   -9999.25   -9999.25
 6001.00000    5.89260    4.92960    4.89120  -38.19080   67.13900   13.57340    1.80140   -0.00130    0.50040    0.56770   -9999.25   -9999.25   -9999.25
 6001.50000    6.86410    4.97420    4.80700  -38.42390   69.88780   13.38760    1.71210   -0.00190    0.47890    0.58260   -9999.25   -9999.25   -9999.25
 6002.00000    7.03100    5.01920    4.25090  -38.65360   73.29610   13.29320    1.84810   -0.00070    0.42270    0.50170   -9999.25   -9999.25   -9999.25
 6002.50000    5.66350    5.08300    3.75940  -38.88520   76.75130   12.30940    1.99780    0.00060    0.38580    0.41780   -9999.25   -9999.25   -9999.25
 6003.00000    4.90300    4.81540    3.24260  -39.11410   80.51550   11.45750    2.06420    0.00190    0.41070    0.37790   -9999.25   -9999.25   -9999.25
 6003.50000    4.46020    4.40040    3.08440  -39.34190   82.30070   11.63950    2.04860    0.00360    0.43730    0.41350   -9999.25   -9999.25   -9999.25
 6004.00000    4.12940    4.02120    2.89580  -39.58260   81.48810   12.14420    2.00490    0.00120    0.46390    0.44510   -9999.25   -9999.25   -9999.25
 6004.50000    3.82280    3.67470    2.71830  -39.79160   80.23300   12.66100    1.94400   -0.00510    0.49050    0.47670   -9999.25   -9999.25   -9999.25
 6005.00000    3.48320    3.43100    2.51670  -40.05090   76.23260   13.18360    1.88900   -0.01090    0.51710    0.50830   -9999.25   -9999.25   -9999.25
 6005.50000    3.16450    3.23030    2.58570  -39.64940   69.88140   13.71930    1.83390   -0.01690    0.52660    0.53990   -9999.25   -9999.25   -9999.25
 6006.00000    2.80540    3.24150    2.76650  -39.11040   65.19150   14.02830    1.77880   -0.02270    0.53280    0.57150   -9999.25   -9999.25   -9999.25
 6006.50000    2.48620    3.60910    2.95990  -38.55520   65.09540   13.87630    1.72370   -0.02900    0.53900    0.59620   -9999.25   -9999.25   -9999.25
 6007.00000    2.25650    3.94460    3.66640  -38.02430   71.71280   14.48750    1.69270   -0.02970    0.54520    0.59840   -9999.25   -9999.25   -9999.25
 6007.50000    2.38070    4.71580    4.63380  -37.47510   75.55570   15.14050    1.69410   -0.02830    0.55260    0.58260   -9999.25   -9999.25   -9999.25
 6008.00000    3.60490    6.45240    6.03590  -36.92410   71.73260   14.68710    1.70060   -0.02520    0.55100    0.51160   -9999.25   -9999.25   -9999.25
 6008.50000    5.27760    8.82940    7.86230  -36.43330   66.14500   13.36500    1.82440   -0.01870    0.42700    0.42470   -9999.25   -9999.25   -9999.25
 6009.00000    8.50050   12.97670   10.24140  -35.58530   60.83400   12.05990    1.94730   -0.01260    0.30200    0.33780   -9999.25   -9999.25   -9999.25
 6009.50000   13.69150   15.65210   13.35940  -34.47370   55.49170   10.74220    2.12090   -0.00620    0.30160    0.30060   -9999.25   -9999.25   -9999.25
 6010.00000   22.04110   20.73410   17.39030  -33.41870   51.35990   10.16880    2.32450   -0.00000    0.30120    0.29960   -9999.25   -9999.25   -9999.25
 6010.50000   29.31770   21.11120   20.73770  -32.36830   52.36290    9.95870    2.52810    0.00630    0.19440    0.09880   -9999.25   -9999.25   -9999.25
 6011.00000   28.77820   17.62930   20.36150  -31.30120   53.62140    9.71690    2.61450    0.00740    0.15510    0.02390   -9999.25   -9999.25   -9999.25
 6011.50000   20.06020   14.72170   15.46520  -30.24510   55.01750    9.70370    2.65390    0.00570    0.14230    0.01440   -9999.25   -9999.25   -9999.25
 6012.00000   13.47320   12.29360   12.30600  -29.19380   56.24840    9.69240    2.68820    0.00420    0.16210    0.01660   -9999.25   -9999.25   -9999.25
 6012.50000    9.04910   10.26600    9.79460  -28.11410   58.87700    9.70520    2.65680    0.00210    0.18960    0.03510   -9999.25   -9999.25   -9999.25
 6013.00000    8.26930    8.57910    7.42170  -27.08350   63.30140    9.71350    2.61510    0.00550    0.21700    0.05760   -9999.25   -9999.25   -9999.25
 6013.50000    7.69410    7.16500    7.03100  -26.07750   67.39510   10.00350    2.58660    0.01200    0.24450    0.10610   -9999.25   -9999.25   -9999.25
