~Version ---------------------------------------------------
VERS.   2.0 : CWLS log ASCII Standard -VERSION 2.0
WRAP.    NO : One line per depth step
DLM . SPACE : Column Data Section Delimiter
~Well ------------------------------------------------------
STRT .F                 4610.0 : START DEPTH
STOP .F                12880.5 : STOP DEPTH
STEP .F                    0.5 : STEP
NULL .                -9999.25 : NULL VALUE
COMP .                         : COMPANY
WELL .                         : WELL
FLD  .                         : FIELD
LOC  .                         : LOCATION
PROV .                         : PROVINCE
CNTY .                         : COUNTY
STAT .                         : STATE
CTRY .                         : COUNTRY
SRVC .                         : SERVICE COMPANY
DATE .                         : DATE
UWI  .                         : UNIQUE WELL ID
API  .                         : API NUMBER
SLAT .WGS84  5.935362675678498 : SURFACE LATITUDE
SLON .WGS84 4.1218173947355865 : SURFACE LONGITUDE
DATUM.F                1904.53 : DEPTH DATUM ELEV
~Curve Information -----------------------------------------
DEPT .F     : 
SFLU .OHMM  : SPHERICALLY FOCUSED LOG UNAVERAGED RESISTIVITY
ILD  .OHMM  : INDUCTION LOG DEEP
ILM  .OHMM  : INDUCTION LOG MEDIUM
SPR  .MV    : SPONTANEOUS POTENTIAL FROM RES. LOG
GRR  .GAPI  : GAMMA RAY FROM RES. LOG
CALD .IN    : CALIPER FROM DENSITY LOG
RHOB .G/C3  : BULK DENSITY
DRHO .G/C3  : DENSITY CORRECTION
NPHI .DEC   : NEUTRON POROSITY LIMESTONE
DPHI .DEC   : DENSITY POROSITY LIMESTONE
NPHI1.DEC   : NEUTRON POROSITY LIMESTONE
DTCO .US/F  : COMPRESSIONAL-WAVE INTERVAL TRANSIT TIME ACOUSTIC SLOWNESS
DTSM .US/F  : Delta-T Shear Measurement
~Params ----------------------------------------------------
~Other -----------------------------------------------------
~ASCII -----------------------------------------------------
# ...
 12280.00000   99.38330   83.98470   94.57700  -44.83050   63.50580    8.54940    2.51630   -0.00260    0.05530    0.11490    0.02010   55.86830   99.99670
 12280.50000  111.54990   79.93920   87.68160  -45.23280   71.48780    8.54940    2.51370   -0.00290    0.05400    0.11510    0.02200   55.78230  101.37730
 12281.00000  126.13690   75.90780   90.32150  -45.63780   77.54280    8.54940    2.51110   -0.00320    0.05250    0.11540    0.02230   55.39690  101.05430
 12281.50000  142.38640   76.66130   92.66780  -46.03650   80.76120    8.54940    2.50890   -0.00350    0.05090    0.11790    0.02160   55.22160  100.35290
 12282.00000  161.82790   78.04990   94.23660  -46.43760   84.49650    8.54940    2.50630   -0.00380    0.04940    0.12090    0.02070   56.22100  101.53770
 12282.50000  161.82790   78.69410   90.24710  -46.86740   87.68590    8.54940    2.50400   -0.00410    0.04790    0.12230    0.02000   57.23730  103.77250
 12283.00000  135.28360   75.62250   83.32630  -47.19690   89.30600    8.54950    2.50120   -0.00440    0.04660    0.12120    0.01920   56.45410   99.87540
 12283.50000  110.83320   73.02830   76.93630  -47.36550   89.99650    8.54930    2.50300   -0.00460    0.05180    0.11830    0.02070   57.11990   95.01800
 12284.00000  111.38060   70.52310   70.62770  -47.56410   89.58030    8.54920    2.50630   -0.00490    0.05810    0.11550    0.02290   61.03600   97.23300
 12284.50000  112.84900   68.12710   70.62770  -47.76080   83.62110    8.53910    2.51290   -0.00520    0.06720    0.11260    0.02410   65.03480  101.30000
 12285.00000  112.15380   69.34340   71.34420  -47.95230   74.00610    8.52560    2.52080   -0.00550    0.06550    0.10980    0.02520   66.16770  103.01400
 12285.50000  110.01720   71.06190   73.62110  -48.14790   65.87490    8.51210    2.52290   -0.00590    0.06270    0.10910    0.02620   66.97410  104.09300
 12286.00000  106.90900   72.82290   75.97070  -48.34160   62.42350    8.49880    2.52250   -0.00510    0.06020    0.11030    0.02750   66.83080  104.82930
 12286.50000  113.20550   75.90780   78.39530  -48.53640   59.66090    8.48530    2.51780   -0.00340    0.06290    0.11330    0.03000   66.27410  104.07780
 12287.00000  126.64720   72.85160   80.31500  -48.72860   62.52820    8.47190    2.50950   -0.00240    0.06550    0.11680    0.03250   65.71750  102.90310
 12287.50000  141.68490   63.67450   68.26770  -48.92620   64.93220    8.45850    2.50200   -0.00490    0.06810    0.12030    0.03140   65.16080  101.43870
 12288.00000  153.30990   55.65340   54.36390  -49.11920   70.24030    8.44510    2.49910   -0.00680    0.07030    0.12480    0.02900   65.45310   99.98000
 12288.50000  106.34590   48.64280   42.39520  -49.30210   74.99170    8.43170    2.50040   -0.00910    0.06640    0.12310    0.02670   66.44710  104.17170
 12289.00000   70.68890   44.20310   33.05940  -49.67570   80.00250    8.41830    2.50110   -0.01140    0.06080    0.12040    0.02800   67.94010  108.34660
 12289.50000   46.98740   45.16140   29.08590  -50.46110   84.80120    8.40490    2.50530   -0.01340    0.06800    0.11740    0.03870   69.42130  112.52160
 12290.00000   29.73320   46.26610   34.69570  -51.23200   86.81070    8.39150    2.50920   -0.01510    0.09930    0.11450    0.06420   70.90250  115.63870
 12290.50000   29.73320   47.38530   43.79250  -52.01350   81.38250    8.37810    2.51740   -0.01190    0.13050    0.11160    0.08580   72.38380  116.22160
 12291.00000   60.77470   48.54570   51.12220  -52.79300   75.14460    8.36480    2.52560   -0.00820    0.14860    0.10860    0.08820   73.23350  112.73670
 12291.50000  112.84900   49.73860   50.62750  -53.57220   68.48430    8.35130    2.52780   -0.00390    0.13920    0.10850    0.05810   70.53980  110.91020
 12292.00000  145.24020   50.25770   49.82960  -54.34990   67.33180    8.33800    2.52270   -0.00260    0.09720    0.11030    0.03630   67.91920  109.40720
 12292.50000  126.00210   47.34690   49.03820  -55.13450   69.53060    8.32490    2.51770   -0.00520    0.04690    0.11200    0.02320   65.65670  107.65080
 12293.00000  114.90150   44.21970   46.22170  -55.73950   69.57980    8.31030    2.51430   -0.00730    0.04870    0.11260    0.02500   63.85310  105.56980
 12293.50000  114.90150   41.35090   38.42910  -55.29100   68.45890    8.29900    2.51790   -0.00980    0.05240    0.11130    0.02680   62.85430  103.17370
 12294.00000  100.16820   38.22920   31.93080  -54.28930   72.34890    8.28360    2.52380   -0.01180    0.05620    0.11000    0.02860   65.32910  105.23870
 12294.50000   62.06170   35.32280   26.72270  -53.32080   81.20120    8.26380    2.52810   -0.01290    0.05990    0.10870    0.03180   67.69090  107.67210
 12295.00000   35.60570   32.65470   31.52920  -52.35460   84.27080    8.14740    2.52420   -0.00100    0.07650    0.11020    0.04690   69.75250  110.10550
 12295.50000   30.82460   30.27400   36.90740  -51.37060   73.07110    8.04470    2.52080    0.00950    0.09800    0.11280    0.06610   70.95490  112.53890
 12296.00000   53.71200   29.80830   40.61750  -50.40530   61.90600    7.92570    2.51630    0.02080    0.11950    0.11550    0.07940   71.83630  114.16810
 12296.50000  125.73740   29.36570   36.61370  -49.44570   55.19320    7.89020    2.51670    0.03180    0.13910    0.11780    0.06550   70.38440  115.39280
 12297.00000  113.92080   29.20210   26.80890  -48.15310   64.40520    7.93520    2.52140    0.04280    0.11010    0.11430    0.04910   69.02450  114.31040
 12297.50000   73.45520   29.54110   25.14870  -45.90790   79.34450    7.97030    2.52480    0.05380    0.08280    0.10150    0.03870   68.42500  112.89090
 12298.00000   47.36330   29.95820   23.61080  -43.69400   94.44040    8.00980    2.53870    0.06510    0.06290    0.08870    0.04590   69.79130  114.24880
 12298.50000   30.53940   30.38110   22.28420  -41.40960  109.84500    8.04300    2.57730    0.07570    0.07540    0.07180    0.07850   71.03790  118.59080
 12299.00000   24.82920   30.81000   24.33840  -39.20370  115.74170    8.10660    2.61440    0.08780    0.10550    0.04960    0.11800   71.43420  120.97610
 12299.50000   29.24950   31.24500   28.12080  -37.04400  100.31450    8.12570    2.66580    0.09060    0.13560    0.02770    0.10090   71.79860  121.17960
 12300.00000   49.55650   31.68620   32.49090  -36.51390   81.82140    8.14120    2.65740    0.08670    0.15720    0.02610    0.07510   70.96310  120.05240
 12300.50000   91.08260   34.51260   37.58400  -36.02250   63.17360    8.15340    2.63090    0.07770    0.12650    0.04430    0.04950   69.51240  114.58090
 12301.00000  128.27830   41.93360   46.05330  -35.60020   62.53150    8.16840    2.60800    0.06990    0.08790    0.06460    0.03090   66.44470  108.61120
 12301.50000  132.72350   50.95030   56.52450  -35.13750   61.82770    8.18210    2.58500    0.06190    0.04940    0.08310    0.02770   63.31370  102.68260
 12302.00000  124.31770   61.94990   69.37650  -34.68600   61.87950    8.19610    2.56120    0.05360    0.03300    0.10160    0.02270   61.82490   97.38520
 12302.50000  112.84900   75.33150   85.15080  -34.23770   59.22110    8.21010    2.53830    0.04580    0.03730    0.10970    0.02410   61.52610   97.74450
 12303.00000  128.70510   91.59120  101.28170  -33.78350   55.78630    8.22410    2.51490    0.03770    0.04100    0.11460    0.02450   62.84610   98.24550
 12303.50000  163.00730   97.93640  101.28170  -33.33220   52.43100    8.23810    2.50490    0.03540    0.04340    0.11950    0.02400   64.76420   98.74650
 12304.00000  206.45150   93.00450   93.74870  -32.88410   49.00800    8.25190    2.50030    0.03560    0.04030    0.12440    0.02190   66.43920   99.25280
 12304.50000  219.84970   84.49840   81.25390  -32.42120   45.58660    8.26660    2.49550    0.03560    0.03710    0.12610    0.01920   66.19700   99.37920
 12305.00000  159.25590   76.75310   72.60250  -31.98320   45.25180    8.27330    2.49120    0.03550    0.03380    0.12670    0.01630   65.71520   99.38030
 12305.50000  112.48800   69.71490   66.69100  -31.52340   51.42400    8.27250    2.49290    0.03570    0.03160    0.12730    0.01640   64.70660   99.38020
