~Version ---------------------------------------------------
VERS.   2.0 : CWLS log ASCII Standard -VERSION 2.0
WRAP.    NO : One line per depth step
DLM . SPACE : Column Data Section Delimiter
~Well ------------------------------------------------------
STRT .F                 4610.0 : START DEPTH
STOP .F                12880.5 : STOP DEPTH
STEP .F                    0.5 : STEP
NULL .                -9999.25 : NULL VALUE
COMP .                         : COMPANY
WELL .                         : WELL
FLD  .                         : FIELD
LOC  .                         : LOCATION
PROV .                         : PROVINCE
CNTY .                         : COUNTY
STAT .                         : STATE
CTRY .                         : COUNTRY
SRVC .                         : SERVICE COMPANY
DATE .                         : DATE
UWI  .                         : UNIQUE WELL ID
API  .                         : API NUMBER
SLAT .WGS84  5.935362675678498 : SURFACE LATITUDE
SLON .WGS84 4.1218173947355865 : SURFACE LONGITUDE
DATUM.F                1904.53 : DEPTH DATUM ELEV
~Curve Information -----------------------------------------
DEPT .F     : 
SFLU .OHMM  : SPHERICALLY FOCUSED LOG UNAVERAGED RESISTIVITY
ILD  .OHMM  : INDUCTION LOG DEEP
ILM  .OHMM  : INDUCTION LOG MEDIUM
SPR  .MV    : SPONTANEOUS POTENTIAL FROM RES. LOG
GRR  .GAPI  : GAMMA RAY FROM RES. LOG
CALD .IN    : CALIPER FROM DENSITY LOG
RHOB .G/C3  : BULK DENSITY
DRHO .G/C3  : DENSITY CORRECTION
NPHI .DEC   : NEUTRON POROSITY LIMESTONE
DPHI .DEC   : DENSITY POROSITY LIMESTONE
NPHI1.DEC   : NEUTRON POROSITY LIMESTONE
DTCO .US/F  : COMPRESSIONAL-WAVE INTERVAL TRANSIT TIME ACOUSTIC SLOWNESS
DTSM .US/F  : Delta-T Shear Measurement
~Params ----------------------------------------------------
~Other -----------------------------------------------------
~ASCII -----------------------------------------------------
# ...
 8068.00000    4.51450    5.18200    4.47820  -35.19270   69.10560   10.89680    2.33450   -0.00390    0.39720    0.27600   -9999.25   -9999.25   -9999.25
 8068.50000    5.16520    5.42640    4.94480  -34.47040   78.88910   10.65670    2.34860    0.01520    0.36610    0.21110   -9999.25   -9999.25   -9999.25
 8069.00000    5.91630    6.09350    5.46130  -33.74820   88.47230   10.54810    2.38700    0.01550    0.36080    0.19050   -9999.25   -9999.25   -9999.25
 8069.50000    6.77080    6.84250    6.03320  -33.02530   97.81340   10.44880    2.45360    0.01510    0.34750    0.17190   -9999.25   -9999.25   -9999.25
 8070.00000    7.75140    7.68370    6.90550  -32.30310  106.06120   10.33030    2.44880    0.00370    0.32500    0.15100   -9999.25   -9999.25   -9999.25
 8070.50000    8.87370    8.62820    6.83110  -31.58020  113.13480   10.35190    2.39560   -0.00680    0.30430    0.17110   -9999.25   -9999.25   -9999.25
 8071.00000    9.57920    9.21370    6.66170  -30.85600  111.89380   10.49630    2.33460   -0.01830    0.30530    0.21340   -9999.25   -9999.25   -9999.25
 8071.50000    9.10080    9.21370    6.78260  -30.13780  104.76450   10.64840    2.25230   -0.02340    0.30990    0.27040   -9999.25   -9999.25   -9999.25
 8072.00000    8.11320    9.21370    6.97840  -29.41410   99.84620   10.60680    2.27890   -0.01020    0.30800    0.26560   -9999.25   -9999.25   -9999.25
 8072.50000    8.27450    8.79980    7.18080  -28.96380  101.65240   10.55150    2.36780    0.00160    0.30510    0.22440   -9999.25   -9999.25   -9999.25
 8073.00000    8.96340    8.41360    7.38950  -28.68880  107.76560   10.48100    2.42090    0.01460    0.30510    0.16760   -9999.25   -9999.25   -9999.25
 8073.50000    9.44820    7.83400    7.55800  -28.41100  115.04990   10.49040    2.41260    0.02640    0.31640    0.17150   -9999.25   -9999.25   -9999.25
 8074.00000    8.97580    7.90640    7.50270  -28.13190  115.04610   10.54290    2.39950    0.04050    0.34550    0.18070   -9999.25   -9999.25   -9999.25
 8074.50000    8.26930    8.08580    7.42170  -27.85400  112.79790   10.58950    2.38720    0.03970    0.33690    0.19000   -9999.25   -9999.25   -9999.25
 8075.00000    8.50690    8.26930    7.74980  -27.57890  109.08920   10.63630    2.37400    0.03660    0.30360    0.19920   -9999.25   -9999.25   -9999.25
 8075.50000    9.12850    8.41970    8.17860  -27.29550  105.80100   10.68430    2.34830    0.02540    0.30950    0.22320   -9999.25   -9999.25   -9999.25
 8076.00000   10.08260    7.79120    7.33090  -27.02030  102.47790   10.73120    2.23860    0.00210    0.32460    0.26980   -9999.25   -9999.25   -9999.25
 8076.50000    9.33690    7.30210    6.30050  -26.81320  100.62490   10.77890    2.04990   -0.01170    0.33970    0.30990   -9999.25   -9999.25   -9999.25
 8077.00000    8.19750    6.84380    5.41490  -26.97110  102.77530   10.82570    2.02800   -0.01250    0.35480    0.33900   -9999.25   -9999.25   -9999.25
 8077.50000    7.19710    6.51030    5.06090  -27.10090  103.04510   10.87340    2.03220   -0.01470    0.36980    0.36820   -9999.25   -9999.25   -9999.25
 8078.00000    6.31870    6.25960    5.02320  -27.24860   99.68100   10.92150    2.00900   -0.01930    0.38550    0.39290   -9999.25   -9999.25   -9999.25
 8078.50000    5.95620    6.01860    4.99260  -27.38890   95.86940   10.96490    1.96780   -0.02680    0.38020    0.42810   -9999.25   -9999.25   -9999.25
 8079.00000    5.91810    5.87140    5.35160  -27.52990   93.18060   11.02320    1.91690   -0.02940    0.36950    0.45450   -9999.25   -9999.25   -9999.25
 8079.50000    5.87140    5.97820    5.67720  -27.67240   95.52180   10.94100    1.95000   -0.02790    0.35950    0.45380   -9999.25   -9999.25   -9999.25
 8080.00000    5.99170    6.44170    6.02240  -27.81370   99.23820   10.75450    2.00480   -0.02700    0.36110    0.45060   -9999.25   -9999.25   -9999.25
 8080.50000    6.33740    6.86820    6.38870  -27.95540  103.52860   10.58870    2.07670   -0.02600    0.36440    0.30040   -9999.25   -9999.25   -9999.25
 8081.00000    6.70310    7.32300    6.77790  -28.09690  106.02350   10.39950    2.17490   -0.02480    0.36520    0.29720   -9999.25   -9999.25   -9999.25
 8081.50000    7.03100    7.80780    7.19160  -28.23830  105.58120   10.39450    2.27360   -0.02390    0.30200    0.25010   -9999.25   -9999.25   -9999.25
 8082.00000    8.20690    8.32480    7.63140  -28.37980  103.46030   10.41080    2.40010   -0.02410    0.30040    0.18380   -9999.25   -9999.25   -9999.25
 8082.50000    9.38980    8.87610    7.88180  -28.52130   99.68950   10.43470    2.39180   -0.03130    0.28030    0.18820   -9999.25   -9999.25   -9999.25
 8083.00000   10.26600    9.46380    7.97650  -28.66280   99.10150   10.45240    2.37420   -0.03750    0.28620    0.19700   -9999.25   -9999.25   -9999.25
 8083.50000   10.26600   10.09040    8.67540  -28.80430   98.18920   10.46130    2.36150   -0.04480    0.27280    0.20600   -9999.25   -9999.25   -9999.25
 8084.00000   10.26600   10.75860    9.49010  -28.94580   98.59510   10.37790    2.44870   -0.03950    0.25290    0.20230   -9999.25   -9999.25   -9999.25
 8084.50000   12.12640   11.47090   10.38140  -29.08730   99.13920   10.23220    2.53610   -0.03300    0.23790    0.10190   -9999.25   -9999.25   -9999.25
 8085.00000   14.51090   12.29360   11.23420  -29.22890   98.44490   10.20120    2.53080   -0.02590    0.23790    0.12670   -9999.25   -9999.25   -9999.25
 8085.50000   17.00510   12.29360   10.51180  -29.37060   95.21220   10.40130    2.45690   -0.01910    0.25070    0.19100   -9999.25   -9999.25   -9999.25
 8086.00000   16.70140   11.48540    9.57350  -29.51130   93.21050   10.82530    2.34330   -0.01330    0.26950    0.25150   -9999.25   -9999.25   -9999.25
 8086.50000   14.01520   10.82080    8.71890  -29.65450   94.28540   11.32510    2.21220    0.00060    0.28820    0.29800   -9999.25   -9999.25   -9999.25
 8087.00000   11.56290   10.19510    7.94060  -29.79490   95.98300   11.55670    2.23930    0.01980    0.30700    0.28490   -9999.25   -9999.25   -9999.25
 8087.50000    9.72560    9.60480    7.03100  -29.91740   97.60140   11.48620    2.26940    0.03820    0.32570    0.25930   -9999.25   -9999.25   -9999.25
 8088.00000    8.59600    9.21020    7.28760  -29.92080   98.00410   11.22370    2.37160    0.05630    0.34470    0.18230   -9999.25   -9999.25   -9999.25
 8088.50000    8.12160    9.02710    7.67110  -29.92350   97.80450   10.91740    2.45650    0.06630    0.31990    0.11830   -9999.25   -9999.25   -9999.25
 8089.00000    8.32310    8.82610    8.12160  -29.92170  101.49900   10.60990    2.53260    0.06040    0.29940    0.09350   -9999.25   -9999.25   -9999.25
 8089.50000    9.05950    8.62970    8.03350  -29.92220  105.00920   10.35760    2.58380    0.05260    0.29880    0.06960   -9999.25   -9999.25   -9999.25
 8090.00000    9.86100    8.44250    7.85520  -29.92220  107.32660   10.40340    2.59520    0.04320    0.27630    0.07830   -9999.25   -9999.25   -9999.25
 8090.50000   10.73340    8.26930    7.68090  -29.92190  106.45120   10.46300    2.56730    0.03500    0.26010    0.10230   -9999.25   -9999.25   -9999.25
 8091.00000   11.03350    8.12160    7.51050  -29.92190  105.74320   10.53420    2.52090    0.02650    0.27330    0.12450   -9999.25   -9999.25   -9999.25
 8091.50000   11.03350    8.26580    7.34380  -29.92160  104.91770   10.59400    2.47320    0.02990    0.28850    0.14600   -9999.25   -9999.25   -9999.25
 8092.00000   10.64940    8.43440    7.15890  -29.92200  103.88450   10.66320    2.44120    0.03380    0.30710    0.16130   -9999.25   -9999.25   -9999.25
 8092.50000    9.38130    8.60650    7.42480  -29.92100  100.31980   10.61260    2.48390    0.03840    0.32730    0.13280   -9999.25   -9999.25   -9999.25
 8093.00000    8.88700    8.78210    7.74520  -29.92180   96.07080   10.50110    2.51960    0.03560    0.29960    0.11030   -9999.25   -9999.25   -9999.25
 8093.50000    9.00730    8.96130    8.07930  -29.92260   96.44430   10.48870    2.55080    0.02980    0.29800    0.09030   -9999.25   -9999.25   -9999.25
