~Version ---------------------------------------------------
VERS.   2.0 : CWLS log ASCII Standard -VERSION 2.0
WRAP.    NO : One line per depth step
DLM . SPACE : Column Data Section Delimiter
~Well ------------------------------------------------------
STRT .F                 4610.0 : START DEPTH
STOP .F                12880.5 : STOP DEPTH
STEP .F                    0.5 : STEP
NULL .                -9999.25 : NULL VALUE
COMP .                         : COMPANY
WELL .                         : WELL
FLD  .                         : FIELD
LOC  .                         : LOCATION
PROV .                         : PROVINCE
CNTY .                         : COUNTY
STAT .                         : STATE
CTRY .                         : COUNTRY
SRVC .                         : SERVICE COMPANY
DATE .                         : DATE
UWI  .                         : UNIQUE WELL ID
API  .                         : API NUMBER
SLAT .WGS84  5.935362675678498 : SURFACE LATITUDE
SLON .WGS84 4.1218173947355865 : SURFACE LONGITUDE
DATUM.F                1904.53 : DEPTH DATUM ELEV
~Curve Information -----------------------------------------
DEPT .F     : 
SFLU .OHMM  : SPHERICALLY FOCUSED LOG UNAVERAGED RESISTIVITY
ILD  .OHMM  : INDUCTION LOG DEEP
ILM  .OHMM  : INDUCTION LOG MEDIUM
SPR  .MV    : SPONTANEOUS POTENTIAL FROM RES. LOG
GRR  .GAPI  : GAMMA RAY FROM RES. LOG
CALD .IN    : CALIPER FROM DENSITY LOG
RHOB .G/C3  : BULK DENSITY
DRHO .G/C3  : DENSITY CORRECTION
NPHI .DEC   : NEUTRON POROSITY LIMESTONE
DPHI .DEC   : DENSITY POROSITY LIMESTONE
NPHI1.DEC   : NEUTRON POROSITY LIMESTONE
DTCO .US/F  : COMPRESSIONAL-WAVE INTERVAL TRANSIT TIME ACOUSTIC SLOWNESS
DTSM .US/F  : Delta-T Shear Measurement
~Params ----------------------------------------------------
~Other -----------------------------------------------------
~ASCII -----------------------------------------------------
# ...
 11500.00000   13.65830   10.46640   10.79220  -33.46660  107.47810   -9999.25   -9999.25   -9999.25   -9999.25   -9999.25    0.15400   72.69300  130.10310
 11500.50000   14.40640   10.84250   11.31700  -33.59480  105.99890   -9999.25   -9999.25   -9999.25   -9999.25   -9999.25    0.14690   72.42190  129.38630
 11501.00000   15.19550   11.23210   11.86740  -33.72310  103.51270   -9999.25   -9999.25   -9999.25   -9999.25   -9999.25    0.13970   72.13160  128.71190
 11501.50000   16.02780   11.63570   12.44450  -33.85140  102.29620   -9999.25   -9999.25   -9999.25   -9999.25   -9999.25    0.13260   71.59680  127.12300
 11502.00000   16.91290   12.05390   13.04970  -33.97960  102.80470   -9999.25   -9999.25   -9999.25   -9999.25   -9999.25    0.12600   71.65000  125.17390
 11502.50000   17.84330   12.48700   13.68440  -34.10790  102.05670   -9999.25   -9999.25   -9999.25   -9999.25   -9999.25    0.12070   71.79920  123.22480
 11503.00000   18.62500   13.21270   13.94680  -34.23620  101.39610   -9999.25   -9999.25   -9999.25   -9999.25   -9999.25    0.12000   71.55200  122.50270
 11503.50000   18.62760   13.15530   13.74260  -34.36450  101.18200   -9999.25   -9999.25   -9999.25   -9999.25   -9999.25    0.12760   71.43590  123.64290
 11504.00000   17.88720   13.01300   13.57480  -34.49280  101.65830   -9999.25   -9999.25   -9999.25   -9999.25   -9999.25    0.13720   71.43710  124.78300
 11504.50000   16.71590   12.87220   13.40900  -34.62100  103.20590   -9999.25   -9999.25   -9999.25   -9999.25   -9999.25    0.14680   71.36850  125.82510
 11505.00000   15.81320   12.73300   13.24520  -34.74940  105.14610   -9999.25   -9999.25   -9999.25   -9999.25   -9999.25    0.15390   71.03790  126.39100
 11505.50000   15.83030   12.59530   13.08340  -34.87800  107.18070   -9999.25   -9999.25   -9999.25   -9999.25   -9999.25    0.15530   71.66540  126.95680
 11506.00000   15.81540   12.45900   12.92360  -35.00510  108.82720   -9999.25   -9999.25   -9999.25   -9999.25   -9999.25    0.15300   72.30560  127.52490
 11506.50000   15.82230   12.32420   12.76580  -35.13580  110.86020   -9999.25   -9999.25   -9999.25   -9999.25   -9999.25    0.14430   72.00460  126.42860
 11507.00000   15.82230   12.19090   12.60980  -35.26180  112.65040   -9999.25   -9999.25   -9999.25   -9999.25   -9999.25    0.13560   71.26080  125.30420
 11507.50000   15.82230   12.05900   12.45580  -35.38150  114.38720   -9999.25   -9999.25   -9999.25   -9999.25   -9999.25    0.12690   70.43910  124.17990
 11508.00000   16.11000   11.92860   12.30370  -35.41580  115.50660   -9999.25   -9999.25   -9999.25   -9999.25   -9999.25    0.12330   70.43910  123.53290
 11508.50000   16.11000   11.79950   12.15340  -35.47090  112.17430   -9999.25   -9999.25   -9999.25   -9999.25   -9999.25    0.12870   71.12700  125.39400
 11509.00000   15.68030   11.64650   12.00500  -35.51720  106.72090   -9999.25   -9999.25   -9999.25   -9999.25   -9999.25    0.13410   71.30080  127.20480
 11509.50000   14.98940   11.43850   11.85830  -35.56640  105.96830   -9999.25   -9999.25   -9999.25   -9999.25   -9999.25    0.13800   71.38270  129.01560
 11510.00000   14.72170   11.64650   11.85830  -35.61560  106.68080   -9999.25   -9999.25   -9999.25   -9999.25   -9999.25    0.13930   71.62580  130.82640
 11510.50000   14.45870   11.96570   11.85830  -35.66400  111.71140   -9999.25   -9999.25   -9999.25   -9999.25   -9999.25    0.13900   72.35750  132.51500
 11511.00000   14.67750   12.23830   12.36770  -35.71300  116.26360   -9999.25   -9999.25   -9999.25   -9999.25   -9999.25    0.13870   73.03390  132.03990
 11511.50000   14.89960   12.51720   12.89890  -35.76170  118.80940   -9999.25   -9999.25   -9999.25   -9999.25   -9999.25    0.13850   73.24110  131.15450
 11512.00000   15.60980   12.80240   13.45250  -35.81060  117.62780   -9999.25   -9999.25   -9999.25   -9999.25   -9999.25    0.13640   73.22580  127.10420
 11512.50000   16.70140   13.09410   14.02750  -35.85920  112.85950   -9999.25   -9999.25   -9999.25   -9999.25   -9999.25    0.12920   71.96390  122.77900
 11513.00000   18.94730   13.39250   14.62770  -35.90750  108.74000   -9999.25   -9999.25   -9999.25   -9999.25   -9999.25    0.11460   70.76690  121.95080
 11513.50000   21.11120   13.69770   15.25460  -35.95760  104.48540   -9999.25   -9999.25   -9999.25   -9999.25   -9999.25    0.09990   70.04210  123.12540
 11514.00000   21.89190   14.00980   15.17750  -36.00370   99.72780   -9999.25   -9999.25   -9999.25   -9999.25   -9999.25    0.09480   69.44110  122.17680
 11514.50000   21.50820   14.32900   15.10210  -36.05410   97.76210   -9999.25   -9999.25   -9999.25   -9999.25   -9999.25    0.10200   70.15240  116.34730
 11515.00000   19.31350   14.59740   14.99600  -36.10720   99.21950   -9999.25   -9999.25   -9999.25   -9999.25   -9999.25    0.12260   70.92170  116.96270
 11515.50000   17.28270   14.83090   15.19870  -36.13420   99.49740   -9999.25   -9999.25   -9999.25   -9999.25   -9999.25    0.12550   71.69100  117.80110
 11516.00000   17.34220   15.06910   15.73480  -36.37080   98.10950   -9999.25   -9999.25   -9999.25   -9999.25   -9999.25    0.12190   72.03590  117.45510
 11516.50000   19.69710   15.31160   16.28970  -36.76130   89.96220   -9999.25   -9999.25   -9999.25   -9999.25   -9999.25    0.11190   68.86110  114.94010
 11517.00000   21.88850   15.55880   16.86430  -37.12650   84.56100   -9999.25   -9999.25   -9999.25   -9999.25   -9999.25    0.10210   65.44910  112.42510
 11517.50000   24.34580   15.81080   17.45900  -37.48730   81.18710   -9999.25   -9999.25   -9999.25   -9999.25   -9999.25    0.09220   64.53860  110.35930
 11518.00000   27.66500   16.11860   17.94990  -37.86270   80.15340   -9999.25   -9999.25   -9999.25   -9999.25   -9999.25    0.08740   63.99690  110.15970
 11518.50000   27.66500   16.12110   17.47110  -38.22360   79.57200   -9999.25   -9999.25   -9999.25   -9999.25   -9999.25    0.08650   63.45310  110.63630
 11519.00000   26.20880   15.59750   17.00510  -38.50550   81.46930   -9999.25   -9999.25   -9999.25   -9999.25   -9999.25    0.08920   65.32530  112.52380
 11519.50000   24.16700   14.75120   15.82230  -38.19250   86.00240   -9999.25   -9999.25   -9999.25   -9999.25   -9999.25    0.09470   67.67270  115.65540
 11520.00000   21.25440   13.96080   14.89960  -37.78880   94.03710   -9999.25   -9999.25   -9999.25   -9999.25   -9999.25    0.10980   70.02000  119.00870
 11520.50000   17.94990   13.21270   14.03080  -37.37560  101.81360   -9999.25   -9999.25   -9999.25   -9999.25   -9999.25    0.12820   71.79080  122.36190
 11521.00000   15.15930   12.50470   13.21270  -36.97120  110.15320   -9999.25   -9999.25   -9999.25   -9999.25   -9999.25    0.14100   71.59480  122.82830
 11521.50000   13.69770   11.83460   12.44220  -36.56050  116.69220   -9999.25   -9999.25   -9999.25   -9999.25   -9999.25    0.14700   71.83000  123.79310
 11522.00000   14.32900   11.20050   11.71670  -36.15920  117.88900   -9999.25   -9999.25   -9999.25   -9999.25   -9999.25    0.14830   73.53250  126.19630
 11522.50000   14.72170   10.83640   11.03350  -35.74480  111.50950   -9999.25   -9999.25   -9999.25   -9999.25   -9999.25    0.14810   74.22470  128.59950
 11523.00000   14.35770   10.68720   10.95920  -35.33250  101.77990   -9999.25   -9999.25   -9999.25   -9999.25   -9999.25    0.15180   73.79120  131.00270
 11523.50000   14.00280   10.54000   10.83640  -34.96230   98.61310   -9999.25   -9999.25   -9999.25   -9999.25   -9999.25    0.15560   73.37270  131.50470
 11524.00000   13.65660   10.39490   10.71500  -34.53250   99.27480   -9999.25   -9999.25   -9999.25   -9999.25   -9999.25    0.15950   73.51780  131.72030
 11524.50000   13.45300   10.25180   10.59500  -35.24730  103.89380   -9999.25   -9999.25   -9999.25   -9999.25   -9999.25    0.16330   74.58960  131.91620
 11525.00000   13.30230   10.08260   10.47630  -35.38630  109.04460   -9999.25   -9999.25   -9999.25   -9999.25   -9999.25    0.16270   75.64410  133.23350
 11525.50000   13.06470   10.08260   10.35890  -35.49370  113.50510   -9999.25   -9999.25   -9999.25   -9999.25   -9999.25    0.15930   76.70000  134.33290
