~Version ---------------------------------------------------
VERS.   2.0 : CWLS log ASCII Standard -VERSION 2.0
WRAP.    NO : One line per depth step
DLM . SPACE : Column Data Section Delimiter
~Well ------------------------------------------------------
STRT .F                 4610.0 : START DEPTH
STOP .F                12880.5 : STOP DEPTH
STEP .F                    0.5 : STEP
NULL .                -9999.25 : NULL VALUE
COMP .                         : COMPANY
WELL .                         : WELL
FLD  .                         : FIELD
LOC  .                         : LOCATION
PROV .                         : PROVINCE
CNTY .                         : COUNTY
STAT .                         : STATE
CTRY .                         : COUNTRY
SRVC .                         : SERVICE COMPANY
DATE .                         : DATE
UWI  .                         : UNIQUE WELL ID
API  .                         : API NUMBER
SLAT .WGS84  5.935362675678498 : SURFACE LATITUDE
SLON .WGS84 4.1218173947355865 : SURFACE LONGITUDE
DATUM.F                1904.53 : DEPTH DATUM ELEV
~Curve Information -----------------------------------------
DEPT .F     : 
SFLU .OHMM  : SPHERICALLY FOCUSED LOG UNAVERAGED RESISTIVITY
ILD  .OHMM  : INDUCTION LOG DEEP
ILM  .OHMM  : INDUCTION LOG MEDIUM
SPR  .MV    : SPONTANEOUS POTENTIAL FROM RES. LOG
GRR  .GAPI  : GAMMA RAY FROM RES. LOG
CALD .IN    : CALIPER FROM DENSITY LOG
RHOB .G/C3  : BULK DENSITY
DRHO .G/C3  : DENSITY CORRECTION
NPHI .DEC   : NEUTRON POROSITY LIMESTONE
DPHI .DEC   : DENSITY POROSITY LIMESTONE
NPHI1.DEC   : NEUTRON POROSITY LIMESTONE
DTCO .US/F  : COMPRESSIONAL-WAVE INTERVAL TRANSIT TIME ACOUSTIC SLOWNESS
DTSM .US/F  : Delta-T Shear Measurement
~Params ----------------------------------------------------
~Other -----------------------------------------------------
~ASCII -----------------------------------------------------
# ...
 12020.00000    4.77010    3.16250    2.60910  -31.94650  109.19910   -9999.25   -9999.25   -9999.25   -9999.25   -9999.25    0.26280   51.38810   93.60760
 12020.50000    4.21620    3.00100    2.77620  -32.00330   94.76270   -9999.25   -9999.25   -9999.25   -9999.25   -9999.25    0.34670   51.34970   97.19760
 12021.00000    3.74150    2.98390    3.05980  -32.06160   81.08740   -9999.25   -9999.25   -9999.25   -9999.25   -9999.25    0.45110   51.98980   99.74220
 12021.50000    3.99260    2.96710    3.24200  -32.11790   69.83130   -9999.25   -9999.25   -9999.25   -9999.25   -9999.25    0.42750   52.47510  102.17570
 12022.00000    4.16950    2.89040    3.00840  -32.17440   77.17900   -9999.25   -9999.25   -9999.25   -9999.25   -9999.25    0.37020   52.47510  100.89240
 12022.50000    4.12490    2.65780    2.79150  -32.23900   86.27070   -9999.25   -9999.25   -9999.25   -9999.25   -9999.25    0.32060   52.82100  100.38110
 12023.00000    3.94500    2.67700    2.59030  -32.23260   95.94730   -9999.25   -9999.25   -9999.25   -9999.25   -9999.25    0.33160   54.16230  101.93580
 12023.50000    3.46660    2.73250    2.40170  -32.13310   99.15570   -9999.25   -9999.25   -9999.25   -9999.25   -9999.25    0.35120   54.87030  103.37330
 12024.00000    2.90720    2.78960    2.29840  -32.04210   96.14890   -9999.25   -9999.25   -9999.25   -9999.25   -9999.25    0.36750   54.87030  101.25590
 12024.50000    2.92580    2.84830    2.41310  -31.94980   94.81070   -9999.25   -9999.25   -9999.25   -9999.25   -9999.25    0.38160   54.07190   98.84150
 12025.00000    2.96020    2.90840    2.53260  -31.85630   94.35410   -9999.25   -9999.25   -9999.25   -9999.25   -9999.25    0.41050   54.24020   98.58280
 12025.50000    3.54360    2.87100    2.65810  -31.76410   92.96500   -9999.25   -9999.25   -9999.25   -9999.25   -9999.25    0.44620   54.39450  100.81020
 12026.00000    3.89260    2.80850    2.78970  -31.67120   90.95810   -9999.25   -9999.25   -9999.25   -9999.25   -9999.25    0.44370   54.12440  102.29910
 12026.50000    4.22880    2.75870    2.92740  -31.57850   89.13910   -9999.25   -9999.25   -9999.25   -9999.25   -9999.25    0.42510   53.68560  103.78790
 12027.00000    4.20530    2.97220    3.01510  -31.48590   88.44450   -9999.25   -9999.25   -9999.25   -9999.25   -9999.25    0.39660   53.72580  105.27680
 12027.50000    4.15380    3.16900    3.01490  -31.39320   90.03320   -9999.25   -9999.25   -9999.25   -9999.25   -9999.25    0.36930   53.76610  104.67470
 12028.00000    4.10310    3.29800    2.93570  -31.30050   90.49500   -9999.25   -9999.25   -9999.25   -9999.25   -9999.25    0.36090   53.80630  102.26030
 12028.50000    4.05280    3.23840    2.87030  -31.20770   89.86560   -9999.25   -9999.25   -9999.25   -9999.25   -9999.25    0.37250   53.84650  101.50800
 12029.00000    3.97700    3.17840    2.80650  -31.11540   81.73740   -9999.25   -9999.25   -9999.25   -9999.25   -9999.25    0.38650   53.98580  104.55950
 12029.50000    3.85980    3.11950    2.75440  -31.02200   75.86020   -9999.25   -9999.25   -9999.25   -9999.25   -9999.25    0.40040   54.30020  106.73920
 12030.00000    3.74600    3.06170    2.78340  -30.92980   76.02830   -9999.25   -9999.25   -9999.25   -9999.25   -9999.25    0.41370   54.61450  108.96210
 12030.50000    3.63560    3.01380    2.80430  -30.83840   79.01690   -9999.25   -9999.25   -9999.25   -9999.25   -9999.25    0.42300   54.73620  109.96010
 12031.00000    3.48120    3.02030    2.79680  -30.73950   81.79610   -9999.25   -9999.25   -9999.25   -9999.25   -9999.25    0.42390   54.01770  110.75450
 12031.50000    3.51000    3.02600    2.78720  -30.72060   84.53870   -9999.25   -9999.25   -9999.25   -9999.25   -9999.25    0.41830   52.67070  111.76050
 12032.00000    3.65620    3.03160    2.77760  -30.76940   87.83380   -9999.25   -9999.25   -9999.25   -9999.25   -9999.25    0.40830   52.04640  112.55490
 12032.50000    3.86560    3.03730    2.76800  -30.81090   91.26710   -9999.25   -9999.25   -9999.25   -9999.25   -9999.25    0.39500   51.67670  111.79140
 12033.00000    4.01950    3.04300    2.75410  -30.85250   94.92390   -9999.25   -9999.25   -9999.25   -9999.25   -9999.25    0.38560   52.47510  111.03690
 12033.50000    3.98690    3.04870    2.80420  -30.89570   96.16790   -9999.25   -9999.25   -9999.25   -9999.25   -9999.25    0.39680   53.14630  110.75850
 12034.00000    3.91970    3.05440    2.83190  -30.93760   95.26200   -9999.25   -9999.25   -9999.25   -9999.25   -9999.25    0.40940   53.45680  112.76220
 12034.50000    3.80980    3.06030    2.87030  -30.98000   94.44650   -9999.25   -9999.25   -9999.25   -9999.25   -9999.25    0.40640   53.76640  114.69680
 12035.00000    3.81320    3.06800    2.90920  -31.02240   94.36440   -9999.25   -9999.25   -9999.25   -9999.25   -9999.25    0.40140   53.95020  115.93210
 12035.50000    3.82540    3.06000    2.94860  -31.06470   95.74380   -9999.25   -9999.25   -9999.25   -9999.25   -9999.25    0.39000   54.06900  114.26000
 12036.00000    3.83790    3.04260    2.95990  -31.10700   95.86330   -9999.25   -9999.25   -9999.25   -9999.25   -9999.25    0.37600   54.18520  110.19410
 12036.50000    3.85090    3.02520    2.94790  -31.14930   93.91270   -9999.25   -9999.25   -9999.25   -9999.25   -9999.25    0.36130   54.15850  106.12820
 12037.00000    3.86270    3.00820    2.93470  -31.19160   94.07270   -9999.25   -9999.25   -9999.25   -9999.25   -9999.25    0.36180   53.73420  102.06980
 12037.50000    3.87880    2.99200    2.92150  -31.23390   96.20290   -9999.25   -9999.25   -9999.25   -9999.25   -9999.25    0.36600   53.31500   97.94540
 12038.00000    3.85460    2.97650    2.90710  -31.27630   98.26990   -9999.25   -9999.25   -9999.25   -9999.25   -9999.25    0.37350   52.89590   96.96530
 12038.50000    3.82010    2.96150    2.71870  -31.31870   99.60750   -9999.25   -9999.25   -9999.25   -9999.25   -9999.25    0.37780   52.47670   98.51100
 12039.00000    3.70600    2.90680    2.64160  -31.36040   97.89260   -9999.25   -9999.25   -9999.25   -9999.25   -9999.25    0.38540   52.43230  100.06860
 12039.50000    3.56110    2.82910    2.62020  -31.40420   95.47220   -9999.25   -9999.25   -9999.25   -9999.25   -9999.25    0.39630   52.73410  101.62630
 12040.00000    3.42180    2.75330    2.59890  -31.44500   89.99300   -9999.25   -9999.25   -9999.25   -9999.25   -9999.25    0.40520   52.72030  103.18400
 12040.50000    3.29800    2.67950    2.57770  -31.48000   84.57780   -9999.25   -9999.25   -9999.25   -9999.25   -9999.25    0.39640   52.52430  104.74160
 12041.00000    3.35800    2.60760    2.53820  -31.43680   83.80320   -9999.25   -9999.25   -9999.25   -9999.25   -9999.25    0.38890   52.85960  106.36730
 12041.50000    3.34160    2.51750    2.45110  -31.39590   86.12420   -9999.25   -9999.25   -9999.25   -9999.25   -9999.25    0.38140   53.07380  106.36730
 12042.00000    3.32290    2.55800    2.36700  -31.35120   87.93550   -9999.25   -9999.25   -9999.25   -9999.25   -9999.25    0.37800   53.07380  104.86490
 12042.50000    3.30430    2.62390    2.25870  -31.30830   89.05970   -9999.25   -9999.25   -9999.25   -9999.25   -9999.25    0.40680   53.07380  102.90320
 12043.00000    3.23910    2.69180    2.38450  -31.26510   89.61590   -9999.25   -9999.25   -9999.25   -9999.25   -9999.25    0.42450   53.89910  100.94150
 12043.50000    3.16530    2.76140    2.58900  -31.22170   88.69760   -9999.25   -9999.25   -9999.25   -9999.25   -9999.25    0.43350   54.04280   98.97980
 12044.00000    3.06860    2.83280    2.75410  -31.17850   86.31120   -9999.25   -9999.25   -9999.25   -9999.25   -9999.25    0.39390   54.07190   96.62140
 12044.50000    3.31110    2.90600    2.74310  -31.13520   82.83760   -9999.25   -9999.25   -9999.25   -9999.25   -9999.25    0.35650   54.07190   94.19160
 12045.00000    3.58310    2.98100    2.71850  -31.09200   82.21450   -9999.25   -9999.25   -9999.25   -9999.25   -9999.25    0.34250   54.07190   92.98050
 12045.50000    3.74150    3.05780    2.70490  -31.04880   88.20570   -9999.25   -9999.25   -9999.25   -9999.25   -9999.25    0.35730   54.07170   91.78240
