~Version ---------------------------------------------------
VERS.   2.0 : CWLS log ASCII Standard -VERSION 2.0
WRAP.    NO : One line per depth step
DLM . SPACE : Column Data Section Delimiter
~Well ------------------------------------------------------
STRT .F                 4610.0 : START DEPTH
STOP .F                12880.5 : STOP DEPTH
STEP .F                    0.5 : STEP
NULL .                -9999.25 : NULL VALUE
COMP .                         : COMPANY
WELL .                         : WELL
FLD  .                         : FIELD
LOC  .                         : LOCATION
PROV .                         : PROVINCE
CNTY .                         : COUNTY
STAT .                         : STATE
CTRY .                         : COUNTRY
SRVC .                         : SERVICE COMPANY
DATE .                         : DATE
UWI  .                         : UNIQUE WELL ID
API  .                         : API NUMBER
SLAT .WGS84  5.935362675678498 : SURFACE LATITUDE
SLON .WGS84 4.1218173947355865 : SURFACE LONGITUDE
DATUM.F                1904.53 : DEPTH DATUM ELEV
~Curve Information -----------------------------------------
DEPT .F     : 
SFLU .OHMM  : SPHERICALLY FOCUSED LOG UNAVERAGED RESISTIVITY
ILD  .OHMM  : INDUCTION LOG DEEP
ILM  .OHMM  : INDUCTION LOG MEDIUM
SPR  .MV    : SPONTANEOUS POTENTIAL FROM RES. LOG
GRR  .GAPI  : GAMMA RAY FROM RES. LOG
CALD .IN    : CALIPER FROM DENSITY LOG
RHOB .G/C3  : BULK DENSITY
DRHO .G/C3  : DENSITY CORRECTION
NPHI .DEC   : NEUTRON POROSITY LIMESTONE
DPHI .DEC   : DENSITY POROSITY LIMESTONE
NPHI1.DEC   : NEUTRON POROSITY LIMESTONE
DTCO .US/F  : COMPRESSIONAL-WAVE INTERVAL TRANSIT TIME ACOUSTIC SLOWNESS
DTSM .US/F  : Delta-T Shear Measurement
~Params ----------------------------------------------------
~Other -----------------------------------------------------
~ASCII -----------------------------------------------------
# ...
 10278.00000    6.90540    4.36580    4.92700  -34.95840  137.71010   -9999.25   -9999.25   -9999.25   -9999.25   -9999.25   -9999.25   -9999.25   -9999.25
 10278.50000    7.03100    4.81510    4.73180  -34.88640  135.82940   -9999.25   -9999.25   -9999.25   -9999.25   -9999.25   -9999.25   -9999.25   -9999.25
 10279.00000    6.72120    5.31050    5.14720  -34.81400  128.08960   -9999.25   -9999.25   -9999.25   -9999.25   -9999.25   -9999.25   -9999.25   -9999.25
 10279.50000    6.42510    5.85220    5.59110  -34.74270  111.78340   -9999.25   -9999.25   -9999.25   -9999.25   -9999.25   -9999.25   -9999.25   -9999.25
 10280.00000    6.90540    6.10750    5.97820  -34.66900  100.38120   -9999.25   -9999.25   -9999.25   -9999.25   -9999.25   -9999.25   -9999.25   -9999.25
 10280.50000    7.42170    6.14200    6.25670  -34.60620  106.89320   -9999.25   -9999.25   -9999.25   -9999.25   -9999.25   -9999.25   -9999.25   -9999.25
 10281.00000    8.12160    6.17670    6.49870  -34.54030  113.08950   -9999.25   -9999.25   -9999.25   -9999.25   -9999.25   -9999.25   -9999.25   -9999.25
 10281.50000    8.88750    6.28410    6.75000  -34.48270  118.78590   -9999.25   -9999.25   -9999.25   -9999.25   -9999.25   -9999.25   -9999.25   -9999.25
 10282.00000    9.55190    6.50580    7.01100  -34.42300  119.02460   -9999.25   -9999.25   -9999.25   -9999.25   -9999.25   -9999.25   -9999.25   -9999.25
 10282.50000    9.76960    6.73520    7.28220  -34.36430  116.56360   -9999.25   -9999.25   -9999.25   -9999.25   -9999.25   -9999.25   -9999.25   -9999.25
 10283.00000    9.95470    6.97260    7.56380  -34.30540  114.19230   -9999.25   -9999.25   -9999.25   -9999.25   -9999.25   -9999.25   -9999.25   -9999.25
 10283.50000   10.14340    7.21860    7.85630  -34.24640  115.56410   -9999.25   -9999.25   -9999.25   -9999.25   -9999.25   -9999.25   -9999.25   -9999.25
 10284.00000   10.33560    7.42220    7.97650  -34.18750  117.30900   -9999.25   -9999.25   -9999.25   -9999.25   -9999.25   -9999.25   -9999.25   -9999.25
 10284.50000   10.59500    7.38990    7.97650  -34.12860  117.64180    8.31230    2.68430   -0.01920    0.23250    0.01700   -9999.25   -9999.25   -9999.25
 10285.00000   11.03350    7.36400    7.97650  -34.06970  116.14480    8.31230    2.69130   -0.01800    0.22610    0.01440   -9999.25   -9999.25   -9999.25
 10285.50000   11.03350    7.33830    7.97650  -34.01070  116.58870    8.31490    2.68810   -0.01680    0.21980    0.01190   -9999.25   -9999.25   -9999.25
 10286.00000   11.03350    7.31240    7.84630  -33.95180  120.60680    8.31810    2.68040   -0.01550    0.22920    0.01520   -9999.25   -9999.25   -9999.25
 10286.50000   10.64280    7.16620    7.63400  -33.89300  125.78460    8.32140    2.67270   -0.01430    0.23860    0.01950   -9999.25   -9999.25   -9999.25
 10287.00000   10.26600    7.05640    7.42750  -33.82890  131.14700    8.32460    2.66500   -0.01330    0.24800    0.02380   -9999.25   -9999.25   -9999.25
 10287.50000    9.55190    6.88890    7.22650  -33.73600  131.29530    8.33400    2.66230   -0.01320    0.25290    0.02530   -9999.25   -9999.25   -9999.25
 10288.00000    8.99490    6.72530    7.03100  -33.63270  128.60710    8.32940    2.62690   -0.00990    0.26200    0.03760   -9999.25   -9999.25   -9999.25
 10288.50000    8.47040    6.56560    6.84080  -33.53070  126.04130    8.33260    2.60340   -0.00550    0.27140    0.05600   -9999.25   -9999.25   -9999.25
 10289.00000    8.26930    6.40970    6.65570  -33.42650  124.09360    8.33580    2.58810   -0.00120    0.27350    0.07180   -9999.25   -9999.25   -9999.25
 10289.50000    8.26930    6.25750    6.47560  -33.32650  124.31950    8.33910    2.59240    0.00210    0.27190    0.07350   -9999.25   -9999.25   -9999.25
 10290.00000    8.26930    6.11440    6.30040  -33.22250  123.93670    8.34210    2.60730    0.00030    0.25290    0.06090   -9999.25   -9999.25   -9999.25
 10290.50000    8.26930    5.97820    6.13000  -33.11190  122.08720    8.34540    2.61870   -0.00140    0.24430    0.04980   -9999.25   -9999.25   -9999.25
 10291.00000    8.26930    5.83300    5.96410  -33.14480  121.09130    8.34900    2.62910   -0.00030    0.25270    0.04610   -9999.25   -9999.25   -9999.25
 10291.50000    8.26930    5.69140    5.80260  -33.50890  121.29980    8.35050    2.60990    0.00210    0.26060    0.06400   -9999.25   -9999.25   -9999.25
 10292.00000    8.26930    5.55320    5.64550  -33.86250  121.36290    8.36100    2.50220    0.00420    0.26840    0.10230   -9999.25   -9999.25   -9999.25
 10292.50000    8.09240    5.41840    5.49280  -34.22510  119.95300    8.37780    2.43480    0.00620    0.27630    0.13970   -9999.25   -9999.25   -9999.25
 10293.00000    7.97650    5.28680    5.34450  -34.58630  119.96010    8.38910    2.39110    0.00440    0.28410    0.17700   -9999.25   -9999.25   -9999.25
 10293.50000    7.65950    5.15850    5.19990  -34.94670  120.16800    8.36640    2.37850    0.00240    0.28930    0.19530   -9999.25   -9999.25   -9999.25
 10294.00000    7.28910    5.03320    5.05910  -35.30590  120.42970    8.34680    2.40060    0.00040    0.28840    0.18750   -9999.25   -9999.25   -9999.25
 10294.50000    7.03100    4.91100    4.92140  -35.67100  121.61380    8.32500    2.41950    0.00160    0.29010    0.17910   -9999.25   -9999.25   -9999.25
 10295.00000    6.64590    4.81850    4.81270  -36.02710  123.47430    8.30430    2.42770    0.00360    0.29800    0.17070   -9999.25   -9999.25   -9999.25
 10295.50000    6.28190    4.95310    4.95670  -36.38390  126.43980    8.28340    2.43710    0.00540    0.30780    0.16240   -9999.25   -9999.25   -9999.25
 10296.00000    5.93790    5.06870    5.07940  -36.77950  128.61460    8.26240    2.46780    0.00620    0.31670    0.14800   -9999.25   -9999.25   -9999.25
 10296.50000    5.61270    5.18620    5.20570  -36.84890  128.54860    8.24140    2.50550    0.00110    0.29820    0.12520   -9999.25   -9999.25   -9999.25
 10297.00000    5.36540    5.28090    5.77960  -36.50830  128.69590    8.22070    2.54310   -0.00400    0.27580    0.10230   -9999.25   -9999.25   -9999.25
 10297.50000    6.19760    6.32810    6.76910  -36.20840  128.37570    8.19960    2.58100   -0.00930    0.24420    0.07940   -9999.25   -9999.25   -9999.25
 10298.00000   10.23140    7.35530    7.93100  -35.90330  125.28930    8.18970    2.61950   -0.01480    0.21260    0.05650   -9999.25   -9999.25   -9999.25
 10298.50000   16.89060    8.54850    9.29410  -35.59190  116.97330    8.18500    2.64570   -0.01740    0.18090    0.04080   -9999.25   -9999.25   -9999.25
 10299.00000   30.82460    9.93580   10.88270  -35.28680  107.11240    8.17990    2.65410   -0.01570    0.15740    0.03380   -9999.25   -9999.25   -9999.25
 10299.50000   31.95600   11.55050   12.74110  -34.97860  104.56500    8.17470    2.66080   -0.01450    0.15810    0.03080   -9999.25   -9999.25   -9999.25
 10300.00000   31.10600   13.43020   14.91690  -34.67110  102.30700    8.16970    2.66790   -0.01320    0.15980    0.02770   -9999.25   -9999.25   -9999.25
 10300.50000   29.73920   15.61770   16.76470  -34.36380  103.85730    8.16450    2.67450   -0.01180    0.16260    0.02470   -9999.25   -9999.25   -9999.25
 10301.00000   28.43340   17.64120   17.71000  -34.05660  105.11050    8.15960    2.67760   -0.01040    0.16540    0.02170   -9999.25   -9999.25   -9999.25
 10301.50000   27.66500   18.41240   18.70860  -33.74970  106.80060    8.15450    2.67690   -0.00920    0.16360    0.02050   -9999.25   -9999.25   -9999.25
 10302.00000   29.16000   19.08440   19.76350  -33.44150  103.45340    8.15420    2.66720   -0.00780    0.15700    0.02220   -9999.25   -9999.25   -9999.25
 10302.50000   33.69100   19.77060   21.96520  -33.13600   96.11800    8.15410    2.65020   -0.00960    0.15040    0.03280   -9999.25   -9999.25   -9999.25
 10303.00000   39.51990   20.49340   24.75770  -32.82760   91.88270    8.15420    2.63410   -0.01290    0.14470    0.04190   -9999.25   -9999.25   -9999.25
 10303.50000   46.35730   21.24250   26.68550  -32.51650   89.58960    8.15410    2.62120   -0.01620    0.14470    0.05090   -9999.25   -9999.25   -9999.25
