~Version ---------------------------------------------------
VERS.   2.0 : CWLS log ASCII Standard -VERSION 2.0
WRAP.    NO : One line per depth step
DLM . SPACE : Column Data Section Delimiter
~Well ------------------------------------------------------
STRT .F                 4610.0 : START DEPTH
STOP .F                12880.5 : STOP DEPTH
STEP .F                    0.5 : STEP
NULL .                -9999.25 : NULL VALUE
COMP .                         : COMPANY
WELL .                         : WELL
FLD  .                         : FIELD
LOC  .                         : LOCATION
PROV .                         : PROVINCE
CNTY .                         : COUNTY
STAT .                         : STATE
CTRY .                         : COUNTRY
SRVC .                         : SERVICE COMPANY
DATE .                         : DATE
UWI  .                         : UNIQUE WELL ID
API  .                         : API NUMBER
SLAT .WGS84  5.935362675678498 : SURFACE LATITUDE
SLON .WGS84 4.1218173947355865 : SURFACE LONGITUDE
DATUM.F                1904.53 : DEPTH DATUM ELEV
~Curve Information -----------------------------------------
DEPT .F     : 
SFLU .OHMM  : SPHERICALLY FOCUSED LOG UNAVERAGED RESISTIVITY
ILD  .OHMM  : INDUCTION LOG DEEP
ILM  .OHMM  : INDUCTION LOG MEDIUM
SPR  .MV    : SPONTANEOUS POTENTIAL FROM RES. LOG
GRR  .GAPI  : GAMMA RAY FROM RES. LOG
CALD .IN    : CALIPER FROM DENSITY LOG
RHOB .G/C3  : BULK DENSITY
DRHO .G/C3  : DENSITY CORRECTION
NPHI .DEC   : NEUTRON POROSITY LIMESTONE
DPHI .DEC   : DENSITY POROSITY LIMESTONE
NPHI1.DEC   : NEUTRON POROSITY LIMESTONE
DTCO .US/F  : COMPRESSIONAL-WAVE INTERVAL TRANSIT TIME ACOUSTIC SLOWNESS
DTSM .US/F  : Delta-T Shear Measurement
~Params ----------------------------------------------------
~Other -----------------------------------------------------
~ASCII -----------------------------------------------------
# ...
 4922.00000    6.79460    7.41270    6.25300  -30.54490   54.59090   -9999.25   -9999.25   -9999.25   -9999.25   -9999.25   -9999.25   -9999.25   -9999.25
 4922.50000    6.31030    7.56360    6.63700  -29.66760   56.37790   -9999.25   -9999.25   -9999.25   -9999.25   -9999.25   -9999.25   -9999.25   -9999.25
 4923.00000    8.29280    7.71810    7.04450  -28.82270   53.69570   -9999.25   -9999.25   -9999.25   -9999.25   -9999.25   -9999.25   -9999.25   -9999.25
 4923.50000   10.78330    7.87480    7.28910  -28.01590   49.13750   -9999.25   -9999.25   -9999.25   -9999.25   -9999.25   -9999.25   -9999.25   -9999.25
 4924.00000   14.72170    8.12160    7.28910  -27.00770   45.24500   10.46430    2.48620    0.00640    0.24100    0.13720   -9999.25   -9999.25   -9999.25
 4924.50000   11.75300    7.91740    6.74980  -27.64280   46.95760   10.46430    2.48620    0.00640    0.25350    0.14790   -9999.25   -9999.25   -9999.25
 4925.00000    6.79740    7.44230    6.14200  -28.93310   49.23300   10.46430    2.48620    0.00640    0.25920    0.16810   -9999.25   -9999.25   -9999.25
 4925.50000    6.08690    6.99560    5.58890  -30.00080   51.85300   10.46430    2.48620    0.00640    0.24960    0.13710   -9999.25   -9999.25   -9999.25
 4926.00000    6.19760    6.57580    5.17540  -32.03010   51.56980   10.46430    2.48620    0.00640    0.20770    0.10550   -9999.25   -9999.25   -9999.25
 4926.50000    6.66600    6.18110    5.55330  -35.56370   46.83540   10.46430    2.47110    0.00640    0.16100    0.09130   -9999.25   -9999.25   -9999.25
 4927.00000    7.08860    5.87140    5.87140  -38.94790   39.21430   10.46430    2.45830    0.00640    0.16280    0.12480   -9999.25   -9999.25   -9999.25
 4927.50000    7.55670    5.76650    5.87140  -42.42350   36.68890   10.47410    2.45410    0.00640    0.18120    0.14460   -9999.25   -9999.25   -9999.25
 4928.00000    7.55670    6.28790    5.87910  -43.83350   35.56520   10.46440    2.43920    0.00640    0.27820    0.18140   -9999.25   -9999.25   -9999.25
 4928.50000    7.68790    6.92200    6.65830  -44.58170   36.48440   10.46420    2.42530    0.00640    0.27040    0.22280   -9999.25   -9999.25   -9999.25
 4929.00000    8.07940    7.71510    7.41590  -43.88980   37.19140   10.46450    2.41920    0.00690    0.24370    0.18080   -9999.25   -9999.25   -9999.25
 4929.50000    8.49080    8.59820    8.26020  -42.71690   37.83370   10.46430    2.42100    0.00810    0.21690    0.13440   -9999.25   -9999.25   -9999.25
 4930.00000    8.92320    9.58170    9.20070  -41.53000   38.97420   10.46360    2.42950    0.00840    0.19010    0.05960   -9999.25   -9999.25   -9999.25
 4930.50000   10.62370   10.67720   10.24810  -40.36880   39.86870   10.46680    2.44130    0.00840    0.17490    0.06280   -9999.25   -9999.25   -9999.25
 4931.00000   13.28430   11.89810   11.41470  -39.20620   40.89920   10.43740    2.45320    0.00920    0.17800    0.07110   -9999.25   -9999.25   -9999.25
 4931.50000   16.61130   13.25910   12.71350  -38.03380   41.36290   10.38030    2.46480    0.00990    0.18120    0.07930   -9999.25   -9999.25   -9999.25
 4932.00000   21.11120   14.77730   14.16590  -37.44460   41.35390   10.32710    2.47650    0.01070    0.18400    0.08650   -9999.25   -9999.25   -9999.25
 4932.50000   20.00000   16.69060   15.78190  -37.08480   42.76630   10.27360    2.48820    0.01140    0.16870    0.07740   -9999.25   -9999.25   -9999.25
 4933.00000   20.14230   15.71070   17.00510  -36.71820   43.63920   10.21950    2.49990    0.01230    0.14740    0.06920   -9999.25   -9999.25   -9999.25
 4933.50000   20.44470   14.17690   13.94180  -36.34370   41.44910   10.16590    2.51160    0.01230    0.12600    0.06110   -9999.25   -9999.25   -9999.25
 4934.00000   20.73410   12.32620   11.58490  -35.97720   39.62600   10.11220    2.52340    0.01220    0.10470    0.05290   -9999.25   -9999.25   -9999.25
 4934.50000   14.63640   10.71660    9.62650  -35.60490   38.44810   10.05840    2.53510    0.01050    0.08810    0.04480   -9999.25   -9999.25   -9999.25
 4935.00000   10.52600    9.31630    7.99910  -35.23640   38.76810   10.00460    2.54650    0.00890    0.08700    0.03660   -9999.25   -9999.25   -9999.25
 4935.50000    7.15890    8.09830    6.64690  -34.86320   39.32900    9.95120    2.55880    0.00720    0.08420    0.02850   -9999.25   -9999.25   -9999.25
 4936.00000    6.84690    7.03940    5.96230  -34.21910   40.26610    9.89660    2.56330    0.00560    0.08140    0.02000   -9999.25   -9999.25   -9999.25
 4936.50000    6.42510    6.30560    5.97890  -33.02950   44.50410    9.84390    2.56250    0.00390    0.09700    0.03150   -9999.25   -9999.25   -9999.25
 4937.00000    6.44850    6.33880    6.04940  -31.84970   49.26830    9.79230    2.54800    0.00230    0.12740    0.04460   -9999.25   -9999.25   -9999.25
 4937.50000    6.47740    6.41120    6.12120  -30.62930   53.69660    9.78380    2.53060    0.00060    0.15780    0.08220   -9999.25   -9999.25   -9999.25
 4938.00000    6.50640    6.48430    6.19270  -29.44640   56.47440    9.77650    2.51290   -0.00100    0.18820    0.12310   -9999.25   -9999.25   -9999.25
 4938.50000    6.53560    6.54450    6.26360  -28.40530   58.76200    9.77100    2.49550   -0.00270    0.21860    0.16410   -9999.25   -9999.25   -9999.25
 4939.00000    6.98520    6.79280    6.35320  -28.49180   58.40480    9.76430    2.47800   -0.00430    0.23510    0.19510   -9999.25   -9999.25   -9999.25
 4939.50000    7.59590    7.00500    6.47570  -28.58100   57.67320    9.75800    2.46050   -0.00600    0.23390    0.19510   -9999.25   -9999.25   -9999.25
 4940.00000    8.26000    7.22760    6.60460  -28.69840   60.33060    9.75180    2.44300   -0.00770    0.22070    0.13960   -9999.25   -9999.25   -9999.25
 4940.50000    8.57280    7.42170    6.88890  -28.82830   65.10180    9.74540    2.42550   -0.00930    0.21190    0.08530   -9999.25   -9999.25   -9999.25
 4941.00000    8.35420    7.86180    7.31840  -28.92760   67.93550    9.73910    2.40800   -0.01100    0.21460    0.05910   -9999.25   -9999.25   -9999.25
 4941.50000    7.75440    8.26460    7.77460  -28.98030   69.71650    9.73280    2.39060   -0.01260    0.20760    0.05680   -9999.25   -9999.25   -9999.25
 4942.00000    7.15890    8.68790    8.25930  -30.20840   66.49050    9.72640    2.37300   -0.01430    0.17710    0.05450   -9999.25   -9999.25   -9999.25
 4942.50000    7.68020    9.13300    8.77420  -34.26130   59.93760    9.72000    2.35540   -0.01590    0.16640    0.05220   -9999.25   -9999.25   -9999.25
 4943.00000    8.78240    9.60090    9.32120  -38.22870   52.11330    9.71450    2.33850   -0.01760    0.16750    0.05670   -9999.25   -9999.25   -9999.25
 4943.50000   10.04270   10.09270    9.90490  -42.27560   44.93420    9.69850    2.32160   -0.01910    0.16860    0.06300   -9999.25   -9999.25   -9999.25
 4944.00000   11.05450   10.37170   10.14340  -46.30400   42.30020    9.67010    2.32160   -0.01920    0.18150    0.06930   -9999.25   -9999.25   -9999.25
 4944.50000   11.12530   10.10480   10.22540  -50.32520   41.28820    9.64270    2.32680   -0.01890    0.19110    0.07550   -9999.25   -9999.25   -9999.25
 4945.00000   11.19660    9.84470   10.30780  -54.36070   40.43970    9.61500    2.34380   -0.01740    0.18750    0.07200   -9999.25   -9999.25   -9999.25
 4945.50000   12.20650    9.59130   10.43210  -58.38060   39.53800    9.58730    2.36000   -0.01590    0.17250    0.05520   -9999.25   -9999.25   -9999.25
 4946.00000   14.48500    9.21370   10.42670  -62.41610   41.20890    9.55970    2.37680   -0.01450    0.15030    0.03830   -9999.25   -9999.25   -9999.25
 4946.50000   14.42480    9.23270   10.33280  -66.44600   45.59360    9.53200    2.39340   -0.01300    0.12530    0.01890   -9999.25   -9999.25   -9999.25
 4947.00000   14.48240    9.27400   10.24020  -70.43460   51.72440    9.50440    2.41000   -0.01160    0.12370    0.02050   -9999.25   -9999.25   -9999.25
 4947.50000   16.42800    9.31560   10.10290  -74.52840   57.55450    9.47680    2.42660   -0.01010    0.12180    0.02340   -9999.25   -9999.25   -9999.25
