~Version ---------------------------------------------------
VERS.   2.0 : CWLS log ASCII Standard -VERSION 2.0
WRAP.    NO : One line per depth step
DLM . SPACE : Column Data Section Delimiter
~Well ------------------------------------------------------
STRT .F                 4610.0 : START DEPTH
STOP .F                12880.5 : STOP DEPTH
STEP .F                    0.5 : STEP
NULL .                -9999.25 : NULL VALUE
COMP .                         : COMPANY
WELL .                         : WELL
FLD  .                         : FIELD
LOC  .                         : LOCATION
PROV .                         : PROVINCE
CNTY .                         : COUNTY
STAT .                         : STATE
CTRY .                         : COUNTRY
SRVC .                         : SERVICE COMPANY
DATE .                         : DATE
UWI  .                         : UNIQUE WELL ID
API  .                         : API NUMBER
SLAT .WGS84  5.935362675678498 : SURFACE LATITUDE
SLON .WGS84 4.1218173947355865 : SURFACE LONGITUDE
DATUM.F                1904.53 : DEPTH DATUM ELEV
~Curve Information -----------------------------------------
DEPT .F     : 
SFLU .OHMM  : SPHERICALLY FOCUSED LOG UNAVERAGED RESISTIVITY
ILD  .OHMM  : INDUCTION LOG DEEP
ILM  .OHMM  : INDUCTION LOG MEDIUM
SPR  .MV    : SPONTANEOUS POTENTIAL FROM RES. LOG
GRR  .GAPI  : GAMMA RAY FROM RES. LOG
CALD .IN    : CALIPER FROM DENSITY LOG
RHOB .G/C3  : BULK DENSITY
DRHO .G/C3  : DENSITY CORRECTION
NPHI .DEC   : NEUTRON POROSITY LIMESTONE
DPHI .DEC   : DENSITY POROSITY LIMESTONE
NPHI1.DEC   : NEUTRON POROSITY LIMESTONE
DTCO .US/F  : COMPRESSIONAL-WAVE INTERVAL TRANSIT TIME ACOUSTIC SLOWNESS
DTSM .US/F  : Delta-T Shear Measurement
~Params ----------------------------------------------------
~Other -----------------------------------------------------
~ASCII -----------------------------------------------------
# ...
 7808.00000   19.28590   11.43850   15.53960  -26.98110   72.17020    9.37040    2.54850    0.00690    0.16290    0.09800   -9999.25   -9999.25   -9999.25
 7808.50000   24.38570   11.26750   13.80140  -27.61000   67.93510    9.45720    2.46170   -0.00200    0.17310    0.11590   -9999.25   -9999.25   -9999.25
 7809.00000   22.16240   10.90920   10.70050  -28.31100   69.98540    9.52370    2.34970   -0.01070    0.18830    0.18290   -9999.25   -9999.25   -9999.25
 7809.50000   15.57270   10.56230    8.29630  -28.35210   72.98590    9.59270    2.25610   -0.01710    0.20350    0.24670   -9999.25   -9999.25   -9999.25
 7810.00000   11.45090   10.17220    6.66090  -28.38250   74.10320    9.66950    2.11780   -0.01080    0.21820    0.32790   -9999.25   -9999.25   -9999.25
 7810.50000    9.46930    9.84300    7.19540  -28.23210   72.03900    9.73100    2.12460   -0.00560    0.20000    0.29880   -9999.25   -9999.25   -9999.25
 7811.00000    8.26930    9.52440    7.86350  -27.94470   70.33520    9.80990    2.20810    0.00030    0.20970    0.29880   -9999.25   -9999.25   -9999.25
 7811.50000    9.18020    9.21610    8.58180  -27.66600   70.68810    9.89910    2.24570    0.00640    0.23240    0.27220   -9999.25   -9999.25   -9999.25
 7812.00000   10.32610    8.88750    9.36580  -27.38550   74.73770   10.11560    2.31780    0.01070    0.26400    0.22940   -9999.25   -9999.25   -9999.25
 7812.50000   11.61510    9.10640   10.22250  -27.10420   79.58370    9.96780    2.40320    0.01190    0.24000    0.18660   -9999.25   -9999.25   -9999.25
 7813.00000   13.06490    9.35700   11.15730  -26.82420   84.26000    9.84630    2.49850    0.01380    0.20020    0.14380   -9999.25   -9999.25   -9999.25
 7813.50000   14.69570    9.61450   11.86110  -26.54370   83.89470    9.72620    2.55310    0.01480    0.16040    0.09250   -9999.25   -9999.25   -9999.25
 7814.00000   16.70140    9.90250   11.85630  -26.26280   81.37490    9.89540    2.53100    0.02160    0.15180    0.09640   -9999.25   -9999.25   -9999.25
 7814.50000   16.70140   10.17880    9.84260  -25.98160   81.58360   10.05990    2.45970    0.03250    0.21160    0.13600   -9999.25   -9999.25   -9999.25
 7815.00000   14.33270   10.49050    8.03420  -25.70390   86.86410   10.18260    2.38810    0.03360    0.25780    0.17660   -9999.25   -9999.25   -9999.25
 7815.50000   11.57980   10.81170    7.15890  -25.41820   94.29040   10.18960    2.31610    0.02430    0.27770    0.21720   -9999.25   -9999.25   -9999.25
 7816.00000    9.21370   11.14270    8.49490  -25.14140  104.53630   10.01680    2.25900    0.01560    0.30670    0.26010   -9999.25   -9999.25   -9999.25
 7816.50000    9.04910   11.48390   10.49170  -24.86930  102.23450    9.77950    2.32140    0.00650    0.23990    0.21540   -9999.25   -9999.25   -9999.25
 7817.00000   10.18740   11.83560   12.95800  -24.54610   92.23660    9.55840    2.45780   -0.00240    0.19680    0.16800   -9999.25   -9999.25   -9999.25
 7817.50000   13.03270   12.19800   15.53960  -24.70930   81.67610    9.31890    2.44400   -0.01140    0.15370    0.14540   -9999.25   -9999.25   -9999.25
 7818.00000   16.67260   12.29360   15.82230  -25.30270   71.42940    9.29230    2.46000   -0.02030    0.10830    0.21610   -9999.25   -9999.25   -9999.25
 7818.50000   21.32630   12.51720    9.04910  -25.84630   63.32920    9.43430    2.18870   -0.02900    0.14630    0.27920   -9999.25   -9999.25   -9999.25
 7819.00000   18.83150   12.35580    9.58470  -26.39110   66.37980    9.55810    2.18960   -0.02890    0.25930    0.29800   -9999.25   -9999.25   -9999.25
 7819.50000   14.68330   12.21690   11.29280  -26.94660   72.80910    9.56840    2.30800   -0.02030    0.23850    0.29720   -9999.25   -9999.25   -9999.25
 7820.00000   12.29360   12.07400   13.30530  -27.49250   76.53550    9.53510    2.41200   -0.01220    0.19620    0.20760   -9999.25   -9999.25   -9999.25
 7820.50000   15.14370   12.67470   15.26210  -28.04560   69.73240    9.50110    2.52880   -0.00390    0.13990    0.09800   -9999.25   -9999.25   -9999.25
 7821.00000   18.94730   13.33200   14.05060  -28.59220   63.23740    9.46900    2.51710    0.00170    0.14520    0.10930   -9999.25   -9999.25   -9999.25
 7821.50000   18.94730   14.02340   12.51720  -29.14140   56.41210    9.43660    2.50380   -0.00070    0.15690    0.13200   -9999.25   -9999.25   -9999.25
 7822.00000   17.40700   14.75070   12.94860  -29.70400   54.23780    9.40400    2.49130   -0.00290    0.15350    0.12670   -9999.25   -9999.25   -9999.25
 7822.50000   16.40300   15.51580   14.17490  -29.92210   57.78320    9.36820    2.50550   -0.00530    0.13190    0.11860   -9999.25   -9999.25   -9999.25
 7823.00000   19.04590   16.32050   16.19310  -29.64170   58.97970    9.36940    2.52160   -0.00760    0.12250    0.11060   -9999.25   -9999.25   -9999.25
 7823.50000   21.11120   17.00510   16.04120  -29.42440   57.40730    9.40570    2.50370   -0.01000    0.15250    0.10590   -9999.25   -9999.25   -9999.25
 7824.00000   19.38880   15.57890   11.68950  -29.19030   53.75240    9.52420    2.42340   -0.01240    0.18260    0.15090   -9999.25   -9999.25   -9999.25
 7824.50000   15.59140   13.94150    8.95730  -28.95790   54.75310    9.75120    2.35660   -0.01460    0.21260    0.19470   -9999.25   -9999.25   -9999.25
 7825.00000   12.53770   12.47630    6.86530  -28.72870   56.95640    9.97600    2.29800   -0.01720    0.24270    0.24740   -9999.25   -9999.25   -9999.25
 7825.50000   10.08210   11.16500    6.06710  -28.49660   60.45010   10.19350    2.23940   -0.01920    0.27270    0.27740   -9999.25   -9999.25   -9999.25
 7826.00000    8.12160   10.14300    6.33620  -28.26570   63.37170   10.41190    2.18090   -0.02080    0.29720    0.33830   -9999.25   -9999.25   -9999.25
 7826.50000    7.69410    9.41920    7.04470  -28.03450   66.92520   10.42040    2.13220   -0.00970    0.30400    0.29880   -9999.25   -9999.25   -9999.25
 7827.00000    8.16030    8.74710    7.84280  -27.80420   70.36680   10.43120    2.15930    0.00320    0.31260    0.29880   -9999.25   -9999.25   -9999.25
 7827.50000    8.77290    8.12290    7.72000  -27.57270   73.84490   10.42230    2.19480    0.01560    0.32120    0.29880   -9999.25   -9999.25   -9999.25
 7828.00000    9.43150    7.55670    7.28050  -27.34180   77.33930   10.57760    2.22930    0.04100    0.32990    0.25770   -9999.25   -9999.25   -9999.25
 7828.50000   10.26600    7.61230    6.86470  -27.11380   80.79360   10.80800    2.26090    0.06410    0.33850    0.26450   -9999.25   -9999.25   -9999.25
 7829.00000   10.04630    7.86230    6.30160  -26.87710   84.26540   10.94510    2.23380    0.06960    0.34710    0.28410   -9999.25   -9999.25   -9999.25
 7829.50000    9.55380    8.12050    6.31800  -26.79040   87.80740   10.72490    2.19530    0.05580    0.35570    0.30370   -9999.25   -9999.25   -9999.25
 7830.00000    9.08550    8.41970    6.91530  -26.79720   91.10580   10.49820    2.16820    0.04130    0.36410    0.32330   -9999.25   -9999.25   -9999.25
 7830.50000    8.57280    8.77320    7.89550  -26.79800   95.28980   10.26100    2.21320    0.02660    0.35410    0.28420   -9999.25   -9999.25   -9999.25
 7831.00000    8.57280    9.14150    9.19800  -26.79750   93.85460   10.02940    2.28400    0.01200    0.33270    0.24280   -9999.25   -9999.25   -9999.25
 7831.50000    8.72870    9.52530   10.71530  -26.79450   90.58970    9.79530    2.36650   -0.00250    0.31130    0.20140   -9999.25   -9999.25   -9999.25
 7832.00000   10.58540    9.90250   12.48290  -26.80510   87.31930    9.66540    2.44690   -0.01810    0.29740    0.16360   -9999.25   -9999.25   -9999.25
 7832.50000   13.27240   11.81670   14.54200  -26.79220   84.15380    9.59910    2.52720   -0.02650    0.22920    0.08420   -9999.25   -9999.25   -9999.25
 7833.00000   16.64130   13.96990   16.94090  -26.76240   80.87290    9.53150    2.60750   -0.02580    0.17120    0.01660   -9999.25   -9999.25   -9999.25
 7833.50000   20.86530   16.51550   19.36790  -26.20950   77.74140    9.46380    2.68820   -0.02620    0.16730    0.00460   -9999.25   -9999.25   -9999.25
