~Version ---------------------------------------------------
VERS.   2.0 : CWLS log ASCII Standard -VERSION 2.0
WRAP.    NO : One line per depth step
DLM . SPACE : Column Data Section Delimiter
~Well ------------------------------------------------------
STRT .F                 4610.0 : START DEPTH
STOP .F                12880.5 : STOP DEPTH
STEP .F                    0.5 : STEP
NULL .                -9999.25 : NULL VALUE
COMP .                         : COMPANY
WELL .                         : WELL
FLD  .                         : FIELD
LOC  .                         : LOCATION
PROV .                         : PROVINCE
CNTY .                         : COUNTY
STAT .                         : STATE
CTRY .                         : COUNTRY
SRVC .                         : SERVICE COMPANY
DATE .                         : DATE
UWI  .                         : UNIQUE WELL ID
API  .                         : API NUMBER
SLAT .WGS84  5.935362675678498 : SURFACE LATITUDE
SLON .WGS84 4.1218173947355865 : SURFACE LONGITUDE
DATUM.F                1904.53 : DEPTH DATUM ELEV
~Curve Information -----------------------------------------
DEPT .F     : 
SFLU .OHMM  : SPHERICALLY FOCUSED LOG UNAVERAGED RESISTIVITY
ILD  .OHMM  : INDUCTION LOG DEEP
ILM  .OHMM  : INDUCTION LOG MEDIUM
SPR  .MV    : SPONTANEOUS POTENTIAL FROM RES. LOG
GRR  .GAPI  : GAMMA RAY FROM RES. LOG
CALD .IN    : CALIPER FROM DENSITY LOG
RHOB .G/C3  : BULK DENSITY
DRHO .G/C3  : DENSITY CORRECTION
NPHI .DEC   : NEUTRON POROSITY LIMESTONE
DPHI .DEC   : DENSITY POROSITY LIMESTONE
NPHI1.DEC   : NEUTRON POROSITY LIMESTONE
DTCO .US/F  : COMPRESSIONAL-WAVE INTERVAL TRANSIT TIME ACOUSTIC SLOWNESS
DTSM .US/F  : Delta-T Shear Measurement
~Params ----------------------------------------------------
~Other -----------------------------------------------------
~ASCII -----------------------------------------------------
# ...
 12774.00000   16.03240   10.50730   10.64280  -17.84230   86.98060   -9999.25   -9999.25   -9999.25   -9999.25   -9999.25    0.13850   74.16370  131.49580
 12774.50000   14.68200   10.54990   10.78770  -17.85890   85.64900   -9999.25   -9999.25   -9999.25   -9999.25   -9999.25    0.13490   74.08630  131.41940
 12775.00000   14.76240   10.59270   10.90990  -17.87540   85.58240   -9999.25   -9999.25   -9999.25   -9999.25   -9999.25    0.14310   73.91220  131.34040
 12775.50000   16.44890   10.63530   11.03350  -17.89200   85.26500   -9999.25   -9999.25   -9999.25   -9999.25   -9999.25    0.15320   73.50980  131.00050
 12776.00000   17.91600   10.31970   10.75300  -17.90850   86.22820   -9999.25   -9999.25   -9999.25   -9999.25   -9999.25    0.15540   73.41750  130.31940
 12776.50000   17.11150    9.90850   10.47970  -17.92510   88.13570   -9999.25   -9999.25   -9999.25   -9999.25   -9999.25    0.14850   74.00640  131.35160
 12777.00000   15.12510   10.03960   10.26600  -17.94160   90.24140   -9999.25   -9999.25   -9999.25   -9999.25   -9999.25    0.14280   74.62670  132.46260
 12777.50000   12.74490   10.28590   10.70200  -17.95820   91.09100   -9999.25   -9999.25   -9999.25   -9999.25   -9999.25    0.14130   74.41790  132.90970
 12778.00000   12.97670   10.53900   11.07950  -17.97470   90.54970   -9999.25   -9999.25   -9999.25   -9999.25   -9999.25    0.14760   74.18210  133.46770
 12778.50000   14.23250   10.79740   11.47030  -17.99130   82.94440   -9999.25   -9999.25   -9999.25   -9999.25   -9999.25    0.15610   74.09110  134.11860
 12779.00000   17.13970   11.06000   11.87370  -18.00780   79.52930   -9999.25   -9999.25   -9999.25   -9999.25   -9999.25    0.15930   74.25880  134.76950
 12779.50000   20.64090   11.43850   12.30000  -18.02440   79.81620   -9999.25   -9999.25   -9999.25   -9999.25   -9999.25    0.15160   74.44230  134.93480
 12780.00000   23.95010   11.29290   12.29130  -18.04090   82.94240   -9999.25   -9999.25   -9999.25   -9999.25   -9999.25    0.13670   74.36750  132.60820
 12780.50000   22.51490   11.05450   11.95910  -18.05750   85.87890   -9999.25   -9999.25   -9999.25   -9999.25   -9999.25    0.12890   74.03240  130.30070
 12781.00000   19.30970   10.82100   11.55610  -18.07400   88.32960   -9999.25   -9999.25   -9999.25   -9999.25   -9999.25    0.12600   73.39290  127.99200
 12781.50000   16.54770   10.59250   11.16620  -18.09050   90.52380   -9999.25   -9999.25   -9999.25   -9999.25   -9999.25    0.12370   72.74620  126.18760
 12782.00000   14.87140   10.36880   10.78850  -18.10710   92.68120   -9999.25   -9999.25   -9999.25   -9999.25   -9999.25    0.12570   72.23550  125.72850
 12782.50000   13.79330   10.14980   10.42270  -18.12360   93.40980   -9999.25   -9999.25   -9999.25   -9999.25   -9999.25    0.13470   72.46840  128.83830
 12783.00000   12.98220    9.93550   10.06870  -18.14000   94.16470   -9999.25   -9999.25   -9999.25   -9999.25   -9999.25    0.14730   73.02730  132.66110
 12783.50000   14.06900    9.72560    9.72680  -18.15720   91.33490   -9999.25   -9999.25   -9999.25   -9999.25   -9999.25    0.16000   73.09250  136.48380
 12784.00000   15.03940    9.85540    9.21810  -18.17230   86.35710   -9999.25   -9999.25   -9999.25   -9999.25   -9999.25    0.17210   72.86890  138.07770
 12784.50000   16.08050    9.98690    9.34040  -18.19060   82.80000   -9999.25   -9999.25   -9999.25   -9999.25   -9999.25    0.17210   73.56500  139.23840
 12785.00000   15.82230   10.12010    9.68580  -18.20830   85.33970   -9999.25   -9999.25   -9999.25   -9999.25   -9999.25    0.16300   74.32050  139.92020
 12785.50000   14.39370   10.25510   10.04490  -18.27800   89.12080   -9999.25   -9999.25   -9999.25   -9999.25   -9999.25   -9999.25   74.95680  139.22370
 12786.00000   13.69770   10.39190   10.41800  -18.33620   90.42280   -9999.25   -9999.25   -9999.25   -9999.25   -9999.25   -9999.25   74.35000  138.53140
 12786.50000   14.68380   10.53060   10.79740  -18.39880   89.66750   -9999.25   -9999.25   -9999.25   -9999.25   -9999.25   -9999.25   73.63270  138.67510
 12787.00000   17.47110   10.64280   11.43850  -18.45940   88.88380   -9999.25   -9999.25   -9999.25   -9999.25   -9999.25   -9999.25   73.73090  139.25290
 12787.50000   20.78760   10.52840   11.23420  -18.52030   89.00580   -9999.25   -9999.25   -9999.25   -9999.25   -9999.25   -9999.25   73.93210  138.49980
 12788.00000   22.68950   10.43390   10.87830  -18.58170   91.02280   -9999.25   -9999.25   -9999.25   -9999.25   -9999.25   -9999.25   74.31360  137.61280
 12788.50000   19.38690   10.34030   10.53380  -18.64280   93.97580   -9999.25   -9999.25   -9999.25   -9999.25   -9999.25   -9999.25   74.87250  136.71160
 12789.00000   17.00510   10.26600   10.26600  -18.70350   97.33790   -9999.25   -9999.25   -9999.25   -9999.25   -9999.25   -9999.25   74.63860  135.38920
 12789.50000   14.91590   10.60450   10.70700  -18.76550   96.90030   -9999.25   -9999.25   -9999.25   -9999.25   -9999.25   -9999.25   74.10170  133.15370
 12790.00000   12.74490   10.83640   11.08890  -18.82560   92.70980   -9999.25   -9999.25   -9999.25   -9999.25   -9999.25   -9999.25   73.62750  132.56820
 12790.50000   13.66680   10.66680   11.48440  -18.88610   86.71300   -9999.25   -9999.25   -9999.25   -9999.25   -9999.25   -9999.25   73.86930  133.73940
 12791.00000   16.27420   10.45860   11.64650  -18.95390   80.69730   -9999.25   -9999.25   -9999.25   -9999.25   -9999.25   -9999.25   74.12080  133.92230
 12791.50000   19.37900   10.25440   11.17200  -18.96150   77.15850   -9999.25   -9999.25   -9999.25   -9999.25   -9999.25   -9999.25   74.37230  134.11180
 12792.00000   22.08430   10.05430   10.60600  -18.88550   74.63660   -9999.25   -9999.25   -9999.25   -9999.25   -9999.25   -9999.25   74.38350  132.31720
 12792.50000   19.45010    9.85800   10.06870  -18.81740   73.04040   -9999.25   -9999.25   -9999.25   -9999.25   -9999.25   -9999.25   74.09880  130.45610
 12793.00000   16.77690    9.66560    9.55850  -18.74790   78.50080   -9999.25   -9999.25   -9999.25   -9999.25   -9999.25   -9999.25   73.30100  128.59500
 12793.50000   14.47030    9.46620    9.07430  -18.67740   84.23320   -9999.25   -9999.25   -9999.25   -9999.25   -9999.25   -9999.25   72.36760  126.72870
 12794.00000   12.10970    9.25530    8.85320  -18.60790   92.02050   -9999.25   -9999.25   -9999.25   -9999.25   -9999.25   -9999.25   71.43710  126.60140
 12794.50000   12.32610    9.04910    8.79640  -18.53820   96.25790   -9999.25   -9999.25   -9999.25   -9999.25   -9999.25   -9999.25   71.43710  126.29290
 12795.00000   12.53850    8.72870    8.72870  -18.46830   94.59260   -9999.25   -9999.25   -9999.25   -9999.25   -9999.25   -9999.25   71.43710  128.73710
 12795.50000   13.95390    8.82150    8.72870  -18.39790   92.46730   -9999.25   -9999.25   -9999.25   -9999.25   -9999.25   -9999.25   72.57690  131.67900
 12796.00000   15.55270    9.05760    8.95640  -18.33010   91.14550   -9999.25   -9999.25   -9999.25   -9999.25   -9999.25   -9999.25   74.08580  134.63440
 12796.50000   15.51850    9.30000    9.19000  -18.25720   90.60000   -9999.25   -9999.25   -9999.25   -9999.25   -9999.25   -9999.25   75.24300  135.70860
 12797.00000   14.82940    9.54900    9.42970  -18.19580   90.23160   -9999.25   -9999.25   -9999.25   -9999.25   -9999.25   -9999.25   74.90200  134.20760
 12797.50000   13.96870    9.80460    9.67570  -18.08960   89.14730   -9999.25   -9999.25   -9999.25   -9999.25   -9999.25   -9999.25   74.18360  132.19560
 12798.00000   14.17900   10.06700    9.92810  -18.00050   86.89540   -9999.25   -9999.25   -9999.25   -9999.25   -9999.25   -9999.25   73.45610  130.18360
 12798.50000   14.61440   10.33640   10.18660  -17.90580   84.94030   -9999.25   -9999.25   -9999.25   -9999.25   -9999.25   -9999.25   72.73180  128.79770
 12799.00000   14.97250   10.61310   10.45180  -17.81350   82.56820   -9999.25   -9999.25   -9999.25   -9999.25   -9999.25   -9999.25   72.00750  129.07200
 12799.50000   14.73330   10.89720   10.72370  -17.72090   83.37320   -9999.25   -9999.25   -9999.25   -9999.25   -9999.25   -9999.25   71.63670  129.32140
