~Version ---------------------------------------------------
VERS.   2.0 : CWLS log ASCII Standard -VERSION 2.0
WRAP.    NO : One line per depth step
DLM . SPACE : Column Data Section Delimiter
~Well ------------------------------------------------------
STRT .F                 4610.0 : START DEPTH
STOP .F                12880.5 : STOP DEPTH
STEP .F                    0.5 : STEP
NULL .                -9999.25 : NULL VALUE
COMP .                         : COMPANY
WELL .                         : WELL
FLD  .                         : FIELD
LOC  .                         : LOCATION
PROV .                         : PROVINCE
CNTY .                         : COUNTY
STAT .                         : STATE
CTRY .                         : COUNTRY
SRVC .                         : SERVICE COMPANY
DATE .                         : DATE
UWI  .                         : UNIQUE WELL ID
API  .                         : API NUMBER
SLAT .WGS84  5.935362675678498 : SURFACE LATITUDE
SLON .WGS84 4.1218173947355865 : SURFACE LONGITUDE
DATUM.F                1904.53 : DEPTH DATUM ELEV
~Curve Information -----------------------------------------
DEPT .F     : 
SFLU .OHMM  : SPHERICALLY FOCUSED LOG UNAVERAGED RESISTIVITY
ILD  .OHMM  : INDUCTION LOG DEEP
ILM  .OHMM  : INDUCTION LOG MEDIUM
SPR  .MV    : SPONTANEOUS POTENTIAL FROM RES. LOG
GRR  .GAPI  : GAMMA RAY FROM RES. LOG
CALD .IN    : CALIPER FROM DENSITY LOG
RHOB .G/C3  : BULK DENSITY
DRHO .G/C3  : DENSITY CORRECTION
NPHI .DEC   : NEUTRON POROSITY LIMESTONE
DPHI .DEC   : DENSITY POROSITY LIMESTONE
NPHI1.DEC   : NEUTRON POROSITY LIMESTONE
DTCO .US/F  : COMPRESSIONAL-WAVE INTERVAL TRANSIT TIME ACOUSTIC SLOWNESS
DTSM .US/F  : Delta-T Shear Measurement
~Params ----------------------------------------------------
~Other -----------------------------------------------------
~ASCII -----------------------------------------------------
# ...
 11006.00000    5.69490    4.08220    4.16880  -34.87710  111.87070   -9999.25   -9999.25   -9999.25   -9999.25   -9999.25    0.20480   79.18490  175.02470
 11006.50000    5.19940    4.03320    4.08790  -34.95650  112.27310   -9999.25   -9999.25   -9999.25   -9999.25   -9999.25    0.20820   80.05110  178.27760
 11007.00000    5.06990    3.98480    4.07370  -35.03550  110.54990   -9999.25   -9999.25   -9999.25   -9999.25   -9999.25    0.21180   79.93270  181.84890
 11007.50000    4.94410    3.93710    4.05960  -35.11370  110.08610   -9999.25   -9999.25   -9999.25   -9999.25   -9999.25    0.21620   79.78900  185.42020
 11008.00000    4.75840    3.88970    4.04550  -35.19250  112.49320   -9999.25   -9999.25   -9999.25   -9999.25   -9999.25    0.22480   79.64170  188.99140
 11008.50000    4.86890    3.84310    4.03140  -35.27090  114.90090   -9999.25   -9999.25   -9999.25   -9999.25   -9999.25    0.23350   79.98300  193.19360
 11009.00000    4.99480    3.80950    4.02120  -35.34940  115.54470   -9999.25   -9999.25   -9999.25   -9999.25   -9999.25    0.24020   80.09560  193.59430
 11009.50000    4.96600    3.80960    4.03450  -35.42780  114.74690   -9999.25   -9999.25   -9999.25   -9999.25   -9999.25    0.23540   79.82430  193.98130
 11010.00000    4.93210    3.83950    4.06270  -35.50620  112.27430   -9999.25   -9999.25   -9999.25   -9999.25   -9999.25    0.22320   79.75050  193.97540
 11010.50000    4.90300    3.86730    4.09110  -35.58470  107.05630   -9999.25   -9999.25   -9999.25   -9999.25   -9999.25    0.21100   80.21960  193.13710
 11011.00000    5.04940    3.89540    4.11960  -35.66320  105.33970   -9999.25   -9999.25   -9999.25   -9999.25   -9999.25    0.20490   80.98600  192.29870
 11011.50000    5.17540    3.92360    4.14840  -35.74170  105.84960   -9999.25   -9999.25   -9999.25   -9999.25   -9999.25    0.20330   82.21560  191.46040
 11012.00000    5.16200    3.95210    4.16880  -35.81990  106.00920   -9999.25   -9999.25   -9999.25   -9999.25   -9999.25    0.20200   83.30540  189.87920
 11012.50000    5.14970    3.98080    4.16880  -35.89900  104.66440   -9999.25   -9999.25   -9999.25   -9999.25   -9999.25    0.20200   84.31140  187.95860
 11013.00000    5.13750    4.00970    4.16880  -35.97700  104.25230   -9999.25   -9999.25   -9999.25   -9999.25   -9999.25    0.20200   84.59910  184.22630
 11013.50000    5.12520    4.03890    4.16880  -36.05460  105.38290   -9999.25   -9999.25   -9999.25   -9999.25   -9999.25    0.20200   83.90740  178.71070
 11014.00000    5.11310    4.06820    4.16880  -36.13780  108.71700   -9999.25   -9999.25   -9999.25   -9999.25   -9999.25    0.20320   83.21580  173.19730
 11014.50000    5.10090    4.09430    4.20890  -36.16690  111.67490   -9999.25   -9999.25   -9999.25   -9999.25   -9999.25    0.20620   82.54890  167.67900
 11015.00000    5.08300    4.15220    4.28810  -36.14430  114.99410   -9999.25   -9999.25   -9999.25   -9999.25   -9999.25    0.20720   81.87630  162.17300
 11015.50000    5.11310    4.20470    4.36870  -36.12720  116.45910   -9999.25   -9999.25   -9999.25   -9999.25   -9999.25    0.19460   81.09180  156.64840
 11016.00000    5.17540    4.25780    4.45080  -36.10980  117.27390   -9999.25   -9999.25   -9999.25   -9999.25   -9999.25    0.18020   81.59480  152.34580
 11016.50000    5.26950    4.31170    4.53450  -36.09130  117.65240   -9999.25   -9999.25   -9999.25   -9999.25   -9999.25    0.16970   82.01600  148.09160
 11017.00000    5.71190    4.36620    4.61980  -36.07380  118.10000   -9999.25   -9999.25   -9999.25   -9999.25   -9999.25    0.16410   80.15670  142.00540
 11017.50000    5.92240    4.42140    4.70660  -36.05580  118.56330   -9999.25   -9999.25   -9999.25   -9999.25   -9999.25    0.15850   78.22850  135.91600
 11018.00000    6.03410    4.48050    4.64490  -36.03790  118.61290   -9999.25   -9999.25   -9999.25   -9999.25   -9999.25    0.15280   77.22550  129.83360
 11018.50000    6.08940    4.45920    4.72940  -36.02010  118.62580   -9999.25   -9999.25   -9999.25   -9999.25   -9999.25    0.15420   77.59830  124.44010
 11019.00000    6.02370    4.43690    4.65980  -36.00230  114.56800   -9999.25   -9999.25   -9999.25   -9999.25   -9999.25    0.16850   78.42910  121.93610
 11019.50000    5.96760    4.41460    4.59990  -35.98450  109.24510   -9999.25   -9999.25   -9999.25   -9999.25   -9999.25    0.18230   80.46560  125.68800
 11020.00000    5.91220    4.39250    4.54090  -35.96660  103.51520   -9999.25   -9999.25   -9999.25   -9999.25   -9999.25    0.19800   82.84340  131.86770
 11020.50000    5.86690    4.37050    4.48260  -35.94880  106.21560   -9999.25   -9999.25   -9999.25   -9999.25   -9999.25    0.18840   84.61080  138.04730
 11021.00000    5.64020    4.34860    4.42500  -35.93100  111.76450   -9999.25   -9999.25   -9999.25   -9999.25   -9999.25    0.17010   83.05920  139.79710
 11021.50000    5.45580    4.32680    4.32180  -35.91310  117.18390   -9999.25   -9999.25   -9999.25   -9999.25   -9999.25    0.15080   80.60010  139.30880
 11022.00000    5.26950    4.54790    4.76500  -35.89530  122.45330   -9999.25   -9999.25   -9999.25   -9999.25   -9999.25    0.13150   77.40990  138.07060
 11022.50000    5.45640    4.85810    5.17910  -35.87750  126.81390   -9999.25   -9999.25   -9999.25   -9999.25   -9999.25    0.11220   74.08570  136.90620
 11023.00000    5.79570    5.18940    5.62920  -35.85970  124.68030   -9999.25   -9999.25   -9999.25   -9999.25   -9999.25    0.09290   70.76160  133.02340
 11023.50000    6.08690    5.54340    6.12200  -35.84180  120.06580   -9999.25   -9999.25   -9999.25   -9999.25   -9999.25    0.07360   67.43750  129.35870
 11024.00000    8.07960    5.92140    6.65330  -35.82400  108.65000   -9999.25   -9999.25   -9999.25   -9999.25   -9999.25    0.06550   65.08140  126.72650
 11024.50000   10.25630    6.32530    7.23190  -35.80620   95.78560   -9999.25   -9999.25   -9999.25   -9999.25   -9999.25    0.08000   65.19320  128.36130
 11025.00000   13.01930    6.75670    7.86140  -35.78830   86.58850   -9999.25   -9999.25   -9999.25   -9999.25   -9999.25    0.10090   65.84830  129.87030
 11025.50000   17.39820    7.21750    8.15900  -35.77050   76.06470   -9999.25   -9999.25   -9999.25   -9999.25   -9999.25    0.12380   68.22160  131.37920
 11026.00000   16.95110    7.70970    8.21160  -35.75270   78.22210   -9999.25   -9999.25   -9999.25   -9999.25   -9999.25    0.12460   72.03590  132.27270
 11026.50000   13.71510    8.12160    8.27380  -35.73490   82.50150   -9999.25   -9999.25   -9999.25   -9999.25   -9999.25    0.12160   72.16770  131.90070
 11027.00000   11.12230    8.12660    8.18000  -35.71700   87.22310   -9999.25   -9999.25   -9999.25   -9999.25   -9999.25    0.11860   72.10280  131.53120
 11027.50000    9.71230    7.95840    7.95780  -35.69920   88.65650   -9999.25   -9999.25   -9999.25   -9999.25   -9999.25    0.11790   71.85130  131.15500
 11028.00000    9.74510    7.69290    7.74470  -35.68140   86.78130   -9999.25   -9999.25   -9999.25   -9999.25   -9999.25    0.11810   71.63430  130.91820
 11028.50000   10.50550    7.43590    7.53730  -35.66360   83.23020   -9999.25   -9999.25   -9999.25   -9999.25   -9999.25    0.12210   71.73350  131.77690
 11029.00000   10.62270    7.18720    7.33550  -35.64570   80.07320   -9999.25   -9999.25   -9999.25   -9999.25   -9999.25    0.13770   72.37930  132.68220
 11029.50000   10.02520    6.90210    7.13910  -35.62790   79.71300   -9999.25   -9999.25   -9999.25   -9999.25   -9999.25    0.13570   73.03390  133.58760
 11030.00000    9.09330    6.96620    7.03100  -35.61010   85.74670   -9999.25   -9999.25   -9999.25   -9999.25   -9999.25    0.11850   72.91420  134.51100
 11030.50000    7.96780    7.10140    7.36970  -35.59230   95.13460   -9999.25   -9999.25   -9999.25   -9999.25   -9999.25    0.09520   72.23550  132.47730
 11031.00000    8.51410    7.23970    7.71080  -35.57440   93.94310   -9999.25   -9999.25   -9999.25   -9999.25   -9999.25    0.08900   70.66170  130.40250
 11031.50000    9.84470    7.38150    8.06760  -35.55660   92.13180   -9999.25   -9999.25   -9999.25   -9999.25   -9999.25    0.08700   69.06890  128.32760
