~Version ---------------------------------------------------
VERS.   2.0 : CWLS log ASCII Standard -VERSION 2.0
WRAP.    NO : One line per depth step
DLM . SPACE : Column Data Section Delimiter
~Well ------------------------------------------------------
STRT .F                   25.0 : START DEPTH
STOP .F                 7975.0 : STOP DEPTH
STEP .F                    0.5 : STEP
NULL .                -9999.25 : NULL VALUE
COMP .                         : COMPANY
WELL .                         : WELL
FLD  .                         : FIELD
LOC  .                         : LOCATION
PROV .                         : PROVINCE
CNTY .                         : COUNTY
STAT .                         : STATE
CTRY .                         : COUNTRY
SRVC .                         : SERVICE COMPANY
DATE .                         : DATE
UWI  .                         : UNIQUE WELL ID
API  .                         : API NUMBER
SLAT .WGS84 1.6610476411741963 : SURFACE LATITUDE
SLON .WGS84  6.473241823747003 : SURFACE LONGITUDE
DATUM.F                2716.67 : DEPTH DATUM ELEV
~Curve Information -----------------------------------------
DEPT   .F     : 
GRR    .GAPI  : GAMMA RAY FROM RESISTIVITY LOG
TENR   .LB    : TENSION FROM RESISTIVITY LOG
SPR    .MV    : SPONTANEOUS POTENTIAL FROM RESISTIVITY LOG
LLS    .OHMM  : LATEROLOG SHALLOW RESISTIVITY
LLD    .OHMM  : LATEROLOG DEEP RESISTIVITY
SFLU   .OHMM  : SHALLOW FOCUSED RESISTIVITY (UNAVERAGED)
ILD    .OHMM  : INDUCTION DEEP RESISTIVITY
ILM    .OHMM  : INDUCTION MEDIUM RESISTIVITY
CGR    .GAPI  : CORRECTED GAMMA RAY
SGR    .GAPI  : SPECTROSCOPY GAMMA RAY
DRHO   .G/C3  : BULK DENSITY CORRECTION
RHOB   .G/C3  : BULK DENSITY
CALD   .IN    : CALIPER FROM DENSITY LOG
TEND   .LB    : TENSION FROM DENSITY LOG
NPHI_LS.DEC   : NEUTRON POROSITY LIMESTONE
PEF    .B/E   : PHOTOELECTRIC FACTOR
DPHI_LS.DEC   : DENSITY POROSITY LIMESTONE
DTCO   .US/F  : DELTA-T COMPRESSIONAL
GRS    .GAPI  : GAMMA RAY FROM SONIC LOG
DTST   .US/F  : DELTA-T STONELEY - MONOPOLE STONELEY
DTSM   .US/F  : DELTA-T SHEAR
~Params ----------------------------------------------------
~Other -----------------------------------------------------
~ASCII -----------------------------------------------------
# ...
 6080.50000   83.49420 2228.47560   -4.02180   -9999.25   -9999.25    8.47720    7.50110    7.98540   62.91330   90.40840    0.05920    2.57280    9.43990 12663.03710    0.23180    3.54110    0.08060   76.80640   96.14900  205.15360  133.13990
 6081.00000   86.56900 2228.90920   -4.14590   -9999.25   -9999.25    8.96130    7.61270    8.03060   58.43800   80.66640    0.04790    2.59300    9.45240 12671.34960    0.23220    3.71080    0.06840   75.48040   84.54600  205.11760  132.34310
 6081.50000   92.73250 2229.34280   -4.27000   -9999.25   -9999.25    9.47800    7.74600    8.07600   60.06720   80.75860    0.02980    2.60560    9.43670 12674.77640    0.24030    3.51310    0.06100   75.17550   80.75660  204.35350  135.46280
 6082.00000   99.96930 2229.77640   -4.38580   -9999.25   -9999.25   10.03050    7.88170    8.21660   72.21380   95.57640    0.01550    2.60810    9.31380 12682.30660    0.23770    3.12300    0.05990   76.34100   84.68310  203.28530  134.69490
 6082.50000  108.07310 2230.21000   -4.58590   -9999.25   -9999.25   10.60090    8.01980    8.38950   79.39920  107.63540    0.00910    2.59270    9.28920 12661.91700    0.22160    2.94420    0.06860   76.38220   92.04490  202.18780  132.66610
 6083.00000  115.82910 2230.64360   -4.80990   -9999.25   -9999.25   10.77600    8.16030    8.57050   80.68610  108.49420    0.00670    2.57580    9.30550 12611.57230    0.21590    2.97450    0.07850   75.65660   98.97280  199.76320  129.09450
 6083.50000  121.60560 2231.07710   -5.04980   -9999.25   -9999.25   10.39920    8.32080    8.75550   81.36900  108.94710    0.00550    2.56390    9.32050 12639.36330    0.22550    3.00440    0.08550   75.58210  104.93280  198.99630  129.50170
 6084.00000  123.89770 2231.51070   -5.28980   -9999.25   -9999.25   10.53660    8.52240    8.94440   83.44620  112.21260    0.00600    2.55720    9.31960 12674.56740    0.24140    2.95810    0.09090   77.40000  110.33830  204.44080  131.01490
 6084.50000  118.50270 2231.94430   -5.52970   -9999.25   -9999.25   11.36260    8.72890    9.13750   87.38290  118.45880    0.00870    2.55040    9.31870 12672.14260    0.24680    2.85440    0.09370   76.59360  113.13860  210.01050  132.51990
 6085.00000  111.11720 2232.37790   -5.76960   -9999.25   -9999.25   12.06710    8.94030    9.33470   89.88730  120.48030    0.01130    2.54520    9.31790 12656.53220    0.23980    2.80230    0.09650   75.77280  110.88510  215.14390  133.70000
 6085.50000  105.83080 2232.81150   -6.00960   -9999.25   -9999.25   12.30820    9.09650    9.39590   85.61040  115.89610    0.01330    2.53430    9.31700 12643.55960    0.21730    2.80030    0.10270   77.01080  105.83780  217.64420  135.35460
 6086.00000   99.19210 2233.24510   -6.24950   -9999.25   -9999.25   11.96590    9.14620    9.40020   76.17460  106.11270    0.01350    2.53170    9.31620 12643.55960    0.19600    2.83500    0.10430   78.26810   98.67550  220.21120  135.39710
 6086.50000   96.28510 2233.62990   -6.48950   -9999.25   -9999.25   11.51870    9.10840    9.35380   67.96900   96.76860    0.01260    2.53700    9.31530 12644.14750    0.18950    2.86980    0.10120   77.03360   93.80560  217.75850  134.86540
 6087.00000  100.24950 2233.63180   -6.55530   -9999.25   -9999.25   11.71050    8.93760    9.28900   68.46380   98.78870    0.01030    2.54410    9.31450 12671.50590    0.20630    2.87940    0.09710   75.51990   96.37060  217.45090  134.24660
 6087.50000  107.71410 2233.63280   -6.42850   -9999.25   -9999.25   12.23560    8.63470    8.82970   77.26100  108.59800    0.00760    2.54470    9.31360 12659.32130    0.22440    2.89880    0.09670   75.06760  101.28190  218.44170  133.32760
 6088.00000  114.66040 2233.63480   -6.30170   -9999.25   -9999.25   12.16030    8.34210    8.27230   86.47420  118.40720    0.00510    2.53550    9.31270 12650.23440    0.24290    2.96130    0.10170   74.61540  109.46010  218.65330  132.34460
 6088.50000  114.99920 2233.63570   -5.82100   -9999.25   -9999.25   10.88080    8.10100    7.75000   87.87820  123.71560    0.00260    2.52840    9.31190 12644.47560    0.23020    3.04750    0.10710   74.16320  118.05010  216.55350  133.62760
 6089.00000  109.52360 2233.63770   -5.31590   -9999.25   -9999.25    9.44720    7.97410    7.26080   86.53380  116.66120    0.00020    2.53040    9.31430 12634.48050    0.21340    3.01640    0.10710   73.71400  118.68780  214.45970  137.51480
 6089.50000  102.03210 2233.63870   -4.81080   -9999.25   -9999.25    8.32460    7.84910    6.99140   82.62060  106.15790   -0.00050    2.54520    9.31220 12629.45410    0.20370    2.97960    0.09940   72.92850  113.97050  212.61270  138.73000
 6090.00000   93.55800 2233.64060   -4.25930   -9999.25   -9999.25    8.26470    7.44290    6.92420   79.04560   98.28730   -0.00010    2.55740    9.31000 12637.56640    0.19580    2.99660    0.08910   71.97090  102.25190  210.84290  137.87570
 6090.50000   89.02840 2233.64160   -3.74620   -9999.25   -9999.25    8.64730    7.07510    6.85770   76.16530   90.41660    0.00350    2.54220    9.31140 12642.43650    0.19490    2.90530    0.09330   70.95270   91.21010  212.66850  135.54840
 6091.00000   95.25960 2233.64360   -3.30850   -9999.25   -9999.25    9.06190    6.72550    6.81330   74.45570   85.68240    0.01120    2.50390    9.34310 12633.36430    0.20790    2.73120    0.12040   68.15250   85.31320  219.54070  131.56290
 6091.50000  109.22070 2233.64450   -2.87080   -9999.25   -9999.25    9.68860    6.39320    6.73280   75.39780   87.40560    0.01640    2.44860    9.42760 12636.72950    0.22340    2.58920    0.15280   67.75800   89.83280  228.84750  130.22270
 6092.00000  125.25970 2233.64650   -2.43300   -9999.25   -9999.25   10.68900    6.20200    6.06050   80.65090  106.70430    0.01110    2.39600    9.55530 12649.14750    0.23760    2.67330    0.18360   71.10590  102.61420  234.24980  130.84240
 6092.50000  134.57830 2233.64750   -1.99530   -9999.25   -9999.25   10.46630    6.17360    5.45540   86.80720  125.70460    0.00480    2.35210    9.58000 12652.59380    0.24750    2.80240    0.20930   76.84060  120.65260  233.69710  131.82120
 6093.00000  129.59850 2233.64940   -1.55750   -9999.25   -9999.25    8.81420    6.20680    5.22090   89.89470  138.49900    0.00680    2.32270    9.54940 12648.12400    0.26560    2.81070    0.22430   76.06710  129.40370  227.77410  132.74080
 6093.50000  122.21050 2233.65040   -1.11980   -9999.25   -9999.25    6.96090    6.24430    5.39130   87.29180  130.70750    0.04160    2.30230    9.55140 12643.59860    0.28650    2.70790    0.23400   74.03700  127.88910  214.71590  136.53590
 6094.00000  116.71010 2233.65230   -0.68200   -9999.25   -9999.25    6.45870    6.29260    5.94000   84.43510  119.64150    0.11060    2.32490    9.69090 12631.07520    0.31160    2.68550    0.22110   78.07980  119.57650  202.34350  145.78260
 6094.50000  118.47760 2233.65430   -0.35680   -9999.25   -9999.25    7.76890    6.34140    6.67650   84.25570  118.13640    0.14540    2.36240    9.78700 12632.46000    0.29790    2.72260    0.19990   80.54660  116.36860  198.37040  153.13660
 6095.00000  125.36380 2233.65530   -0.19130   -9999.25   -9999.25    9.99230    6.35380    7.42030   85.15810  119.28570    0.11870    2.39580    9.68890 12652.60350    0.28400    2.82430    0.18360   81.99040  117.94710  199.79440  152.18570
 6095.50000  127.02430 2233.65630   -0.02580   -9999.25   -9999.25    9.53530    6.30740    7.47530   85.91270  121.37200    0.08920    2.41960    9.54200 12689.37110    0.28110    2.97760    0.16740   82.91470  120.94830  201.68510  149.76960
 6096.00000  112.95570 2233.65820    0.13960   -9999.25   -9999.25    9.09330    6.06140    7.29730   85.81840  122.68710    0.08470    2.44940    9.39320 12677.95800    0.27690    3.17940    0.14620   86.41460  122.01830  202.48430  151.61050
 6096.50000   97.27850 2233.66020    0.30510   -9999.25   -9999.25    9.39820    5.65050    6.22080   80.99700  116.36590    0.08130    2.49840    9.30270 12619.69820    0.24910    3.51010    0.11430   86.24570  111.20760  204.91120  152.35700
