~Version ---------------------------------------------------
VERS.   2.0 : CWLS log ASCII Standard -VERSION 2.0
WRAP.    NO : One line per depth step
DLM . SPACE : Column Data Section Delimiter
~Well ------------------------------------------------------
STRT .F                   25.0 : START DEPTH
STOP .F                 7975.0 : STOP DEPTH
STEP .F                    0.5 : STEP
NULL .                -9999.25 : NULL VALUE
COMP .                         : COMPANY
WELL .                         : WELL
FLD  .                         : FIELD
LOC  .                         : LOCATION
PROV .                         : PROVINCE
CNTY .                         : COUNTY
STAT .                         : STATE
CTRY .                         : COUNTRY
SRVC .                         : SERVICE COMPANY
DATE .                         : DATE
UWI  .                         : UNIQUE WELL ID
API  .                         : API NUMBER
SLAT .WGS84 1.6610476411741963 : SURFACE LATITUDE
SLON .WGS84  6.473241823747003 : SURFACE LONGITUDE
DATUM.F                2716.67 : DEPTH DATUM ELEV
~Curve Information -----------------------------------------
DEPT   .F     : 
GRR    .GAPI  : GAMMA RAY FROM RESISTIVITY LOG
TENR   .LB    : TENSION FROM RESISTIVITY LOG
SPR    .MV    : SPONTANEOUS POTENTIAL FROM RESISTIVITY LOG
LLS    .OHMM  : LATEROLOG SHALLOW RESISTIVITY
LLD    .OHMM  : LATEROLOG DEEP RESISTIVITY
SFLU   .OHMM  : SHALLOW FOCUSED RESISTIVITY (UNAVERAGED)
ILD    .OHMM  : INDUCTION DEEP RESISTIVITY
ILM    .OHMM  : INDUCTION MEDIUM RESISTIVITY
CGR    .GAPI  : CORRECTED GAMMA RAY
SGR    .GAPI  : SPECTROSCOPY GAMMA RAY
DRHO   .G/C3  : BULK DENSITY CORRECTION
RHOB   .G/C3  : BULK DENSITY
CALD   .IN    : CALIPER FROM DENSITY LOG
TEND   .LB    : TENSION FROM DENSITY LOG
NPHI_LS.DEC   : NEUTRON POROSITY LIMESTONE
PEF    .B/E   : PHOTOELECTRIC FACTOR
DPHI_LS.DEC   : DENSITY POROSITY LIMESTONE
DTCO   .US/F  : DELTA-T COMPRESSIONAL
GRS    .GAPI  : GAMMA RAY FROM SONIC LOG
DTST   .US/F  : DELTA-T STONELEY - MONOPOLE STONELEY
DTSM   .US/F  : DELTA-T SHEAR
~Params ----------------------------------------------------
~Other -----------------------------------------------------
~ASCII -----------------------------------------------------
# ...
 4793.50000   73.05510 1817.79710    8.88600   -9999.25   -9999.25  283.96630  181.67410  361.16500   29.61600   77.57850   -0.00410    2.58420    8.64180 12218.92870    0.11250    4.12370    0.07080   65.74740   79.54340  201.16510  111.33310
 4794.00000   66.00920 1817.94900    9.10550   -9999.25   -9999.25  345.87430  155.36380  349.66050   22.68120   69.05920   -0.00850    2.60670    8.65310 12219.80370    0.08930    4.35510    0.05980   64.43950   68.74990  201.12580  110.84470
 4794.50000   58.99410 1818.10100    9.47270   -9999.25   -9999.25  408.44250  120.96390  231.55480   20.75150   64.12120   -0.00960    2.61770    8.66430 12220.67770    0.10250    4.37630    0.05180   62.24760   58.36410  201.08650  107.27440
 4795.00000   64.52590 1818.25280    9.47060   -9999.25   -9999.25  335.44820   96.87250  152.42920   28.17190   74.42480   -0.00840    2.61160    8.67560 12221.55180    0.12690    4.03050    0.05900   60.92610   56.55290  201.04730  105.93330
 4795.50000   80.59690 1818.40480    9.61220   -9999.25   -9999.25  241.64110   77.57920  100.34200   43.13260   94.13760   -0.00710    2.59120    8.69680 12222.42580    0.14950    3.55010    0.06990   60.80350   67.75160  201.00800  105.99520
 4796.00000   94.57810 1818.55660    9.77410   -9999.25   -9999.25  136.98440   62.20320   70.55270   57.81380  107.24790   -0.00620    2.56740    8.71960 12223.29980    0.15740    3.11100    0.08410   62.62870   81.86220  201.04970  106.43570
 4796.50000  104.76570 1818.70860    9.84250   -9999.25   -9999.25   75.49110   49.91460   56.38090   54.07960   92.71760   -0.00590    2.55350    8.74240 12224.17380    0.14910    3.03060    0.09310   62.79220   93.31580  201.10890  107.25460
 4797.00000   95.12300 1818.86050    9.70210   -9999.25   -9999.25   62.01140   40.05380   45.05570   47.31880   87.51830   -0.00640    2.55280    8.76630 12225.04790    0.14080    3.19800    0.09220   63.74790   94.29160  201.16820  109.58030
 4797.50000   87.69470 1819.01250    9.58990   -9999.25   -9999.25   51.35150   35.63230   38.97500   45.10610   84.34860   -0.00820    2.55590    8.81160 12225.92290    0.13430    3.23490    0.09030   65.57870   87.31260  201.22740  112.49310
 4798.00000   79.67370 1819.16430    9.56500   -9999.25   -9999.25   50.34810   32.49230   34.66570   43.91950   80.00910   -0.01000    2.55700    8.83620 12226.79690    0.12330    3.10020    0.08930   67.36400   80.14900  201.28670  113.04080
 4798.50000   70.13120 1819.31630    9.56320   -9999.25   -9999.25   49.59030   29.62900   30.83290   41.73720   72.55880   -0.01050    2.55630    8.83290 12227.67090    0.11320    2.91760    0.08930   67.78210   73.42910  201.23330  111.81120
 4799.00000   66.21120 1819.46810    9.56140   -9999.25   -9999.25   49.59030   28.32900   29.61500   39.14550   69.80190   -0.00940    2.55950    8.83280 12228.53810    0.10730    2.79750    0.08760   66.42910   70.32200  201.10710  110.30200
 4799.50000   61.38610 1819.62010    9.42350   -9999.25   -9999.25   49.59030   28.01980   29.85620   39.31640   71.02140   -0.00670    2.56690    8.82700 12228.76760    0.10890    2.77680    0.08330   65.20280   66.83730  200.98090  109.35670
 4800.00000   61.36560 1819.77200    9.11000   -9999.25   -9999.25   47.58100   28.91090   31.02220   41.89260   76.19810   -0.00340    2.57410    8.81650 12224.77930    0.12490    2.80050    0.07900   64.60840   63.30070  200.85470  108.76950
 4800.50000   71.29670 1819.92400    8.85730   -9999.25   -9999.25   45.24390   31.79320   34.96410   45.25440   81.78400    0.00000    2.57010    8.80600 12219.58400    0.14370    2.87940    0.08040   64.84420   67.17330  200.72850  108.71190
 4801.00000   82.63020 1820.07580    8.85680   -9999.25   -9999.25   45.23790   34.96290   39.81080   48.20250   86.68540    0.00190    2.56010    8.79550 12214.24020    0.16120    3.01980    0.08570   65.21210   75.37800  200.60230  109.23210
 4801.50000   91.23250 1820.22780    8.77980   -9999.25   -9999.25   49.85060   38.44860   46.12750   50.55130   94.62210    0.00070    2.54790    8.78490 12208.89650    0.16140    3.31630    0.09160   65.56180   86.22610  200.47610  109.91700
 4802.00000   95.04810 1820.37960    8.70290   -9999.25   -9999.25   72.25060   42.28180   54.13150   51.18670  101.83450   -0.00740    2.52920    8.77620 12203.55270    0.14390    3.65070    0.10110   65.88540   96.27680  200.34990  111.14450
 4802.50000   97.38040 1820.53160    8.55070   -9999.25   -9999.25  128.20140   43.40390   60.67690   51.60460  108.86880   -0.01150    2.50400    8.76850 12198.20900    0.13420    4.01180    0.11770   65.36210  102.65110  200.30450  110.13620
 4803.00000  101.96410 1820.68350    8.13540   -9999.25   -9999.25  166.85390   42.67800   57.16080   54.99670  116.14700   -0.01190    2.49500    8.76520 12201.24610    0.15370    3.82750    0.12330   65.10310  106.44150  200.34430  109.96870
 4803.50000  109.76860 1820.83540    7.81360   -9999.25   -9999.25  152.07680   40.44270   47.21370   61.09710  125.02800   -0.00880    2.48920    8.80250 12210.44820    0.17490    3.44150    0.12790   66.54780  109.79200  200.71070  110.51560
 4804.00000  113.90390 1820.98730    7.71620   -9999.25   -9999.25   91.13400   35.27500   38.77090   65.21940  126.02660   -0.00500    2.48890    8.85090 12219.65040    0.18650    3.18960    0.12740   67.49430  113.67150  201.07710  112.34180
 4804.50000  107.33820 1821.13930    7.61880   -9999.25   -9999.25   50.29210   30.90630   30.43130   60.05490  112.42750   -0.00150    2.49700    8.88230 12225.69630    0.17300    3.06230    0.12130   68.09750  112.97870  201.44340  115.42450
 4805.00000   88.87070 1821.29110    7.52140   -9999.25   -9999.25   32.31450   27.23880   23.88550   52.65830   88.51700   -0.00190    2.51110    8.91380 12217.04100    0.14880    2.98030    0.11440   68.77240  102.57540  201.80980  118.46410
 4805.50000   80.85840 1821.44310    7.56920   -9999.25   -9999.25   25.43770   24.00650   21.63960   47.48750   74.40070   -0.00650    2.52530    8.94520 12211.80960    0.12060    2.89820    0.10690   69.33890   88.05620  201.94380  118.34790
 4806.00000   72.07430 1821.59500    7.19980   -9999.25   -9999.25   22.67310   21.15780   19.68710   43.29210   63.89500   -0.00870    2.54190    8.97670 12235.60060    0.10420    2.88590    0.09880   69.08100   72.82910  201.76070  116.38760
 4806.50000   65.13050 1821.74690    6.22650   -9999.25   -9999.25   24.53380   18.20640   16.75580   40.52230   58.21540   -0.00860    2.56080    9.00810 12256.56640    0.09420    2.93020    0.09050   68.00640   61.10560  201.31780  114.10690
 4807.00000   63.12700 1821.89880    5.81530   -9999.25   -9999.25   22.80750   15.43410   14.31370   39.57760   57.16650   -0.00160    2.56910    9.03950 12259.19040    0.10210    2.82270    0.08210   66.32840   56.40170  200.66800  112.73390
 4807.50000   63.47900 1822.05080    5.40420   -9999.25   -9999.25   19.63150   13.78180   12.85020   39.74380   60.59610    0.00230    2.57090    9.08820 12235.26660    0.11320    2.70120    0.07940   64.65040   54.87320  200.11800  109.88250
 4808.00000   64.35400 1822.28380    5.15690   -9999.25   -9999.25   13.43700   12.91110   12.38580   41.52050   66.55430    0.00130    2.55460    9.13840 12214.72660    0.12200    2.66240    0.09190   63.72780   57.32100  199.99240  107.20830
 4808.50000   64.98280 1822.53970    5.03310   -9999.25   -9999.25   11.82270   12.27230   12.05640   41.52350   71.66330   -0.00270    2.52850    9.18860 12194.18650    0.12780    2.68590    0.10610   63.75230   60.72650  200.08980  107.30530
 4809.00000   66.36960 1822.79550    4.94730   -9999.25   -9999.25   12.49620   11.66930   11.73570   41.28290   71.15170   -0.00660    2.52240    9.23720 12202.06840    0.12200    2.78720    0.10920   64.71710   64.13190  200.23160  111.84190
 4809.50000   70.08110 1823.05140    4.69070   -9999.25   -9999.25   13.37860   11.09600   11.42350   40.62990   70.50570   -0.01060    2.52070    9.24230 12216.51070    0.11630    2.89140    0.11040   65.64330   64.81300  200.36680  109.97890
