~Version ---------------------------------------------------
VERS.   2.0 : CWLS log ASCII Standard -VERSION 2.0
WRAP.    NO : One line per depth step
DLM . SPACE : Column Data Section Delimiter
~Well ------------------------------------------------------
STRT .F                   25.0 : START DEPTH
STOP .F                 7975.0 : STOP DEPTH
STEP .F                    0.5 : STEP
NULL .                -9999.25 : NULL VALUE
COMP .                         : COMPANY
WELL .                         : WELL
FLD  .                         : FIELD
LOC  .                         : LOCATION
PROV .                         : PROVINCE
CNTY .                         : COUNTY
STAT .                         : STATE
CTRY .                         : COUNTRY
SRVC .                         : SERVICE COMPANY
DATE .                         : DATE
UWI  .                         : UNIQUE WELL ID
API  .                         : API NUMBER
SLAT .WGS84 1.6610476411741963 : SURFACE LATITUDE
SLON .WGS84  6.473241823747003 : SURFACE LONGITUDE
DATUM.F                2716.67 : DEPTH DATUM ELEV
~Curve Information -----------------------------------------
DEPT   .F     : 
GRR    .GAPI  : GAMMA RAY FROM RESISTIVITY LOG
TENR   .LB    : TENSION FROM RESISTIVITY LOG
SPR    .MV    : SPONTANEOUS POTENTIAL FROM RESISTIVITY LOG
LLS    .OHMM  : LATEROLOG SHALLOW RESISTIVITY
LLD    .OHMM  : LATEROLOG DEEP RESISTIVITY
SFLU   .OHMM  : SHALLOW FOCUSED RESISTIVITY (UNAVERAGED)
ILD    .OHMM  : INDUCTION DEEP RESISTIVITY
ILM    .OHMM  : INDUCTION MEDIUM RESISTIVITY
CGR    .GAPI  : CORRECTED GAMMA RAY
SGR    .GAPI  : SPECTROSCOPY GAMMA RAY
DRHO   .G/C3  : BULK DENSITY CORRECTION
RHOB   .G/C3  : BULK DENSITY
CALD   .IN    : CALIPER FROM DENSITY LOG
TEND   .LB    : TENSION FROM DENSITY LOG
NPHI_LS.DEC   : NEUTRON POROSITY LIMESTONE
PEF    .B/E   : PHOTOELECTRIC FACTOR
DPHI_LS.DEC   : DENSITY POROSITY LIMESTONE
DTCO   .US/F  : DELTA-T COMPRESSIONAL
GRS    .GAPI  : GAMMA RAY FROM SONIC LOG
DTST   .US/F  : DELTA-T STONELEY - MONOPOLE STONELEY
DTSM   .US/F  : DELTA-T SHEAR
~Params ----------------------------------------------------
~Other -----------------------------------------------------
~ASCII -----------------------------------------------------
# ...
 6328.00000  123.47990 2292.05860    0.59750   -9999.25   -9999.25   18.71110   13.00700   13.87220   81.53130  126.77080    0.00290    2.52480    8.75590 12748.99020    0.23490    2.86670    0.10710   85.33130  112.76320  199.28700  139.47080
 6328.50000  129.01910 2292.87010    0.68040   -9999.25   -9999.25   18.32930   13.81030   14.60630   81.89080  128.35490    0.00070    2.51190    8.74720 12753.33890    0.25520    2.80460    0.11200   83.86790  114.73720  201.88590  134.86970
 6329.00000  137.32390 2293.68260    0.68110   -9999.25   -9999.25   20.72240   14.66320   15.37930   85.53060  131.67980   -0.00020    2.49920    8.73850 12757.68650    0.27530    2.77130    0.12050   83.37820  118.75890  202.29790  135.26110
 6329.50000  146.60940 2294.49410    0.68180   -9999.25   -9999.25   23.94910   15.56880   16.19320   89.80290  142.71820    0.00010    2.48330    8.72990 12762.03420    0.29430    2.85760    0.12910   83.72920  123.68070  202.93110  137.30390
 6330.00000  154.52000 2295.30660    0.68250   -9999.25   -9999.25   28.21590   16.53030   17.05010   93.83030  148.54610    0.00030    2.47250    8.72060 12766.38180    0.30470    3.06480    0.13660   84.79880  137.78810  203.21280  142.26860
 6330.50000  153.29280 2296.11820    0.68320   -9999.25   -9999.25   31.03920   16.91750   17.80880   94.96310  150.49540    0.00060    2.48680    8.71390 12770.73050    0.31010    3.42830    0.13320   85.72950  137.66000  203.83530  142.89370
 6331.00000  147.10410 2296.92970    0.68370   -9999.25   -9999.25   30.86970   17.30460   17.93390   90.21750  148.05970    0.00080    2.50600    8.73050 12775.07810    0.28390    3.66780    0.12150   84.93910  134.80140  204.85590  141.82650
 6331.50000  137.72260 2297.74220    0.58550   -9999.25   -9999.25   28.20960   17.30460   17.70660   76.31210  135.19850    0.00110    2.53320    8.74240 12763.67380    0.26600    3.74520    0.10420   82.32840  127.56530  205.33240  140.06370
 6332.00000  132.57370 2298.55370    0.48730   -9999.25   -9999.25   24.97250   16.28460   17.00390   75.34870  129.29800    0.00140    2.55470    8.74930 12728.24120    0.26070    3.38940    0.08970   80.65090  118.25920  203.77710  137.61830
 6332.50000  131.48590 2299.36620    0.38910   -9999.25   -9999.25   22.00120   14.73400   15.95800   83.33000  138.84710    0.00180    2.54040    8.75360 12713.78520    0.27270    2.96950    0.09170   79.99040  118.89590  203.06780  137.18430
 6333.00000  130.04790 2300.17770    0.29090   -9999.25   -9999.25   19.91820   13.33110   14.55950   86.99500  147.41520    0.00250    2.52710    8.76380 12699.32910    0.26450    2.78160    0.10590   79.36270  123.64160  202.99690  137.41660
 6333.50000  122.31270 2300.99020    0.19270   -9999.25   -9999.25   18.20690   12.58330   12.94720   80.86470  133.80360    0.00160    2.52780    8.78400 12695.88090    0.24210    2.87470    0.10770   77.87610  126.34290  202.98420  135.97120
 6334.00000  111.18690 2301.80180    0.09450   -9999.25   -9999.25   16.64270   12.30420   12.81440   65.99400  106.75140   -0.00300    2.55160    8.77180 12696.78220    0.21710    3.05140    0.09430   77.73800  118.77680  202.86610  134.44980
 6334.50000  101.09120 2302.61330   -0.00370   -9999.25   -9999.25   15.68160   12.13090   12.68290   55.82170   90.13460   -0.00690    2.57180    8.76290 12697.68260    0.20290    3.14130    0.08080   79.57590   99.62290  202.64790  131.85830
 6335.00000  102.34900 2303.42580   -0.10200   -9999.25   -9999.25   16.44440   12.13160   12.61080   58.32580   92.19520   -0.00840    2.57060    8.77670 12698.58400    0.21880    3.03170    0.08160   78.04700   91.88040  201.97240  131.20260
 6335.50000  109.01050 2304.23730   -0.20020   -9999.25   -9999.25   17.65720   12.13240   12.65920   65.27780  111.20270   -0.00580    2.55290    8.78870 12701.18460    0.23980    2.90600    0.09310   77.89180   97.67610  201.78920  131.55380
 6336.00000  129.97300 2305.04980   -0.21040   -9999.25   -9999.25   18.95940   12.24350   12.70770   72.33850  125.64410   -0.00160    2.52950    8.77860 12704.82620    0.26190    2.89210    0.10580   78.68380  108.02560  201.94220  133.46190
 6336.50000  144.32000 2305.86130   -0.17640   -9999.25   -9999.25   19.83160   12.41180   12.98730   73.40250  136.65540   -0.00080    2.51120    8.77220 12708.46780    0.26130    2.97700    0.11630   79.86340  125.37860  202.58250  136.63790
 6337.00000  149.54770 2306.67380   -0.14240   -9999.25   -9999.25   20.84650   12.70950   13.37150   73.48360  136.11320   -0.00160    2.50780    8.77220 12712.10940    0.25610    3.00210    0.11810   82.14100  129.28780  204.11500  138.61580
 6337.50000  148.93380 2307.48540   -0.10840   -9999.25   -9999.25   22.50970   13.10210   13.76720   73.24820  136.45100   -0.00230    2.50500    8.77220 12715.75200    0.25150    2.98610    0.11970   83.65000  131.17770  202.57360  142.01630
 6338.00000  147.06460 2308.29690   -0.07430   -9999.25   -9999.25   23.07280   13.50680   14.36370   73.28170  138.68950   -0.00220    2.50220    8.75520 12719.39360    0.25150    2.92160    0.12080   84.47500  133.51760  203.92360  142.70040
 6338.50000  145.58400 2309.10940   -0.04030   -9999.25   -9999.25   22.56380   14.09860   15.08520   75.30710  140.25050   -0.00110    2.50000    8.72770 12723.03520    0.25610    2.86460    0.12160   84.49330  135.95270  203.44910  142.35250
 6339.00000  144.98230 2309.92090   -0.00630   -9999.25   -9999.25   22.36280   14.89530   15.84290   75.52590  141.00060    0.00130    2.49950    8.71800 12726.67680    0.26110    2.86460    0.12240   84.25170  137.95330  203.73960  140.05590
 6339.50000  144.30770 2310.73340    0.02770   -9999.25   -9999.25   23.08960   15.73700   17.00170   76.17810  144.18080    0.00410    2.50160    8.71330 12730.31930    0.26490    2.90500    0.12270   84.01390  138.27810  205.11460  140.79420
 6340.00000  138.74070 2311.54490    0.06170   -9999.25   -9999.25   24.27250   16.63990   18.31250   79.48480  148.46220    0.00460    2.50440    8.71080 12733.96090    0.26440    2.98530    0.12200   83.52510  135.72570  202.11530  141.48720
 6340.50000  121.88720 2312.35640    0.09580   -9999.25   -9999.25   25.89110   17.75180   19.97230   78.28480  138.86100    0.00190    2.51390    8.70680 12737.60250    0.25850    3.06790    0.11600   82.85660  130.08970  202.34730  139.59590
 6341.00000  103.44460 2313.16890    0.12980   -9999.25   -9999.25   28.32770   18.93790   22.09680   72.73430  123.67040   -0.00130    2.52810    8.70050 12741.24410    0.24470    3.20670    0.10640   81.77900  118.01150  203.93490  137.80250
 6341.50000   87.12850 2313.98050    0.16380   -9999.25   -9999.25   41.39850   20.20340   24.44730   66.21770  105.29050   -0.00410    2.54170    8.69420 12744.88670    0.22030    3.46980    0.09840   80.51220   96.59320  203.52310  135.10680
 6342.00000   79.93210 2314.79300    0.19780   -9999.25   -9999.25   61.94820   21.55340   25.75240   56.40810   84.84100   -0.00580    2.56610    8.68790 12748.52830    0.17760    3.69740    0.08660   77.80860   82.52280  202.20330  130.18840
 6342.50000   85.25540 2315.60450    0.23180   -9999.25   -9999.25   73.56200   23.08980   25.94800   49.77550   72.61720   -0.00380    2.59430    8.68150 12752.16990    0.14400    3.63890    0.07400   74.83870   78.25510  201.24600  123.42820
 6343.00000   97.33870 2316.41600    0.26590   -9999.25   -9999.25   54.17410   25.24210   25.73050   49.66170   92.14130    0.00740    2.59960    8.67520 12755.81250    0.17740    3.23490    0.06530   72.26970   88.56270  201.14450  120.27260
 6343.50000  106.20380 2317.22850    0.29990   -9999.25   -9999.25   38.96510   26.55090   25.56050   50.16370  108.95340    0.01890    2.58370    8.66890 12759.72660    0.22050    2.99290    0.07230   71.08950   99.41010  202.10750  122.43230
 6344.00000  107.57920 2318.04000    0.32960   -9999.25   -9999.25   36.49950   26.27170   27.21010   49.59170  113.73810    0.02510    2.55650    8.66260 12752.15430    0.24900    3.04880    0.08950   70.98610  107.26750  202.34010  125.86630
