~Version ---------------------------------------------------
VERS.   2.0 : CWLS log ASCII Standard -VERSION 2.0
WRAP.    NO : One line per depth step
DLM . SPACE : Column Data Section Delimiter
~Well ------------------------------------------------------
STRT .F                   25.0 : START DEPTH
STOP .F                 7975.0 : STOP DEPTH
STEP .F                    0.5 : STEP
NULL .                -9999.25 : NULL VALUE
COMP .                         : COMPANY
WELL .                         : WELL
FLD  .                         : FIELD
LOC  .                         : LOCATION
PROV .                         : PROVINCE
CNTY .                         : COUNTY
STAT .                         : STATE
CTRY .                         : COUNTRY
SRVC .                         : SERVICE COMPANY
DATE .                         : DATE
UWI  .                         : UNIQUE WELL ID
API  .                         : API NUMBER
SLAT .WGS84 1.6610476411741963 : SURFACE LATITUDE
SLON .WGS84  6.473241823747003 : SURFACE LONGITUDE
DATUM.F                2716.67 : DEPTH DATUM ELEV
~Curve Information -----------------------------------------
DEPT   .F     : 
GRR    .GAPI  : GAMMA RAY FROM RESISTIVITY LOG
TENR   .LB    : TENSION FROM RESISTIVITY LOG
SPR    .MV    : SPONTANEOUS POTENTIAL FROM RESISTIVITY LOG
LLS    .OHMM  : LATEROLOG SHALLOW RESISTIVITY
LLD    .OHMM  : LATEROLOG DEEP RESISTIVITY
SFLU   .OHMM  : SHALLOW FOCUSED RESISTIVITY (UNAVERAGED)
ILD    .OHMM  : INDUCTION DEEP RESISTIVITY
ILM    .OHMM  : INDUCTION MEDIUM RESISTIVITY
CGR    .GAPI  : CORRECTED GAMMA RAY
SGR    .GAPI  : SPECTROSCOPY GAMMA RAY
DRHO   .G/C3  : BULK DENSITY CORRECTION
RHOB   .G/C3  : BULK DENSITY
CALD   .IN    : CALIPER FROM DENSITY LOG
TEND   .LB    : TENSION FROM DENSITY LOG
NPHI_LS.DEC   : NEUTRON POROSITY LIMESTONE
PEF    .B/E   : PHOTOELECTRIC FACTOR
DPHI_LS.DEC   : DENSITY POROSITY LIMESTONE
DTCO   .US/F  : DELTA-T COMPRESSIONAL
GRS    .GAPI  : GAMMA RAY FROM SONIC LOG
DTST   .US/F  : DELTA-T STONELEY - MONOPOLE STONELEY
DTSM   .US/F  : DELTA-T SHEAR
~Params ----------------------------------------------------
~Other -----------------------------------------------------
~ASCII -----------------------------------------------------
# ...
 5816.50000   57.76870 2134.95410  -23.20310   -9999.25   -9999.25    3.84540    3.12460    3.50450   50.72960   63.36700   -0.01180    2.42200    9.43880 12545.58110    0.18770    2.50800    0.16840   72.84010   62.57990  205.12280  130.92940
 5817.00000   50.42000 2135.08300  -22.59190   -9999.25   -9999.25    5.23350    3.74080    4.21640   49.58980   62.23410   -0.01080    2.42290    9.38050 12544.63670    0.18440    2.62050    0.16750   72.99930   58.74480  204.60600  130.02410
 5817.50000   47.90180 2135.21190  -22.19070   -9999.25   -9999.25    6.99870    4.47860    5.07300   43.32390   55.97350   -0.00710    2.45710    9.32360 12543.69240    0.16490    3.05010    0.14750   72.23290   51.30450  203.77700  126.24760
 5818.00000   58.04230 2135.34180  -21.45870   -9999.25   -9999.25    9.22560    5.36180    6.10360   34.57410   44.49130   -0.00490    2.50740    9.22700 12542.74800    0.14510    3.60970    0.11850   69.36950   46.80110  202.83090  121.13640
 5818.50000   74.47540 2135.47070  -20.42550   -9999.25   -9999.25   10.95140    6.41920    7.17960   29.07610   43.24410   -0.00570    2.55830    9.13050 12541.80370    0.13400    3.73400    0.08870   65.98460   47.84960  201.78740  116.02530
 5819.00000   96.77420 2135.59960  -19.39230   -9999.25   -9999.25   12.61480    7.64590    7.88630   36.74820   57.27800   -0.00660    2.57000    9.04480 12540.85940    0.16480    3.66520    0.08190   64.34190   60.74810  200.58550  111.13060
 5819.50000  107.91630 2135.72850  -18.35910   -9999.25   -9999.25   12.41610    8.10300    8.66250   60.55850   80.89110   -0.00640    2.55300    8.98280 12539.91500    0.19590    3.38850    0.09180   62.18590   76.58230  199.94250  108.19780
 5820.00000  108.08260 2135.85840  -17.32580   -9999.25   -9999.25   10.94500    8.58740    9.23990   76.74580  113.95040   -0.00380    2.52290    8.94020 12538.97070    0.21450    3.11170    0.10990   63.25540   91.22410  200.61870  110.23980
 5820.50000   97.67060 2135.98730  -16.29260   -9999.25   -9999.25    9.14490    9.10090    9.78790   78.78490  115.45110   -0.00120    2.50410    8.89760 12538.02640    0.19900    2.92800    0.11990   64.76350   94.11840  200.87760  113.47160
 5821.00000   89.84600 2136.11620  -15.46920   -9999.25   -9999.25    9.09750    9.64500   10.36850   66.34460   99.60700    0.00130    2.49500    8.85840 12537.08200    0.17290    2.87920    0.12290   67.49070   84.84690  201.03990  116.50130
 5821.50000   87.54780 2136.24610  -14.85790   -9999.25   -9999.25   11.86100   10.22160   11.00830   52.76510   80.01100    0.00390    2.49450    8.84250 12536.13770    0.15950    2.86890    0.12420   69.69250   78.80570  201.17580  118.30280
 5822.00000   94.17240 2136.37500  -14.07030   -9999.25   -9999.25   15.54570   10.87280   11.74450   51.10210   81.04510    0.00450    2.50220    8.84250 12535.19340    0.15590    2.82510    0.12030   70.62940   80.04630  200.97140  118.60820
 5822.50000  104.88520 2136.50390  -13.23570   -9999.25   -9999.25   16.17330   12.31730   13.18910   53.36030   87.94910    0.00300    2.51100    8.84050 12534.24900    0.18480    2.73440    0.11640   69.60840   84.51620  200.86140  118.64990
 5823.00000  111.10980 2136.63280  -12.40110   -9999.25   -9999.25   17.57410   14.04620   14.99450   55.66180   94.44890   -0.00480    2.51620    8.82810 12533.30470    0.19740    2.71060    0.11340   69.01840   89.87690  200.86140  118.65170
 5823.50000  113.80060 2136.76270  -11.56650   -9999.25   -9999.25   21.41690   16.01780   19.08880   57.96330  100.80030   -0.01280    2.52080    8.82920 12532.36040    0.20600    2.72200    0.11070   69.19620   94.13750  200.86140  119.68430
 5824.00000  110.22040 2136.89160  -10.73190   -9999.25   -9999.25   27.12010   18.26610   24.37230   59.74970  105.30530   -0.01370    2.52450    8.83470 12531.41600    0.21890    2.73630    0.10850   69.68130   99.55470  200.86140  120.90910
 5824.50000  104.83720 2137.02050  -10.31560   -9999.25   -9999.25   37.18270   19.92710   26.59500   60.56120  106.52850   -0.01090    2.52310    8.83420 12530.47170    0.22750    2.75350    0.10940   70.68280  101.05360  200.86610  122.13380
 5825.00000   98.36540 2137.15040  -10.01900   -9999.25   -9999.25   44.59880   21.56150   29.02050   60.67030  106.01050   -0.00820    2.51820    8.80720 12529.52730    0.22060    2.78670    0.11150   72.11960  100.15040  200.87460  122.73060
 5825.50000   96.53900 2137.27440   -9.72250   -9999.25   -9999.25   46.34440   23.32990   30.64920   59.16930  103.75690   -0.00530    2.51380    8.76570 12528.58300    0.20650    2.84710    0.11360   72.59760   96.02700  200.89930  122.49870
 5826.00000   98.76090 2137.34860   -9.59920   -9999.25   -9999.25   46.35900   25.24340   30.97380   57.58860  101.03610   -0.00190    2.51310    8.75440 12527.63870    0.19610    2.85080    0.11440   72.73960   93.13160  200.99930  120.57560
 5826.50000  102.14040 2137.42290   -9.63290   -9999.25   -9999.25   47.05410   25.99300   30.77310   56.54760  100.46230    0.00100    2.51700    8.74920 12526.69430    0.19700    2.79950    0.11190   72.93530   94.17460  201.14270  121.89650
 5827.00000  103.45390 2137.49710   -9.66660   -9999.25   -9999.25   50.29410   26.02180   30.04780   56.99790  100.92240    0.00240    2.52200    8.74480 12525.75000    0.21030    2.73530    0.10910   72.98560   96.36260  201.32810  120.39520
 5827.50000  104.54580 2137.57130   -9.70040   -9999.25   -9999.25   52.06940   25.92980   28.83210   57.52020  102.27050    0.00110    2.51990    8.74940 12525.09770    0.21730    2.75770    0.10980   73.01940   97.42820  202.10350  122.03680
 5828.00000  104.56870 2137.64650   -9.73410   -9999.25   -9999.25   42.99670   25.76810   27.66560   58.49680  103.77970   -0.00100    2.51090    8.74900 12525.39650    0.21570    2.87350    0.11560   73.13240   95.79890  202.18240  122.71740
 5828.50000  103.41730 2137.72070   -9.76790   -9999.25   -9999.25   34.17140   25.60730   26.54630   59.00780  105.28890   -0.00470    2.50180    8.74300 12525.69530    0.21200    3.02850    0.12110   73.36860   94.41400  202.23790  123.75450
 5829.00000  101.94800 2137.79490   -9.80160   -9999.25   -9999.25   29.66730   25.44750   25.96780   59.42700  106.46840   -0.00790    2.49900    8.73700 12525.99510    0.21270    3.02840    0.12100   75.01540   94.21330  202.23790  124.25280
 5829.50000  100.01600 2137.86910   -9.96770   -9999.25   -9999.25   30.01840   25.28870   25.80580   59.67950  106.78030   -0.00850    2.50170    8.73110 12526.29390    0.21930    2.99170    0.11960   74.91370   94.20220  202.23790  124.62340
 5830.00000   95.04830 2137.94340  -10.06940   -9999.25   -9999.25   35.01200   25.13100   26.49020   59.65670  106.17990   -0.00840    2.50580    8.72510 12526.59280    0.22700    2.92690    0.11820   73.86740   93.28870  202.15460  125.10520
 5830.50000   89.00760 2138.01860  -10.06570   -9999.25   -9999.25   40.25720   24.97420   27.19280   59.20060  103.17460   -0.00730    2.50990    8.71920 12526.89160    0.22540    2.90460    0.11680   72.62080   91.41780  201.70660  124.51000
 5831.00000   80.58110 2138.09280  -10.06200   -9999.25   -9999.25   43.92060   24.81830   27.91400   57.75550   97.48280   -0.00460    2.51360    8.71320 12527.19140    0.21010    2.95010    0.11490   70.80490   86.74680  200.88390  122.58230
 5831.50000   75.54000 2138.16700  -10.10460   -9999.25   -9999.25   47.91750   24.66350   28.45760   55.49260   88.59380   -0.00120    2.51980    8.70730 12527.49020    0.19360    3.09190    0.11120   68.98320   77.92200  200.86390  119.81730
 5832.00000   68.54760 2138.24120  -10.26720   -9999.25   -9999.25   48.72730   23.63690   27.43010   52.14490   78.19140    0.00230    2.53010    8.70130 12527.78910    0.17870    3.28560    0.10520   66.75700   68.98310  200.86290  117.09230
 5832.50000   65.32890 2138.31540  -10.35620   -9999.25   -9999.25   41.74170   22.16450   24.47350   47.24020   67.42580    0.00580    2.54840    8.70720 12528.08790    0.16300    3.53350    0.09460   64.82550   61.98590  200.86420  113.66910
