~Version ---------------------------------------------------
VERS.   2.0 : CWLS log ASCII Standard -VERSION 2.0
WRAP.    NO : One line per depth step
DLM . SPACE : Column Data Section Delimiter
~Well ------------------------------------------------------
STRT .F                   25.0 : START DEPTH
STOP .F                 7975.0 : STOP DEPTH
STEP .F                    0.5 : STEP
NULL .                -9999.25 : NULL VALUE
COMP .                         : COMPANY
WELL .                         : WELL
FLD  .                         : FIELD
LOC  .                         : LOCATION
PROV .                         : PROVINCE
CNTY .                         : COUNTY
STAT .                         : STATE
CTRY .                         : COUNTRY
SRVC .                         : SERVICE COMPANY
DATE .                         : DATE
UWI  .                         : UNIQUE WELL ID
API  .                         : API NUMBER
SLAT .WGS84 1.6610476411741963 : SURFACE LATITUDE
SLON .WGS84  6.473241823747003 : SURFACE LONGITUDE
DATUM.F                2716.67 : DEPTH DATUM ELEV
~Curve Information -----------------------------------------
DEPT   .F     : 
GRR    .GAPI  : GAMMA RAY FROM RESISTIVITY LOG
TENR   .LB    : TENSION FROM RESISTIVITY LOG
SPR    .MV    : SPONTANEOUS POTENTIAL FROM RESISTIVITY LOG
LLS    .OHMM  : LATEROLOG SHALLOW RESISTIVITY
LLD    .OHMM  : LATEROLOG DEEP RESISTIVITY
SFLU   .OHMM  : SHALLOW FOCUSED RESISTIVITY (UNAVERAGED)
ILD    .OHMM  : INDUCTION DEEP RESISTIVITY
ILM    .OHMM  : INDUCTION MEDIUM RESISTIVITY
CGR    .GAPI  : CORRECTED GAMMA RAY
SGR    .GAPI  : SPECTROSCOPY GAMMA RAY
DRHO   .G/C3  : BULK DENSITY CORRECTION
RHOB   .G/C3  : BULK DENSITY
CALD   .IN    : CALIPER FROM DENSITY LOG
TEND   .LB    : TENSION FROM DENSITY LOG
NPHI_LS.DEC   : NEUTRON POROSITY LIMESTONE
PEF    .B/E   : PHOTOELECTRIC FACTOR
DPHI_LS.DEC   : DENSITY POROSITY LIMESTONE
DTCO   .US/F  : DELTA-T COMPRESSIONAL
GRS    .GAPI  : GAMMA RAY FROM SONIC LOG
DTST   .US/F  : DELTA-T STONELEY - MONOPOLE STONELEY
DTSM   .US/F  : DELTA-T SHEAR
~Params ----------------------------------------------------
~Other -----------------------------------------------------
~ASCII -----------------------------------------------------
# ...
 6592.00000  110.68290 2409.04790    0.31310   -9999.25   -9999.25   21.69080   13.41970   14.65550   61.13860  106.31760    0.00030    2.54500    9.30850 12815.49510    0.26650    3.75800    0.09690   79.44060   90.52840  207.11950  148.05440
 6592.50000  103.45520 2408.77730    0.32610   -9999.25   -9999.25   22.36540   13.09990   14.38060   56.78250   99.97890   -0.00260    2.53870    9.32170 12814.50290    0.24680    3.83810    0.10150   79.28300   92.64680  206.18060  147.99020
 6593.00000  108.89690 2408.50680    0.33910   -9999.25   -9999.25   20.29280   12.77130   14.13730   58.23910   99.54180   -0.00070    2.52240    9.32320 12813.51070    0.27590    3.53630    0.11050   80.77440  103.17400  206.67180  148.29190
 6593.50000  120.11870 2408.23630    0.35220   -9999.25   -9999.25   17.48390   12.33530   13.94500   61.69750  105.67030    0.03260    2.50890    9.31180 12812.51860    0.30590    3.18310    0.12010   83.31620  114.44140  206.77180  149.16350
 6594.00000  124.59270 2407.96580    0.36520   -9999.25   -9999.25   15.15530   11.91430   13.75530   69.43300  119.80060    0.06850    2.50990    9.29770 12811.52640    0.31270    3.03570    0.12000   85.93720  117.19950  206.49120  155.11350
 6594.50000  130.19790 2407.69530    0.37820   -9999.25   -9999.25   13.87300   11.50760   13.56820   74.64400  124.51240    0.07190    2.51210    9.27710 12810.53320    0.30440    3.00800    0.11450   88.55820  118.08070  206.46970  161.97630
 6595.00000  133.08500 2407.42480    0.39120   -9999.25   -9999.25   13.70570   11.11480   12.83520   76.35310  128.07470    0.04060    2.51390    9.21540 12809.54100    0.30230    3.07640    0.11380   91.22360  119.05780  208.18120  164.19320
 6595.50000  139.60760 2407.15430    0.40430   -9999.25   -9999.25   14.28730   10.73540   12.07730   78.29730  132.50750    0.01100    2.51430    9.15110 12808.54880    0.30960    3.15340    0.11420   92.43220  121.24370  206.10630  164.05580
 6596.00000  142.92750 2406.88380    0.41730   -9999.25   -9999.25   14.75840   10.74000   11.56440   79.57530  136.39620    0.00830    2.51340    9.11150 12807.55660    0.30970    3.16960    0.11500   92.27930  123.00990  206.48470  165.36760
 6596.50000  140.43930 2406.61330    0.43030   -9999.25   -9999.25   14.94670   10.96930   11.36780   80.14290  136.68410    0.00870    2.51140    9.07190 12806.56450    0.30720    3.06410    0.11620   92.23280  123.12680  208.66070  166.29000
 6597.00000  134.63660 2406.34280    0.44340   -9999.25   -9999.25   15.19050   11.20350   11.50910   80.09990  135.27090    0.00980    2.51080    9.06590 12805.57230    0.31070    3.03920    0.11560   92.21830  124.02640  208.57330  166.32430
 6597.50000  133.24000 2406.07230    0.45640   -9999.25   -9999.25   15.66220   11.44260   12.04570   79.23130  133.85770    0.01070    2.51440    9.06090 12804.57910    0.31610    3.11540    0.11220   92.21010  126.34300  205.95200  166.03550
 6598.00000  136.65330 2405.80180    0.46940   -9999.25   -9999.25   16.72450   11.68690   12.78970   73.79140  132.52700    0.01090    2.52230    9.05590 12803.58690    0.31950    3.19120    0.10840   92.10600  131.40460  206.25900  165.29860
 6598.50000  141.76530 2405.53130    0.48240   -9999.25   -9999.25   18.17410   11.93630   13.57970   74.26070  132.57630    0.00940    2.52690    9.05090 12802.59470    0.31730    3.21870    0.10710   93.90560  133.24910  207.42680  164.46770
 6599.00000  141.25410 2405.26170    0.49550   -9999.25   -9999.25   18.36460   12.19030   14.00720   75.73210  133.82040    0.00800    2.51530    9.04590 12801.60250    0.31780    3.16290    0.11390   90.91310  129.43650  206.88520  163.50400
 6599.50000  136.81720 2404.99120    0.50850   -9999.25   -9999.25   18.06980   12.21080   14.00520   75.48340  134.75320    0.00670    2.50180    9.04090 12800.61040    0.32000    3.09710    0.12380   92.93490  123.01320  204.76120  162.13360
 6600.00000  132.27550 2404.72070    0.52150   -9999.25   -9999.25   17.68760   12.27870   13.80950   73.15300  131.77130    0.00530    2.48390    9.03590 12799.61720    0.32190    3.11870    0.13460   91.73160  119.62220  205.73950  160.62480
 6600.50000  127.81050 2404.45020    0.42640   -9999.25   -9999.25   17.49110   12.34700   13.61670   70.77220  127.54320    0.00390    2.47340    9.03090 12798.62500    0.32230    3.20060    0.13600   91.02940  112.03140  206.27010  159.11590
 6601.00000  125.80140 2404.17970    0.17950   -9999.25   -9999.25   17.85550   12.41560   13.42650   68.43170  124.84430    0.00240    2.48450    9.02590 12797.63280    0.31390    3.30440    0.13130   90.32730  113.59070  205.87880  157.56410
 6601.50000  124.82280 2403.90920   -0.03060   -9999.25   -9999.25   17.75430   12.48460   13.23890   67.39230  123.78370    0.00180    2.49720    9.02090 12796.64060    0.29290    3.38050    0.12450   89.80590  115.64350  205.25040  155.95670
 6602.00000  127.96570 2403.63870   -0.18380   -9999.25   -9999.25   17.01420   12.55400   13.05400   68.56080  126.23190    0.00290    2.50670    9.01590 12795.64840    0.28870    3.39470    0.11930   89.77680  118.39070  205.23730  154.34920
 6602.50000  132.86390 2403.36820   -0.32740   -9999.25   -9999.25   16.19180   12.69010   13.26680   70.66390  130.38930    0.00360    2.50210    9.01100 12794.65630    0.29020    3.40590    0.11930   89.74770  120.51190  205.23490  154.46360
 6603.00000  133.93850 2403.09770   -0.40190   -9999.25   -9999.25   16.79340   12.87690   13.70170   71.49850  131.00190    0.00190    2.49400    9.00600 12793.66310    0.29470    3.42050    0.12460   89.71860  121.36880  205.22920  155.04170
 6603.50000  132.67000 2402.82710   -0.47650   -9999.25   -9999.25   18.64130   13.06650   14.19010   70.93060  128.43780    0.00000    2.48460    9.00100 12792.67090    0.29650    3.40640    0.13160   89.68950  123.18600  205.22310  154.21210
 6604.00000  130.17820 2402.55660   -0.59960   -9999.25   -9999.25   20.18690   13.25880   14.70810   71.50590  129.07480   -0.00180    2.47610    8.99600 12791.29490    0.29800    3.30930    0.13570   89.66040  124.90170  205.21700  153.58490
 6604.50000  130.12350 2402.28610   -0.74380   -9999.25   -9999.25   21.76460   13.45400   15.14080   74.04790  134.37570   -0.00330    2.47380    8.99100 12788.84470    0.29950    3.22540    0.13610   89.63130  126.33580  205.21080  153.32230
 6605.00000  133.02010 2402.01560   -0.88790   -9999.25   -9999.25   22.23520   13.70790   15.31120   74.78390  133.27700   -0.00330    2.47650    8.98600 12785.16600    0.30350    3.21070    0.13450   89.60220  125.62870  205.20470  153.05960
 6605.50000  136.05590 2401.74510   -1.03210   -9999.25   -9999.25   22.22580   13.96340   15.43930   73.22720  131.15450   -0.00320    2.48080    8.98100 12780.86520    0.30740    3.20850    0.13280   89.57310  124.92170  205.19860  152.82250
 6606.00000  135.90250 2401.47460   -1.17620   -9999.25   -9999.25   21.55190   14.01600   15.42500   70.24050  128.64680   -0.00320    2.48530    8.97600 12779.89360    0.31160    3.25920    0.13120   89.54400  123.51420  205.19250  152.64720
 6606.50000  131.54190 2401.18360   -1.32040   -9999.25   -9999.25   20.83230   14.06880   15.32040   69.73360  126.79140   -0.00320    2.48840    8.97100 12779.50100    0.31250    3.32610    0.12960   89.30690  122.25430  205.18630  152.47180
 6607.00000  130.32930 2400.89260   -1.46460   -9999.25   -9999.25   20.36830   14.12170   15.18090   70.49860  126.72260   -0.00320    2.49120    8.96600 12779.10940    0.30870    3.38650    0.12840   88.99650  121.07230  205.18020  152.29650
 6607.50000  130.06990 2400.60060   -1.60870   -9999.25   -9999.25   20.26580   14.17490   15.30740   70.63160  127.38950   -0.00290    2.49180    8.96100 12778.71780    0.29790    3.45200    0.12820   88.94340  120.49590  205.17410  152.12120
 6608.00000  129.35780 2400.30860   -1.65600   -9999.25   -9999.25   20.39410   14.22830   15.63160   70.20760  127.30960   -0.00250    2.48950    8.94540 12778.32520    0.29280    3.48600    0.12860   89.05820  121.30750  205.16790  151.88470
