~Version ---------------------------------------------------
VERS.   2.0 : CWLS log ASCII Standard -VERSION 2.0
WRAP.    NO : One line per depth step
DLM . SPACE : Column Data Section Delimiter
~Well ------------------------------------------------------
STRT .F                   25.0 : START DEPTH
STOP .F                 7975.0 : STOP DEPTH
STEP .F                    0.5 : STEP
NULL .                -9999.25 : NULL VALUE
COMP .                         : COMPANY
WELL .                         : WELL
FLD  .                         : FIELD
LOC  .                         : LOCATION
PROV .                         : PROVINCE
CNTY .                         : COUNTY
STAT .                         : STATE
CTRY .                         : COUNTRY
SRVC .                         : SERVICE COMPANY
DATE .                         : DATE
UWI  .                         : UNIQUE WELL ID
API  .                         : API NUMBER
SLAT .WGS84 1.6610476411741963 : SURFACE LATITUDE
SLON .WGS84  6.473241823747003 : SURFACE LONGITUDE
DATUM.F                2716.67 : DEPTH DATUM ELEV
~Curve Information -----------------------------------------
DEPT   .F     : 
GRR    .GAPI  : GAMMA RAY FROM RESISTIVITY LOG
TENR   .LB    : TENSION FROM RESISTIVITY LOG
SPR    .MV    : SPONTANEOUS POTENTIAL FROM RESISTIVITY LOG
LLS    .OHMM  : LATEROLOG SHALLOW RESISTIVITY
LLD    .OHMM  : LATEROLOG DEEP RESISTIVITY
SFLU   .OHMM  : SHALLOW FOCUSED RESISTIVITY (UNAVERAGED)
ILD    .OHMM  : INDUCTION DEEP RESISTIVITY
ILM    .OHMM  : INDUCTION MEDIUM RESISTIVITY
CGR    .GAPI  : CORRECTED GAMMA RAY
SGR    .GAPI  : SPECTROSCOPY GAMMA RAY
DRHO   .G/C3  : BULK DENSITY CORRECTION
RHOB   .G/C3  : BULK DENSITY
CALD   .IN    : CALIPER FROM DENSITY LOG
TEND   .LB    : TENSION FROM DENSITY LOG
NPHI_LS.DEC   : NEUTRON POROSITY LIMESTONE
PEF    .B/E   : PHOTOELECTRIC FACTOR
DPHI_LS.DEC   : DENSITY POROSITY LIMESTONE
DTCO   .US/F  : DELTA-T COMPRESSIONAL
GRS    .GAPI  : GAMMA RAY FROM SONIC LOG
DTST   .US/F  : DELTA-T STONELEY - MONOPOLE STONELEY
DTSM   .US/F  : DELTA-T SHEAR
~Params ----------------------------------------------------
~Other -----------------------------------------------------
~ASCII -----------------------------------------------------
# ...
 4282.00000   57.16710 1643.09220    9.09750   -9999.25   -9999.25   15.50230   16.30230   17.06340   41.47920   60.39070   -0.00460    2.53880    9.35280 12015.41600    0.11560    2.85880    0.10000   64.46920   54.12500  200.30730  109.99460
 4282.50000   53.83680 1643.25380    8.96670   -9999.25   -9999.25   15.94780   16.55030   17.43330   41.50080   60.89590   -0.00550    2.53590    9.35480 12016.27730    0.11550    2.85150    0.10170   64.20600   54.63460  200.30460  109.89080
 4283.00000   51.55590 1643.41550    9.16120   -9999.25   -9999.25   16.32350   16.80210   17.81110   41.57700   61.40110   -0.00570    2.54410    9.35560 12017.13870    0.11330    2.81500    0.09640   64.19050   56.90050  200.30190  109.78700
 4283.50000   51.67230 1643.57710    9.35580   -9999.25   -9999.25   16.52600   17.05780   18.19720   41.79610   61.90630   -0.00600    2.55440    9.35640 12018.00000    0.11100    2.77860    0.09100   63.91060   59.40720  200.29920  109.52420
 4284.00000   53.41070 1643.73890    9.42160   -9999.25   -9999.25   16.73090   17.31710   18.53880   42.01510   61.90150   -0.00630    2.55890    9.35720 12018.65040    0.11060    2.75720    0.08840   63.80740   59.90050  200.30340  108.96310
 4284.50000   55.04040 1643.90060    9.41240   -9999.25   -9999.25   16.88760   17.37130   18.53880   41.66910   60.88240   -0.00770    2.55540    9.36000 12018.68460    0.11060    2.73230    0.09030   63.80740   58.24700  200.31650  108.86810
 4285.00000   55.88160 1644.06230    9.31620   -9999.25   -9999.25   16.91190   17.42570   18.53880   40.12730   58.49620   -0.00810    2.55150    9.36400 12018.71880    0.11090    2.68140    0.09160   63.80740   56.53720  200.32950  109.13650
 4285.50000   56.79290 1644.22400    9.14220   -9999.25   -9999.25   16.91930   17.47330   18.46660   38.59760   56.11000   -0.00760    2.55210    9.36790 12018.75290    0.11130    2.65240    0.08900   63.80740   55.83560  200.34250  109.54600
 4286.00000   57.98070 1644.38570    8.81460   -9999.25   -9999.25   16.91810   17.47970   18.39270   37.79920   55.23980   -0.00630    2.55900    9.37190 12018.78610    0.11180    2.68130    0.08510   63.80740   55.91640  200.35560  109.69910
 4286.50000   58.82400 1644.54740    8.55120   -9999.25   -9999.25   16.91700   17.48610   18.31920   38.68420   56.61950   -0.00500    2.56800    9.37590 12018.82030    0.11240    2.73310    0.08190   63.80740   56.39100  200.36870  109.45590
 4287.00000   59.31940 1644.70910    8.40510   -9999.25   -9999.25   16.91590   17.49260   18.24590   40.50310   58.83930   -0.00360    2.57080    9.37980 12018.85450    0.11400    2.78920    0.08100   63.80740   56.55070  200.38170  109.21280
 4287.50000   58.99090 1644.87070    8.26120   -9999.25   -9999.25   16.91480   17.52860   18.24170   42.32190   61.05920   -0.00230    2.57010    9.38380 12018.88870    0.11570    2.80540    0.08110   63.80740   56.24930  200.39470  108.96970
 4288.00000   58.45050 1645.03250    7.96400   -9999.25   -9999.25   16.91370   17.64830   18.32980   43.76920   62.84070   -0.00090    2.56650    9.38780 12018.92290    0.11380    2.76200    0.08260   63.80240   54.92160  200.40780  108.92910
 4288.50000   57.87870 1645.19420    7.62770   -9999.25   -9999.25   16.98890   17.76880   18.44640   43.74400   62.39480    0.00040    2.56230    9.39170 12018.95700    0.11140    2.72900    0.08550   63.77620   55.36020  200.42090  109.07500
 4289.00000   56.68170 1645.35580    7.37520   -9999.25   -9999.25   17.22030   17.96700   18.64150   42.27150   60.07060    0.00030    2.55660    9.39570 12018.99120    0.10710    2.74110    0.08870   63.73520   56.40250  200.42250  109.47740
 4289.50000   55.48470 1645.51760    7.17810   -9999.25   -9999.25   17.50890   18.28250   18.83860   40.79890   57.74640   -0.00100    2.55690    9.39960 12019.02540    0.10180    2.79880    0.08960   63.75570   57.55660  200.26640  109.13300
 4290.00000   55.02480 1645.67920    7.17430   -9999.25   -9999.25   17.80780   18.60370   19.03790   39.34330   55.42220   -0.00300    2.55800    9.40360 12019.05960    0.10070    2.86770    0.08890   64.00120   58.93850  199.99680  108.50090
 4290.50000   57.62810 1645.84090    7.18710   -9999.25   -9999.25   18.09930   18.88180   19.23920   37.99760   54.00920   -0.00520    2.55880    9.40760 12019.09280    0.10090    2.88740    0.08840   63.25480   59.32860  199.75380  108.13030
 4291.00000   60.65690 1646.00270    7.24420   -9999.25   -9999.25   17.95870   18.73740   19.34540   36.80830   54.85030   -0.00580    2.55940    9.41150 12019.12700    0.10180    2.89570    0.08800   62.67530   57.85180  199.69120  107.75970
 4291.50000   59.26860 1646.16430    7.57110   -9999.25   -9999.25   17.62220   18.54400   19.34540   35.73880   60.16930   -0.00590    2.55950    9.41550 12019.16110    0.10320    2.94860    0.08800   62.38780   55.17390  199.62850  107.54140
 4292.00000   56.22360 1646.32600    7.94240   -9999.25   -9999.25   17.29190   18.35260   19.20700   34.66930   60.29680   -0.00590    2.56280    9.41950 12019.19530    0.10340    2.97390    0.08320   62.43250   53.08100  199.56590  107.53580
 4292.50000   55.17690 1646.48780    8.31370   -9999.25   -9999.25   17.24230   18.16310   18.92070   34.07250   59.69100   -0.00590    2.56840    9.42340 12019.22950    0.10300    2.99920    0.08090   62.57340   52.94190  199.50330  107.73240
 4293.00000   55.53020 1646.64940    8.34470   -9999.25   -9999.25   17.19300   17.95020   18.63880   33.89290   59.54780   -0.00640    2.56870    9.42740 12019.26370    0.10080    3.00280    0.08330   62.64680   53.05520  199.63130  107.93080
 4293.50000   55.96680 1646.81120    8.36890   -9999.25   -9999.25   17.14390   17.64660   18.36100   33.76430   60.46180   -0.00710    2.56380    9.43140 12019.29790    0.10000    3.00540    0.08560   62.66110   53.14350  199.80830  108.12120
 4294.00000   56.40340 1646.97280    8.31850   -9999.25   -9999.25   16.95950   17.30690   18.08740   33.63290   61.88090   -0.01020    2.55940    9.43530 12019.33200    0.09930    3.05400    0.08800   62.35930   53.20730  200.04730  108.31190
 4294.50000   56.90510 1647.13450    8.13300   -9999.25   -9999.25   16.50940   16.94290   17.76070   33.40860   60.81150   -0.01110    2.55800    9.43930 12019.36520    0.10070    3.01120    0.08890   62.25950   53.52050  200.34670  108.50970
 4295.00000   57.69770 1647.29630    7.84710   -9999.25   -9999.25   16.07130   16.58660   17.33640   33.44550   58.31360   -0.00800    2.56060    9.44330 12019.39940    0.10330    2.95850    0.08750   62.64970   54.45740  200.69110  108.70750
 4295.50000   58.94200 1647.45790    7.47560   -9999.25   -9999.25   15.64480   16.23780   16.92220   33.70930   59.56850   -0.00120    2.56270    9.44720 12019.43360    0.10790    2.86430    0.08660   63.08940   55.39430  200.70090  108.90530
 4296.00000   60.36320 1647.61960    7.26170   -9999.25   -9999.25   15.25570   15.89640   16.51790   34.00820   60.06050   -0.00060    2.55880    9.45120 12019.46780    0.10970    2.79840    0.08990   63.52900   56.33120  200.57190  109.10310
 4296.50000   61.78440 1647.78130    7.33290   -9999.25   -9999.25   15.02990   15.85680   16.23580   34.31980   59.92680   -0.00490    2.54770    9.45510 12019.50200    0.11100    2.72090    0.09370   63.80000   57.26810  200.24380  109.30100
 4297.00000   63.19240 1647.94300    7.38220   -9999.25   -9999.25   15.31690   15.80590   16.15840   34.63140   59.70100   -0.01070    2.54130    9.46360 12019.53610    0.11240    2.69910    0.09760   63.73260   58.18000  199.85560  109.54360
 4297.50000   63.39370 1648.10470    7.43160   -9999.25   -9999.25   15.43630   15.74530   16.08140   34.94290   59.58840   -0.01430    2.54240    9.47450 12019.57030    0.11210    2.70310    0.09760   63.68080   58.45450  199.62710  110.71130
 4298.00000   62.33280 1648.26640    7.33630   -9999.25   -9999.25   15.39870   15.68500   16.00480   35.16320   59.28820   -0.01250    2.55280    9.48530 12019.60450    0.10990    2.73650    0.09050   63.63770   58.00960  199.75620  110.77090
