~Version ---------------------------------------------------
VERS.   2.0 : CWLS log ASCII Standard -VERSION 2.0
WRAP.    NO : One line per depth step
DLM . SPACE : Column Data Section Delimiter
~Well ------------------------------------------------------
STRT .F                   25.0 : START DEPTH
STOP .F                 7975.0 : STOP DEPTH
STEP .F                    0.5 : STEP
NULL .                -9999.25 : NULL VALUE
COMP .                         : COMPANY
WELL .                         : WELL
FLD  .                         : FIELD
LOC  .                         : LOCATION
PROV .                         : PROVINCE
CNTY .                         : COUNTY
STAT .                         : STATE
CTRY .                         : COUNTRY
SRVC .                         : SERVICE COMPANY
DATE .                         : DATE
UWI  .                         : UNIQUE WELL ID
API  .                         : API NUMBER
SLAT .WGS84 1.6610476411741963 : SURFACE LATITUDE
SLON .WGS84  6.473241823747003 : SURFACE LONGITUDE
DATUM.F                2716.67 : DEPTH DATUM ELEV
~Curve Information -----------------------------------------
DEPT   .F     : 
GRR    .GAPI  : GAMMA RAY FROM RESISTIVITY LOG
TENR   .LB    : TENSION FROM RESISTIVITY LOG
SPR    .MV    : SPONTANEOUS POTENTIAL FROM RESISTIVITY LOG
LLS    .OHMM  : LATEROLOG SHALLOW RESISTIVITY
LLD    .OHMM  : LATEROLOG DEEP RESISTIVITY
SFLU   .OHMM  : SHALLOW FOCUSED RESISTIVITY (UNAVERAGED)
ILD    .OHMM  : INDUCTION DEEP RESISTIVITY
ILM    .OHMM  : INDUCTION MEDIUM RESISTIVITY
CGR    .GAPI  : CORRECTED GAMMA RAY
SGR    .GAPI  : SPECTROSCOPY GAMMA RAY
DRHO   .G/C3  : BULK DENSITY CORRECTION
RHOB   .G/C3  : BULK DENSITY
CALD   .IN    : CALIPER FROM DENSITY LOG
TEND   .LB    : TENSION FROM DENSITY LOG
NPHI_LS.DEC   : NEUTRON POROSITY LIMESTONE
PEF    .B/E   : PHOTOELECTRIC FACTOR
DPHI_LS.DEC   : DENSITY POROSITY LIMESTONE
DTCO   .US/F  : DELTA-T COMPRESSIONAL
GRS    .GAPI  : GAMMA RAY FROM SONIC LOG
DTST   .US/F  : DELTA-T STONELEY - MONOPOLE STONELEY
DTSM   .US/F  : DELTA-T SHEAR
~Params ----------------------------------------------------
~Other -----------------------------------------------------
~ASCII -----------------------------------------------------
# ...
 6856.00000  116.61420 2458.66990  -26.06810   -9999.25   -9999.25    8.68300    6.75490    7.33170   89.43250  112.73650    0.09900    2.10530   10.55380 12925.23930    0.20480    2.18740    0.35370   71.89290  110.67790  205.87100  129.85970
 6856.50000  113.00730 2458.82230  -24.69920   -9999.25   -9999.25    8.62940    6.97360    7.62370   74.50040  106.00520    0.10150    2.07300   10.12450 12929.20210    0.20330    2.05240    0.37440   72.59140  104.07410  198.67350  130.98790
 6857.00000  108.51050 2458.97460  -23.37440   -9999.25   -9999.25    7.90660    7.03670    7.60320   62.14720   99.52120    0.10100    2.08800    9.69530 12933.16600    0.19690    2.04020    0.35950   72.96150   96.78120  198.51010  131.28990
 6857.50000  102.45620 2459.12700  -23.04670   -9999.25   -9999.25    7.28230    6.85190    7.34110   55.70310   95.60220    0.09420    2.12550    9.40900 12936.06450    0.18700    2.06170    0.32550   73.05790   89.99690  199.93220  131.18090
 6858.00000   95.13840 2459.27830  -22.79840   -9999.25   -9999.25    6.77380    6.65000    7.08810   52.83680   91.78520    0.04950    2.22800    9.29980 12936.06450    0.17690    2.21840    0.27270   72.89130   86.00500  207.96410  130.77210
 6858.50000   89.68960 2459.43070  -22.66960   -9999.25   -9999.25    6.29540    6.47320    6.84370   51.36170   88.66960    0.00930    2.33320    9.23300 12936.06450    0.16520    2.39660    0.22040   72.45710   84.57150  214.94120  128.52200
 6859.00000   87.02910 2459.58200  -22.72340   -9999.25   -9999.25    6.09140    6.30110    6.60780   49.88660   84.84400   -0.01300    2.42800    9.18250 12916.40140    0.15850    2.49200    0.16530   72.30450   83.19580  215.53360  124.81720
 6859.50000   85.27010 2459.73440  -22.77720   -9999.25   -9999.25    6.03640    6.16610    6.38000   48.80650   83.53440   -0.01310    2.48710    9.13570 12890.35450    0.15260    2.55680    0.13330   72.15190   80.25490  211.46070  124.97550
 6860.00000   83.49700 2459.88670  -23.05580   -9999.25   -9999.25    6.05940    6.20400    6.27160   48.13880   81.96920   -0.01000    2.49540    9.08890 12864.30660    0.14680    2.53990    0.12550   71.67900   76.41580  208.00700  125.47010
 6860.50000   80.88400 2460.03910  -23.39160   -9999.25   -9999.25    6.16200    6.39090    6.57180   47.47110   80.50740   -0.00830    2.48670    9.05700 12850.93850    0.14540    2.45890    0.13060   70.88960   75.83070  207.60680  121.86670
 6861.00000   80.43380 2460.19040  -23.79020   -9999.25   -9999.25    6.51280    6.65760    7.08450   47.60140   81.07240   -0.00750    2.45750    9.03180 12848.23830    0.14730    2.47910    0.14880   70.13670   78.71130  206.95570  120.00720
 6861.50000   82.61340 2460.34280  -23.87460   -9999.25   -9999.25    7.22200    6.99920    7.62600   48.43680   88.41340   -0.00670    2.41200    9.02350 12851.14160    0.16380    2.56950    0.17500   68.52080   84.40430  205.34230  120.82300
 6862.00000   91.94390 2460.49510  -23.91890   -9999.25   -9999.25    8.16340    7.50120    8.20890   57.75530   98.19080    0.01660    2.35100    9.02280 12854.04300    0.18420    2.58830    0.20990   68.82670   90.55650  204.23110  122.14710
 6862.50000  102.65290 2460.64650  -23.27470   -9999.25   -9999.25    9.22770    8.03920    8.83630   65.51880  107.52720    0.07520    2.30070    9.05670 12857.47270    0.19810    2.57180    0.23520   69.87300   99.78940  203.52570  120.73050
 6863.00000  106.73220 2460.79880  -22.58330   -9999.25   -9999.25   10.43060    8.61580    9.51160   65.29910  106.32200    0.17470    2.30030    9.11950 12861.08590    0.19980    2.49750    0.24480   70.67910  101.77380  202.22420  120.34970
 6863.50000  107.25550 2460.95120  -21.89180   -9999.25   -9999.25   11.12670    9.23370   10.23860   60.16780  100.02560    0.26480    2.33470    9.19500 12864.69920    0.18130    2.42310    0.21460   70.92440   99.67460  201.91700  123.03780
 6864.00000  103.11500 2461.10250  -21.20040   -9999.25   -9999.25   10.92640    9.89600   11.00200   53.93360   94.12820    0.29910    2.35850    9.26620 12868.31350    0.16330    2.37090    0.20160   71.17070   93.54900  200.85840  121.34260
 6864.50000   99.81410 2461.25490  -20.50890   -9999.25   -9999.25   10.58580   10.49560   11.71720   52.86940   95.42260    0.29030    2.33670    9.26330 12871.92680    0.16690    2.33260    0.21250   71.44450   90.26060  198.88640  120.19450
 6865.00000   98.30370 2461.40720  -20.13540   -9999.25   -9999.25   10.40090   11.08990   12.47900   54.47820  102.56440    0.27030    2.31480    9.17710 12875.54000    0.17370    2.30490    0.22380   71.71820   91.15740  199.97010  120.00870
 6865.50000   99.57650 2461.55860  -19.85560   -9999.25   -9999.25   10.69730   11.71780   13.32380   59.18030  106.93780    0.24840    2.30200    9.05890 12879.15430    0.18080    2.28420    0.23280   72.06680   96.35220  201.42240  120.59050
 6866.00000  105.39300 2461.71190  -19.57570   -9999.25   -9999.25   11.92600   12.38130   14.24430   63.97360  113.59570    0.20900    2.33080    8.94070 12882.76760    0.19280    2.30290    0.23310   72.57300  101.71660  211.13810  121.50190
 6866.50000  115.76920 2461.87600  -19.41040   -9999.25   -9999.25   13.32050   13.08230   15.22850   70.20740  120.25350    0.16960    2.37320    8.83600 12886.38090    0.20590    2.45830    0.20290   72.91160  107.64480  224.63650  122.78990
 6867.00000  126.18610 2462.03910  -19.52130   -9999.25   -9999.25   15.03090   13.82300   16.21060   74.04340  126.42960    0.11470    2.42490    8.79420 12889.99410    0.20920    2.64440    0.17180   73.19840  112.19140  231.51500  123.83100
 6867.50000  131.97890 2462.20310  -19.63220   -9999.25   -9999.25   16.89950   14.28190   17.23140   75.95060  127.65560    0.06690    2.46380    8.79470 12893.60840    0.20880    2.83050    0.14400   73.48520  116.80420  232.79320  124.27240
 6868.00000  131.93320 2462.36720  -19.74310   -9999.25   -9999.25   18.69680   14.46520   18.31650   75.87490  126.41390    0.01810    2.48460    8.79400 12897.22170    0.20100    2.94680    0.13300   73.77200  118.14690  230.95950  124.00590
 6868.50000  126.08290 2462.53130  -19.85400   -9999.25   -9999.25   19.97710   14.43740   18.87950   74.26460  120.02130   -0.00040    2.49530    8.75080 12900.83500    0.19040    2.91130    0.12790   74.06680  113.86610  228.97030  123.63400
 6869.00000  123.02810 2462.69530  -19.94430   -9999.25   -9999.25   19.88370   14.40970   18.45460   69.31870  112.31280   -0.00640    2.49160    8.69450 12904.44920    0.18200    2.79950    0.12760   73.97570  109.16950  227.84360  122.64970
 6869.50000  120.28270 2462.85840  -20.31630   -9999.25   -9999.25   18.01640   14.38200   16.84010   61.15980  100.87760   -0.00770    2.48020    8.63810 12908.06250    0.17420    2.68900    0.13380   73.80060  101.66880  228.54950  121.68830
 6870.00000  110.96540 2463.02250  -20.98360   -9999.25   -9999.25   16.44180   14.35430   15.36680   55.16990   89.10610   -0.00750    2.46440    8.58280 12911.67580    0.16410    2.59520    0.14260   72.82730   92.49780  232.76160  120.15540
 6870.50000   99.67940 2463.18650  -21.82850   -9999.25   -9999.25   15.00480   14.32670   14.57500   49.18000   75.25660   -0.00380    2.45110    8.54980 12915.29000    0.14520    2.53390    0.15030   71.36830   81.79100  232.63330  118.68190
 6871.00000   84.56680 2463.34960  -22.67340   -9999.25   -9999.25   13.69350   14.71680   14.21970   43.19020   64.45880    0.00660    2.45220    8.53300 12918.90330    0.12630    2.56070    0.15300   69.59280   71.05580  231.35410  116.52480
 6871.50000   69.25150 2463.51370  -23.49600   -9999.25   -9999.25   13.62470   15.39140   14.65310   37.20030   60.19850    0.04590    2.47900    8.52690 12922.51660    0.10750    2.60820    0.14260   67.80980   60.17900  229.69340  113.43810
 6872.00000   57.09830 2463.67770  -24.04410   -9999.25   -9999.25   15.45940   16.85920   17.04580   34.38720   56.74410    0.07680    2.50680    8.52550 12926.13090    0.08380    2.72000    0.12310   66.02680   53.64550  227.47970  110.52830
