~Version ---------------------------------------------------
VERS.   2.0 : CWLS log ASCII Standard -VERSION 2.0
WRAP.    NO : One line per depth step
DLM . SPACE : Column Data Section Delimiter
~Well ------------------------------------------------------
STRT .F                   25.0 : START DEPTH
STOP .F                 7975.0 : STOP DEPTH
STEP .F                    0.5 : STEP
NULL .                -9999.25 : NULL VALUE
COMP .                         : COMPANY
WELL .                         : WELL
FLD  .                         : FIELD
LOC  .                         : LOCATION
PROV .                         : PROVINCE
CNTY .                         : COUNTY
STAT .                         : STATE
CTRY .                         : COUNTRY
SRVC .                         : SERVICE COMPANY
DATE .                         : DATE
UWI  .                         : UNIQUE WELL ID
API  .                         : API NUMBER
SLAT .WGS84 1.6610476411741963 : SURFACE LATITUDE
SLON .WGS84  6.473241823747003 : SURFACE LONGITUDE
DATUM.F                2716.67 : DEPTH DATUM ELEV
~Curve Information -----------------------------------------
DEPT   .F     : 
GRR    .GAPI  : GAMMA RAY FROM RESISTIVITY LOG
TENR   .LB    : TENSION FROM RESISTIVITY LOG
SPR    .MV    : SPONTANEOUS POTENTIAL FROM RESISTIVITY LOG
LLS    .OHMM  : LATEROLOG SHALLOW RESISTIVITY
LLD    .OHMM  : LATEROLOG DEEP RESISTIVITY
SFLU   .OHMM  : SHALLOW FOCUSED RESISTIVITY (UNAVERAGED)
ILD    .OHMM  : INDUCTION DEEP RESISTIVITY
ILM    .OHMM  : INDUCTION MEDIUM RESISTIVITY
CGR    .GAPI  : CORRECTED GAMMA RAY
SGR    .GAPI  : SPECTROSCOPY GAMMA RAY
DRHO   .G/C3  : BULK DENSITY CORRECTION
RHOB   .G/C3  : BULK DENSITY
CALD   .IN    : CALIPER FROM DENSITY LOG
TEND   .LB    : TENSION FROM DENSITY LOG
NPHI_LS.DEC   : NEUTRON POROSITY LIMESTONE
PEF    .B/E   : PHOTOELECTRIC FACTOR
DPHI_LS.DEC   : DENSITY POROSITY LIMESTONE
DTCO   .US/F  : DELTA-T COMPRESSIONAL
GRS    .GAPI  : GAMMA RAY FROM SONIC LOG
DTST   .US/F  : DELTA-T STONELEY - MONOPOLE STONELEY
DTSM   .US/F  : DELTA-T SHEAR
~Params ----------------------------------------------------
~Other -----------------------------------------------------
~ASCII -----------------------------------------------------
# ...
 7103.50000  114.00340 2551.20310  -12.36710   -9999.25   -9999.25   44.78370   29.94550   32.44240   67.75580  108.37570    0.00250    2.56900    8.70390 12954.83300    0.18290    2.87140    0.08110   72.01820  102.78560  199.95230  119.80100
 7104.00000  109.66730 2551.42090  -12.39420   -9999.25   -9999.25   41.07520   30.62130   32.34320   64.78180  106.99350    0.00390    2.56310    8.70410 12955.37400    0.19770    2.86650    0.08600   72.02620  100.95900  199.08380  119.44650
 7104.50000  110.16810 2551.63870  -12.42130   -9999.25   -9999.25   38.79010   31.78420   33.07850   65.75440  107.99830    0.00350    2.55570    8.70660 12955.91500    0.20780    2.93770    0.09020   72.10960  100.02780  198.60890  119.81480
 7105.00000  110.68880 2551.85740  -12.44840   -9999.25   -9999.25   41.05000   33.25870   35.21270   66.38830  103.96620    0.00040    2.56260    8.70530 12956.45610    0.20260    3.22980    0.08620   71.94990   99.08020  198.44490  119.79910
 7105.50000  104.85180 2552.07520  -12.47550   -9999.25   -9999.25   53.70010   35.21670   38.44190   61.03170   94.76320   -0.00160    2.57700    8.68270 12956.99710    0.18460    3.53250    0.07670   70.81730   93.14970  198.46150  119.33210
 7106.00000   82.25090 2552.29300  -12.50270   -9999.25   -9999.25   63.72710   38.08290   41.96730   58.02190   82.95940   -0.00200    2.59820    8.69180 12957.53910    0.16520    3.65080    0.06540   69.85410   80.97720  200.28160  118.19920
 7106.50000   82.79540 2552.51070  -12.52980   -9999.25   -9999.25   68.63950   41.18240   45.81600   58.59470   87.11760   -0.00150    2.60600    8.70100 12958.08010    0.16750    3.47740    0.06080   69.50980   80.62750  200.82760  117.09000
 7107.00000   88.28300 2552.72850  -12.56920   -9999.25   -9999.25   71.08750   44.53420   50.01770   60.29530   90.13710    0.00030    2.58960    8.71010 12958.62110    0.17320    3.33400    0.07040   69.29920   86.09020  200.06360  117.12430
 7107.50000   95.42940 2552.94630  -12.63380   -9999.25   -9999.25   73.62620   46.45220   51.58010   62.21620   93.12140    0.00080    2.56920    8.71920 12959.16210    0.17800    3.27280    0.08220   69.25890   93.31000  198.37940  115.98920
 7108.00000   99.32750 2553.16410  -12.69840   -9999.25   -9999.25   76.39300   46.40150   51.47150   65.35170   96.25130   -0.00010    2.54920    8.72840 12959.70310    0.18130    3.17200    0.09400   70.15890   96.25210  198.02020  116.91210
 7108.50000  102.38220 2553.38280  -12.76300   -9999.25   -9999.25   77.10340   44.12920   48.76480   70.15250  103.77190   -0.00240    2.53280    8.73750 12960.24410    0.18820    3.04960    0.10360   71.05890   98.56260  198.05470  118.11670
 7109.00000  105.48960 2553.60060  -12.82760   -9999.25   -9999.25   66.71700   40.10450   44.32980   74.95340  112.19480   -0.00480    2.52800    8.74670 12960.78520    0.19590    2.93810    0.10640   72.21800  101.05500  198.13320  118.96860
 7109.50000  107.67230 2553.81840  -12.89210   -9999.25   -9999.25   59.31490   36.44680   40.26080   79.90190  119.97680   -0.00510    2.52600    8.75580 12960.97070    0.19960    2.90380    0.10760   73.02540  102.23610  198.15480  119.52810
 7110.00000  108.56520 2554.03610  -12.95670   -9999.25   -9999.25   48.33800   33.12270   36.45140   81.42050  120.12400   -0.00340    2.52960    8.76500 12961.11330    0.20390    2.93340    0.10550   73.77460  105.17970  198.23730  122.71860
 7110.50000  109.24820 2554.25390  -13.02130   -9999.25   -9999.25   39.88250   30.10180   33.00250   80.26890  117.10940   -0.00150    2.53500    8.77410 12961.25590    0.20740    2.98670    0.10230   74.68070  108.75910  198.45080  122.33660
 7111.00000  109.93120 2554.47170  -13.10360   -9999.25   -9999.25   33.24100   27.28470   29.87990   76.96150  113.03010    0.00050    2.54070    8.78330 12961.39940    0.19800    2.99180    0.09900   74.48040  108.53900  198.68630  122.11990
 7111.50000  109.41330 2554.68950  -13.32650   -9999.25   -9999.25   29.64600   24.64970   27.05280   73.62160  107.80340    0.00240    2.54630    8.79240 12961.54200    0.18760    2.90040    0.09540   73.71330  103.96150  198.31020  122.05430
 7112.00000  104.63800 2554.90820  -13.54940   -9999.25   -9999.25   29.44270   22.26920   24.49320   70.28170  102.09520    0.00440    2.55270    8.80160 12961.68550    0.16980    2.79990    0.08930   73.64870   97.40660  197.64560  120.84940
 7112.50000   99.76710 2555.12600  -13.77230   -9999.25   -9999.25   29.17220   20.11860   22.17570   67.54420   96.38700    0.00640    2.56710    8.81010 12961.82810    0.15980    2.74090    0.08360   72.93580   93.02740  197.14750  119.36510
 7113.00000   96.77920 2555.34380  -13.94400   -9999.25   -9999.25   28.28090   19.34420   20.35600   67.70390   93.17910    0.00830    2.57230    8.80980 12961.97070    0.16130    2.81700    0.08050   71.77590   92.13130  197.18220  116.60010
 7113.50000   95.10600 2555.56150  -14.09770   -9999.25   -9999.25   25.26250   18.95780   19.90700   70.13200   98.06300    0.00860    2.57650    8.81250 12962.11430    0.16490    2.90910    0.07800   70.34720   92.16810  197.41940  116.04670
 7114.00000   96.73310 2555.83500  -14.25140   -9999.25   -9999.25   22.55150   18.95100   19.82070   72.33620  105.22180    0.00890    2.57790    8.81530 12962.25680    0.16520    3.03210    0.07720   69.81110   92.31010  197.85080  115.93370
 7114.50000   99.28870 2556.12400  -14.21150   -9999.25   -9999.25   21.96280   19.24430   19.81160   71.08060  101.46140    0.00870    2.57550    8.81800 12962.39940    0.16180    3.01840    0.07970   69.75680   91.36200  198.09900  115.92380
 7115.00000  100.07240 2556.41410  -14.13700   -9999.25   -9999.25   24.39970   19.68590   20.26840   69.38960   97.52110    0.00840    2.56990    8.81510 12962.54300    0.15990    2.99090    0.08260   69.80520   89.79990  198.10100  115.91390
 7115.50000   99.65440 2556.70310  -14.06250   -9999.25   -9999.25   28.77710   20.13770   20.86140   70.49970   99.98740    0.00780    2.56680    8.81640 12962.68550    0.16740    2.96320    0.08510   69.82810   89.31880  201.38030  115.85630
 7116.00000   98.71630 2556.99320  -13.98800   -9999.25   -9999.25   32.61780   21.09280   22.28900   72.44920  103.07790    0.00700    2.56490    8.82710 12962.82810    0.17140    2.93560    0.08540   69.93360   93.17310  208.53030  115.47960
 7116.50000   97.34720 2557.28320  -13.91350   -9999.25   -9999.25   36.63240   22.49370   24.06480   74.39880  102.86200    0.00540    2.56310    8.82020 12962.97170    0.17250    2.89520    0.08570   70.05610   98.97570  215.69200  115.10290
 7117.00000   92.68920 2557.57230  -13.84730   -9999.25   -9999.25   36.84530   23.98750   25.98200   73.76400  101.07110    0.00220    2.56130    8.81340 12963.11430    0.16530    2.80690    0.08700   70.08550  100.72280  221.57230  115.13480
 7117.50000   88.22790 2557.86130  -13.80850   -9999.25   -9999.25   35.11340   25.88650   28.05200   70.42870   97.60830   -0.00120    2.56020    8.80740 12963.25680    0.15910    2.73340    0.08860   70.08810   97.85790  224.13680  115.62450
 7118.00000   85.51670 2558.15140  -13.76980   -9999.25   -9999.25   33.80550   28.14250   30.28690   67.09350   94.95860   -0.00430    2.55950    8.80590 12963.40040    0.16090    2.75610    0.08960   70.10090   90.87070  224.67960  115.10830
 7118.50000   84.52600 2558.44140  -13.73110   -9999.25   -9999.25   32.68070   30.14250   32.69980   65.85690   92.30880   -0.00510    2.55980    8.80870 12963.54300    0.16830    2.86060    0.08780   70.04990   88.92960  224.81020  115.07650
 7119.00000   86.68190 2558.73050  -13.69240   -9999.25   -9999.25   35.19030   31.90220   35.30500   66.16850   91.37820   -0.00110    2.56390    8.80850 12963.68550    0.17160    2.98010    0.08540   69.74500   90.61280  224.75970  114.82880
 7119.50000   88.60610 2559.01950  -13.65370   -9999.25   -9999.25   42.45200   33.76450   37.99530   65.11460   90.43690    0.00360    2.56870    8.79780 12963.82910    0.16830    3.14700    0.08260   69.30840   91.32690  224.94320  114.38530
