~Version ---------------------------------------------------
VERS.   2.0 : CWLS log ASCII Standard -VERSION 2.0
WRAP.    NO : One line per depth step
DLM . SPACE : Column Data Section Delimiter
~Well ------------------------------------------------------
STRT .F                   25.0 : START DEPTH
STOP .F                 7975.0 : STOP DEPTH
STEP .F                    0.5 : STEP
NULL .                -9999.25 : NULL VALUE
COMP .                         : COMPANY
WELL .                         : WELL
FLD  .                         : FIELD
LOC  .                         : LOCATION
PROV .                         : PROVINCE
CNTY .                         : COUNTY
STAT .                         : STATE
CTRY .                         : COUNTRY
SRVC .                         : SERVICE COMPANY
DATE .                         : DATE
UWI  .                         : UNIQUE WELL ID
API  .                         : API NUMBER
SLAT .WGS84 1.6610476411741963 : SURFACE LATITUDE
SLON .WGS84  6.473241823747003 : SURFACE LONGITUDE
DATUM.F                2716.67 : DEPTH DATUM ELEV
~Curve Information -----------------------------------------
DEPT   .F     : 
GRR    .GAPI  : GAMMA RAY FROM RESISTIVITY LOG
TENR   .LB    : TENSION FROM RESISTIVITY LOG
SPR    .MV    : SPONTANEOUS POTENTIAL FROM RESISTIVITY LOG
LLS    .OHMM  : LATEROLOG SHALLOW RESISTIVITY
LLD    .OHMM  : LATEROLOG DEEP RESISTIVITY
SFLU   .OHMM  : SHALLOW FOCUSED RESISTIVITY (UNAVERAGED)
ILD    .OHMM  : INDUCTION DEEP RESISTIVITY
ILM    .OHMM  : INDUCTION MEDIUM RESISTIVITY
CGR    .GAPI  : CORRECTED GAMMA RAY
SGR    .GAPI  : SPECTROSCOPY GAMMA RAY
DRHO   .G/C3  : BULK DENSITY CORRECTION
RHOB   .G/C3  : BULK DENSITY
CALD   .IN    : CALIPER FROM DENSITY LOG
TEND   .LB    : TENSION FROM DENSITY LOG
NPHI_LS.DEC   : NEUTRON POROSITY LIMESTONE
PEF    .B/E   : PHOTOELECTRIC FACTOR
DPHI_LS.DEC   : DENSITY POROSITY LIMESTONE
DTCO   .US/F  : DELTA-T COMPRESSIONAL
GRS    .GAPI  : GAMMA RAY FROM SONIC LOG
DTST   .US/F  : DELTA-T STONELEY - MONOPOLE STONELEY
DTSM   .US/F  : DELTA-T SHEAR
~Params ----------------------------------------------------
~Other -----------------------------------------------------
~ASCII -----------------------------------------------------
# ...
 5305.00000  137.26570 1983.47940    5.15620   -9999.25   -9999.25   35.01070   21.75830   22.42250   73.79850  137.85770    0.00570    2.51880    9.13190 12379.38570    0.24200    2.90410    0.11190   77.87370  132.11000  201.12240  131.49680
 5305.50000  135.26340 1984.01780    4.99190   -9999.25   -9999.25   35.78910   21.99810   22.51390   74.46800  139.76400    0.00690    2.51820    9.14830 12380.25980    0.23690    2.90790    0.11220   77.88590  128.54300  201.26860  131.95550
 5306.00000  129.81450 1984.55620    4.82760   -9999.25   -9999.25   35.88210   21.75800   22.60570   75.43080  141.06170    0.00740    2.51930    9.16470 12381.13480    0.23540    2.94280    0.11150   78.23420  127.39500  201.41470  132.41410
 5306.50000  121.51230 1985.09460    4.66330   -9999.25   -9999.25   35.46980   21.22030   22.61120   75.15800  138.84660    0.00760    2.52050    9.18110 12382.00880    0.23460    2.98930    0.11080   78.58260  126.90730  201.56090  132.58790
 5307.00000  114.35490 1985.63310    4.49910   -9999.25   -9999.25   35.06230   20.52590   22.14840   72.49690  130.65680    0.00710    2.51770    9.19760 12382.88380    0.23420    2.99140    0.11300   78.77570  126.86770  201.70700  132.29840
 5307.50000  108.07860 1986.17150    4.33480   -9999.25   -9999.25   34.11780   19.85420   20.96460   68.59740  114.50740    0.00610    2.50850    9.21400 12383.75780    0.22900    2.96310    0.11710   78.12140  125.40100  201.48150  131.84470
 5308.00000  105.55200 1986.70980    4.17050   -9999.25   -9999.25   30.62430   19.20460   19.22510   66.68940  105.07060    0.00450    2.50370    9.23040 12384.63280    0.21720    2.87360    0.12060   76.81370  117.24910  201.22790  129.48850
 5308.50000  108.08200 1987.24830    3.90360   -9999.25   -9999.25   24.71000   18.57620   17.63010   66.16200  104.53690    0.00260    2.50500    9.24680 12385.50680    0.20440    2.80870    0.11960   75.50600  107.03470  200.97430  126.94650
 5309.00000  110.13900 1987.78670    3.77620   -9999.25   -9999.25   21.62250   17.96830   16.78320   66.34220  105.02350    0.00050    2.51210    9.27570 12386.38180    0.19260    2.85730    0.11580   74.19840  102.89040  200.72070  124.72990
 5309.50000  109.71730 1988.32520    3.95640   -9999.25   -9999.25   19.76920   17.71960   16.56210   67.19570  105.72110   -0.00160    2.51700    9.28550 12387.25590    0.18240    2.94730    0.11290   72.77600   99.80450  200.46700  122.39050
 5310.00000  110.19650 1988.86360    4.14560   -9999.25   -9999.25   20.83980   17.58320   16.91530   68.89700  110.35750   -0.00380    2.51430    9.29810 12388.13090    0.19270    2.99140    0.11440   70.27740   96.87670  200.21340  119.94390
 5310.50000  111.99140 1989.40200    4.31600   -9999.25   -9999.25   24.26910   17.57030   17.48760   71.04030  113.90640   -0.00590    2.50720    9.31410 12389.00490    0.21660    3.00150    0.11740   70.21480   94.20170  200.22830  119.98210
 5311.00000  113.89530 1989.94040    4.64230   -9999.25   -9999.25   26.37090   17.91270   18.18300   72.46570  115.36000   -0.00720    2.50370    9.33020 12389.87890    0.23160    3.01460    0.12040   71.08820   95.22550  200.24940  122.77460
 5311.50000  115.71730 1990.47890    4.91470   -9999.25   -9999.25   27.73610   18.39050   18.90610   73.19930  116.81370   -0.00810    2.50310    9.36470 12390.75390    0.24640    3.07350    0.12090   71.96150   97.32650  200.27760  123.65660
 5312.00000  118.84490 1991.01730    5.18610   -9999.25   -9999.25   27.92440   18.91290   19.64730   74.20970  118.00910   -0.00900    2.50600    9.36740 12391.62790    0.24540    3.12670    0.11780   72.83490   98.15230  200.30640  124.78800
 5312.50000  122.62000 1991.55570    5.45750   -9999.25   -9999.25   27.47560   19.45010   20.38220   75.27930  119.41680   -0.00900    2.50810    9.36750 12392.50290    0.23860    3.14890    0.11660   73.70830   99.01300  200.33520  126.54670
 5313.00000  124.83320 1992.09410    5.72890   -9999.25   -9999.25   27.59870   20.00260   21.14460   76.34880  121.54400   -0.00900    2.50970    9.36310 12393.37700    0.23240    3.11010    0.11650   74.57190  101.12960  200.36400  126.98350
 5313.50000  123.49160 1992.63260    6.00020   -9999.25   -9999.25   28.39140   20.52790   21.93550   77.60070  123.52680   -0.00880    2.51120    9.36320 12394.25200    0.22970    3.01570    0.11630   74.67330  104.73180  200.39270  126.93210
 5314.00000  122.05050 1993.17100    6.27160   -9999.25   -9999.25   29.31890   20.89810   22.37170   78.97350  125.16290   -0.00840    2.51270    9.36400 12395.12600    0.23380    2.92570    0.11540   74.68670  108.33410  200.42150  126.85280
 5314.50000  121.28350 1993.70940    6.54300   -9999.25   -9999.25   30.25240   21.27510   22.38950   80.27410  126.88600   -0.00830    2.51370    9.36450 12396.00100    0.23930    2.87910    0.11480   74.67440  111.12570  200.45030  126.70710
 5315.00000  125.03590 1994.24780    6.86050   -9999.25   -9999.25   30.17800   21.65880   22.51260   82.55390  130.09700   -0.00810    2.51290    9.36350 12412.57520    0.24010    2.90340    0.11530   74.72440  113.04480  200.47910  126.93360
 5315.50000  130.96510 1994.78630    6.63900   -9999.25   -9999.25   29.53710   22.04940   22.63640   84.96200  134.42970   -0.00790    2.51050    9.36250 12397.18650    0.23820    2.94450    0.11660   74.86200  114.96390  200.50790  127.30640
 5316.00000  142.76840 1995.32470    6.17650   -9999.25   -9999.25   28.24410   22.15150   22.76080   88.45990  138.86800   -0.00670    2.50780    9.36170 12403.04490    0.24350    2.99670    0.11780   75.12990  118.19200  200.53660  127.59390
 5316.50000  150.49150 1995.86300    5.88630   -9999.25   -9999.25   28.89030   22.07610   22.63620   92.55330  145.64990   -0.00530    2.50580    9.36120 12408.90330    0.25050    3.04100    0.11890   75.50030  122.48540  200.56540  128.54990
 5317.00000  154.80900 1996.40150    5.59610   -9999.25   -9999.25   29.46850   21.73880   22.37810   96.81520  153.11090   -0.00320    2.50420    9.36060 12410.28710    0.25610    3.03880    0.12010   75.92120  127.30960  200.59420  129.53020
 5317.50000  158.01820 1996.93990    5.26420   -9999.25   -9999.25   29.92660   21.40660   22.12290  100.54930  157.17870   -0.00120    2.50400    9.36010 12409.37700    0.25350    2.99300    0.12050   76.34220  131.33360  200.68050  129.83320
 5318.00000  158.13270 1997.12430    4.93510   -9999.25   -9999.25   28.97510   21.07960   21.87070  100.66910  159.90690    0.00080    2.50610    9.35860 12408.46780    0.24740    2.90190    0.11930   76.36800  138.08740  200.78920  129.84560
 5318.50000  150.23900 1996.91330    4.54420   -9999.25   -9999.25   27.82260   20.75750   21.62140   97.14740  155.83990    0.00280    2.51250    9.35720 12407.55760    0.24070    2.81430    0.11520   76.12790  144.18780  200.89780  129.91970
 5319.00000  141.28130 1996.70250    4.37260   -9999.25   -9999.25   27.27020   20.44030   21.37480   90.20480  142.30500    0.00470    2.52200    9.35920 12406.64840    0.23740    2.80020    0.10980   75.88780  144.21530  201.00650  129.99380
 5319.50000  134.88800 1996.49170    4.24210   -9999.25   -9999.25   27.84720   20.12020   21.13110   85.18100  134.70640    0.00580    2.53150    9.36830 12405.73830    0.23950    2.82400    0.10440   75.64770  137.95860  201.11520  129.54580
 5320.00000  134.37530 1996.28090    3.97820   -9999.25   -9999.25   28.74850   19.58140   20.89020   85.04930  135.32490    0.00510    2.53140    9.37190 12404.82910    0.24030    2.83070    0.10430   75.35340  129.77780  201.22380  127.74820
 5320.50000  140.19370 1996.06990    3.47400   -9999.25   -9999.25   29.36370   19.01710   20.28710   86.31010  137.75590    0.00260    2.51980    9.36660 12403.91890    0.24150    2.84180    0.11030   74.99470  122.17170  201.33250  127.29120
 5321.00000  136.25060 1995.85910    2.89700   -9999.25   -9999.25   29.17220   17.42000   19.55810   87.30040  140.18680   -0.00010    2.51420    9.37380 12403.00880    0.24310    2.88080    0.11450   74.80490  121.42080  201.44110  128.06330
