~Version ---------------------------------------------------
VERS.   2.0 : CWLS log ASCII Standard -VERSION 2.0
WRAP.    NO : One line per depth step
DLM . SPACE : Column Data Section Delimiter
~Well ------------------------------------------------------
STRT .F                   25.0 : START DEPTH
STOP .F                 7975.0 : STOP DEPTH
STEP .F                    0.5 : STEP
NULL .                -9999.25 : NULL VALUE
COMP .                         : COMPANY
WELL .                         : WELL
FLD  .                         : FIELD
LOC  .                         : LOCATION
PROV .                         : PROVINCE
CNTY .                         : COUNTY
STAT .                         : STATE
CTRY .                         : COUNTRY
SRVC .                         : SERVICE COMPANY
DATE .                         : DATE
UWI  .                         : UNIQUE WELL ID
API  .                         : API NUMBER
SLAT .WGS84 1.6610476411741963 : SURFACE LATITUDE
SLON .WGS84  6.473241823747003 : SURFACE LONGITUDE
DATUM.F                2716.67 : DEPTH DATUM ELEV
~Curve Information -----------------------------------------
DEPT   .F     : 
GRR    .GAPI  : GAMMA RAY FROM RESISTIVITY LOG
TENR   .LB    : TENSION FROM RESISTIVITY LOG
SPR    .MV    : SPONTANEOUS POTENTIAL FROM RESISTIVITY LOG
LLS    .OHMM  : LATEROLOG SHALLOW RESISTIVITY
LLD    .OHMM  : LATEROLOG DEEP RESISTIVITY
SFLU   .OHMM  : SHALLOW FOCUSED RESISTIVITY (UNAVERAGED)
ILD    .OHMM  : INDUCTION DEEP RESISTIVITY
ILM    .OHMM  : INDUCTION MEDIUM RESISTIVITY
CGR    .GAPI  : CORRECTED GAMMA RAY
SGR    .GAPI  : SPECTROSCOPY GAMMA RAY
DRHO   .G/C3  : BULK DENSITY CORRECTION
RHOB   .G/C3  : BULK DENSITY
CALD   .IN    : CALIPER FROM DENSITY LOG
TEND   .LB    : TENSION FROM DENSITY LOG
NPHI_LS.DEC   : NEUTRON POROSITY LIMESTONE
PEF    .B/E   : PHOTOELECTRIC FACTOR
DPHI_LS.DEC   : DENSITY POROSITY LIMESTONE
DTCO   .US/F  : DELTA-T COMPRESSIONAL
GRS    .GAPI  : GAMMA RAY FROM SONIC LOG
DTST   .US/F  : DELTA-T STONELEY - MONOPOLE STONELEY
DTSM   .US/F  : DELTA-T SHEAR
~Params ----------------------------------------------------
~Other -----------------------------------------------------
~ASCII -----------------------------------------------------
# ...
 7615.00000   83.02030 2687.26170  -14.92820   -9999.25   -9999.25   30.94190   19.67790   24.06240   61.34390   86.95340    0.00200    2.61430    8.53950 13142.84180    0.14540    3.33390    0.05550   69.53120   82.55730  207.30620  116.81490
 7615.50000   69.36370 2688.04100  -15.00890   -9999.25   -9999.25   48.24440   21.81110   28.00090   43.90240   65.50040   -0.00010    2.65580    8.53410 13142.44340    0.11150    3.60710    0.03420   67.35180   68.09990  204.73390  113.09380
 7616.00000   55.34350 2688.82030  -15.08950   -9999.25   -9999.25   69.84230   23.71790   32.58400   31.06130   51.40050   -0.00190    2.68990    8.52880 13142.04490    0.08840    3.60940    0.01310   63.81280   54.46840  199.30760  109.22600
 7616.50000   55.34940 2689.60060  -15.17020   -9999.25   -9999.25   82.72340   25.53020   34.52980   33.19310   51.36660   -0.00270    2.67670    8.52350 13141.64650    0.07300    3.27330    0.01780   61.82580   54.13150  195.99240  105.35820
 7617.00000   63.98390 2690.37990  -15.24990   -9999.25   -9999.25   58.78590   26.72890   33.27940   43.95280   65.74870   -0.00230    2.64020    8.51810 13141.24800    0.09270    2.98190    0.03900   60.82790   61.27680  195.98370  101.29630
 7617.50000   74.97340 2691.15920  -15.37230   -9999.25   -9999.25   41.29740   25.90980   29.61070   54.71260   79.24470   -0.00140    2.60690    8.51280 13140.84960    0.11940    2.87240    0.06030   60.51630   70.72360  196.03420  101.58600
 7618.00000   85.30930 2691.93850  -15.81300   -9999.25   -9999.25   27.59680   23.53820   25.30700   65.47230   99.25600   -0.00060    2.58230    8.50750 13140.45120    0.13590    2.87310    0.07440   61.55320   85.09500  196.27400  105.36230
 7618.50000   95.19990 2692.71880  -16.25360   -9999.25   -9999.25   23.69580   20.96020   22.22830   72.88790  106.77990    0.00030    2.58010    8.52550 13140.05270    0.15010    2.87550    0.07600   63.99050   93.46400  197.03110  109.14330
 7619.00000  101.21420 2693.49800  -16.69430   -9999.25   -9999.25   22.30730   18.41490   19.93370   70.45570  102.72240    0.00110    2.57980    8.54740 13139.65430    0.14660    2.84640    0.07620   66.50240   97.43330  199.68180  112.55330
 7619.50000  101.57620 2694.27730  -17.13490   -9999.25   -9999.25   21.70460   16.17870   17.87600   66.52810   98.59430    0.00200    2.58000    8.56550 13139.25590    0.14120    2.82680    0.07610   67.17890   96.38450  200.00940  113.46130
 7620.00000   97.15810 2695.05660  -17.57560   -9999.25   -9999.25   20.42220   14.57550   16.03070   64.46030   96.02630    0.00290    2.57540    8.55560 13138.85740    0.13620    2.81530    0.07870   67.34180   91.62240  199.07260  113.93740
 7620.50000   91.33710 2695.83590  -18.01620   -9999.25   -9999.25   17.56920   13.82400   14.52060   63.20370   93.45830    0.00380    2.57170    8.54800 13138.45900    0.12640    2.81350    0.08090   67.22620   86.86030  197.31750  113.00220
 7621.00000   85.59260 2696.61520  -18.34450   -9999.25   -9999.25   15.36690   13.11130   13.52810   59.25580   86.78100    0.00470    2.56870    8.54840 13138.76370    0.11610    2.81620    0.08270   67.07280   82.09810  196.95550  111.64200
 7621.50000   79.79690 2697.39550  -18.64590   -9999.25   -9999.25   15.01500   12.58410   13.05010   53.41340   78.86610    0.00550    2.56770    8.54880 13139.23240    0.10850    2.83630    0.08320   66.95240   76.61940  196.92940  111.41420
 7622.00000   78.75690 2698.17480  -18.94740   -9999.25   -9999.25   14.85120   12.11980   12.58900   52.40100   78.48460    0.00380    2.56920    8.55820 13139.70310    0.12080    2.86520    0.08230   66.93910   75.17080  197.05960  111.38560
 7622.50000   84.51510 2698.95410  -18.94050   -9999.25   -9999.25   14.73300   11.67270   12.15850   56.27080   85.36120    0.00100    2.57150    8.56910 13140.17190    0.14330    2.89820    0.08010   66.94950   81.38980  197.39660  112.19090
 7623.00000   93.67330 2699.73340  -18.37870   -9999.25   -9999.25   14.43540   11.28810   11.91870   65.81990   95.01100   -0.00150    2.57610    8.57000 13140.64260    0.16170    2.92900    0.07790   67.18100   90.07680  197.83740  113.17610
 7623.50000  100.48410 2700.51370  -17.80550   -9999.25   -9999.25   14.15350   11.13800   11.68360   75.01950  104.66080   -0.00260    2.58170    8.57100 13141.11230    0.17800    2.94710    0.07440   67.95540   98.21040  198.07890  114.31440
 7624.00000  105.19220 2701.29300  -17.29900   -9999.25   -9999.25   13.88630   10.99000   11.45320   77.52470  112.46570   -0.00250    2.59130    8.58210 13141.58200    0.18520    2.94010    0.07010   69.80230  104.95350  200.08140  117.48590
 7624.50000  105.16090 2702.07230  -16.79260   -9999.25   -9999.25   13.29520   10.87370   11.34110   77.51620  111.50570   -0.00200    2.59790    8.60260 13142.05180    0.17950    2.91150    0.06710   70.71060  104.95700  198.87720  119.99810
 7625.00000  104.03950 2702.85160  -16.32070   -9999.25   -9999.25   12.71810   10.87210   11.33870   74.78050  105.30040   -0.00070    2.59310    8.60980 13142.52150    0.16710    2.87850    0.06740   71.00840  101.41170  198.43110  120.39640
 7625.50000   98.47170 2703.63090  -16.02730   -9999.25   -9999.25   12.15550   10.95690   11.45690   70.72650   98.71410   -0.00030    2.58350    8.61830 13142.99120    0.15400    2.82570    0.07360   70.93610   93.45470  198.39670  119.99810
 7626.00000   92.77500 2704.41020  -15.75220   -9999.25   -9999.25   12.07680   11.07640   11.62260   65.82050   90.20000    0.00040    2.57330    8.62900 13143.46090    0.13960    2.76360    0.08010   70.65810   87.15500  198.16400  119.35220
 7626.50000   86.75320 2705.19040  -15.77140   -9999.25   -9999.25   12.75500   11.20010   11.79450   59.25010   82.90410    0.00110    2.56530    8.62780 13143.93070    0.13290    2.75920    0.08460   70.12770   81.47220  198.06140  117.13850
 7627.00000   80.91900 2705.96970  -15.79070   -9999.25   -9999.25   13.47140   11.34040   12.06960   57.79680   83.26610    0.00180    2.56330    8.63120 13144.40040    0.13880    2.85680    0.08580   69.26450   79.53430  198.05550  115.42010
 7627.50000   85.57020 2706.74900  -15.81000   -9999.25   -9999.25   14.20000   11.48250   12.35110   61.38370   89.41340    0.00050    2.56330    8.63540 13144.87010    0.14800    2.95390    0.08580   68.41800   82.83860  197.86950  114.65200
 7628.00000   94.71460 2707.52830  -15.82920   -9999.25   -9999.25   14.86780   11.61310   12.63920   66.87330   97.72800   -0.00130    2.56480    8.63900 13145.33980    0.15700    2.99820    0.08490   68.41800   87.89940  198.12460  114.16300
 7628.50000  104.26690 2708.30860  -15.84850   -9999.25   -9999.25   15.36500   11.68350   12.86350   72.36290  103.36390   -0.00200    2.56800    8.63800 13145.80960    0.16520    2.96700    0.08280   68.70270   92.36460  202.50960  115.00270
 7629.00000  107.33590 2709.08790  -15.86780   -9999.25   -9999.25   15.50020   11.59590   12.75130   74.45880  105.82190    0.00050    2.57330    8.62900 13146.27930    0.16970    2.93580    0.07800   69.10100   95.66290  208.16710  116.17330
 7629.50000  108.61640 2709.86720  -15.64710   -9999.25   -9999.25   15.41290   11.43740   12.43120   73.24350  106.08240    0.00380    2.58120    8.61390 13146.74900    0.17360    2.92260    0.07310   69.67140   98.55310  212.49930  117.34380
 7630.00000  109.89570 2710.64650  -15.34210   -9999.25   -9999.25   14.62300   11.28100   12.11910   72.76320  105.23480    0.00710    2.59000    8.60090 13147.21880    0.17950    2.91960    0.06820   70.28790  100.02860  213.92410  118.51430
 7630.50000  109.26320 2711.42580  -15.03720   -9999.25   -9999.25   13.44330   11.12670   11.84420   72.74680  104.28070    0.01040    2.59880    8.58860 13147.68950    0.18300    2.91760    0.06340   70.90440  100.79330  211.78470  119.68480
 7631.00000  106.83230 2712.20510  -14.54420   -9999.25   -9999.25   12.51450   11.03380   11.70900   72.51680  103.32660    0.01310    2.60670    8.58700 13148.15820    0.18450    2.92420    0.05900   71.41030  101.89720  208.21980  120.44100
