~Version ---------------------------------------------------
VERS.   2.0 : CWLS log ASCII Standard -VERSION 2.0
WRAP.    NO : One line per depth step
DLM . SPACE : Column Data Section Delimiter
~Well ------------------------------------------------------
STRT .F                   25.0 : START DEPTH
STOP .F                 7975.0 : STOP DEPTH
STEP .F                    0.5 : STEP
NULL .                -9999.25 : NULL VALUE
COMP .                         : COMPANY
WELL .                         : WELL
FLD  .                         : FIELD
LOC  .                         : LOCATION
PROV .                         : PROVINCE
CNTY .                         : COUNTY
STAT .                         : STATE
CTRY .                         : COUNTRY
SRVC .                         : SERVICE COMPANY
DATE .                         : DATE
UWI  .                         : UNIQUE WELL ID
API  .                         : API NUMBER
SLAT .WGS84 1.6610476411741963 : SURFACE LATITUDE
SLON .WGS84  6.473241823747003 : SURFACE LONGITUDE
DATUM.F                2716.67 : DEPTH DATUM ELEV
~Curve Information -----------------------------------------
DEPT   .F     : 
GRR    .GAPI  : GAMMA RAY FROM RESISTIVITY LOG
TENR   .LB    : TENSION FROM RESISTIVITY LOG
SPR    .MV    : SPONTANEOUS POTENTIAL FROM RESISTIVITY LOG
LLS    .OHMM  : LATEROLOG SHALLOW RESISTIVITY
LLD    .OHMM  : LATEROLOG DEEP RESISTIVITY
SFLU   .OHMM  : SHALLOW FOCUSED RESISTIVITY (UNAVERAGED)
ILD    .OHMM  : INDUCTION DEEP RESISTIVITY
ILM    .OHMM  : INDUCTION MEDIUM RESISTIVITY
CGR    .GAPI  : CORRECTED GAMMA RAY
SGR    .GAPI  : SPECTROSCOPY GAMMA RAY
DRHO   .G/C3  : BULK DENSITY CORRECTION
RHOB   .G/C3  : BULK DENSITY
CALD   .IN    : CALIPER FROM DENSITY LOG
TEND   .LB    : TENSION FROM DENSITY LOG
NPHI_LS.DEC   : NEUTRON POROSITY LIMESTONE
PEF    .B/E   : PHOTOELECTRIC FACTOR
DPHI_LS.DEC   : DENSITY POROSITY LIMESTONE
DTCO   .US/F  : DELTA-T COMPRESSIONAL
GRS    .GAPI  : GAMMA RAY FROM SONIC LOG
DTST   .US/F  : DELTA-T STONELEY - MONOPOLE STONELEY
DTSM   .US/F  : DELTA-T SHEAR
~Params ----------------------------------------------------
~Other -----------------------------------------------------
~ASCII -----------------------------------------------------
# ...
 7367.50000  109.00290 2621.56450  -11.22850   -9999.25   -9999.25   47.42070   29.75220   32.56320   60.74570  104.23130   -0.00470    2.56390    8.63660 13126.77640    0.19390    3.17400    0.08400   72.83580  106.63350  199.28900  121.10700
 7368.00000  114.35550 2621.45510  -11.08360   -9999.25   -9999.25   43.24010   27.39120   29.72050   61.20850  112.37520   -0.00290    2.56830    8.63660 13125.63380    0.20190    3.17260    0.08100   72.90250  109.02330  199.96010  121.97290
 7368.50000  120.22520 2619.81450  -10.93870   -9999.25   -9999.25   37.92050   25.25190   27.12590   62.31960  121.05630   -0.00010    2.57270    8.64170 13124.49020    0.21120    3.16820    0.07990   73.52940  111.41510  200.61300  122.88870
 7369.00000  124.22000 2626.53220  -10.79390   -9999.25   -9999.25   31.49520   24.78670   25.96170   63.35850  123.40150    0.00270    2.57700    8.65130 13123.34770    0.22010    3.16550    0.07850   74.26860  113.69490  200.78480  123.84190
 7369.50000  120.68250 2635.26270  -10.64900   -9999.25   -9999.25   28.32440   24.94990   26.21500   63.88180  123.55700    0.00360    2.58140    8.65120 13122.20510    0.22390    3.17240    0.07500   74.96670  114.12710  200.43840  124.10080
 7370.00000  114.07130 2640.15330  -10.50410   -9999.25   -9999.25   30.72470   26.52680   28.23030   61.32620  118.65800    0.00060    2.58760    8.64800 13121.06250    0.19850    3.46580    0.07180   74.98570  110.67500  199.71610  123.67340
 7370.50000  105.88060 2639.58690  -10.35920   -9999.25   -9999.25   42.35980   28.45930   31.59480   51.12990  102.86230   -0.00630    2.59340    8.64570 13119.91990    0.15720    3.79720    0.06860   73.83300  104.17600  198.99390  121.68240
 7371.00000   98.96760 2639.02050  -10.21440   -9999.25   -9999.25   80.56500   30.53260   35.36040   44.36600   90.03420   -0.00880    2.59800    8.65280 13118.77730    0.14040    3.88580    0.06670   72.56400   94.52760  197.98760  120.31190
 7371.50000   94.47050 2638.45510  -10.06950   -9999.25   -9999.25  124.23420   32.75700   39.57470   44.91120   88.85270   -0.00720    2.59830    8.65520 13117.63480    0.15740    3.79790    0.06710   70.24130   91.31240  197.03150  119.50180
 7372.00000   99.55230 2637.88870   -9.92460   -9999.25   -9999.25  132.72740   35.89620   41.01660   52.85250  100.57410   -0.00200    2.58620    8.65210 13116.49220    0.18210    3.52320    0.07520   70.32080   97.67100  197.79170  119.49530
 7372.50000  108.89200 2637.32230   -9.77980   -9999.25   -9999.25  102.35190   39.39000   41.51360   59.77840  113.04110    0.00090    2.56540    8.65140 13115.34960    0.21140    3.24860    0.08410   71.44380  105.34010  198.16790  120.53270
 7373.00000  116.88460 2636.75590   -9.63490   -9999.25   -9999.25   75.73500   41.00500   41.51360   61.02460  125.40310    0.00100    2.55410    8.65390 13114.20700    0.22270    2.99680    0.09110   72.70670  112.75990  198.26910  122.27040
 7373.50000  120.58590 2636.19040   -9.57650   -9999.25   -9999.25   64.58880   38.45500   41.07600   62.70340  125.02440    0.00010    2.54550    8.65630 13113.06450    0.21830    2.77960    0.09600   74.00780  116.11080  198.32850  123.38120
 7374.00000  122.62450 2635.62400   -9.65630   -9999.25   -9999.25   59.12400   35.17920   37.77030   64.09660  122.04200   -0.00010    2.54660    8.67040 13111.92190    0.20910    2.72090    0.09570   74.76750  117.87090  198.33470  123.83340
 7374.50000  125.41570 2635.05760   -9.73610   -9999.25   -9999.25   55.95340   32.32800   34.31850   65.48980  123.45950    0.00280    2.55530    8.68800 13110.77930    0.19910    2.72130    0.09050   75.00750  117.53860  198.18640  123.83030
 7375.00000  128.93150 2634.49220   -9.81600   -9999.25   -9999.25   53.65450   29.94680   31.05920   66.83290  125.51740    0.00880    2.56560    8.69540 13109.63670    0.19550    2.74860    0.08500   75.01430  117.66500  198.28960  123.58790
 7375.50000  132.24490 2633.92580   -9.89580   -9999.25   -9999.25   50.56130   27.74110   28.06450   66.99710  126.78590    0.01070    2.57340    8.69490 13108.49410    0.19890    2.81800    0.07990   74.97950  117.67030  198.42940  123.32890
 7376.00000  131.14940 2633.35940   -9.97560   -9999.25   -9999.25   45.41650   26.17890   25.57060   66.58740  125.56580    0.01050    2.57500    8.70050 13107.35160    0.20350    2.88820    0.07900   74.94460  115.20960  198.56920  123.83470
 7376.50000  128.97630 2632.79300  -10.05540   -9999.25   -9999.25   40.79520   25.50730   24.30940   64.88110  122.67620    0.00760    2.57140    8.71210 13106.20900    0.21270    2.87230    0.08100   75.15100  111.85480  200.53130  124.56020
 7377.00000  128.22620 2632.22750  -10.13530   -9999.25   -9999.25   37.91590   25.35690   24.65370   62.30410  119.78660    0.00530    2.56790    8.71380 13105.06640    0.21890    2.82350    0.08300   75.46400  107.39950  205.37380  124.61080
 7377.50000  126.63170 2631.66110  -10.20170   -9999.25   -9999.25   37.01640   25.28640   25.56670   59.72720  115.67710    0.00340    2.56550    8.71720 13103.92380    0.21010    2.87510    0.08450   74.91330  102.32500  210.27380  123.20640
 7378.00000  116.86770 2631.09470  -10.21980   -9999.25   -9999.25   40.68720   25.21610   26.51350   57.15030  111.30920    0.00170    2.56560    8.72190 13102.78130    0.19280    3.00330    0.08410   74.03900   96.05010  210.11500  120.59480
 7378.50000  108.96860 2630.52930  -10.23790   -9999.25   -9999.25   46.64400   25.14590   27.21890   54.88000  106.94120    0.00140    2.56760    8.72660 13101.63870    0.17040    3.10710    0.08250   73.33110   96.33090  208.24410  120.15400
 7379.00000  103.86220 2629.96290  -10.22150   -9999.25   -9999.25   51.89130   25.31450   26.63550   54.56480  105.33610    0.00120    2.56650    8.73140 13100.49610    0.16670    3.09960    0.08410   72.47710   99.08020  204.51520  120.19730
 7379.50000  104.43850 2629.39650  -10.01650   -9999.25   -9999.25   48.63830   25.65330   25.48230   58.50730  107.74660    0.00090    2.56370    8.73610 13099.35350    0.18380    3.05040    0.08590   72.44380  103.59060  200.15320  120.55100
 7380.00000  109.30480 2628.83010   -9.81150   -9999.25   -9999.25   38.08820   25.99660   24.69160   64.12850  112.12380    0.00070    2.56070    8.74080 13098.21090    0.20750    3.00120    0.08770   72.65840  107.07170  198.08310  121.79130
 7380.50000  115.67490 2628.26460   -9.60650   -9999.25   -9999.25   32.00300   26.98780   24.82440   66.10030  115.05230    0.00040    2.55760    8.74550 13097.06840    0.22850    2.95420    0.08940   73.09300  111.10700  197.96030  123.23330
 7381.00000  116.13620 2627.69820   -9.40160   -9999.25   -9999.25   28.69360   28.16820   27.97370   66.40190  115.12950   -0.00020    2.55510    8.75020 13095.92580    0.23180    2.92960    0.08940   73.82280  111.44990  197.87350  125.17020
 7381.50000  115.32090 2627.13180   -9.19660   -9999.25   -9999.25   28.84980   29.17240   32.86040   63.12770  113.37250   -0.00080    2.55600    8.75490 13094.78320    0.21990    2.94580    0.08900   75.87260  109.98660  197.82120  127.63260
 7382.00000  104.50420 2626.56640   -9.04980   -9999.25   -9999.25   35.27970   30.02130   38.60070   57.05480  103.61700   -0.00150    2.56970    8.75960 13093.64060    0.16790    3.19940    0.08360   76.63980  104.66830  197.81490  127.14310
 7382.50000   93.10480 2626.86430   -9.06490   -9999.25   -9999.25   72.38850   30.89480   41.17150   40.43500   83.19490   -0.00300    2.59390    8.76430 13092.49800    0.11770    3.63710    0.06980   75.06890   91.57770  197.72710  123.28750
 7383.00000   76.16430 2628.12010   -9.07990   -9999.25   -9999.25  112.78230   31.79380   41.53050   25.35200   68.76300   -0.00450    2.61380    8.76900 13091.35550    0.10370    3.99190    0.05930   72.22510   78.71650  197.37030  118.05250
 7383.50000   66.36620 2629.37600   -9.09500   -9999.25   -9999.25  139.77200   32.71890   39.80170   24.89780   64.80820   -0.00560    2.62440    8.77370 13090.21290    0.11210    3.67890    0.05080   69.40180   68.92740  196.86730  113.51670
