~Version ---------------------------------------------------
VERS.   2.0 : CWLS log ASCII Standard -VERSION 2.0
WRAP.    NO : One line per depth step
DLM . SPACE : Column Data Section Delimiter
~Well ------------------------------------------------------
STRT .F                   25.0 : START DEPTH
STOP .F                 7975.0 : STOP DEPTH
STEP .F                    0.5 : STEP
NULL .                -9999.25 : NULL VALUE
COMP .                         : COMPANY
WELL .                         : WELL
FLD  .                         : FIELD
LOC  .                         : LOCATION
PROV .                         : PROVINCE
CNTY .                         : COUNTY
STAT .                         : STATE
CTRY .                         : COUNTRY
SRVC .                         : SERVICE COMPANY
DATE .                         : DATE
UWI  .                         : UNIQUE WELL ID
API  .                         : API NUMBER
SLAT .WGS84 1.6610476411741963 : SURFACE LATITUDE
SLON .WGS84  6.473241823747003 : SURFACE LONGITUDE
DATUM.F                2716.67 : DEPTH DATUM ELEV
~Curve Information -----------------------------------------
DEPT   .F     : 
GRR    .GAPI  : GAMMA RAY FROM RESISTIVITY LOG
TENR   .LB    : TENSION FROM RESISTIVITY LOG
SPR    .MV    : SPONTANEOUS POTENTIAL FROM RESISTIVITY LOG
LLS    .OHMM  : LATEROLOG SHALLOW RESISTIVITY
LLD    .OHMM  : LATEROLOG DEEP RESISTIVITY
SFLU   .OHMM  : SHALLOW FOCUSED RESISTIVITY (UNAVERAGED)
ILD    .OHMM  : INDUCTION DEEP RESISTIVITY
ILM    .OHMM  : INDUCTION MEDIUM RESISTIVITY
CGR    .GAPI  : CORRECTED GAMMA RAY
SGR    .GAPI  : SPECTROSCOPY GAMMA RAY
DRHO   .G/C3  : BULK DENSITY CORRECTION
RHOB   .G/C3  : BULK DENSITY
CALD   .IN    : CALIPER FROM DENSITY LOG
TEND   .LB    : TENSION FROM DENSITY LOG
NPHI_LS.DEC   : NEUTRON POROSITY LIMESTONE
PEF    .B/E   : PHOTOELECTRIC FACTOR
DPHI_LS.DEC   : DENSITY POROSITY LIMESTONE
DTCO   .US/F  : DELTA-T COMPRESSIONAL
GRS    .GAPI  : GAMMA RAY FROM SONIC LOG
DTST   .US/F  : DELTA-T STONELEY - MONOPOLE STONELEY
DTSM   .US/F  : DELTA-T SHEAR
~Params ----------------------------------------------------
~Other -----------------------------------------------------
~ASCII -----------------------------------------------------
# ...
 4529.50000   59.52360 1724.23750    6.00270   -9999.25   -9999.25   16.52320   14.90480   15.77160   40.29280   62.58660    0.00690    2.50970    8.85250 12151.97750    0.12120    2.74800    0.11710   63.73050   55.31590  200.77820  107.78610
 4530.00000   58.34350 1724.91060    6.06540   -9999.25   -9999.25   15.89920   14.30510   15.15300   40.51450   61.46350    0.01060    2.50850    8.88030 12152.88090    0.12980    2.66440    0.11780   63.78140   54.96230  200.77200  108.67500
 4530.50000   57.22570 1725.58390    6.13460   -9999.25   -9999.25   15.26320   13.81230   14.55880   40.78760   61.46190    0.01220    2.50570    8.90820 12153.78520    0.13380    2.63800    0.11950   64.10810   55.46320  200.76570  108.95670
 4531.00000   57.41100 1726.25710    6.24220   -9999.25   -9999.25   14.65260   13.33660   13.98780   41.50610   62.24780    0.01280    2.50140    8.92670 12154.68850    0.13420    2.60690    0.12200   64.59210   54.81680  200.75940  109.16840
 4531.50000   60.45560 1726.93030    6.26230   -9999.25   -9999.25   14.06650   12.87720   13.43920   42.36280   63.36530    0.01290    2.49800    8.93680 12155.59180    0.13260    2.57120    0.12400   64.19590   53.88630  200.75320  109.38010
 4532.00000   63.96250 1727.43360    6.25140   -9999.25   -9999.25   13.50420   12.62350   13.14740   43.29170   64.44190    0.01110    2.50410    8.94680 12156.49610    0.13000    2.52510    0.12040   63.67520   54.25920  200.74690  109.69290
 4532.50000   64.87250 1727.86510    6.24050   -9999.25   -9999.25   13.40020   12.64300   12.89170   44.12480   65.43800    0.00930    2.51580    8.95690 12157.39940    0.13240    2.54130    0.11360   65.83950   55.85270  200.74070  110.41020
 4533.00000   64.42710 1728.29660    6.29620   -9999.25   -9999.25   13.43930   12.82780   13.07120   44.32410   65.57990    0.00750    2.51670    8.97200 12158.30270    0.13500    2.60800    0.11300   66.37550   57.86380  200.73440  111.27270
 4533.50000   63.91880 1728.72810    6.47430   -9999.25   -9999.25   13.60650   13.09260   13.37220   43.99820   65.05590    0.00440    2.51580    8.98850 12159.20700    0.13640    2.59940    0.11360   66.62960   59.11240  200.72810  112.10840
 4534.00000   63.72060 1729.15970    6.65240   -9999.25   -9999.25   13.96280   13.38070   13.67650   43.17490   63.10700    0.00210    2.51550    8.99610 12160.11040    0.13610    2.56890    0.11380   66.38110   60.29950  200.72190  112.48960
 4534.50000   63.82460 1729.59120    6.83050   -9999.25   -9999.25   14.32850   13.65590   13.96870   42.75870   61.97500    0.00000    2.52010    8.99900 12161.01460    0.13560    2.62980    0.11110   65.99130   61.33440  200.71560  112.09600
 4535.00000   64.90550 1730.02270    7.00860   -9999.25   -9999.25   14.69420   13.93660   14.26710   43.38480   62.56140   -0.00130    2.52760    9.00600 12161.91800    0.13500    2.70870    0.10660   65.79000   61.79920  200.70940  111.64010
 4535.50000   67.30860 1730.45420    7.18670   -9999.25   -9999.25   15.01100   14.22320   14.57180   44.02810   65.27800   -0.00230    2.53310    9.02800 12162.82130    0.13440    2.79270    0.10350   65.79350   62.25050  200.70310  110.03470
 4536.00000   69.59800 1730.88570    7.36480   -9999.25   -9999.25   15.33460   14.51560   14.88310   44.57200   66.96640   -0.00300    2.52840    9.05000 12163.72560    0.13380    2.84550    0.10620   65.79690   62.95770  200.69680  111.17560
 4536.50000   69.26510 1731.31730    7.45110   -9999.25   -9999.25   15.70140   14.81410   15.20100   44.50380   66.80130   -0.00340    2.52130    9.07200 12164.62890    0.13310    2.84500    0.11030   65.80070   64.54220  200.69060  111.76570
 4537.00000   66.63470 1731.74880    7.45110   -9999.25   -9999.25   16.07330   15.11870   15.52570   44.43560   65.67530   -0.00370    2.51600    9.09200 12165.53220    0.13160    2.81830    0.11350   65.80630   65.79240  200.68430  112.71940
 4537.50000   63.07430 1732.18030    7.45110   -9999.25   -9999.25   16.44400   15.42950   15.87530   44.36750   64.46220   -0.00410    2.51430    9.07530 12166.43650    0.13020    2.78870    0.11390   65.81180   66.00890  200.67800  112.71540
 4538.00000   59.10630 1732.61180    7.35480   -9999.25   -9999.25   16.82330   15.74670   16.25530   44.29930   64.09040   -0.00440    2.51440    9.05860 12167.33980    0.12930    2.76800    0.11440   65.81740   65.50860  200.67180  110.19740
 4538.50000   57.79140 1733.04330    7.15600   -9999.25   -9999.25   17.01310   16.02600   16.64440   44.23100   64.05020   -0.00480    2.51740    9.04190 12168.24320    0.12890    2.74750    0.11400   66.00970   63.70120  200.66550  109.79770
 4539.00000   59.82800 1733.47490    7.02950   -9999.25   -9999.25   16.80360   16.30990   17.04280   44.16280   64.06500   -0.00510    2.52240    9.02510 12169.14750    0.12840    2.73070    0.11050   66.34900   61.36530  200.65920  109.93920
 4539.50000   63.28810 1733.90640    6.91860   -9999.25   -9999.25   16.47860   16.58110   17.45080   44.09460   64.45100   -0.00550    2.52740    9.00840 12170.05080    0.12580    2.73380    0.10680   66.68190   58.62750  200.65300  110.39760
 4540.00000   66.74820 1734.33800    6.56490   -9999.25   -9999.25   16.36930   16.85300   17.86850   44.11910   65.60400   -0.00550    2.53240    9.00700 12170.95510    0.12160    2.75230    0.10380   66.86420   57.60210  200.64670  110.90510
 4540.50000   69.37440 1734.76950    6.21720   -9999.25   -9999.25   17.05900   17.12930   18.21480   45.97390   68.46070   -0.00540    2.53700    9.00820 12171.85840    0.11860    2.74870    0.10120   67.04650   59.41920  200.64050  111.47050
 4541.00000   70.28820 1735.20100    6.18810   -9999.25   -9999.25   18.06590   17.45650   18.52120   48.30630   72.49300   -0.00520    2.54060    8.99360 12172.76170    0.11630    2.76610    0.09900   66.85630   61.83390  200.63420  111.42440
 4541.50000   71.11530 1735.63260    6.15910   -9999.25   -9999.25   19.13220   17.81970   18.83280   49.97770   74.72460   -0.00500    2.54800    8.97900 12173.66600    0.11400    2.84110    0.09530   66.64210   63.66240  200.85900  110.84400
 4542.00000   71.94240 1736.06410    6.33080   -9999.25   -9999.25   20.53410   18.19040   19.17470   49.93390   74.89620   -0.00490    2.55460    8.96430 12174.56930    0.11070    3.00980    0.09200   66.42790   64.95220  201.17610  110.11390
 4542.50000   73.09180 1736.49560    6.85050   -9999.25   -9999.25   21.78900   18.56880   19.58030   48.57700   73.14250   -0.00480    2.55420    8.94750 12175.47270    0.10750    3.12890    0.09280   66.21370   64.70110  201.49320  110.01410
 4543.00000   75.32970 1736.92710    7.13670   -9999.25   -9999.25   21.70920   19.09470   19.99440   47.22010   69.68700   -0.00480    2.54860    8.92990 12176.37700    0.11170    3.08120    0.09540   65.99950   63.98400  201.81030  110.67780
 4543.50000   77.53630 1737.35860    7.29340   -9999.25   -9999.25   21.33210   19.71780   20.41730   45.98890   67.63090   -0.00480    2.54230    8.91230 12177.28030    0.11650    2.96100    0.09810   65.78520   63.87840  202.06000  111.34140
 4544.00000   79.72560 1737.79020    7.58530   -9999.25   -9999.25   21.27650   20.36120   20.84910   44.95600   67.85800   -0.00450    2.53930    8.89480 12177.18550    0.12020    2.82980    0.09980   65.78050   64.47550  202.06000  111.38940
 4544.50000   80.75770 1738.22170    7.77850   -9999.25   -9999.25   22.15660   21.15190   21.40510   44.67020   68.69580   -0.00430    2.53810    8.87720 12176.31350    0.11980    2.76550    0.10050   66.18670   65.79980  201.98820  111.28570
 4545.00000   76.95300 1738.65320    7.64350   -9999.25   -9999.25   24.72140   22.10310   22.99160   44.38450   68.64370   -0.00310    2.53700    8.85960 12175.44040    0.11560    2.78520    0.10120   66.88030   67.55000  201.80440  111.00060
 4545.50000   70.37200 1739.08470    7.77270   -9999.25   -9999.25   27.59780   23.98080   25.08000   43.95600   66.42750   -0.00130    2.53920    8.84200 12174.56840    0.11130    2.82720    0.09990   66.74110   68.20070  201.62060  110.55260
