~Version ---------------------------------------------------
VERS.   2.0 : CWLS log ASCII Standard -VERSION 2.0
WRAP.    NO : One line per depth step
DLM . SPACE : Column Data Section Delimiter
~Well ------------------------------------------------------
STRT .F                   25.0 : START DEPTH
STOP .F                 7975.0 : STOP DEPTH
STEP .F                    0.5 : STEP
NULL .                -9999.25 : NULL VALUE
COMP .                         : COMPANY
WELL .                         : WELL
FLD  .                         : FIELD
LOC  .                         : LOCATION
PROV .                         : PROVINCE
CNTY .                         : COUNTY
STAT .                         : STATE
CTRY .                         : COUNTRY
SRVC .                         : SERVICE COMPANY
DATE .                         : DATE
UWI  .                         : UNIQUE WELL ID
API  .                         : API NUMBER
SLAT .WGS84 1.6610476411741963 : SURFACE LATITUDE
SLON .WGS84  6.473241823747003 : SURFACE LONGITUDE
DATUM.F                2716.67 : DEPTH DATUM ELEV
~Curve Information -----------------------------------------
DEPT   .F     : 
GRR    .GAPI  : GAMMA RAY FROM RESISTIVITY LOG
TENR   .LB    : TENSION FROM RESISTIVITY LOG
SPR    .MV    : SPONTANEOUS POTENTIAL FROM RESISTIVITY LOG
LLS    .OHMM  : LATEROLOG SHALLOW RESISTIVITY
LLD    .OHMM  : LATEROLOG DEEP RESISTIVITY
SFLU   .OHMM  : SHALLOW FOCUSED RESISTIVITY (UNAVERAGED)
ILD    .OHMM  : INDUCTION DEEP RESISTIVITY
ILM    .OHMM  : INDUCTION MEDIUM RESISTIVITY
CGR    .GAPI  : CORRECTED GAMMA RAY
SGR    .GAPI  : SPECTROSCOPY GAMMA RAY
DRHO   .G/C3  : BULK DENSITY CORRECTION
RHOB   .G/C3  : BULK DENSITY
CALD   .IN    : CALIPER FROM DENSITY LOG
TEND   .LB    : TENSION FROM DENSITY LOG
NPHI_LS.DEC   : NEUTRON POROSITY LIMESTONE
PEF    .B/E   : PHOTOELECTRIC FACTOR
DPHI_LS.DEC   : DENSITY POROSITY LIMESTONE
DTCO   .US/F  : DELTA-T COMPRESSIONAL
GRS    .GAPI  : GAMMA RAY FROM SONIC LOG
DTST   .US/F  : DELTA-T STONELEY - MONOPOLE STONELEY
DTSM   .US/F  : DELTA-T SHEAR
~Params ----------------------------------------------------
~Other -----------------------------------------------------
~ASCII -----------------------------------------------------
# ...
 5569.00000   98.68650 2065.48440   -5.36940   -9999.25   -9999.25   40.77100   27.41180   32.27920   51.64140   94.37560    0.06150    2.52210    8.81440 12461.25290    0.23450    2.86150    0.10990   69.83980   93.29340  200.81890  117.55570
 5569.50000  103.04990 2065.80270   -5.32670   -9999.25   -9999.25   45.41940   28.52150   34.84720   50.62070   92.78860    0.05540    2.51950    8.80550 12462.24510    0.23610    2.98970    0.11140   70.90800   91.96620  200.81940  119.89180
 5570.00000  106.85680 2066.12210   -5.18720   -9999.25   -9999.25   50.85670   29.67610   36.42260   51.05080   95.12490    0.04930    2.51440    8.79660 12463.23730    0.23680    2.97780    0.11490   71.86700   91.24530  200.81990  121.34660
 5570.50000  106.73810 2066.44140   -5.18640   -9999.25   -9999.25   55.45060   30.52480   37.55530   52.48480   98.76790    0.03890    2.49940    8.79850 12464.22950    0.23570    2.91720    0.12400   72.32640   92.26630  200.82040  121.35430
 5571.00000  104.09360 2066.75980   -5.27480   -9999.25   -9999.25   59.62680   31.01020   38.69850   52.35110   98.72180    0.02850    2.48530    8.80290 12465.22170    0.23460    2.90040    0.13140   71.73460   93.92250  200.82100  120.55570
 5571.50000  101.00420 2067.07910   -5.48360   -9999.25   -9999.25   63.00310   31.50330   39.87640   51.65360   97.22270    0.01770    2.48840    8.80730 12466.21290    0.23680    2.95200    0.12970   70.94930   95.90100  200.82150  120.63150
 5572.00000   95.44120 2067.39840   -5.98740   -9999.25   -9999.25   63.44860   32.00420   40.23300   51.37330   97.77190    0.00420    2.49560    8.81230 12467.20510    0.24040    2.96390    0.12540   70.72600   97.42580  200.82200  120.76840
 5572.50000   93.72340 2067.71680   -6.60100   -9999.25   -9999.25   63.21380   32.51320   40.23300   51.19640   99.18170   -0.00500    2.49670    8.82050 12468.19730    0.24000    2.89100    0.12470   71.27630   97.33650  200.82250  120.75560
 5573.00000   93.51630 2068.03610   -7.24450   -9999.25   -9999.25   62.16060   32.57330   40.23300   50.10460   96.37440   -0.00990    2.49480    8.82860 12469.18950    0.23430    2.79930    0.12580   72.03870   95.60800  200.82310  120.74830
 5573.50000   93.63860 2068.35550   -7.89200   -9999.25   -9999.25   61.12500   32.47530   40.14540   47.83870   93.14970   -0.01030    2.49430    8.83680 12470.18160    0.22410    2.71450    0.12430   72.32420   92.60260  200.82360  120.63110
 5574.00000   94.75810 2068.67380   -8.50040   -9999.25   -9999.25   60.10660   32.37760   39.74020   41.23280   92.39790   -0.01020    2.49800    8.84500 12471.17380    0.21780    2.74210    0.12250   72.33840   91.98820  200.78230  120.22480
 5574.50000  104.49760 2068.99320   -9.07780   -9999.25   -9999.25   59.24390   31.95630   39.33910   44.48450   93.09250   -0.00960    2.50330    8.85320 12472.16600    0.22180    2.82650    0.12090   72.37750   92.16630  200.71040  119.82710
 5575.00000  114.42400 2069.31250   -9.65520   -9999.25   -9999.25   58.60240   31.36170   38.94210   48.46510   96.53810   -0.00950    2.49700    8.86130 12473.15820    0.23620    2.89510    0.12510   72.41670   93.87980  200.67800  119.70180
 5575.50000  122.16030 2069.63090  -10.23260   -9999.25   -9999.25   59.59540   30.72630   38.54900   50.12260  104.43220   -0.00870    2.48940    8.86950 12474.14940    0.24820    2.89290    0.12930   72.45580   99.41370  200.79630  120.99920
 5576.00000  126.93630 2069.90140  -10.80990   -9999.25   -9999.25   61.47290   29.81990   37.52350   51.95030  118.87170   -0.00070    2.48400    8.88130 12475.14160    0.25580    2.87970    0.13220   73.00860  108.27200  200.82370  122.46100
 5576.50000  121.15040 2070.03130  -11.38730   -9999.25   -9999.25   59.10680   28.94020   35.64530   54.67790  134.18040    0.00060    2.47520    8.89780 12476.13380    0.26380    2.86770    0.13670   73.60490  117.39600  200.82370  124.15240
 5577.00000  113.98040 2070.16020  -11.96470   -9999.25   -9999.25   53.14430   27.44160   33.86120   55.90560  135.36810   -0.00200    2.46560    8.91430 12477.12600    0.26220    2.87320    0.14110   74.24620  117.86920  200.82370  125.84370
 5577.50000  105.70820 2070.29000  -12.54210   -9999.25   -9999.25   47.58650   24.19820   32.14060   54.14970  127.65250   -0.00230    2.46180    8.93080 12478.11820    0.24980    2.89480    0.14470   75.04000  110.38780  200.82370  125.76590
 5578.00000   97.79740 2070.41890  -13.15780   -9999.25   -9999.25   41.89040   19.28050   24.87330   50.36630  116.72470   -0.00120    2.47650    8.94730 12479.11040    0.22950    2.93070    0.13750   75.36150  102.36830  200.82370  125.46200
 5578.50000   81.36490 2070.54880  -14.07360   -9999.25   -9999.25   33.82370   15.36220   19.24920   45.05470  108.25690    0.00280    2.49420    8.96370 12480.10250    0.21730    2.96590    0.12620   74.74170   94.27500  200.81900  124.99890
 5579.00000   61.06720 2070.67770  -14.98940   -9999.25   -9999.25   25.33370   12.26640   14.89680   40.14680  100.60630    0.00720    2.50510    8.98020 12481.09380    0.20520    3.00870    0.11900   72.33900   84.47780  200.76450  122.33080
 5579.50000   47.44710 2070.80760  -15.90520   -9999.25   -9999.25   18.79220   10.04070   11.61550   35.72050   85.28950    0.01150    2.53300    8.99670 12482.08590    0.18800    3.13210    0.10350   69.67510   69.57510  200.65510  118.52000
 5580.00000   46.96240 2070.93650  -16.55510   -9999.25   -9999.25   12.70750    8.21880    9.57480   32.20490   55.19950    0.01590    2.56870    9.01320 12483.07810    0.16310    3.32280    0.08260   67.01130   53.54430  200.41960  114.64960
 5580.50000   53.69500 2071.06640  -17.14240   -9999.25   -9999.25    8.77030    6.72750    7.89260   34.00760   44.38330    0.01640    2.61210    9.02970 12484.07030    0.14710    3.41020    0.05780   64.34740   46.58000  200.12310  110.77920
 5581.00000   62.43460 2071.19530  -17.72970   -9999.25   -9999.25    7.43290    5.50680    6.50590   38.16360   45.14480    0.00900    2.61540    9.04620 12484.58890    0.14700    3.09620    0.05530   62.03600   46.09460  198.98360  108.17370
 5581.50000   70.42840 2071.32520  -18.31700   -9999.25   -9999.25    6.49110    4.80690    5.44630   42.35740   55.45980    0.00070    2.59590    9.06260 12485.03710    0.14770    2.79740    0.06670   61.12930   50.17170  198.52680  107.83110
 5582.00000   78.62300 2071.45410  -18.81820   -9999.25   -9999.25    5.66870    4.31740    4.64090   47.59230   64.53940   -0.00770    2.55380    9.07910 12485.48540    0.14850    2.67780    0.09140   61.48390   57.89270  198.93170  108.14170
 5582.50000   80.48840 2071.58400  -19.30950   -9999.25   -9999.25    4.97480    3.87780    4.05020   52.56620   71.44570   -0.01090    2.51150    9.09560 12485.93360    0.15030    2.73030    0.11540   62.56080   66.52170  199.37280  109.42860
 5583.00000   79.67400 2071.71290  -19.80070   -9999.25   -9999.25    4.48620    3.48290    3.76310   54.50140   78.35210   -0.01130    2.49660    9.11210 12486.38280    0.15620    2.78550    0.12530   64.19800   69.84240  199.81390  112.87490
 5583.50000   78.06320 2071.84280  -20.29190   -9999.25   -9999.25    4.22830    3.12830    3.49630   55.33120   80.02750   -0.00880    2.47800    9.12780 12486.83110    0.16170    2.77770    0.13530   65.83530   69.08820  200.25490  114.50310
 5584.00000   76.66510 2071.97270  -20.78320   -9999.25   -9999.25    4.21730    2.94280    3.24840   53.78760   76.16020   -0.00410    2.46880    9.14340 12487.27930    0.16470    2.63190    0.13980   66.94200   66.31860  200.69600  116.43020
 5584.50000   75.65330 2072.10160  -21.27440   -9999.25   -9999.25    4.29750    2.81640    3.02040   48.80910   72.14090    0.00000    2.47190    9.15900 12487.72850    0.16880    2.50860    0.13920   67.36650   63.76750  201.13700  117.80390
 5585.00000   75.21560 2072.23050  -21.76570   -9999.25   -9999.25    4.37920    2.69550    2.85490   46.76890   69.95370    0.00120    2.47250    9.17450 12488.17680    0.17200    2.48210    0.13860   67.79100   62.15770  201.57810  118.62230
