~Version ---------------------------------------------------
VERS.   2.0 : CWLS log ASCII Standard -VERSION 2.0
WRAP.    NO : One line per depth step
DLM . SPACE : Column Data Section Delimiter
~Well ------------------------------------------------------
STRT .F                   25.0 : START DEPTH
STOP .F                 7975.0 : STOP DEPTH
STEP .F                    0.5 : STEP
NULL .                -9999.25 : NULL VALUE
COMP .                         : COMPANY
WELL .                         : WELL
FLD  .                         : FIELD
LOC  .                         : LOCATION
PROV .                         : PROVINCE
CNTY .                         : COUNTY
STAT .                         : STATE
CTRY .                         : COUNTRY
SRVC .                         : SERVICE COMPANY
DATE .                         : DATE
UWI  .                         : UNIQUE WELL ID
API  .                         : API NUMBER
SLAT .WGS84 1.6610476411741963 : SURFACE LATITUDE
SLON .WGS84  6.473241823747003 : SURFACE LONGITUDE
DATUM.F                2716.67 : DEPTH DATUM ELEV
~Curve Information -----------------------------------------
DEPT   .F     : 
GRR    .GAPI  : GAMMA RAY FROM RESISTIVITY LOG
TENR   .LB    : TENSION FROM RESISTIVITY LOG
SPR    .MV    : SPONTANEOUS POTENTIAL FROM RESISTIVITY LOG
LLS    .OHMM  : LATEROLOG SHALLOW RESISTIVITY
LLD    .OHMM  : LATEROLOG DEEP RESISTIVITY
SFLU   .OHMM  : SHALLOW FOCUSED RESISTIVITY (UNAVERAGED)
ILD    .OHMM  : INDUCTION DEEP RESISTIVITY
ILM    .OHMM  : INDUCTION MEDIUM RESISTIVITY
CGR    .GAPI  : CORRECTED GAMMA RAY
SGR    .GAPI  : SPECTROSCOPY GAMMA RAY
DRHO   .G/C3  : BULK DENSITY CORRECTION
RHOB   .G/C3  : BULK DENSITY
CALD   .IN    : CALIPER FROM DENSITY LOG
TEND   .LB    : TENSION FROM DENSITY LOG
NPHI_LS.DEC   : NEUTRON POROSITY LIMESTONE
PEF    .B/E   : PHOTOELECTRIC FACTOR
DPHI_LS.DEC   : DENSITY POROSITY LIMESTONE
DTCO   .US/F  : DELTA-T COMPRESSIONAL
GRS    .GAPI  : GAMMA RAY FROM SONIC LOG
DTST   .US/F  : DELTA-T STONELEY - MONOPOLE STONELEY
DTSM   .US/F  : DELTA-T SHEAR
~Params ----------------------------------------------------
~Other -----------------------------------------------------
~ASCII -----------------------------------------------------
# ...
 7879.00000   -9999.25 2811.80180   -8.78340   -9999.25   -9999.25  194.86200   71.87390  165.36410   -9999.25   -9999.25   -0.00480    2.54720    8.10880 13254.60940    0.16790    3.59910    0.09530   69.79190  118.22060  220.24660  117.37370
 7879.50000   -9999.25 2812.21970   -8.64280   -9999.25   -9999.25  219.05340   80.95350  234.92510   -9999.25   -9999.25   -0.00330    2.54750    8.08920 13256.14160    0.17030    3.66730    0.09420   70.74920  118.22120  223.04620  117.80240
 7880.00000   -9999.25 2812.63870   -8.60180   -9999.25   -9999.25  246.28190   85.07680  277.80520   -9999.25   -9999.25   -0.00140    2.54700    8.06970 13257.67380    0.16910    3.68310    0.09570   71.83680  118.22190  224.88040  119.72880
 7880.50000   -9999.25 2813.05660   -8.56070   -9999.25   -9999.25  276.89480   79.11420  271.29980   -9999.25   -9999.25   -0.00030    2.54460    8.05010 13258.00590    0.15850    3.67540    0.09750   72.99160  118.22250  224.92020  122.58610
 7881.00000   -9999.25 2813.47560   -8.51970   -9999.25   -9999.25  289.89370   69.51950  177.17060   -9999.25   -9999.25    0.00020    2.54400    8.04160 13257.91020    0.15560    3.66780    0.09660   74.32660  118.22310  223.16390  125.56550
 7881.50000   -9999.25 2813.89360   -8.47870   -9999.25   -9999.25  229.03500   59.73730  101.89900   -9999.25   -9999.25    0.00020    2.54670    8.04970 13257.81540    0.15810    3.65270    0.09430   75.66150  118.22370  223.00430  127.51850
 7882.00000   -9999.25 2814.31250   -8.43760   -9999.25   -9999.25  137.13160   49.69380   62.58850   -9999.25   -9999.25   -0.00050    2.55140    8.06560 13257.71970    0.16060    3.54860    0.09210   77.00730  118.22440  225.63490  129.36920
 7882.50000   -9999.25 2814.73050   -8.39660   -9999.25   -9999.25   98.10530   42.39030   51.01920   -9999.25   -9999.25   -0.00250    2.55310    8.09890 13257.62500    0.16220    3.44640    0.09180   77.75470  118.16800  225.90190  130.19580
 7883.00000   -9999.25 2815.14840   -8.35550   -9999.25   -9999.25   85.96250   36.65160   41.58840   -9999.25   -9999.25   -0.00660    2.54640    8.13110 13257.52930    0.16380    3.37040    0.09570   77.04080  118.15890  225.72560  130.05260
 7883.50000   -9999.25 2815.56740   -8.31450   -9999.25   -9999.25   82.19920   31.68990   36.04580   -9999.25   -9999.25   -0.00640    2.54060    8.15970 13257.43360    0.16500    3.35970    0.09910   75.89140  118.21510  225.08360  129.02740
 7884.00000   -9999.25 2815.98540   -8.27350   -9999.25   -9999.25   73.85690   28.26410   31.96430   -9999.25   -9999.25   -0.00290    2.54360    8.18830 13257.33890    0.16330    3.36110    0.09790   75.89290  118.20830  223.60340  127.80570
 7884.50000   -9999.25 2816.40430   -8.23240   -9999.25   -9999.25   55.65030   25.73040   28.34500   -9999.25   -9999.25    0.00020    2.55730    8.20370 13257.24320    0.16140    3.38460    0.09210   75.99030  118.20140  218.06590  127.41640
 7885.00000   -9999.25 2816.82230   -8.19140   -9999.25   -9999.25   45.80740   24.75310   26.20440   -9999.25   -9999.25    0.00320    2.57310    8.21240 13257.14840    0.16040    3.47850    0.08010   75.76520  118.19460  212.52600  126.81010
 7885.50000   -9999.25 2817.24120   -8.15030   -9999.25   -9999.25   45.21600   24.53900   26.05990   -9999.25   -9999.25    0.00460    2.59330    8.20630 13257.05270    0.15960    3.61020    0.07000   -9999.25   -9999.25   -9999.25   -9999.25
 7886.00000   -9999.25 2817.65920   -7.95710   -9999.25   -9999.25   47.22810   24.66820   26.53590   -9999.25   -9999.25    0.00420    2.59480    8.17090 13256.95700    0.16210    3.52640    0.06520   -9999.25   -9999.25   -9999.25   -9999.25
 7886.50000   -9999.25 2818.07810   -7.68130   -9999.25   -9999.25   47.98900   25.70480   27.84290   -9999.25   -9999.25    0.00340    2.58300    8.13550 13256.86130   -9999.25    3.34550    0.07340   -9999.25   -9999.25   -9999.25   -9999.25
 7887.00000   -9999.25 2818.49610   -7.40550   -9999.25   -9999.25   47.34520   28.16650   31.81070   -9999.25   -9999.25    0.00240    2.57350    8.10470 13256.76660   -9999.25    3.16460    0.07980   -9999.25   -9999.25   -9999.25   -9999.25
 7887.50000   -9999.25 2818.74800   -7.12970   -9999.25   -9999.25   49.94400   30.95910   44.86590   -9999.25   -9999.25    0.00150    2.57020    8.11080 13256.67190   -9999.25    3.07270    0.08180   -9999.25   -9999.25   -9999.25   -9999.25
 7888.00000   -9999.25 2818.55270   -6.85390   -9999.25   -9999.25   97.37490   36.70590   63.27900   -9999.25   -9999.25    0.00050    2.57750    8.11690 13256.57620   -9999.25    3.27620    0.07820   -9999.25   -9999.25   -9999.25   -9999.25
 7888.50000   -9999.25 2818.35840   -6.57820   -9999.25   -9999.25  240.50190   43.51950   89.24890   -9999.25   -9999.25   -0.00040    2.59070    8.12300 13256.48050   -9999.25    3.83350    0.07120   -9999.25   -9999.25   -9999.25   -9999.25
 7889.00000   -9999.25 2818.16310   -6.30220   -9999.25   -9999.25  506.60080   50.94220  101.56040   -9999.25   -9999.25   -0.00140    2.60510    8.12910 13256.38480   -9999.25    4.35690    0.05980   -9999.25   -9999.25   -9999.25   -9999.25
 7889.50000   -9999.25 2817.96880   -6.02630   -9999.25   -9999.25  692.49010   58.59870  115.29840   -9999.25   -9999.25   -0.00230    2.63950    8.13580 13256.29000   -9999.25    4.84730    0.04030   -9999.25   -9999.25   -9999.25   -9999.25
 7890.00000   -9999.25 2817.77340   -5.97790   -9999.25   -9999.25  391.49930   61.13790  120.59930   -9999.25   -9999.25   -0.00280    2.67810    8.14600 13256.19430   -9999.25    4.31580    0.01860   -9999.25   -9999.25   -9999.25   -9999.25
 7890.50000   -9999.25 2817.57910   -6.21630   -9999.25   -9999.25  167.46370   51.78800  108.48720   -9999.25   -9999.25   -0.00330    2.68390    8.15620 13256.09960   -9999.25    3.87840    0.01530   -9999.25   -9999.25   -9999.25   -9999.25
 7891.00000   -9999.25 2817.38380   -6.45470   -9999.25   -9999.25  118.98150   40.12700   70.16570   -9999.25   -9999.25   -0.00240    2.65010    8.16640 13256.46290   -9999.25    3.55390    0.03600   -9999.25   -9999.25   -9999.25   -9999.25
 7891.50000   -9999.25 2817.18950   -6.69730   -9999.25   -9999.25   91.74710   31.43260   40.64730   -9999.25   -9999.25   -0.00080    2.60500    8.17000 13261.10740   -9999.25    3.39250    0.05970   -9999.25   -9999.25   -9999.25   -9999.25
 7892.00000   -9999.25 2816.99410   -7.16820   -9999.25   -9999.25   61.26550   24.74930   24.76420   -9999.25   -9999.25    0.00210    2.58070    8.17060 13265.75290   -9999.25    3.24630    0.07560   -9999.25   -9999.25   -9999.25   -9999.25
 7892.50000   -9999.25 2816.79880   -7.63920   -9999.25   -9999.25   37.33410   20.22660   16.94200   -9999.25   -9999.25    0.00620    2.58720    8.13730 13270.39840   -9999.25    3.11020    0.07180   -9999.25   -9999.25   -9999.25   -9999.25
 7893.00000   -9999.25 2816.60450   -8.11020   -9999.25   -9999.25   24.16860   19.41870   16.52130   -9999.25   -9999.25    0.01030    2.59940    8.09400 13275.04300   -9999.25    3.10510    0.06470   -9999.25   -9999.25   -9999.25   -9999.25
 7893.50000   -9999.25 2816.41020   -8.45930   -9999.25   -9999.25   18.36080   18.90520   18.01700   -9999.25   -9999.25    0.01270    2.61050    8.02790 13279.68850   -9999.25    3.20850    0.05820   -9999.25   -9999.25   -9999.25   -9999.25
 7894.00000   -9999.25 2816.21480   -8.45930   -9999.25   -9999.25   21.94140   18.40530   21.19540   -9999.25   -9999.25    0.00950    2.59880    7.87780 13284.33400   -9999.25    3.28620    0.06290   -9999.25   -9999.25   -9999.25   -9999.25
 7894.50000   -9999.25 2816.01950   -8.45930   -9999.25   -9999.25   30.45590   18.46350   25.22820   -9999.25   -9999.25    0.00390    2.58040    7.72900 13288.97850   -9999.25    3.31090    0.07470   -9999.25   -9999.25   -9999.25   -9999.25
 7895.00000   -9999.25 2815.82520   -8.45930   -9999.25   -9999.25   38.10270   19.66180   25.60240   -9999.25   -9999.25   -0.00100    2.56580    7.66610 13293.62400   -9999.25    3.28080    0.08360   -9999.25   -9999.25   -9999.25   -9999.25
