~Version ---------------------------------------------------
VERS.   2.0 : CWLS log ASCII Standard -VERSION 2.0
WRAP.    NO : One line per depth step
DLM . SPACE : Column Data Section Delimiter
~Well ------------------------------------------------------
STRT .F                   25.0 : START DEPTH
STOP .F                 7975.0 : STOP DEPTH
STEP .F                    0.5 : STEP
NULL .                -9999.25 : NULL VALUE
COMP .                         : COMPANY
WELL .                         : WELL
FLD  .                         : FIELD
LOC  .                         : LOCATION
PROV .                         : PROVINCE
CNTY .                         : COUNTY
STAT .                         : STATE
CTRY .                         : COUNTRY
SRVC .                         : SERVICE COMPANY
DATE .                         : DATE
UWI  .                         : UNIQUE WELL ID
API  .                         : API NUMBER
SLAT .WGS84 1.6610476411741963 : SURFACE LATITUDE
SLON .WGS84  6.473241823747003 : SURFACE LONGITUDE
DATUM.F                2716.67 : DEPTH DATUM ELEV
~Curve Information -----------------------------------------
DEPT   .F     : 
GRR    .GAPI  : GAMMA RAY FROM RESISTIVITY LOG
TENR   .LB    : TENSION FROM RESISTIVITY LOG
SPR    .MV    : SPONTANEOUS POTENTIAL FROM RESISTIVITY LOG
LLS    .OHMM  : LATEROLOG SHALLOW RESISTIVITY
LLD    .OHMM  : LATEROLOG DEEP RESISTIVITY
SFLU   .OHMM  : SHALLOW FOCUSED RESISTIVITY (UNAVERAGED)
ILD    .OHMM  : INDUCTION DEEP RESISTIVITY
ILM    .OHMM  : INDUCTION MEDIUM RESISTIVITY
CGR    .GAPI  : CORRECTED GAMMA RAY
SGR    .GAPI  : SPECTROSCOPY GAMMA RAY
DRHO   .G/C3  : BULK DENSITY CORRECTION
RHOB   .G/C3  : BULK DENSITY
CALD   .IN    : CALIPER FROM DENSITY LOG
TEND   .LB    : TENSION FROM DENSITY LOG
NPHI_LS.DEC   : NEUTRON POROSITY LIMESTONE
PEF    .B/E   : PHOTOELECTRIC FACTOR
DPHI_LS.DEC   : DENSITY POROSITY LIMESTONE
DTCO   .US/F  : DELTA-T COMPRESSIONAL
GRS    .GAPI  : GAMMA RAY FROM SONIC LOG
DTST   .US/F  : DELTA-T STONELEY - MONOPOLE STONELEY
DTSM   .US/F  : DELTA-T SHEAR
~Params ----------------------------------------------------
~Other -----------------------------------------------------
~ASCII -----------------------------------------------------
# ...
 4001.50000   30.61720 6237.41890   73.43620   87.38920  178.27590   -9999.25   -9999.25   -9999.25   11.40610   33.69790   -9999.25   -9999.25   -9999.25   -9999.25    0.21640   -9999.25   -9999.25   55.08030   31.65900  216.95800  104.77920
 4002.00000   28.69810 6241.08790   73.50020   82.08430  156.26450   -9999.25   -9999.25   -9999.25    9.48410   32.87710   -9999.25   -9999.25   -9999.25   -9999.25    0.24470   -9999.25   -9999.25   55.25160   27.73850  216.94410  106.51770
 4002.50000   25.66960 6246.60790   73.56410   76.50220  130.55360   -9999.25   -9999.25   -9999.25    2.33690   27.65980   -9999.25   -9999.25   -9999.25   -9999.25    0.27370   -9999.25   -9999.25   56.12960   21.69200  216.93410  109.64430
 4003.00000   23.31720 6247.91110   73.75160   69.87390  112.92720   -9999.25   -9999.25   -9999.25   -1.42120   22.83060   -9999.25   -9999.25   -9999.25   -9999.25    0.32970   -9999.25   -9999.25   57.69090   19.32100  216.93410  113.37200
 4003.50000   21.31620 6249.21390   74.08280   61.19060   97.17600   -9999.25   -9999.25   -9999.25   -2.40830   20.88340   -9999.25   -9999.25   -9999.25   -9999.25    0.36020   -9999.25   -9999.25   59.19940   18.01050  216.93410  115.97140
 4004.00000   19.24580 6246.65530   74.46900   52.25000   82.25230   -9999.25   -9999.25   -9999.25   -2.27760   20.92250   -9999.25   -9999.25   -9999.25   -9999.25    0.35930   -9999.25   -9999.25   60.73510   17.79450  216.93410  118.94740
 4004.50000   18.20670 6243.01510   74.85520   45.92850   71.93780   -9999.25   -9999.25   -9999.25   -1.76080   21.63060   -9999.25   -9999.25   -9999.25   -9999.25    0.33100   -9999.25   -9999.25   62.42950   18.02230  216.93410  121.80680
 4005.00000   18.00560 6239.75200   75.24140   46.69780   75.08950   -9999.25   -9999.25   -9999.25   -1.58200   21.13180   -9999.25   -9999.25   -9999.25   -9999.25    0.31830   -9999.25   -9999.25   63.99130   18.33660  216.93410  123.49930
 4005.50000   17.97970 6238.22660   75.62450   53.06490   89.62590   -9999.25   -9999.25   -9999.25   -1.47290   20.03850   -9999.25   -9999.25   -9999.25   -9999.25    0.33590   -9999.25   -9999.25   63.32230   18.42330  216.93410  124.22250
 4006.00000   18.00670 6232.60160   75.81020   68.08840  139.89720   -9999.25   -9999.25   -9999.25   -1.47110   19.06270   -9999.25   -9999.25   -9999.25   -9999.25    0.34150   -9999.25   -9999.25   62.08710   18.67370  216.93410  123.30430
 4006.50000   18.43130 6229.52880   75.63130   86.86860  222.29740   -9999.25   -9999.25   -9999.25   -1.46920   19.33770   -9999.25   -9999.25   -9999.25   -9999.25    0.33620   -9999.25   -9999.25   61.70100   17.82770  216.93740  122.05700
 4007.00000   18.85600 6231.18900   75.36540  112.94410  307.44840   -9999.25   -9999.25   -9999.25   -1.46740   19.73320   -9999.25   -9999.25   -9999.25   -9999.25    0.34580   -9999.25   -9999.25   62.46050   16.31060  216.94190  121.99020
 4007.50000   19.28070 6237.85600   75.21040  118.89650  340.86880   -9999.25   -9999.25   -9999.25   -1.46550   19.54290   -9999.25   -9999.25   -9999.25   -9999.25    0.37460   -9999.25   -9999.25   63.83340   13.86740  216.96430  122.49480
 4008.00000   19.70530 6244.52250   75.38660  114.34530  321.46260   -9999.25   -9999.25   -9999.25   -1.26840   18.77570   -9999.25   -9999.25   -9999.25   -9999.25    0.40270   -9999.25   -9999.25   65.32550   13.17720  216.98930  124.60240
 4008.50000   20.13000 6247.82960   75.62470  107.32090  287.55590   -9999.25   -9999.25   -9999.25   -0.84660   17.04990   -9999.25   -9999.25   -9999.25   -9999.25    0.40710   -9999.25   -9999.25   67.21290   14.11360  216.99200  127.73150
 4009.00000   20.49110 6249.06640   75.86290  103.67050  259.63150   -9999.25   -9999.25   -9999.25   -0.37980   15.08900   -9999.25   -9999.25   -9999.25   -9999.25    0.39300   -9999.25   -9999.25   67.70680   15.34130  216.92860  129.63650
 4009.50000   20.70310 6250.20950   76.12670  101.19270  237.27200   -9999.25   -9999.25   -9999.25   -0.14590   14.47980   -9999.25   -9999.25   -9999.25   -9999.25    0.37550   -9999.25   -9999.25   67.13320   16.72770  216.86520  129.10910
 4010.00000   20.37720 6250.23190   76.40570   91.04040  186.92910   -9999.25   -9999.25   -9999.25    0.08800   14.44880   -9999.25   -9999.25   -9999.25   -9999.25    0.35570   -9999.25   -9999.25   66.45470   18.16080  216.92420  128.44020
 4010.50000   19.80560 6250.25390   76.70270   78.73120  140.95080   -9999.25   -9999.25   -9999.25    0.32190   15.35650   -9999.25   -9999.25   -9999.25   -9999.25    0.33090   -9999.25   -9999.25   65.61750   18.69900  216.99250  127.44950
 4011.00000   19.23400 6248.87110   77.00590   58.73830   98.54110   -9999.25   -9999.25   -9999.25    1.78020   17.19450   -9999.25   -9999.25   -9999.25   -9999.25    0.30620   -9999.25   -9999.25   64.71270   18.66320  216.99250  122.69880
 4011.50000   19.72040 6245.84810   77.30910   46.71270   70.18260   -9999.25   -9999.25   -9999.25    3.15210   18.84930   -9999.25   -9999.25   -9999.25   -9999.25    0.27500   -9999.25   -9999.25   63.87500   18.46380  216.96250  120.50550
 4012.00000   20.67260 6246.86230   77.61220   38.38090   55.34280   -9999.25   -9999.25   -9999.25    4.16150   20.00990   -9999.25   -9999.25   -9999.25   -9999.25    0.26670   -9999.25   -9999.25   63.05480   17.92130  216.92620  121.15100
 4012.50000   21.62480 6247.15040   77.65810   34.52410   48.67520   -9999.25   -9999.25   -9999.25    4.39850   20.27080   -9999.25   -9999.25   -9999.25   -9999.25    0.26420   -9999.25   -9999.25   62.92600   17.13690  216.92170  123.15110
 4013.00000   21.45970 6241.55420   77.50460   34.71250   49.82920   -9999.25   -9999.25   -9999.25    4.63560   19.90830   -9999.25   -9999.25   -9999.25   -9999.25    0.26480   -9999.25   -9999.25   63.72700   16.36190  216.92170  124.59920
 4013.50000   19.59820 6235.11570   77.33300   36.32330   52.33510   -9999.25   -9999.25   -9999.25    4.76280   19.54570   -9999.25   -9999.25   -9999.25   -9999.25    0.27090   -9999.25   -9999.25   64.48740   15.56030  216.92170  125.52490
 4014.00000   17.47650 6229.21000   77.44580   37.41130   54.62460   -9999.25   -9999.25   -9999.25    4.73650   19.08410   -9999.25   -9999.25   -9999.25   -9999.25    0.28730   -9999.25   -9999.25   65.23320   14.95640  216.89160  126.35360
 4014.50000   15.87600 6238.58540   77.73270   37.76760   54.43050   -9999.25   -9999.25   -9999.25    4.71020   18.39910   -9999.25   -9999.25   -9999.25   -9999.25    0.29640   -9999.25   -9999.25   66.51410   14.74530  216.83770  127.18550
 4015.00000   17.31800 6247.96090   77.93610   36.75760   53.82520   -9999.25   -9999.25   -9999.25    4.68390   17.74950   -9999.25   -9999.25   -9999.25   -9999.25    0.28820   -9999.25   -9999.25   67.45150   14.73110  216.79110  128.93300
 4015.50000   19.21710 6256.15920   78.10690   36.76380   53.77630   -9999.25   -9999.25   -9999.25    4.77450   17.09990   -9999.25   -9999.25   -9999.25   -9999.25    0.26970   -9999.25   -9999.25   67.57090   14.62240  216.92240  130.46600
 4016.00000   20.07830 6254.72710   78.29400   38.41560   62.14990   -9999.25   -9999.25   -9999.25    4.81950   16.45030   -9999.25   -9999.25   -9999.25   -9999.25    0.27750   -9999.25   -9999.25   67.04410   14.40330  216.92170  128.83940
 4016.50000   19.29290 6253.29490   78.55670   43.25770   76.16040   -9999.25   -9999.25   -9999.25    4.60350   15.82010   -9999.25   -9999.25   -9999.25   -9999.25    0.29540   -9999.25   -9999.25   65.67780   14.40950  216.48830  125.62360
 4017.00000   18.19100 6251.80130   78.79090   52.93180   92.44170   -9999.25   -9999.25   -9999.25    3.79810   15.60200   -9999.25   -9999.25   -9999.25   -9999.25    0.28970   -9999.25   -9999.25   63.42530   15.62080  215.01430  120.89620
 4017.50000   17.89820 6249.52880   78.86850   61.53450  116.11290   -9999.25   -9999.25   -9999.25    3.81230   15.98710   -9999.25   -9999.25   -9999.25   -9999.25    0.24770   -9999.25   -9999.25   61.40240   17.93750  211.15860  115.58580
