~Version ---------------------------------------------------
VERS.   2.0 : CWLS log ASCII Standard -VERSION 2.0
WRAP.    NO : One line per depth step
DLM . SPACE : Column Data Section Delimiter
~Well ------------------------------------------------------
STRT .F                   25.0 : START DEPTH
STOP .F                 7975.0 : STOP DEPTH
STEP .F                    0.5 : STEP
NULL .                -9999.25 : NULL VALUE
COMP .                         : COMPANY
WELL .                         : WELL
FLD  .                         : FIELD
LOC  .                         : LOCATION
PROV .                         : PROVINCE
CNTY .                         : COUNTY
STAT .                         : STATE
CTRY .                         : COUNTRY
SRVC .                         : SERVICE COMPANY
DATE .                         : DATE
UWI  .                         : UNIQUE WELL ID
API  .                         : API NUMBER
SLAT .WGS84 1.6610476411741963 : SURFACE LATITUDE
SLON .WGS84  6.473241823747003 : SURFACE LONGITUDE
DATUM.F                2716.67 : DEPTH DATUM ELEV
~Curve Information -----------------------------------------
DEPT   .F     : 
GRR    .GAPI  : GAMMA RAY FROM RESISTIVITY LOG
TENR   .LB    : TENSION FROM RESISTIVITY LOG
SPR    .MV    : SPONTANEOUS POTENTIAL FROM RESISTIVITY LOG
LLS    .OHMM  : LATEROLOG SHALLOW RESISTIVITY
LLD    .OHMM  : LATEROLOG DEEP RESISTIVITY
SFLU   .OHMM  : SHALLOW FOCUSED RESISTIVITY (UNAVERAGED)
ILD    .OHMM  : INDUCTION DEEP RESISTIVITY
ILM    .OHMM  : INDUCTION MEDIUM RESISTIVITY
CGR    .GAPI  : CORRECTED GAMMA RAY
SGR    .GAPI  : SPECTROSCOPY GAMMA RAY
DRHO   .G/C3  : BULK DENSITY CORRECTION
RHOB   .G/C3  : BULK DENSITY
CALD   .IN    : CALIPER FROM DENSITY LOG
TEND   .LB    : TENSION FROM DENSITY LOG
NPHI_LS.DEC   : NEUTRON POROSITY LIMESTONE
PEF    .B/E   : PHOTOELECTRIC FACTOR
DPHI_LS.DEC   : DENSITY POROSITY LIMESTONE
DTCO   .US/F  : DELTA-T COMPRESSIONAL
GRS    .GAPI  : GAMMA RAY FROM SONIC LOG
DTST   .US/F  : DELTA-T STONELEY - MONOPOLE STONELEY
DTSM   .US/F  : DELTA-T SHEAR
~Params ----------------------------------------------------
~Other -----------------------------------------------------
~ASCII -----------------------------------------------------
# ...
 5041.00000   97.95770 1906.41050    9.21280   -9999.25   -9999.25   26.74100   20.41980   22.94260   67.11450   94.50140    0.00530    2.51920    9.18760 12320.90330    0.22710    2.71240    0.11160   77.33600   91.05450  202.00620  130.03750
 5041.50000   98.56880 1906.51920    9.21280   -9999.25   -9999.25   25.13280   19.00970   20.90910   66.86090   93.72850    0.00410    2.54190    9.18740 12325.57130    0.22390    3.08710    0.09830   78.23280   90.09020  201.78020  128.63290
 5042.00000   92.76540 1906.62770    9.21280   -9999.25   -9999.25   28.62150   17.51570   19.05590   65.61490   90.28260   -0.00260    2.56990    9.19040 12317.63770    0.20530    3.71280    0.08180   78.10410   84.93560  201.00920  127.22820
 5042.50000   85.96490 1906.73620    9.21280   -9999.25   -9999.25   33.39290   16.13910   17.36690   64.00530   83.47130   -0.01080    2.59510    9.20710 12309.70410    0.18640    4.27700    0.06730   75.00610   80.73160  200.35300  124.85920
 5043.00000   89.24110 1906.84480    9.21280   -9999.25   -9999.25   29.62080   14.87070   15.88680   64.02450   80.06530   -0.01260    2.61230    9.20750 12307.78610    0.20030    4.05690    0.05770   70.79630   84.43270  200.29830  123.93880
 5043.50000   96.85140 1906.95340    9.21280   -9999.25   -9999.25   24.77380   13.70200   14.81160   71.43500   90.58100   -0.01090    2.61000    9.20800 12309.35940    0.22210    3.58200    0.06620   69.62820   92.70740  200.58530  125.49300
 5044.00000  104.84620 1907.06190    9.08510   -9999.25   -9999.25   18.49950   13.04480   13.80930   81.26630  107.89180   -0.00790    2.56690    9.21640 12310.93260    0.25180    3.22510    0.08660   70.12050   99.30330  200.77360  127.52860
 5044.50000  105.49400 1907.17040    8.75410   -9999.25   -9999.25   15.44020   12.55030   13.01170   87.71180  111.13670   -0.00580    2.53130    9.22810 12317.21390    0.25340    2.91000    0.10450   71.55740   98.31250  201.01410  129.41770
 5045.00000   98.29260 1907.27910    8.29410   -9999.25   -9999.25   14.50280   12.07460   12.68460   80.45230  100.07880   -0.00330    2.52090    9.23990 12327.61620    0.23520    2.82120    0.11050   72.71170   91.38110  201.85890  129.54460
 5045.50000   92.41670 1907.38760    7.23140   -9999.25   -9999.25   13.91250   11.84030   12.53420   71.31840   88.59810    0.00080    2.52660    9.28870 12321.19140    0.20760    2.79610    0.10650   74.49570   82.22430  202.00670  129.38780
 5046.00000   88.00100 1907.49610    5.97400   -9999.25   -9999.25   13.41250   11.77490   12.46610   62.30210   82.72600    0.00490    2.54330    9.30650 12315.38670    0.18080    2.79600    0.09740   74.45790   77.80750  201.98710  128.38140
 5046.50000   88.24020 1907.60470    5.55490   -9999.25   -9999.25   12.90260   11.90130   12.54050   61.31090   84.20680    0.00620    2.54700    9.31230 12325.97660    0.19060    2.85520    0.09540   72.84130   81.00510  200.80640  126.06680
 5047.00000   94.55360 1907.71330    5.29400   -9999.25   -9999.25   12.88470   12.05320   12.63210   68.28680   92.90000    0.00320    2.54280    9.32030 12318.07620    0.21750    2.91200    0.09740   71.85290   87.81920  199.75780  124.53220
 5047.50000  103.36010 1907.82180    5.30590   -9999.25   -9999.25   13.45150   12.20710   12.70290   74.74170  102.72980    0.00050    2.53770    9.32830 12319.47850    0.23550    2.96590    0.09960   69.51090   93.89710  201.32850  125.60290
 5048.00000  106.00500 1907.93040    5.15880   -9999.25   -9999.25   14.12980   12.21500   12.69460   80.24980  111.57770   -0.00010    2.53450    9.33830 12314.07230    0.24850    2.99530    0.10180   72.98040   98.48410  202.40280  128.95780
 5048.50000   97.90440 1908.03890    4.80010   -9999.25   -9999.25   15.42450   12.16220   12.62860   79.15580  110.10050   -0.00040    2.53160    9.34670 12308.66700    0.23820    2.89560    0.10400   75.93730   96.40150  202.69490  132.05230
 5049.00000   90.19180 1908.14750    4.52080   -9999.25   -9999.25   15.11600   12.08560   12.56470   72.93410  101.18970   -0.00040    2.52980    9.34660 12317.06450    0.21760    2.75450    0.10540   77.34130   91.59740  202.58120  132.21520
 5049.50000   84.04920 1908.25600    4.27310   -9999.25   -9999.25   13.93650   12.00960   12.50110   66.71240   92.05530    0.00060    2.53140    9.34650 12327.29490    0.19700    2.66230    0.10450   76.70020   87.08520  202.07700  131.15860
 5050.00000   81.78710 1908.36460    4.02550   -9999.25   -9999.25   12.78160   12.06540   12.57190   61.23000   87.08820    0.00190    2.53550    9.34640 12337.52440    0.18290    2.64040    0.10250   74.96130   86.04940  201.57280  128.30590
 5050.50000   84.14790 1908.47310    3.78760   -9999.25   -9999.25   12.64120   12.48480   13.02080   60.46390   87.65310    0.00320    2.53850    9.34540 12344.40920    0.19070    2.65520    0.10050   73.22230   86.41620  200.83050  125.56790
 5051.00000   87.63330 1908.58170    3.84840   -9999.25   -9999.25   13.80730   13.06330   13.80310   61.66000   90.37030    0.00460    2.54160    9.34030 12322.50980    0.19900    2.72840    0.09850   72.10490   87.47710  199.87820  123.86600
 5051.50000   91.32040 1908.69030    4.20370   -9999.25   -9999.25   15.51040   13.66860   14.63240   64.63010   93.29280    0.00600    2.54330    9.32540 12315.88960    0.21510    2.84280    0.09750   71.79040   88.80300  200.19920  122.86490
 5052.00000   96.58850 1908.79880    4.70770   -9999.25   -9999.25   17.42360   14.30200   15.47890   67.75360   98.39770    0.00730    2.54100    9.31640 12310.47750    0.23230    2.93610    0.09880   72.52540   92.54180  201.68940  123.07970
 5052.50000  103.60390 1908.90730    5.16820   -9999.25   -9999.25   19.23590   14.98210   16.25140   69.63640  103.96700    0.00760    2.53170    9.30590 12305.06640    0.25350    2.94860    0.10420   74.00790   95.89450  201.82370  128.47010
 5053.00000  106.41820 1909.01590    5.62880   -9999.25   -9999.25   21.78880   15.71890   17.06250   69.95840  104.56430    0.00720    2.52370    9.26930 12311.93460    0.25130    2.87790    0.10900   75.91200   98.18800  201.95800  130.63330
 5053.50000  106.30910 1909.12450    6.08930   -9999.25   -9999.25   23.61280   16.49200   17.91410   69.80220  101.66140    0.00510    2.51700    9.23260 12321.85840    0.23690    2.82300    0.11290   77.49590   99.57820  202.09230  132.85310
 5054.00000  102.33010 1909.23300    6.46040   -9999.25   -9999.25   23.33790   17.38330   19.05320   68.75340  101.45400    0.00260    2.51650    9.20630 12320.28520    0.22410    2.95150    0.11300   77.90840  101.43130  202.18320  133.94690
 5054.50000   98.48710 1909.34160    6.66000   -9999.25   -9999.25   20.55660   18.55740   20.37620   68.73710  105.09730    0.00040    2.52370    9.18180 12315.81740    0.22650    3.12750    0.10890   77.97060  103.67040  202.14860  133.70890
 5055.00000   96.87730 1909.45020    6.84400   -9999.25   -9999.25   20.29820   19.81090   21.79110   70.15970  109.02540   -0.00040    2.52990    9.17210 12314.70310    0.23370    3.26560    0.10530   78.03380  103.64650  202.11400  132.98980
 5055.50000   97.42010 1909.55870    6.76830   -9999.25   -9999.25   21.49810   21.14910   23.72510   72.25520  111.89350    0.00120    2.53300    9.16710 12314.21000    0.24030    3.27980    0.10350   78.09710  102.53690  202.07940  132.51340
 5056.00000  103.44980 1909.66720    6.56210   -9999.25   -9999.25   29.84860   22.57770   25.85060   72.63360  112.29890    0.00320    2.53060    9.15940 12313.71680    0.24650    3.20050    0.10490   78.71450  101.44470  202.04480  133.86660
 5056.50000  107.88900 1909.77590    6.13770   -9999.25   -9999.25   38.44350   24.10270   28.16660   71.17050  111.01000    0.00440    2.51120    9.15350 12313.22360    0.25320    3.11140    0.11630   79.91270  100.22660  202.02880  134.89190
 5057.00000  104.48340 1909.88440    5.93470   -9999.25   -9999.25   44.02040   25.89520   30.41090   68.82900  109.59990    0.00390    2.49300    9.15430 12312.73050    0.25970    3.05680    0.12690   80.29950   96.59540  202.02680  134.46120
