~Version ---------------------------------------------------
VERS.   2.0 : CWLS log ASCII Standard -VERSION 2.0
WRAP.    NO : One line per depth step
DLM . SPACE : Column Data Section Delimiter
~Well ------------------------------------------------------
STRT .F                 186.0 : START DEPTH
STOP .F                9080.0 : STOP DEPTH
STEP .F                   0.5 : STEP
NULL .               -9999.25 : NULL VALUE
COMP .                        : COMPANY
WELL .                        : WELL
FLD  .                        : FIELD
LOC  .                        : LOCATION
PROV .                        : PROVINCE
CNTY .                        : COUNTY
STAT .                        : STATE
CTRY .                        : COUNTRY
SRVC .                        : SERVICE COMPANY
DATE .                        : DATE
UWI  .                        : UNIQUE WELL ID
API  .                        : API NUMBER
SLAT .WGS84   1.6820631858774 : SURFACE LATITUDE
SLON .WGS84 7.087157923745991 : SURFACE LONGITUDE
DATUM.F               2565.68 : DEPTH DATUM ELEV
~Curve Information -----------------------------------------
DEPT    .F     : 1 MEASURED DEPTH
TPHI_LS .DEC   : TDT POROSITY [LIMESTONE]
GRT     .GAPI  : THEORETICAL GAMMA RAY VALUE TDT
CIRF_FIL.N/A   : RST CAPTURE TO INELASTIC RATIO FAR FILTERED
SIGM    .CU    : FORMATION SIGMA (NEUTRON CAPTURE CROSS SECTION)
TEN     .LB    : DIFFERENTIAL TENSION
GRS     .GAPI  : GAMMA RAY FROM SONIC LOG
HCALS   .IN    : HRCC CALIPER CALIBRATED FROM SONIC LOG
SPHI_LS .DEC   : SONIC POROSITY [LIMESTONE]
DTCO    .US/F  : DELTA-T COMPRESSIONAL
DTSM    .US/F  : DELTA-T SHEAR
RXO_HRLT.OHMM  : HRLT INVADED ZONE RESISTIVITY
RLA5    .OHMM  : APPARENT RESISTIVITY FROM COMPUTED FOCUSING MODE 5
RLA4    .OHMM  : APPARENT RESISTIVITY FROM COMPUTED FOCUSING MODE 4
GRD     .GAPI  : GAMMA RAY FROM DENSITY LOG
TNPH_LS .DEC   : THERMAL NEUTRON POROSITY [LIMESTONE]
PEFZ    .B/E   : HRDD STANDARD RESOLUTION FORMATION PHOTOELECTRIC FACTOR
HDRA    .G/C3  : HRDD SPINE AND RIBS DENSITY CORRECTION
DPHZ_LS .DEC   : HGRD STANDARD RESOLUTION DENSITY POROSITY
TEND    .LB    : TENSION FROM DENSITY LOG
RHOZ    .G/C3  : HRDD STANDARD RESOLUTION FORMATION DENSITY
~Params ----------------------------------------------------
~Other -----------------------------------------------------
~ASCII -----------------------------------------------------
# ...
 3003.50000    0.17950   35.88840    2.27680   16.37230  828.64200   17.88080    8.29750    0.01050   49.11830   89.77400  348.37310  312.74050  329.84080   18.89060    0.06770    3.32010   -0.00330   -0.04870 3043.99980    2.79600
 3004.00000    0.17950   38.81430    2.35280   15.90560  828.76360   17.79760    8.30730    0.01320   49.14130   89.62790  267.83770  182.58970  231.92620   23.45320    0.06780    3.24680   -0.00110   -0.05510 3047.78690    2.80000
 3004.50000    0.16080   37.38290    2.55260   14.19920  828.88510   19.54510    8.31720    0.01930   50.18480   90.02050  130.11400   65.65740  101.33680   33.07610    0.08160    3.17080    0.00080   -0.04950 3049.98390    2.79420
 3005.00000    0.14170   32.52280    2.78500   12.45940  829.00670   27.39790    8.32700    0.03850   53.93250   93.38070   50.54790   35.44960   41.60710   44.02490    0.09900    3.09600    0.00180   -0.03190 3052.18120    2.75360
 3005.50000    0.13610   26.59360    3.01720   11.08430  829.12830   39.44220    8.33680    0.06000   56.33370   98.66970   35.88210   29.05700   33.79510   50.78190    0.11960    3.02540    0.00150   -0.01670 3040.60720    2.73360
 3006.00000    0.13930   20.51230    3.14720   10.07740  829.24990   51.10620    8.34660    0.07750   58.22490  101.04540   33.99690   23.07760   31.55840   53.08780    0.13370    3.06540    0.00040   -0.00160 3029.16020    2.71420
 3006.50000    0.14190   15.01180    3.07640   10.55700  829.37140   53.53000    8.34980    0.07320   57.44880  100.55310   27.98950   31.74710   31.69340   51.37240    0.14020    3.12830   -0.00140   -0.00060 3019.22190    2.71280
 3007.00000    0.14370   15.00850    2.91840   11.35380  829.49300   51.07640    8.34190    0.06360   55.69500   98.23550   28.42140   45.68870   35.08510   46.77270    0.13520    3.21090   -0.00540   -0.00220 3011.36160    2.71790
 3007.50000    0.14570   18.08560    2.75180   11.69110  829.61460   42.20010    8.33400    0.04690   53.83100   94.72340   55.12720  230.53330   81.82270   36.53750    0.12190    3.26740   -0.00780   -0.00740 3005.04520    2.72270
 3008.00000    0.15240   21.40020    2.71730   11.56360  829.73610   31.26170    8.32600    0.03310   52.10710   92.94970   57.90400  838.53520 1293.15540   26.14250    0.10640    3.33010   -0.00730   -0.00820 2993.87130    2.72340
 3008.50000    0.15900   23.19820    2.71260   11.49620  829.85770   21.35420    8.31810    0.02630   51.35390   92.82560  494.77390  507.79560  844.14930   19.53630    0.09440    3.36350   -0.00690   -0.00760 2982.51200    2.72340
 3009.00000    0.15650   21.14070    2.74410   11.52870  829.97920   19.64280    8.31010    0.02580   51.10310   93.01270  650.10360  152.25270  261.84370   20.74880    0.09430    3.36440   -0.00690   -0.00830 2970.87840    2.72580
 3009.50000    0.15090   18.80430    2.80370   11.39390  830.10080   25.04230    8.30400    0.02770   51.50390   93.83970   63.24190   60.73340   84.31320   26.07130    0.10120    3.30390   -0.00620   -0.01780 2967.00340    2.74570
 3010.00000    0.13890   17.02520    2.86890   10.94700  830.22240   29.79330    8.29810    0.03250   52.00510   93.79680   45.70250  110.42670   58.63340   28.80010    0.10780    3.22850   -0.00270   -0.03320 2970.46970    2.76780
 3010.50000    0.12790   16.06660    2.96550   10.52320  830.34390   29.23070    8.29210    0.03510   52.42980   93.69640   55.65580  190.84810   97.29840   29.05940    0.10420    3.15880    0.00060   -0.04790 2982.27370    2.78560
 3011.00000    0.11260   15.22030    3.02400   10.11200  830.46550   27.22990    8.28620    0.03450   52.32020   94.19990   55.15060   91.93950   66.31490   27.54350    0.09760    3.15140   -0.00130   -0.04060 2984.04420    2.77740
 3011.50000    0.09880   13.91950    3.05040    9.77450  830.58700   26.42050    8.28030    0.03270   52.03130   93.60960   43.85890   59.39390   54.02830   26.71190    0.09790    3.18890   -0.00460   -0.02780 2985.29420    2.75540
 3012.00000    0.08970   13.50050    3.06650    9.52610  830.70860   25.00710    8.27440    0.03010   51.74590   92.49940   38.33060   72.42560   59.56690   25.38810    0.09830    3.24150   -0.00580   -0.01270 2989.46480    2.73550
 3012.50000    0.07820   15.53160    3.08270    9.52050  830.83010   22.42160    8.26850    0.02720   51.26540   91.31860   51.00300  120.05690  100.65640   22.59470    0.09420    3.29930   -0.00630   -0.02050 2994.70020    2.74110
 3013.00000    0.07450   17.98070    3.06610    9.73600  830.95170   19.82240    8.26450    0.02090   50.40490   90.58130   87.64120  180.39090  135.53570   19.79090    0.08670    3.36090   -0.00480   -0.02620 2999.93530    2.75190
 3013.50000    0.07600   18.17230    2.99840    9.94450  831.07330   19.12960    8.26450    0.01560   49.79960   89.63910   90.23760  156.27630  105.99480   18.93210    0.07980    3.37740   -0.00190   -0.04110 3005.17070    2.77410
 3014.00000    0.08750   15.17410    2.90900   10.17770  831.19480   18.89900    8.26340    0.01220   49.19510   89.03620  119.05030  192.91140  153.80540   18.67460    0.07310    3.41750   -0.00070   -0.05070 3010.40600    2.79000
 3014.50000    0.09890   13.19830    2.82060   10.52400  831.66920   18.35130    8.26060    0.00860   48.77600   89.29790  154.61500  447.88320  359.11040   18.03440    0.06370    3.48280   -0.00100   -0.06110 3015.64110    2.80690
 3015.00000    0.11240   15.05680    2.73300   11.35360  832.39080   16.61230    8.25790    0.00730   48.45930   89.98380  324.00230  458.25910  405.13590   16.17850    0.05140    3.60510   -0.00140   -0.06780 3020.87650    2.81800
 3015.50000    0.12600   18.95960    2.66800   12.49010  832.46370   14.95370    8.25520    0.00630   48.40080   90.71900  412.72940  512.97630  465.86170   14.33690    0.04340    3.73020   -0.00190   -0.07760 3025.24390    2.83020
 3016.00000    0.13480   23.85450    2.59580   14.11910  832.39260   15.04510    8.25490    0.00760   48.87540   91.36790  287.05280  549.50380  485.88740   14.94910    0.03990    3.83960   -0.00230   -0.08800 3024.91530    2.85200
 3016.50000    0.15750   28.84780    2.31280   16.57750  832.32150   16.71990    8.25840    0.01390   49.53120   92.96950  398.72910  415.94940  269.56090   16.40900    0.04310    3.88770   -0.00280   -0.08780 3025.47120    2.85450
 3017.00000    0.18070   34.90620    1.90510   19.65860  832.25040   21.03430    8.26240    0.02060   50.48520   95.90230  229.86750  274.55140  198.77230   21.17700    0.05600    3.82620   -0.00320   -0.07380 3015.43210    2.83830
 3017.50000    0.21120   42.18530    1.58780   22.79890  832.17930   26.80060    8.26840    0.03200   52.22540   98.65000  228.34890  188.54140  203.68400   27.15110    0.06890    3.71920   -0.00340   -0.05700 3051.45040    2.80950
 3018.00000    0.23230   47.71230    1.40360   24.17540  832.10820   32.02100    8.27440    0.05130   54.65530  101.68990  236.06620  108.80890  167.80550   32.42820    0.08270    3.60440   -0.00290   -0.04120 3070.07200    2.78130
 3018.50000    0.22840   53.97540    1.53520   22.06590  832.03700   38.21800    8.27740    0.07320   58.06270  106.34510   79.18460   51.55490   69.63390   38.20770    0.09640    3.50970   -0.00240   -0.02850 3057.07350    2.75750
 3019.00000    0.20690   51.47010    1.96420   18.60770  831.96590   47.13790    8.27740    0.09980   61.31870  110.64220   32.20400   27.10460   38.65170   45.96150    0.11140    3.41530   -0.00150   -0.01550 3044.07470    2.74180
 3019.50000    0.18330   42.54400    2.32070   15.38090  831.89480   56.77240    8.27740    0.11540   63.59730  114.31840   29.47900   27.43160   30.90020   58.39700    0.12880    3.32440   -0.00140   -0.00430 3018.93750    2.72570
 3020.00000    0.16270   33.04090    2.61180   13.19750  831.82370   70.27030    8.27990    0.12640   64.94320  115.99480   21.08780   27.98800   24.85460   73.79910    0.14630    3.25400   -0.00050    0.00430 3019.54790    2.70610
 3020.50000    0.14200   23.99020    2.76100   12.71490  831.75260   81.97900    8.28460    0.11710   63.54460  113.69710   12.25060   22.76550   16.81610   83.64970    0.16630    3.22580    0.00050    0.01780 3020.40140    2.68650
