~Version ---------------------------------------------------
VERS.   2.0 : CWLS log ASCII Standard -VERSION 2.0
WRAP.    NO : One line per depth step
DLM . SPACE : Column Data Section Delimiter
~Well ------------------------------------------------------
STRT .F                 186.0 : START DEPTH
STOP .F                9080.0 : STOP DEPTH
STEP .F                   0.5 : STEP
NULL .               -9999.25 : NULL VALUE
COMP .                        : COMPANY
WELL .                        : WELL
FLD  .                        : FIELD
LOC  .                        : LOCATION
PROV .                        : PROVINCE
CNTY .                        : COUNTY
STAT .                        : STATE
CTRY .                        : COUNTRY
SRVC .                        : SERVICE COMPANY
DATE .                        : DATE
UWI  .                        : UNIQUE WELL ID
API  .                        : API NUMBER
SLAT .WGS84   1.6820631858774 : SURFACE LATITUDE
SLON .WGS84 7.087157923745991 : SURFACE LONGITUDE
DATUM.F               2565.68 : DEPTH DATUM ELEV
~Curve Information -----------------------------------------
DEPT    .F     : 1 MEASURED DEPTH
TPHI_LS .DEC   : TDT POROSITY [LIMESTONE]
GRT     .GAPI  : THEORETICAL GAMMA RAY VALUE TDT
CIRF_FIL.N/A   : RST CAPTURE TO INELASTIC RATIO FAR FILTERED
SIGM    .CU    : FORMATION SIGMA (NEUTRON CAPTURE CROSS SECTION)
TEN     .LB    : DIFFERENTIAL TENSION
GRS     .GAPI  : GAMMA RAY FROM SONIC LOG
HCALS   .IN    : HRCC CALIPER CALIBRATED FROM SONIC LOG
SPHI_LS .DEC   : SONIC POROSITY [LIMESTONE]
DTCO    .US/F  : DELTA-T COMPRESSIONAL
DTSM    .US/F  : DELTA-T SHEAR
RXO_HRLT.OHMM  : HRLT INVADED ZONE RESISTIVITY
RLA5    .OHMM  : APPARENT RESISTIVITY FROM COMPUTED FOCUSING MODE 5
RLA4    .OHMM  : APPARENT RESISTIVITY FROM COMPUTED FOCUSING MODE 4
GRD     .GAPI  : GAMMA RAY FROM DENSITY LOG
TNPH_LS .DEC   : THERMAL NEUTRON POROSITY [LIMESTONE]
PEFZ    .B/E   : HRDD STANDARD RESOLUTION FORMATION PHOTOELECTRIC FACTOR
HDRA    .G/C3  : HRDD SPINE AND RIBS DENSITY CORRECTION
DPHZ_LS .DEC   : HGRD STANDARD RESOLUTION DENSITY POROSITY
TEND    .LB    : TENSION FROM DENSITY LOG
RHOZ    .G/C3  : HRDD STANDARD RESOLUTION FORMATION DENSITY
~Params ----------------------------------------------------
~Other -----------------------------------------------------
~ASCII -----------------------------------------------------
# ...
 7711.00000    0.04930   32.35060    2.74310   10.72020 1750.41480   62.42070    7.77630    0.07570   57.59540   36.60640  932.43240 1859.55360 1242.00650   59.55240    0.09360    4.14380   -0.00240    0.03630 4244.26320    2.65810
 7711.50000    0.04240   27.20750    2.80540   10.23580 1757.80370   39.06470    7.77170    0.05570   54.89860   34.29550 2010.23790 4332.41890 3267.91330   37.11850    0.05880    4.50430   -0.00460    0.03010 4254.64890    2.66630
 7712.00000    0.03790   23.91720    2.78980   10.01130 1766.54830   25.21930    7.76720    0.04460   53.52260   32.63010 2995.64770 5092.85060 3952.50420   25.06790    0.03260    4.74740   -0.00550    0.02740 4256.85740    2.67440
 7712.50000    0.03820   22.67050    2.76950    9.97850 1776.77450   21.94360    7.76270    0.03930   52.98070   32.06050 3580.78660 5120.68360 4457.85600   22.28520    0.02190    4.84510   -0.00510    0.02590 4249.53960    2.68970
 7713.00000    0.04200   22.56110    2.74250   10.07980 1772.01870   21.41070    7.75820    0.03660   52.63330   32.08640 4001.00000 6026.18410 4740.53120   21.98600    0.01720    4.79910    0.00020    0.02300 4242.22170    2.70800
 7713.50000    0.04820   23.69770    2.70560   10.41080 1754.44400   22.71970    7.75710    0.03640   52.62570   32.05180 3958.70170 6140.51320 4560.55860   22.82950    0.01750    4.69760    0.00810    0.00990 4255.35350    2.71080
 7714.00000    0.05580   26.42910    2.63250   11.07450 1742.65720   24.42900    7.75690    0.03880   52.90960   32.12270 3713.13720 6917.19580 4431.76660   24.98600    0.01840    4.51140    0.01010    0.00100 4282.64890    2.69340
 7714.50000    0.06350   29.07640    2.54280   11.80100 1744.61020   26.67190    7.75680    0.04220   53.36180   32.55330 3955.52780 6575.10300 4387.04000   27.54370    0.01930    4.30390    0.01000    0.00450 4286.08980    2.67450
 7715.00000    0.07140   31.39890    2.44090   12.54860 1748.75540   30.34540    7.75670    0.04790   54.08070   33.27620 3684.77950 4547.51810 3488.74370   30.45690    0.02310    4.09700    0.00380    0.01620 4247.29540    2.67080
 7715.50000    0.08380   33.82560    2.32180   13.39730 1753.72390   33.97790    7.75650    0.05470   55.08410   34.25960 3213.30740 3314.72490 2782.70900   34.09270    0.02800    3.89010   -0.00150    0.02480 4200.94580    2.67000
 7716.00000    0.09650   38.40630    2.19400   14.44930 1748.96500   37.22190    7.75840    0.06290   56.09390   35.74460 3215.34910 2919.07500 2533.55540   37.56330    0.03290    3.78130   -0.00320    0.03010 4198.06490    2.67100
 7716.50000    0.11040   42.51930    2.04970   16.24700 1743.27610   40.46580    7.76340    0.07000   57.37010   37.39730 3027.39160 1793.72180 1838.93300   41.24800    0.03780    3.68720   -0.00330    0.03030 4219.89110    2.67420
 7717.00000    0.12370   43.98770    1.90950   18.00720 1742.34720   45.92120    7.76830    0.07720   58.27330   38.87760 1073.46750 1088.29880 1144.31050   45.28180    0.04670    3.57950   -0.00190    0.02300 4248.59860    2.68110
 7717.50000    0.12120   42.16290    1.83000   19.28990 1741.93860   51.35200    7.77330    0.08220   59.09650   40.02150  270.28240  438.97480  363.32500   51.22880    0.05610    3.52310   -0.00150    0.01350 4259.52830    2.70410
 7718.00000    0.11140   41.18990    1.83830   19.17270 1744.87380   56.38350    7.77830    0.08860   59.81230   40.61250  147.76850  207.00960  182.55360   56.20770    0.06580    3.46200   -0.00170    0.00500 4246.42240    2.71270
 7718.50000    0.09540   41.45600    1.91960   18.24790 1753.67900   58.55230    7.78330    0.08960   59.88870   40.03200  110.85250  181.45010  170.62210   58.78140    0.07360    3.44120   -0.00240   -0.00170 4214.68650    2.71200
 7719.00000    0.07810   40.55450    2.04600   16.47260 1750.71900   58.14130    7.78820    0.08660   59.35910   38.91180  112.19010  171.52500  160.94690   57.36260    0.07450    3.47510   -0.00350    0.00130 4186.54830    2.70740
 7719.50000    0.06340   35.48110    2.24520   14.45600 1750.08670   54.43000    7.79320    0.07660   58.15370   37.42540  114.83290  161.74650  151.31000   52.50670    0.07130    3.62140   -0.00470    0.00420 4168.99020    2.70120
 7720.00000    0.05220   31.11060    2.45090   12.41210 1751.43990   45.66350    7.79820    0.06580   56.46890   35.69940  143.07220  196.44100  151.26490   45.06230    0.06180    3.75730   -0.00440    0.00860 4173.34130    2.69580
 7720.50000    0.04350   29.43290    2.65040   10.90420 1752.66910   38.32080    7.79650    0.05490   55.01270   34.05400  384.62790  246.31210  162.37920   35.89480    0.04790    3.86770   -0.00320    0.01060 4178.63870    2.69100
 7721.00000    0.03790   27.70540    2.80580    9.82180 1761.81260   31.34870    7.78820    0.04630   53.53210   32.87280 1034.01390  411.63810  341.04980   29.69760    0.03360    3.97640   -0.00070    0.01200 4189.81250    2.68830
 7721.50000    0.03190   23.14940    2.96200    9.09460 1773.72950   26.09860    7.77980    0.03620   52.43100   32.42320 3247.58080  703.69730  628.63250   26.17310    0.02260    4.07670    0.00200    0.01110 4201.10060    2.68750
 7722.00000    0.03150   18.07860    2.99120    8.75720 1782.81310   23.29860    7.77210    0.03040   51.77910   32.42290 5271.02690  613.06840  546.86870   22.83750    0.01600    4.23290    0.00230    0.01190 4198.08790    2.68690
 7722.50000    0.03570   14.50250    2.99360    8.80540 1779.76260   19.39700    7.76910    0.02860   51.51600   32.71710 6023.90530  657.76160  552.35130   19.25770    0.00950    4.44480    0.00190    0.01440 4188.84380    2.68690
 7723.00000    0.04360   14.33490    2.80650    9.55630 1772.75790   15.71420    7.76600    0.02980   51.68810   33.66970 6060.22610 1191.78420  912.20920   15.56910    0.00560    4.63490    0.00040    0.01660 4176.70120    2.68780
 7723.50000    0.05470   15.87570    2.50740   11.24190 1767.30960   13.10190    7.76290    0.03450   52.59570   37.16920 5797.79690 2743.56130 1506.51510   12.98390    0.00450    4.77150   -0.00120    0.01150 4190.13230    2.68750
 7724.00000    0.06560   20.77520    2.22420   13.49390 1762.10140   15.74800    7.75980    0.04860   54.09950   43.10990 4964.59130 1689.70280 1435.64100   14.91640    0.00480    4.55970   -0.00130    0.00570 4206.44040    2.67400
 7724.50000    0.06950   27.83030    1.94600   15.80770 1770.66370   24.55770    7.75670    0.06260   56.08740   45.33690 2538.41310  635.84420  365.15290   24.48100    0.00750    4.20400   -0.00220    0.01360 4214.45410    2.65480
 7725.00000    0.06600   37.01140    1.76210   17.82030 1774.55210   43.85450    7.75590    0.07670   58.20840   42.30030  112.23470  240.85320  133.65170   38.72730    0.01520    3.87160   -0.00150    0.02520 4219.91800    2.63500
 7725.50000    0.05650   43.09120    1.85330   17.56610 1766.58090   58.81090    7.75540    0.08690   59.32300   39.93450   70.93150  103.08930   91.92540   55.33270    0.03550    3.68070    0.00220    0.04210 4233.71340    2.63590
 7726.00000    0.05050   43.45090    2.05090   15.05160 1759.69970   67.31210    7.75500    0.08380   59.06840   39.31310   60.49610   98.12360   79.04900   67.40300    0.06270    3.66360    0.00580    0.05030 4218.26120    2.64810
 7726.50000    0.04310   40.50310    2.34090   12.62750 1752.95020   64.99770    7.75450    0.07270   57.34390   37.83920   71.22540  109.12370   99.70090   65.65570    0.07040    3.72460    0.00860    0.04500 4223.10210    2.66260
 7727.00000    0.03720   35.60780    2.61030   10.64060 1746.19970   52.64920    7.75410    0.05860   55.21510   35.93780  122.17900  339.97440  184.10420   54.29210    0.05790    3.88670    0.00550    0.03230 4224.05080    2.67700
 7727.50000    0.03470   30.00100    2.74600    9.60090 1743.03410   37.00220    7.75370    0.04390   53.59430   33.75760  349.63560 1178.91990  683.60580   37.90880    0.03650    4.13660    0.00230    0.02250 4209.44530    2.69220
 7728.00000    0.03630   25.41310    2.78250    9.33940 1746.58970   25.47920    7.75570    0.03410   52.17810   34.70380 1049.73010 2579.89920 1697.03690   26.36620    0.01900    4.42700    0.00190    0.01820 4199.53320    2.70180
