~Version ---------------------------------------------------
VERS.   2.0 : CWLS log ASCII Standard -VERSION 2.0
WRAP.    NO : One line per depth step
DLM . SPACE : Column Data Section Delimiter
~Well ------------------------------------------------------
STRT .F                 186.0 : START DEPTH
STOP .F                9080.0 : STOP DEPTH
STEP .F                   0.5 : STEP
NULL .               -9999.25 : NULL VALUE
COMP .                        : COMPANY
WELL .                        : WELL
FLD  .                        : FIELD
LOC  .                        : LOCATION
PROV .                        : PROVINCE
CNTY .                        : COUNTY
STAT .                        : STATE
CTRY .                        : COUNTRY
SRVC .                        : SERVICE COMPANY
DATE .                        : DATE
UWI  .                        : UNIQUE WELL ID
API  .                        : API NUMBER
SLAT .WGS84   1.6820631858774 : SURFACE LATITUDE
SLON .WGS84 7.087157923745991 : SURFACE LONGITUDE
DATUM.F               2565.68 : DEPTH DATUM ELEV
~Curve Information -----------------------------------------
DEPT    .F     : 1 MEASURED DEPTH
TPHI_LS .DEC   : TDT POROSITY [LIMESTONE]
GRT     .GAPI  : THEORETICAL GAMMA RAY VALUE TDT
CIRF_FIL.N/A   : RST CAPTURE TO INELASTIC RATIO FAR FILTERED
SIGM    .CU    : FORMATION SIGMA (NEUTRON CAPTURE CROSS SECTION)
TEN     .LB    : DIFFERENTIAL TENSION
GRS     .GAPI  : GAMMA RAY FROM SONIC LOG
HCALS   .IN    : HRCC CALIPER CALIBRATED FROM SONIC LOG
SPHI_LS .DEC   : SONIC POROSITY [LIMESTONE]
DTCO    .US/F  : DELTA-T COMPRESSIONAL
DTSM    .US/F  : DELTA-T SHEAR
RXO_HRLT.OHMM  : HRLT INVADED ZONE RESISTIVITY
RLA5    .OHMM  : APPARENT RESISTIVITY FROM COMPUTED FOCUSING MODE 5
RLA4    .OHMM  : APPARENT RESISTIVITY FROM COMPUTED FOCUSING MODE 4
GRD     .GAPI  : GAMMA RAY FROM DENSITY LOG
TNPH_LS .DEC   : THERMAL NEUTRON POROSITY [LIMESTONE]
PEFZ    .B/E   : HRDD STANDARD RESOLUTION FORMATION PHOTOELECTRIC FACTOR
HDRA    .G/C3  : HRDD SPINE AND RIBS DENSITY CORRECTION
DPHZ_LS .DEC   : HGRD STANDARD RESOLUTION DENSITY POROSITY
TEND    .LB    : TENSION FROM DENSITY LOG
RHOZ    .G/C3  : HRDD STANDARD RESOLUTION FORMATION DENSITY
~Params ----------------------------------------------------
~Other -----------------------------------------------------
~ASCII -----------------------------------------------------
# ...
 6433.50000    0.09260   78.71220    2.67650   11.58120 1512.65980   44.68770    8.24850    0.00410   48.28500   88.71300  329.47570  108.79360  205.68170   49.36480    0.03710    3.45920   -0.00150   -0.08150 4111.15620    2.85250
 6434.00000    0.09700   76.75830    2.73990   11.11660 1514.03740   62.41260    8.13600    0.00680   48.48750   88.75220  155.61960   87.21220  112.73410   65.19080    0.04390    3.46050   -0.00390   -0.06970 4164.77440    2.83070
 6434.50000    0.09910   75.75140    2.78390   11.18350 1515.96800   72.52010    8.08820    0.00830   48.81990   88.89390  148.46010  110.75240  137.15790   72.18970    0.04680    3.44920   -0.00360   -0.07120 4163.24320    2.82230
 6435.00000    0.10040   75.07070    2.70110   11.70110 1516.73470   69.99910    8.04430    0.01140   49.16350   91.63190  218.28650  154.40610  161.43560   68.46730    0.04600    3.43580   -0.00320   -0.07490 4127.22610    2.82760
 6435.50000    0.09820   75.21060    2.59070   12.13290 1518.56770   62.64780    8.00730    0.01410   49.49080   97.44730  362.43680  215.26610  136.90780   60.29340    0.04200    3.42300   -0.00060   -0.07830 4085.21610    2.83310
 6436.00000    0.09360   76.63850    2.57820   11.96850 1511.08620   56.13280    7.99700    0.01430   49.52000  100.86940  210.19450  133.42410   93.12130   54.58810    0.04030    3.41780    0.00160   -0.08090 4102.42430    2.83790
 6436.50000    0.08760   78.43780    2.69440   11.05840 1506.70630   53.71200    7.99110    0.01260   49.38030  101.91010  107.73430   71.76720   52.02370   53.97050    0.04380    3.40340    0.00040   -0.07620 4151.05470    2.83760
 6437.00000    0.08610   80.11110    2.86160   10.19640 1516.87010   55.91040    7.98550    0.01070   49.08440  101.82840   57.07510   58.45690   35.56360   56.59190    0.05330    3.40580   -0.00030   -0.07510 4159.03610    2.83210
 6437.50000    0.08660   80.45840    2.91260    9.98550 1523.74730   57.34290    7.98000    0.00860   48.76510   98.35220   36.44560   88.68630   57.18510   57.18500    0.06140    3.39940   -0.00060   -0.07590 4149.79880    2.83190
 6438.00000    0.08900   79.76440    2.83440   10.21000 1525.13680   54.37060    7.97440    0.00770   48.69650   93.91240   35.81600  175.02940  117.39700   53.54530    0.06350    3.36660    0.00310   -0.07470 4135.28860    2.83080
 6438.50000    0.09270   78.38790    2.75540   10.55590 1524.01330   49.81070    7.96890    0.00670   48.58040   91.08120   71.99090  207.19660  194.24640   49.51250    0.06080    3.34410    0.00340   -0.07030 4127.40670    2.82640
 6439.00000    0.09630   76.92000    2.72280   10.78510 1521.81530   46.97010    7.96390    0.00550   48.08820   91.25650  102.02860  183.07240  147.72450   46.80930    0.05750    3.32200    0.00120   -0.05850 4128.63770    2.80290
 6439.50000    0.10120   75.21990    2.73080   10.95460 1516.73250   46.67110    7.95920    0.00470   48.29290   91.73750   77.94700  119.89290   98.59090   46.75640    0.06190    3.31220   -0.00070   -0.04910 4141.19680    2.79090
 6440.00000    0.10600   73.23310    2.70940   11.21100 1512.60410   46.46490    7.95520    0.00780   48.94470   92.52050   45.21690   85.94400   70.26910   46.44310    0.06770    3.33630    0.00420   -0.05590 4170.94380    2.79710
 6440.50000    0.11090   71.47200    2.63530   11.67990 1508.77990   45.31070    7.95700    0.01280   49.35090   92.99190   27.83910   67.06440   59.67230   45.71070    0.07280    3.32100    0.01270   -0.05830 4181.32710    2.80500
 6441.00000    0.11370   70.13790    2.53460   12.33270 1502.33080   43.52120    7.95820    0.01440   49.52530   93.40530   20.95050   45.45330   38.67300   43.95970    0.07290    3.30000    0.01760   -0.06130 4168.39990    2.81290
 6441.50000    0.11360   69.87360    2.49650   12.46250 1504.25490   45.69650    7.95560    0.01680   49.66630   96.41270   22.49710   36.08630   31.13990   44.51160    0.07130    3.30520    0.01020   -0.05920 4166.82280    2.80220
 6442.00000    0.10910   70.87180    2.55310   12.17140 1502.73080   49.97890    7.95300    0.01930   49.98680  102.78310   28.87920   65.66710   47.49420   48.24390    0.07140    3.31960    0.00400   -0.05100 4171.83250    2.78840
 6442.50000    0.10210   73.15620    2.65670   11.71830 1504.16580   54.71880    7.95500    0.01900   50.13290  105.17310   39.60880   73.85890   66.29560   52.60640    0.07720    3.38920   -0.00430   -0.04390 4178.31840    2.77770
 6443.00000    0.09460   76.13380    2.69730   11.84260 1511.23780   51.66360    7.96190    0.01730   49.88730  104.25160   53.02840   80.96150   68.38740   53.76180    0.08570    3.46980   -0.00820   -0.03790 4184.80370    2.77020
 6443.50000    0.09050   78.10460    2.63180   12.35840 1513.24890   45.28730    7.96880    0.01580   49.75130  104.08160   63.50970  112.17130   92.88800   47.96870    0.08820    3.53340   -0.00920   -0.03870 4192.32370    2.77730
 6444.00000    0.09000   78.86330    2.49880   12.91620 1515.16890   40.78140    7.97570    0.01530   49.70810  103.52410   86.62420  129.90570  119.92730   41.76100    0.08360    3.56340   -0.00690   -0.04620 4200.01710    2.78430
 6444.50000    0.09050   78.85380    2.41000   12.92850 1517.04140   45.54660    7.98250    0.01480   49.63010  101.71880   93.94030  149.13950  137.40880   43.58290    0.07350    3.57230   -0.00220   -0.05320 4211.25930    2.79940
 6445.00000    0.09200   78.25870    2.46420   12.24690 1517.73320   57.27670    7.99090    0.01360   49.46080   98.26180   72.34190  115.66630   94.08940   53.63590    0.06680    3.58130    0.00120   -0.05890 4231.35600    2.80590
 6445.50000    0.09580   77.42050    2.66500   11.31400 1512.03310   71.49740    8.00440    0.01260   49.30590   96.22410   77.69230  121.14760   90.80000   68.30830    0.06800    3.50410   -0.00140   -0.06260 4219.49270    2.81100
 6446.00000    0.10210   75.57460    2.81390   10.69920 1501.97910   82.88600    8.01780    0.01240   49.27790   99.02660  110.40500  250.06670  147.92320   82.67430    0.07330    3.43590   -0.00310   -0.06280 4185.57080    2.81000
 6446.50000    0.10610   73.47260    2.85210   11.18380 1496.20080   80.70630    8.01430    0.01210   49.19350  103.38800  149.79330  289.48900  259.45390   81.02370    0.07660    3.40850   -0.00270   -0.05900 4147.62550    2.80710
 6447.00000    0.11220   71.53150    2.66810   12.57870 1508.92400   69.65470    8.01010    0.01350   49.32500  105.29530  128.32580  260.81680  237.56320   71.81570    0.07370    3.39580   -0.00080   -0.05860 4146.08150    2.80700
 6447.50000    0.12190   68.18020    2.41060   13.89480 1517.14750   61.48850    8.03470    0.01610   49.71950  106.93390  103.37240  232.98660  200.86390   62.86030    0.07070    3.40040    0.00270   -0.06040 4154.23140    2.80850
 6448.00000    0.13630   62.77130    2.17450   15.20360 1517.80620   60.08890    8.04770    0.02200   50.54990  108.31750   76.46220  171.58880  127.47530   59.51750    0.07130    3.35180    0.00540   -0.06120 4180.70410    2.80970
 6448.50000    0.14720   58.77080    2.14330   15.62620 1517.30440   64.18710    8.03850    0.02950   51.47070  109.35840   68.01720  111.36280   90.16150   63.86810    0.07370    3.28750    0.00600   -0.06210 4172.09670    2.80900
 6449.00000    0.15040   56.10460    2.19560   14.72770 1513.00920   69.73580    8.00940    0.03380   52.20170  108.28930   47.86570   70.20220   62.43690   69.35910    0.07600    3.26360    0.00360   -0.05620 4166.05080    2.79830
 6449.50000    0.14280   57.86720    2.33990   13.74170 1503.82030   74.09960    7.99420    0.03510   52.42270  102.50360   38.33160   50.57880   42.70890   73.96690    0.07830    3.29350   -0.00000   -0.04830 4168.98880    2.78890
 6450.00000    0.13080   61.49270    2.48420   12.83970 1500.94630   76.06270    8.02510    0.03440   52.26740  101.09310   45.23420   51.43890   47.72540   75.99390    0.07880    3.29940   -0.00330   -0.04290 4178.44380    2.78280
 6450.50000    0.11460   66.44010    2.60950   11.98720 1501.84010   78.21630    8.08100    0.03170   51.92640  104.08330   51.75020   75.79350   61.85720   78.04960    0.07710    3.29310   -0.00590   -0.04020 4179.25390    2.77680
