~Version ---------------------------------------------------
VERS.   2.0 : CWLS log ASCII Standard -VERSION 2.0
WRAP.    NO : One line per depth step
DLM . SPACE : Column Data Section Delimiter
~Well ------------------------------------------------------
STRT .F                 186.0 : START DEPTH
STOP .F                9080.0 : STOP DEPTH
STEP .F                   0.5 : STEP
NULL .               -9999.25 : NULL VALUE
COMP .                        : COMPANY
WELL .                        : WELL
FLD  .                        : FIELD
LOC  .                        : LOCATION
PROV .                        : PROVINCE
CNTY .                        : COUNTY
STAT .                        : STATE
CTRY .                        : COUNTRY
SRVC .                        : SERVICE COMPANY
DATE .                        : DATE
UWI  .                        : UNIQUE WELL ID
API  .                        : API NUMBER
SLAT .WGS84   1.6820631858774 : SURFACE LATITUDE
SLON .WGS84 7.087157923745991 : SURFACE LONGITUDE
DATUM.F               2565.68 : DEPTH DATUM ELEV
~Curve Information -----------------------------------------
DEPT    .F     : 1 MEASURED DEPTH
TPHI_LS .DEC   : TDT POROSITY [LIMESTONE]
GRT     .GAPI  : THEORETICAL GAMMA RAY VALUE TDT
CIRF_FIL.N/A   : RST CAPTURE TO INELASTIC RATIO FAR FILTERED
SIGM    .CU    : FORMATION SIGMA (NEUTRON CAPTURE CROSS SECTION)
TEN     .LB    : DIFFERENTIAL TENSION
GRS     .GAPI  : GAMMA RAY FROM SONIC LOG
HCALS   .IN    : HRCC CALIPER CALIBRATED FROM SONIC LOG
SPHI_LS .DEC   : SONIC POROSITY [LIMESTONE]
DTCO    .US/F  : DELTA-T COMPRESSIONAL
DTSM    .US/F  : DELTA-T SHEAR
RXO_HRLT.OHMM  : HRLT INVADED ZONE RESISTIVITY
RLA5    .OHMM  : APPARENT RESISTIVITY FROM COMPUTED FOCUSING MODE 5
RLA4    .OHMM  : APPARENT RESISTIVITY FROM COMPUTED FOCUSING MODE 4
GRD     .GAPI  : GAMMA RAY FROM DENSITY LOG
TNPH_LS .DEC   : THERMAL NEUTRON POROSITY [LIMESTONE]
PEFZ    .B/E   : HRDD STANDARD RESOLUTION FORMATION PHOTOELECTRIC FACTOR
HDRA    .G/C3  : HRDD SPINE AND RIBS DENSITY CORRECTION
DPHZ_LS .DEC   : HGRD STANDARD RESOLUTION DENSITY POROSITY
TEND    .LB    : TENSION FROM DENSITY LOG
RHOZ    .G/C3  : HRDD STANDARD RESOLUTION FORMATION DENSITY
~Params ----------------------------------------------------
~Other -----------------------------------------------------
~ASCII -----------------------------------------------------
# ...
 5576.00000    0.09930   51.40210    2.31560   12.81390 1314.61130   85.17190    8.14870    0.00080   47.67530   87.37300  136.97620  427.70360  205.84260   84.92120    0.05990    3.26020    0.00190   -0.07630 3840.22190    2.80150
 5576.50000    0.10470   62.02960    2.15340   13.97270 1313.87170   82.24140    8.15260    0.00480   48.26040   87.84330  429.30790  501.83700  370.80770   82.21280    0.05440    3.22040    0.00130   -0.08280 3851.85790    2.82470
 5577.00000    0.10840   68.74530    2.07090   14.31500 1311.60820   80.24340    8.15150    0.01200   49.18480   88.46470  468.84430  495.07540  357.07910   79.87960    0.05150    3.25010    0.00120   -0.07940 3818.29930    2.83920
 5577.50000    0.10720   77.23730    2.21250   13.50390 1314.74890   91.19700    8.15030    0.01920   50.23520   89.65830   48.35670  337.83050  205.12510   91.75810    0.05230    3.28990   -0.00220   -0.06140 3783.89310    2.83440
 5578.00000    0.10370   77.15760    2.33310   12.44750 1314.65490  112.22430    8.15080    0.02510   50.96650   90.27540   11.04880  110.07250   82.02080  110.68460    0.06090    3.35760   -0.00640   -0.04860 3799.28170    2.83260
 5578.50000    0.10060   72.56400    2.43730   11.58940 1314.24870  127.85260    8.15210    0.02580   51.06040   89.70250   20.37060  122.58290  108.89380  130.60750    0.07230    3.34740   -0.00700   -0.05430 3830.58420    2.83210
 5579.00000    0.09780   67.97040    2.48910   10.77830 1311.97890  128.28220    8.14760    0.02110   50.47670   88.86840  146.32670  120.80570   85.19020  129.04520    0.07700    3.31950   -0.00420   -0.06600 3849.90060    2.83190
 5579.50000    0.09720   63.37690    2.53950   10.51110 1311.64640  115.94330    8.14060    0.01370   49.32770   88.07040   98.77290   84.59210   69.55990  116.37170    0.07350    3.29470   -0.00250   -0.07850 3840.69630    2.82290
 5580.00000    0.09890   59.53810    2.57070   10.55660 1310.07430   98.77510    8.13350    0.00420   48.29230   87.29550   99.76820  133.50490   96.69320  101.42470    0.06680    3.27790   -0.00120   -0.07980 3830.08470    2.81050
 5580.50000    0.10210   55.91310    2.55620   11.11930 1308.19970   90.09750    8.12500   -0.00320   47.15110   86.54760  105.37010  246.94910  192.52030   91.77160    0.06330    3.25720    0.00000   -0.07710 3818.86500    2.80990
 5581.00000    0.10480   52.51160    2.49260   11.70470 1312.72010   84.93500    8.11510   -0.00460   46.85700   86.42050   80.36200  148.11190  111.28410   85.86950    0.06380    3.23960    0.00120   -0.07580 3818.41800    2.81330
 5581.50000    0.10420   53.25380    2.40120   12.26220 1315.24570   80.78840    8.12490   -0.00360   47.18670   86.97310   61.81690  183.12530  154.35300   81.40940    0.06460    3.24580    0.00180   -0.07440 3819.41460    2.81760
 5582.00000    0.10070   61.14900    2.38370   12.18230 1315.65050   77.60410    8.11680    0.00300   47.98940   87.86590   70.74130  212.51130  180.96410   77.85600    0.06660    3.27050    0.00060   -0.07670 3821.76460    2.81520
 5582.50000    0.09500   70.74040    2.43480   11.42020 1316.37450   74.99580    8.10800    0.00860   48.78460   88.58200  144.33240  147.74470  109.10300   75.33020    0.06660    3.28810   -0.00270   -0.07180 3829.84060    2.81080
 5583.00000    0.08750   75.77240    2.59010   10.61800 1318.29250   75.35910    8.10670    0.01260   49.37760   88.65800  118.15910  106.56890   76.38520   75.65800    0.06410    3.35670   -0.00600   -0.06600 3838.44430    2.80870
 5583.50000    0.08000   80.80450    2.70990    9.83760 1319.67260   81.10870    8.10750    0.01400   49.42920   88.58730  137.94340   68.95470   52.38610   80.88660    0.06340    3.39510   -0.00710   -0.06200 3833.71850    2.81220
 5584.00000    0.07640   83.31650    2.78930    9.50500 1317.79480   89.60110    8.10840    0.01210   49.12350   88.54430   78.30040   72.20890   48.82510   89.66840    0.06320    3.39710   -0.00610   -0.06260 3828.78100    2.81870
 5584.50000    0.07670   84.05570    2.75320    9.33310 1314.31920   93.92040    8.10670    0.00660   48.56150   88.03930   64.28960  146.09940  101.20700   94.07150    0.06200    3.38550   -0.00540   -0.06550 3823.84350    2.81910
 5585.00000    0.08070   82.91000    2.70080    9.36040 1309.74050   95.91330    8.09710    0.00160   47.78550   87.15850   29.48860  250.38030  199.02040   95.83850    0.05320    3.41130   -0.00510   -0.06460 3820.54350    2.81280
 5585.50000    0.08690   80.85400    2.69080    9.39430 1316.02660   96.71700    8.07290   -0.00310   46.95160   86.44060  291.02440  381.71750  347.92220   96.42330    0.04200    3.46620   -0.00590   -0.06240 3821.81710    2.79440
 5586.00000    0.09390   78.79110    2.71130    9.42810 1319.65360   96.74390    8.06340   -0.00710   46.57430   85.88610  488.22990  433.09610  448.28020   96.74810    0.03550    3.49780   -0.00640   -0.06120 3804.27030    2.78340
 5586.50000    0.09480   77.11020    2.76860    9.55570 1320.15690   94.57430    8.05560   -0.00740   46.55770   85.82640  485.21080  418.41370  440.34450   93.53560    0.03320    3.45840   -0.00680   -0.06190 3784.37960    2.79040
 5587.00000    0.09360   77.12110    2.82980    9.69810 1320.56710   88.31970    8.04780   -0.00520   46.89850   86.30950  456.41700  363.88060  400.26870   87.53500    0.03410    3.37090   -0.00640   -0.06570 3765.63400    2.80260
 5587.50000    0.08970   78.24210    2.89740    9.69470 1319.34750   80.95120    8.04290   -0.00090   47.41000   87.00990  385.96920  211.92830  289.36800   79.09550    0.03850    3.28480   -0.00570   -0.06830 3772.56470    2.81280
 5588.00000    0.08430   80.08130    2.94910    9.40770 1317.79300   72.27640    8.05120    0.00280   47.98840   87.39860  192.71750  112.24080  139.29900   69.88640    0.04680    3.20240   -0.00490   -0.06690 3787.44900    2.81250
 5588.50000    0.07890   82.36380    3.00590    8.99710 1316.39870   63.10960    8.05970    0.00510   48.35890   86.97840   79.79380   68.53940   74.06810   63.22410    0.05620    3.18310   -0.00400   -0.06010 3806.40580    2.81290
 5589.00000    0.07330   84.44060    3.06260    8.62090 1316.56080   55.95090    8.06880    0.00570   48.43390   86.41150   44.69110   61.50130   58.25360   55.79790    0.06360    3.20810   -0.00320   -0.05050 3851.34130    2.81480
 5589.50000    0.06970   86.16370    3.11800    8.32850 1316.41210   53.64270    8.07710    0.00300   48.12070   86.17050   34.40870  117.86320   61.96450   53.87040    0.06690    3.25100   -0.00090   -0.04390 3892.73290    2.81970
 5590.00000    0.06660   87.08290    3.12990    8.30820 1316.53860   55.47350    8.08690   -0.00080   47.60550   85.99120   41.67750  355.99100  104.82790   55.55920    0.06190    3.29340    0.00030   -0.05200 3889.67480    2.83080
 5590.50000    0.06390   88.26380    3.14390    8.28150 1320.69560   57.67520    8.09680   -0.00360   47.06050   85.79290   78.46560  483.38850  284.86050   56.97470    0.05400    3.31020    0.00100   -0.06120 3883.71390    2.85220
 5591.00000    0.06000   89.56380    3.16130    8.16560 1316.21560   54.73650    8.10490   -0.00590   46.73350   85.65290  161.53580  479.13280  413.16350   54.63530    0.04670    3.34070   -0.00060   -0.06530 3902.97310    2.85330
 5591.50000    0.05610   91.00000    3.18000    7.94880 1313.92440   50.55690    8.10460   -0.00800   46.48550   85.88240  164.44980  447.79250  337.87620   50.73480    0.04140    3.37160   -0.00360   -0.06180 3910.51610    2.85250
 5592.00000    0.05200   92.54250    3.18370    7.76960 1316.06530   49.37340    8.09920   -0.00970   46.23020   86.19650  138.94920  403.70560  266.57440   49.22110    0.03830    3.35070   -0.00260   -0.06550 3906.50320    2.84770
 5592.50000    0.04920   93.87570    3.19690    7.61270 1320.14050   48.76560    8.08990   -0.01140   46.00720   85.62260  593.37660  368.37990  298.63950   48.59190    0.03540    3.32110    0.00290   -0.07780 3885.15090    2.84300
 5593.00000    0.04760   94.53680    3.22520    7.49590 1319.76890   48.01200    8.08450   -0.01350   45.67720   84.24420  243.91390  359.12800  338.85320   48.03140    0.03250    3.30460    0.01120   -0.08900 3873.04860    2.83600
