~Version ---------------------------------------------------
VERS.   2.0 : CWLS log ASCII Standard -VERSION 2.0
WRAP.    NO : One line per depth step
DLM . SPACE : Column Data Section Delimiter
~Well ------------------------------------------------------
STRT .F                 186.0 : START DEPTH
STOP .F                9080.0 : STOP DEPTH
STEP .F                   0.5 : STEP
NULL .               -9999.25 : NULL VALUE
COMP .                        : COMPANY
WELL .                        : WELL
FLD  .                        : FIELD
LOC  .                        : LOCATION
PROV .                        : PROVINCE
CNTY .                        : COUNTY
STAT .                        : STATE
CTRY .                        : COUNTRY
SRVC .                        : SERVICE COMPANY
DATE .                        : DATE
UWI  .                        : UNIQUE WELL ID
API  .                        : API NUMBER
SLAT .WGS84   1.6820631858774 : SURFACE LATITUDE
SLON .WGS84 7.087157923745991 : SURFACE LONGITUDE
DATUM.F               2565.68 : DEPTH DATUM ELEV
~Curve Information -----------------------------------------
DEPT    .F     : 1 MEASURED DEPTH
TPHI_LS .DEC   : TDT POROSITY [LIMESTONE]
GRT     .GAPI  : THEORETICAL GAMMA RAY VALUE TDT
CIRF_FIL.N/A   : RST CAPTURE TO INELASTIC RATIO FAR FILTERED
SIGM    .CU    : FORMATION SIGMA (NEUTRON CAPTURE CROSS SECTION)
TEN     .LB    : DIFFERENTIAL TENSION
GRS     .GAPI  : GAMMA RAY FROM SONIC LOG
HCALS   .IN    : HRCC CALIPER CALIBRATED FROM SONIC LOG
SPHI_LS .DEC   : SONIC POROSITY [LIMESTONE]
DTCO    .US/F  : DELTA-T COMPRESSIONAL
DTSM    .US/F  : DELTA-T SHEAR
RXO_HRLT.OHMM  : HRLT INVADED ZONE RESISTIVITY
RLA5    .OHMM  : APPARENT RESISTIVITY FROM COMPUTED FOCUSING MODE 5
RLA4    .OHMM  : APPARENT RESISTIVITY FROM COMPUTED FOCUSING MODE 4
GRD     .GAPI  : GAMMA RAY FROM DENSITY LOG
TNPH_LS .DEC   : THERMAL NEUTRON POROSITY [LIMESTONE]
PEFZ    .B/E   : HRDD STANDARD RESOLUTION FORMATION PHOTOELECTRIC FACTOR
HDRA    .G/C3  : HRDD SPINE AND RIBS DENSITY CORRECTION
DPHZ_LS .DEC   : HGRD STANDARD RESOLUTION DENSITY POROSITY
TEND    .LB    : TENSION FROM DENSITY LOG
RHOZ    .G/C3  : HRDD STANDARD RESOLUTION FORMATION DENSITY
~Params ----------------------------------------------------
~Other -----------------------------------------------------
~ASCII -----------------------------------------------------
# ...
 3441.00000    0.16080   22.52240    3.02190   10.45170  919.04720   27.28920    8.22730    0.05020   54.52740   96.01890   40.53110   68.72570   47.60580   26.33920    0.10900    3.23000   -0.00280   -0.00310 3229.83200    2.71930
 3441.50000    0.16440   23.05770    3.01820   10.61350  919.03860   23.16650    8.21790    0.05290   54.87730   96.33660   36.97890   62.67830   44.59590   22.14500    0.10470    3.08430   -0.00150   -0.00680 3233.88260    2.72250
 3442.00000    0.16360   24.48500    3.07050   10.75680  919.03000   19.99550    8.21200    0.05620   55.37290   96.84340   39.54210   48.53830   42.60610   19.24580    0.10060    3.06890   -0.00120   -0.00260 3234.36350    2.71500
 3442.50000    0.15800   23.02000    3.17000   10.60400  919.01950   19.73560    8.20600    0.06010   55.86820   97.16870   33.80470   52.17680   46.94660   19.70850    0.09990    3.08700   -0.00090   -0.00370 3242.54980    2.71420
 3443.00000    0.14900   20.05810    3.24700   10.12710  919.01090   20.11840    8.20010    0.06370   56.31860   97.66020   46.29650   62.40790   52.26840   20.79280    0.10160    3.07600   -0.00070   -0.00550 3244.60060    2.71930
 3443.50000    0.13910   17.60860    3.29900    9.68110  919.00240   21.28460    8.19420    0.06380   56.34870   97.80120   38.08650   54.95480   41.77220   21.25590    0.10870    3.04680   -0.00090   -0.00000 3237.97560    2.71530
 3444.00000    0.13130   17.34750    3.29740    9.50700  918.99870   21.61010    8.18480    0.06190   56.12200   97.58640   22.25070   32.40300   26.49640   21.06660    0.12170    3.04550   -0.00150    0.02180 3245.48750    2.69030
 3444.50000    0.12810   18.54900    3.24990    9.49190  919.36140   20.45370    8.16790    0.05910   55.69630   97.04450   17.44060   22.28010   20.87170   19.43530    0.13740    3.06450   -0.00250    0.03340 3255.94360    2.66790
 3445.00000    0.13000   20.11830    3.19850    9.53690  919.61330   18.07030    8.16810    0.05410   54.95480   96.23010   16.32710   32.87460   28.11560   16.58300    0.13530    3.09580   -0.00250    0.02750 3259.25150    2.65680
 3445.50000    0.13370   20.11570    3.15880    9.61910  919.53380   15.73500    8.15910    0.04790   54.10900   95.04730   21.30290   51.16480   42.63490   14.25380    0.12100    3.12600   -0.00170    0.01150 3257.02760    2.67300
 3446.00000    0.13760   17.98250    3.15370    9.70940  919.02820   15.44390    8.14670    0.04370   53.55940   94.02610   33.13230   57.36430   47.28880   16.08610    0.10480    3.10490   -0.00220    0.00430 3254.80370    2.69450
 3446.50000    0.14120   15.44570    3.15140    9.89190  918.22150   17.10150    8.13440    0.04250   53.38820   93.25940   32.12820   69.89640   57.52300   18.60800    0.09140    3.07970   -0.00320    0.00350 3255.58350    2.70500
 3447.00000    0.13970   17.53660    3.13720   10.04270  917.07440   20.12400    8.12210    0.04370   53.60310   93.07120   39.08290   82.06320   74.06430   21.32590    0.08550    3.05580   -0.00420    0.00370 3256.49680    2.70620
 3447.50000    0.13570   23.68490    3.14020   10.06540  916.52730   22.81810    8.11570    0.04550   53.90400   93.06210   63.32300   89.82140   82.03390   24.94550    0.08350    3.03190   -0.00520    0.00560 3238.82350    2.70270
 3448.00000    0.13010   29.38110    3.14700    9.94230  918.39040   26.11290    8.11370    0.04650   53.98580   93.07230   58.26840   92.05520   82.81480   27.59920    0.08480    3.04200   -0.00600    0.01490 3252.94950    2.69460
 3448.50000    0.12610   29.40540    3.16690    9.79640  919.74100   29.19480    8.11110    0.04560   53.92400   93.09430   52.33600   90.06460   52.59180   30.98060    0.09020    3.07280   -0.00510    0.01840 3255.52490    2.68670
 3449.00000    0.12620   26.95790    3.20840    9.75080  919.86630   32.27670    8.10910    0.04420   53.76280   92.98360   48.78470   73.56800   60.71150   33.22320    0.09660    3.10810   -0.00510    0.01910 3251.76070    2.67980
 3449.50000    0.13030   23.82700    3.19520    9.82300  919.99160   35.33410    8.11760    0.04250   53.42820   92.44760   45.46780   67.75980   63.16780   35.98290    0.10150    3.12020   -0.00340    0.00490 3246.30880    2.67900
 3450.00000    0.13670   21.93250    3.09650   10.03220  920.01070   38.02210    8.12620    0.03870   52.91420   91.93880   45.74490   81.09600   71.98300   37.95560    0.10440    3.12520   -0.00210   -0.00880 3256.94820    2.70660
 3450.50000    0.14470   21.31200    2.99160   10.46550  920.03990   38.71740    8.13920    0.03410   52.03880   91.56320   53.03420   91.95430   83.71530   38.72650    0.10220    3.14590   -0.00080   -0.02050 3271.56640    2.73540
 3451.00000    0.14810   22.65550    2.89650   10.87200  920.16500   37.17050    8.15890    0.02770   51.31870   91.15030   64.71850  146.64450  108.91690   37.87730    0.09460    3.20120   -0.00020   -0.03210 3286.18480    2.75860
 3451.50000    0.14450   23.62970    2.84680   11.14630  920.28990   34.51930    8.17860    0.02580   51.10140   90.97580   79.61310  258.25190  203.99150   36.34940    0.08710    3.25650   -0.00020   -0.04040 3274.16040    2.77160
 3452.00000    0.13740   22.46050    2.82840   11.18620  920.41460   31.35750    8.18920    0.02870   51.52710   91.59520  149.64220  255.90380  227.24430   33.74380    0.07820    3.33800   -0.00030   -0.04400 3278.67090    2.77890
 3452.50000    0.13110   21.14840    2.86220   11.11550  920.53940   28.88560    8.19240    0.03500   52.46180   92.76820  183.54860  203.18880  158.70640   30.95240    0.07400    3.41700   -0.00030   -0.04210 3298.28760    2.77750
 3453.00000    0.12860   21.92990    2.96120   10.94290  920.66400   28.19580    8.19560    0.04220   53.47930   94.26120   94.52850  125.60680   58.27850   28.48210    0.07780    3.44260   -0.00230   -0.02820 3290.09910    2.77000
 3453.50000    0.12910   25.05970    2.99930   10.77950  920.78940   29.00350    8.19870    0.04830   54.48230   95.12430   56.42610   59.71560   43.35790   28.53100    0.08980    3.39940   -0.00450   -0.01160 3274.30130    2.74900
 3454.00000    0.12870   27.27880    3.00330   10.68330  920.69160   29.05630    8.19630    0.05100   54.58180   94.85320   41.57550   51.21340   45.56770   29.05230    0.09980    3.38390   -0.00630   -0.00090 3272.16580    2.73010
 3454.50000    0.12590   24.67560    2.99490   10.69200  918.83230   28.68720    8.19240    0.04830   54.18640   93.78620   35.79420   55.37980   49.00100   29.01630    0.10070    3.37270   -0.00600   -0.00020 3274.68260    2.71560
 3455.00000    0.12030   20.15260    2.97640   10.68080  916.97160   27.49870    8.19130    0.04450   53.64560   92.78730   47.66360   83.23390   66.14740   27.77050    0.09870    3.38660   -0.00450   -0.00410 3256.35230    2.71070
 3455.50000    0.11340   15.36430    2.95400   10.61180  919.20210   27.19810    8.19800    0.03980   53.05240   91.78980   53.45940  120.52290   98.22480   27.36470    0.09410    3.37610   -0.00180   -0.01600 3255.32470    2.71400
 3456.00000    0.10490   14.60740    2.93230   10.43270  918.60350   27.59770    8.20830    0.03540   52.32060   90.84500   77.88020  173.81030  147.38950   27.40900    0.08780    3.38950    0.00160   -0.02220 3253.08110    2.72750
 3456.50000    0.09620   14.72300    2.93780   10.35000  927.74910   27.75240    8.21560    0.03130   51.88320   90.45110  106.52660  235.27220  210.92460   27.80600    0.08180    3.37950    0.00600   -0.02790 3243.59690    2.73880
 3457.00000    0.08700   15.46560    2.98500   10.35050  927.40960   27.55460    8.21390    0.02870   51.51260   90.06690  123.24300  163.69390  145.67530   27.75770    0.07590    3.36960    0.01050   -0.02770 3233.72560    2.74600
 3457.50000    0.07550   17.87680    3.01110   10.41360  923.02780   27.16670    8.23380    0.02580   51.10210   89.59750  105.77610  131.18960  118.33490   27.46030    0.07400    3.38530    0.00770   -0.03470 3220.76540    2.75190
 3458.00000    0.06780   19.82550    2.97050   10.58360  918.70560   27.07980    8.24820    0.02260   50.66810   89.12500   91.59790  124.01000  112.38410   27.33880    0.07180    3.52110    0.00510   -0.04280 3244.33350    2.75540
