~Version ---------------------------------------------------
VERS.   2.0 : CWLS log ASCII Standard -VERSION 2.0
WRAP.    NO : One line per depth step
DLM . SPACE : Column Data Section Delimiter
~Well ------------------------------------------------------
STRT .F                 186.0 : START DEPTH
STOP .F                9080.0 : STOP DEPTH
STEP .F                   0.5 : STEP
NULL .               -9999.25 : NULL VALUE
COMP .                        : COMPANY
WELL .                        : WELL
FLD  .                        : FIELD
LOC  .                        : LOCATION
PROV .                        : PROVINCE
CNTY .                        : COUNTY
STAT .                        : STATE
CTRY .                        : COUNTRY
SRVC .                        : SERVICE COMPANY
DATE .                        : DATE
UWI  .                        : UNIQUE WELL ID
API  .                        : API NUMBER
SLAT .WGS84   1.6820631858774 : SURFACE LATITUDE
SLON .WGS84 7.087157923745991 : SURFACE LONGITUDE
DATUM.F               2565.68 : DEPTH DATUM ELEV
~Curve Information -----------------------------------------
DEPT    .F     : 1 MEASURED DEPTH
TPHI_LS .DEC   : TDT POROSITY [LIMESTONE]
GRT     .GAPI  : THEORETICAL GAMMA RAY VALUE TDT
CIRF_FIL.N/A   : RST CAPTURE TO INELASTIC RATIO FAR FILTERED
SIGM    .CU    : FORMATION SIGMA (NEUTRON CAPTURE CROSS SECTION)
TEN     .LB    : DIFFERENTIAL TENSION
GRS     .GAPI  : GAMMA RAY FROM SONIC LOG
HCALS   .IN    : HRCC CALIPER CALIBRATED FROM SONIC LOG
SPHI_LS .DEC   : SONIC POROSITY [LIMESTONE]
DTCO    .US/F  : DELTA-T COMPRESSIONAL
DTSM    .US/F  : DELTA-T SHEAR
RXO_HRLT.OHMM  : HRLT INVADED ZONE RESISTIVITY
RLA5    .OHMM  : APPARENT RESISTIVITY FROM COMPUTED FOCUSING MODE 5
RLA4    .OHMM  : APPARENT RESISTIVITY FROM COMPUTED FOCUSING MODE 4
GRD     .GAPI  : GAMMA RAY FROM DENSITY LOG
TNPH_LS .DEC   : THERMAL NEUTRON POROSITY [LIMESTONE]
PEFZ    .B/E   : HRDD STANDARD RESOLUTION FORMATION PHOTOELECTRIC FACTOR
HDRA    .G/C3  : HRDD SPINE AND RIBS DENSITY CORRECTION
DPHZ_LS .DEC   : HGRD STANDARD RESOLUTION DENSITY POROSITY
TEND    .LB    : TENSION FROM DENSITY LOG
RHOZ    .G/C3  : HRDD STANDARD RESOLUTION FORMATION DENSITY
~Params ----------------------------------------------------
~Other -----------------------------------------------------
~ASCII -----------------------------------------------------
# ...
 8131.00000    0.03690   14.37470    2.74850   10.80540 1830.61520    7.23520    8.09570    0.03340   52.08330   33.51530   53.74050  139.99310   37.49620    7.37850    0.01050    4.26680   -0.00140    0.02840 4290.35160    2.71410
 8131.50000    0.03110   15.62370    2.74400   10.81460 1823.50740    7.28860    8.09660    0.03270   51.99180   33.60480   20.95330   48.42200   31.57370    7.59840    0.01430    3.85520    0.00620    0.05200 4291.01710    2.69430
 8132.00000    0.02800   17.36660    2.70630   10.60540 1815.49510    8.49030    8.10750    0.03070   51.74050   33.38150   20.22600   60.65780   40.16030    8.62790    0.01410    3.81380    0.01150    0.05220 4290.68800    2.65930
 8132.50000    0.02790   18.56240    2.67710   10.46620 1811.13540   10.21890    8.11520    0.02500   51.03120   33.00910   37.28420  862.46340  317.91970   10.47430    0.00940    4.17540    0.01300    0.02860 4289.86380    2.62860
 8133.00000    0.03100   17.25070    2.64800   10.36170 1822.22020   12.20240    8.11930    0.02000   50.30390   32.57360  204.47000  906.79830  810.97420   12.37200    0.00440    4.63400    0.00940    0.00300 4290.04350    2.62760
 8133.50000    0.03430   15.59230    2.62590   10.42240 1826.92030   13.34820    8.13300    0.01740   49.97530   32.17820  248.34370 1577.20150 1097.07540   13.26900    0.00020    5.03170    0.00190   -0.00630 4291.80660    2.64660
 8134.00000    0.03760   15.15890    2.62880   10.64340 1831.45870   13.07370    8.14670    0.01830   50.02860   32.14410  255.52960 2271.45630 1771.30030   12.97260    0.00160    5.19910    0.00010   -0.00080 4291.26270    2.69050
 8134.50000    0.04100   15.73770    2.64720   10.90920 1835.86000   12.38090    8.15490    0.02080   50.43340   32.57330  237.16970 1635.34520 1305.11710   12.43950    0.00550    5.17270   -0.00050    0.00400 4280.03320    2.71650
 8135.00000    0.04340   16.21220    2.73320   10.87530 1834.12010   12.23550    8.14950    0.02460   51.00030   33.81300  186.41100 1036.11350  667.74770   12.12830    0.01360    4.94240   -0.00080    0.00840 4243.13570    2.71730
 8135.50000    0.04220   15.61460    2.84120   10.48400 1829.82530   12.14380    8.13880    0.02870   51.52630   34.49530   26.15330  198.99910  103.38300   11.88990    0.02340    4.67190   -0.00150    0.02570 4242.75880    2.71170
 8136.00000    0.03880   15.50640    2.91620   10.06040 1847.19870   10.75650    8.13340    0.02990   51.69230   35.14210   17.08830   87.91430   50.53530   10.20840    0.02750    4.61170   -0.00200    0.04430 4256.56250    2.68930
 8136.50000    0.03910   16.76950    2.86790    9.80650 1850.82670    8.94790    8.13490    0.02990   51.75840   35.96000   18.45290  941.11110  230.56720    8.35860    0.02700    4.75310   -0.00240    0.04750 4264.27780    2.65500
 8137.00000    0.04090   20.23410    2.77220    9.71330 1843.77210    7.52340    8.13640    0.02990   51.75280   35.91930   43.88370 1506.03220 1255.39770    7.69810    0.02450    4.95890   -0.00140    0.02780 4280.80470    2.63350
 8137.50000    0.04480   21.66000    2.68420    9.59250 1835.14220    7.59930    8.13840    0.02950   51.67800   35.64690  237.83440 1404.71360 1142.77880    7.76330    0.02070    5.08280    0.00070    0.00730 4275.11520    2.64040
 8138.00000    0.04760   20.45040    2.74340    9.43580 1841.60990    7.60900    8.13860    0.03040   51.70500   35.84100  332.18080 1245.40530  964.76910    7.80340    0.01920    5.19160    0.00090    0.00510 4066.94240    2.65770
 8138.50000    0.04680   18.48180    2.82500    9.37780 1842.61160    7.30070    8.13300    0.03250   52.00670   35.93170  295.52980  772.63690  596.13530    7.39420    0.02020    5.25270    0.00020    0.01620 4163.91750    2.69010
 8139.00000    0.03930   17.08350    2.86980    9.44640 1842.33240    6.64220    8.11900    0.03300   52.38220   35.41160  244.43770  613.36980  511.63480    6.84020    0.02070    5.21170   -0.00120    0.02460 4237.50540    2.70120
 8139.50000    0.03250   16.35140    2.84850    9.59330 1840.95630    6.70170    8.11180    0.03320   52.26260   34.54750  205.26570  695.56560  586.30440    7.02850    0.01760    5.02870   -0.00510    0.01770 4254.73680    2.67260
 8140.00000    0.03050   16.78550    2.83170    9.68600 1838.58350    7.39360    8.10100    0.03090   51.77720   33.73760  185.57710 1083.25850  753.45000    7.81510    0.01210    4.75400   -0.00190    0.00540 4275.17770    2.67580
 8140.50000    0.03200   17.78320    2.84580    9.64310 1836.20680    8.09010    8.09450    0.02710   51.29790   32.74380  212.66150 1842.29390 1271.40670    8.31280    0.00910    4.64890    0.00010    0.00740 4292.32180    2.70180
 8141.00000    0.03480   18.76710    2.88360    9.50440 1833.82360    8.23930    8.08330    0.02500   50.94190   32.55060  241.44990 3574.90800 1809.36290    8.36560    0.00710    4.70210    0.00070    0.01990 4293.25050    2.70620
 8141.50000    0.03760   19.29760    2.92260    9.51020 1831.63350    8.81990    8.08040    0.02520   50.90330   32.94260  126.71010 1379.91330  889.31610    8.81200    0.00770    4.74640    0.00090    0.02090 4296.99760    2.68670
 8142.00000    0.03760   20.49640    2.94530    9.65700 1830.56700    9.84560    8.07950    0.02550   51.07810   33.32780  113.27740  670.15090  423.66840    9.56390    0.00890    4.68070    0.00430    0.01570 4304.31540    2.67620
 8142.50000    0.03710   22.00070    2.91540    9.75930 1829.49790    9.97880    8.07810    0.02650   51.18890   33.42300   23.87770  221.03050  140.62750    9.89880    0.00910    4.61580    0.00370    0.01790 4301.23930    2.68510
 8143.00000    0.03790   22.59490    2.84240    9.87940 1828.42960    9.25200    8.08360    0.02660   51.22630   33.36290   16.41780  113.83760   56.21350    9.38480    0.00860    4.73460    0.00140    0.02940 4294.72270    2.69040
 8143.50000    0.04050   22.26800    2.75800    9.90520 1827.36230    8.62250    8.08910    0.02900   51.61450   33.27700   15.29430  325.51540  107.58700    8.88070    0.00680    4.96650   -0.00080    0.03230 4308.99320    2.66200
 8144.00000    0.04240   20.47720    2.77600    9.93290 1827.76500    9.49000    8.07490    0.02980   51.70580   33.45430   85.61840 1367.16410  578.79730    9.68040    0.00580    5.16160    0.00040    0.02030 4322.28760    2.66190
 8144.50000    0.04380   18.55010    2.84810    9.95520 1834.92210   11.35600    8.06190    0.03020   51.75080   34.17800  404.74330  872.72410  414.63100   11.50040    0.00710    5.22140    0.00160    0.00700 4334.72020    2.69220
 8145.00000    0.04330   17.11280    2.92250    9.85770 1842.09290   11.81710    8.06150    0.03080   51.81830   38.34090  398.00880  437.61970  108.01030   12.05030    0.00960    5.21910    0.00080    0.01050 4335.53120    2.69570
 8145.50000    0.04080   16.04680    2.95260    9.79700 1849.32870   11.07780    8.06120    0.03130   51.85480   44.52060  396.36340  545.61220  124.34190   11.21140    0.01480    5.22600   -0.00120    0.02050 4304.96140    2.68160
 8146.00000    0.03770   16.55660    2.89570    9.94400 1857.81800    9.70540    8.13240    0.03030   51.76300   48.28890 1077.33680  661.03110  416.35060    9.72040    0.01880    5.26250   -0.00290    0.03300 4299.31930    2.66040
 8146.50000    0.03490   17.80200    2.79580   10.33170 1867.94480    8.32600    8.20580    0.02890   51.58910   48.24750  939.27880  643.21910  606.90120    8.29910    0.01530    5.30680   -0.00430    0.03070 4294.71040    2.66540
 8147.00000    0.03320   20.56910    2.69370   10.76090 1851.18690    8.47100    8.17510    0.02890   51.46800   47.30350  265.40660  577.39390  562.58960    8.48030    0.01070    5.35530   -0.00490    0.02720 4309.41500    2.67320
 8147.50000    0.03390   23.44050    2.64410   10.94420 1842.82150   10.95020    8.11980    0.03020   51.64310   45.82720  168.44800  543.80550  521.51320   10.63650    0.00710    5.35770   -0.00280    0.02060 4316.85890    2.68100
 8148.00000    0.03710   23.08820    2.67650   10.75900 1846.52080   13.91610    7.99380    0.03250   52.03000   45.08520  615.41300  515.35640  477.53070   13.34760    0.00750    5.29380   -0.00100    0.01550 4318.82420    2.68830
