~Version ---------------------------------------------------
VERS.   2.0 : CWLS log ASCII Standard -VERSION 2.0
WRAP.    NO : One line per depth step
DLM . SPACE : Column Data Section Delimiter
~Well ------------------------------------------------------
STRT .F                 186.0 : START DEPTH
STOP .F                9080.0 : STOP DEPTH
STEP .F                   0.5 : STEP
NULL .               -9999.25 : NULL VALUE
COMP .                        : COMPANY
WELL .                        : WELL
FLD  .                        : FIELD
LOC  .                        : LOCATION
PROV .                        : PROVINCE
CNTY .                        : COUNTY
STAT .                        : STATE
CTRY .                        : COUNTRY
SRVC .                        : SERVICE COMPANY
DATE .                        : DATE
UWI  .                        : UNIQUE WELL ID
API  .                        : API NUMBER
SLAT .WGS84   1.6820631858774 : SURFACE LATITUDE
SLON .WGS84 7.087157923745991 : SURFACE LONGITUDE
DATUM.F               2565.68 : DEPTH DATUM ELEV
~Curve Information -----------------------------------------
DEPT    .F     : 1 MEASURED DEPTH
TPHI_LS .DEC   : TDT POROSITY [LIMESTONE]
GRT     .GAPI  : THEORETICAL GAMMA RAY VALUE TDT
CIRF_FIL.N/A   : RST CAPTURE TO INELASTIC RATIO FAR FILTERED
SIGM    .CU    : FORMATION SIGMA (NEUTRON CAPTURE CROSS SECTION)
TEN     .LB    : DIFFERENTIAL TENSION
GRS     .GAPI  : GAMMA RAY FROM SONIC LOG
HCALS   .IN    : HRCC CALIPER CALIBRATED FROM SONIC LOG
SPHI_LS .DEC   : SONIC POROSITY [LIMESTONE]
DTCO    .US/F  : DELTA-T COMPRESSIONAL
DTSM    .US/F  : DELTA-T SHEAR
RXO_HRLT.OHMM  : HRLT INVADED ZONE RESISTIVITY
RLA5    .OHMM  : APPARENT RESISTIVITY FROM COMPUTED FOCUSING MODE 5
RLA4    .OHMM  : APPARENT RESISTIVITY FROM COMPUTED FOCUSING MODE 4
GRD     .GAPI  : GAMMA RAY FROM DENSITY LOG
TNPH_LS .DEC   : THERMAL NEUTRON POROSITY [LIMESTONE]
PEFZ    .B/E   : HRDD STANDARD RESOLUTION FORMATION PHOTOELECTRIC FACTOR
HDRA    .G/C3  : HRDD SPINE AND RIBS DENSITY CORRECTION
DPHZ_LS .DEC   : HGRD STANDARD RESOLUTION DENSITY POROSITY
TEND    .LB    : TENSION FROM DENSITY LOG
RHOZ    .G/C3  : HRDD STANDARD RESOLUTION FORMATION DENSITY
~Params ----------------------------------------------------
~Other -----------------------------------------------------
~ASCII -----------------------------------------------------
# ...
 4718.50000    0.16020   20.67680    2.56320   13.56730 1172.93620   30.20330    8.70140    0.02970   51.73300   93.08680   41.68340   86.56030   73.29290   30.22700    0.09290    3.39770   -0.00430   -0.03000 3625.18070    2.75890
 4719.00000    0.15590   20.62210    2.54470   13.57040 1174.31800   27.47710    8.69540    0.03280   52.18060   93.98050   26.82100   56.51730   52.25570   28.30820    0.09560    3.41030   -0.00490   -0.01940 3623.06740    2.74040
 4719.50000    0.15050   20.47860    2.52550   13.14870 1175.69960   24.93580    8.68890    0.03760   52.89200   95.19190   28.90550   59.71920   54.31020   25.55390    0.10000    3.43060   -0.00540   -0.00660 3611.34690    2.72190
 4720.00000    0.13960   19.50790    2.52380   12.70200 1177.06300   24.48420    8.68230    0.04150   53.24820   95.76120   20.73210   45.59920   27.94050   24.46690    0.10860    3.43060   -0.00490   -0.00020 3622.78270    2.71260
 4720.50000    0.12670   18.33920    2.52820   12.13180 1177.17440   25.35270    8.67120    0.04220   53.39180   95.40680   17.47630   24.97750   22.88140   25.34430    0.11700    3.40270   -0.00280   -0.00330 3637.17650    2.71280
 4721.00000    0.11280   17.17780    2.57460   11.54350 1177.16760   25.88700    8.65620    0.04150   53.29760   94.27170   15.16270   32.07350   23.05100   26.21060    0.12150    3.37100   -0.00140   -0.01280 3646.34690    2.72340
 4721.50000    0.10030   15.32390    2.63560   11.09640 1177.15910   26.10750    8.64120    0.03680   52.65290   92.92780   20.05560   45.51920   35.35090   26.35260    0.11250    3.37390   -0.00070   -0.02210 3626.62180    2.74020
 4722.00000    0.09090   14.39530    2.68000   11.11960 1177.15160   26.22210    8.62620    0.02880   51.49960   91.17440   37.36270   60.73000   52.73580   26.40530    0.09380    3.39270   -0.00200   -0.03630 3608.92110    2.76730
 4722.50000    0.08590   14.96940    2.65510   11.46840 1177.14390   25.41530    8.61110    0.02120   50.32200   89.63950   40.71140   73.63280   68.11430   25.24540    0.07630    3.41600   -0.00460   -0.04240 3592.29930    2.77430
 4723.00000    0.08700   18.19500    2.61740   12.18810 1177.13710   23.11940    8.59610    0.01600   49.69680   88.29770   63.75860  510.43370   89.33880   22.08230    0.06260    3.42740   -0.00490   -0.05830 3585.17430    2.79460
 4723.50000    0.09140   22.04970    2.56800   12.36380 1177.29220   19.91520    8.57700    0.01080   49.04650   87.47540  112.39120  430.81870  150.44990   19.60500    0.04980    3.36760   -0.00400   -0.06910 3588.72660    2.81850
 4724.00000    0.09570   23.34130    2.50780   12.72190 1177.48820   19.82060    8.55750    0.00610   48.41320   87.35460  149.02870  249.47070  193.49390   20.89100    0.04380    3.32640   -0.00250   -0.08210 3595.70460    2.83360
 4724.50000    0.09840   22.81800    2.35940   13.63510 1177.68260   24.03290    8.53800    0.00700   48.64480   87.42540  143.11560  222.70170  187.87220   26.08300    0.04330    3.35010   -0.00300   -0.07820 3632.41530    2.83880
 4725.00000    0.10030   21.53620    2.18860   14.69040 1177.87880   29.20190    8.53640    0.00960   49.16120   87.55620  153.37570  233.49340  174.27500   30.36860    0.04490    3.41260   -0.00430   -0.07130 3614.53610    2.82980
 4725.50000    0.10230   20.48940    2.10330   15.33340 1178.07410   31.36540    8.53900    0.01440   49.59430   88.01460  180.88740 1076.64750  211.15980   31.90810    0.04530    3.49350   -0.00500   -0.06270 3608.27120    2.81280
 4726.00000    0.10420   20.62680    2.08940   15.26910 1177.94350   31.23620    8.52990    0.01610   49.77490   88.98260  189.66170  440.87230  213.84830   30.92440    0.04610    3.51420   -0.00530   -0.05880 3605.59810    2.80820
 4726.50000    0.11130   23.04980    2.12190   14.45220 1176.62760   30.98670    8.52420    0.01740   49.92510   90.37320   66.87920  164.75440  136.77220   31.66250    0.04850    3.48890   -0.00440   -0.06200 3589.43210    2.81020
 4727.00000    0.12780   27.68080    2.15720   13.71820 1175.31180   32.42510    8.52400    0.02040   50.40160   92.09830   85.84590  175.84710  145.15610   33.13930    0.05190    3.48370   -0.00500   -0.06550 3570.10570    2.81610
 4727.50000    0.14250   31.45690    2.21850   12.99510 1173.99600   33.38260    8.52380    0.02460   50.93010   93.17100  144.49420  181.12060  154.69540   32.79140    0.05350    3.55410   -0.00540   -0.06870 3568.66650    2.82130
 4728.00000    0.16390   32.78980    2.28640   12.87440 1172.68020   31.96340    8.52390    0.02690   51.29670   93.85590  139.16430  185.31240  161.63690   30.86090    0.05290    3.61070   -0.00530   -0.07220 3567.68750    2.83020
 4728.50000    0.18000   32.85240    2.24580   13.75470 1171.36430   29.67400    8.52470    0.02880   51.53490   95.01410  144.22490  180.58110  159.41600   29.65460    0.05240    3.63460   -0.00440   -0.08120 3566.74490    2.84380
 4729.00000    0.19920   36.68380    2.06850   15.33740 1170.04850   29.96280    8.52540    0.03150   52.03170   97.32780  308.88880  154.58140  131.84990   30.75180    0.05390    3.54970   -0.00310   -0.08630 3566.84300    2.84680
 4729.50000    0.21340   49.67870    1.84570   16.67270 1169.07350   33.54590    8.52620    0.03920   53.19990  102.55230  128.93690  120.40440  102.70480   34.16270    0.06220    3.48410   -0.00350   -0.07050 3589.82910    2.82650
 4730.00000    0.21780   63.83830    1.80610   17.18050 1169.59420   37.67750    8.52360    0.05530   55.52420  107.77690  109.10320   96.82960   80.12600   38.40650    0.07330    3.42550   -0.00480   -0.04610 3588.96170    2.78400
 4730.50000    0.20840   79.96580    1.97080   15.49620 1170.11500   41.57240    8.52250    0.07630   59.27230  116.81660   92.47090   68.70150   52.80920   40.75960    0.08620    3.37660   -0.00670   -0.02270 3588.82030    2.74160
 4731.00000    0.19430   73.34220    2.20860   13.90340 1170.63570   55.37490    8.52260    0.08990   64.55100  120.28110   49.30850   48.07120   40.93440   50.57170    0.09860    3.35400   -0.00730   -0.00240 3601.47660    2.69340
 4731.50000    0.17560   53.78450    2.45620   12.87420 1171.15650   87.71650    8.52460    0.09700   64.65190  120.82380   30.48860   40.94230   38.17330   73.64060    0.11880    3.36400   -0.00600    0.02220 3612.62350    2.65040
 4732.00000    0.15870   34.73560    2.53260   12.77690 1171.67720  110.75450    8.52950    0.09840   61.08220  118.62810   37.44710   63.21390   38.89130  103.30020    0.13960    3.45740   -0.00840    0.05320 3618.81230    2.60480
 4732.50000    0.14990   24.41600    2.55930   12.74800 1172.19800   97.76000    8.53440    0.09210   60.07760  107.75820  112.66560  167.11960   65.70950  110.13390    0.15880    3.58830   -0.01060    0.06390 3625.00100    2.61690
 4733.00000    0.14360   22.06490    2.56560   12.59300 1172.71880   67.37810    8.54420    0.07890   58.22490  100.45510  288.84000  139.37710   91.50730   90.31110    0.14630    3.55290   -0.01030    0.04310 3631.18990    2.67310
 4733.50000    0.14060   23.47280    2.56980   12.31690 1173.23950   42.58800    8.54400    0.06020   55.95030   98.31580   61.72570   57.32460   38.99580   58.45830    0.12280    3.49130   -0.00540    0.00890 3637.37870    2.70290
 4734.00000    0.13990   29.22010    2.56690   12.01820 1173.76030   32.57580    8.54370    0.04960   54.13800   96.74750   36.83050   31.99270   28.60720   40.61670    0.10430    3.37400   -0.00420   -0.00680 3642.33350    2.71960
 4734.50000    0.13970   34.70170    2.56400   11.93820 1174.28100   32.90380    8.54920    0.04160   53.25610   95.72310   16.25900   26.87170   26.17860   32.83350    0.10780    3.28060   -0.00340   -0.00680 3640.72270    2.72130
 4735.00000    0.13970   39.44010    2.53230   11.98920 1174.80180   34.86330    8.55750    0.03840   52.81960   95.53920   14.16040   29.84230   26.70740   32.84260    0.11580    3.23660   -0.00120   -0.00680 3637.28980    2.72640
 4735.50000    0.13940   40.99560    2.46650   12.38490 1175.32250   37.72960    8.55850    0.03560   52.44890   94.87790   14.07780   55.16640   40.28650   34.54870    0.11780    3.21790    0.00120   -0.01920 3611.42650    2.74890
