~Version ---------------------------------------------------
VERS.   2.0 : CWLS log ASCII Standard -VERSION 2.0
WRAP.    NO : One line per depth step
DLM . SPACE : Column Data Section Delimiter
~Well ------------------------------------------------------
STRT .F                 186.0 : START DEPTH
STOP .F                9080.0 : STOP DEPTH
STEP .F                   0.5 : STEP
NULL .               -9999.25 : NULL VALUE
COMP .                        : COMPANY
WELL .                        : WELL
FLD  .                        : FIELD
LOC  .                        : LOCATION
PROV .                        : PROVINCE
CNTY .                        : COUNTY
STAT .                        : STATE
CTRY .                        : COUNTRY
SRVC .                        : SERVICE COMPANY
DATE .                        : DATE
UWI  .                        : UNIQUE WELL ID
API  .                        : API NUMBER
SLAT .WGS84   1.6820631858774 : SURFACE LATITUDE
SLON .WGS84 7.087157923745991 : SURFACE LONGITUDE
DATUM.F               2565.68 : DEPTH DATUM ELEV
~Curve Information -----------------------------------------
DEPT    .F     : 1 MEASURED DEPTH
TPHI_LS .DEC   : TDT POROSITY [LIMESTONE]
GRT     .GAPI  : THEORETICAL GAMMA RAY VALUE TDT
CIRF_FIL.N/A   : RST CAPTURE TO INELASTIC RATIO FAR FILTERED
SIGM    .CU    : FORMATION SIGMA (NEUTRON CAPTURE CROSS SECTION)
TEN     .LB    : DIFFERENTIAL TENSION
GRS     .GAPI  : GAMMA RAY FROM SONIC LOG
HCALS   .IN    : HRCC CALIPER CALIBRATED FROM SONIC LOG
SPHI_LS .DEC   : SONIC POROSITY [LIMESTONE]
DTCO    .US/F  : DELTA-T COMPRESSIONAL
DTSM    .US/F  : DELTA-T SHEAR
RXO_HRLT.OHMM  : HRLT INVADED ZONE RESISTIVITY
RLA5    .OHMM  : APPARENT RESISTIVITY FROM COMPUTED FOCUSING MODE 5
RLA4    .OHMM  : APPARENT RESISTIVITY FROM COMPUTED FOCUSING MODE 4
GRD     .GAPI  : GAMMA RAY FROM DENSITY LOG
TNPH_LS .DEC   : THERMAL NEUTRON POROSITY [LIMESTONE]
PEFZ    .B/E   : HRDD STANDARD RESOLUTION FORMATION PHOTOELECTRIC FACTOR
HDRA    .G/C3  : HRDD SPINE AND RIBS DENSITY CORRECTION
DPHZ_LS .DEC   : HGRD STANDARD RESOLUTION DENSITY POROSITY
TEND    .LB    : TENSION FROM DENSITY LOG
RHOZ    .G/C3  : HRDD STANDARD RESOLUTION FORMATION DENSITY
~Params ----------------------------------------------------
~Other -----------------------------------------------------
~ASCII -----------------------------------------------------
# ...
 3861.00000    0.19370   12.23280    2.85690   12.47890  991.40810   13.55320    9.22840    0.02340   50.92350   90.57080   64.19130   85.31910   78.38380   13.74440    0.17900    3.38530    0.00230    0.00290 3307.40620    2.71280
 3861.50000    0.19510   13.65600    2.86650   12.13130  989.18050   15.04010    9.22490    0.02220   50.79740   90.66020   31.17350  103.90010   88.60730   14.92430    0.17640    3.39500    0.00420    0.01650 3310.27730    2.69620
 3862.00000    0.19270   15.52600    2.89060   11.79770  992.09440   15.51840    9.22120    0.02080   50.50510   90.11920   58.02330   99.02910   83.09610   15.63820    0.17280    3.42200    0.00650    0.02690 3292.02250    2.67780
 3862.50000    0.18830   16.23050    2.91640   11.76800  998.06530   13.64530    9.22160    0.01900   50.15060   89.42290   31.88840  115.09060   92.05160   13.30760    0.16900    3.46570    0.00780    0.03160 3276.37820    2.66510
 3863.00000    0.18440   16.09030    2.91580   11.94570 1003.69840    9.96560    9.22710    0.01720   49.95450   88.89160   53.75980  188.30630  155.73180   10.53050    0.16430    3.50940    0.00370    0.02810 3288.49410    2.66250
 3863.50000    0.18020   15.89270    2.86740   12.20690 1010.49220    8.84000    9.21820    0.01550   49.71440   88.40260  124.19130  370.82710  262.92840    8.88120    0.16030    3.56590   -0.00030    0.02400 3292.96530    2.66860
 3864.00000    0.17660   16.49430    2.83600   12.39880 1006.85850    9.70680    9.22040    0.01380   49.39420   87.96910  146.47380 1607.16750  640.05630    9.77170    0.15740    3.59860   -0.00340    0.01910 3301.94460    2.67470
 3864.50000    0.17160   17.71750    2.82040   12.32550 1003.07600   11.56270    9.22950    0.01230   49.10360   87.53970  453.55060 2658.16850 2273.13670   11.87890    0.15820    3.59870   -0.00320    0.01220 3313.30620    2.68300
 3865.00000    0.16400   17.15450    2.81590   12.15180  998.29330   12.93850    9.23790    0.01140   49.08200   87.33400  565.68780 2946.44850 2871.41700   13.06030    0.15900    3.58230   -0.00260    0.00450 3313.52030    2.69800
 3865.50000    0.15660   14.91660    2.82810   12.04330  996.55820   13.23710    9.24240    0.01210   49.22300   87.42760  531.02190 3642.93920 3275.96780   13.25140    0.15890    3.53430   -0.00220   -0.00560 3313.03030    2.71170
 3866.00000    0.15400   12.44090    2.82780   11.97880  996.12960   13.93870    9.23650    0.01290   49.36400   87.55980  490.83650 4029.81100 1880.07600   13.58970    0.15730    3.49440   -0.00150   -0.00840 3312.27050    2.72150
 3866.50000    0.15330   13.16950    2.82010   11.96390  995.70210   15.52130    9.23940    0.01360   49.44370   87.66880  366.38480 1682.26510  737.74300   15.08410    0.15330    3.45530    0.00120   -0.00740 3311.49630    2.72200
 3867.00000    0.14800   14.19520    2.80290   11.98140  995.27350   18.05220    9.24180    0.01420   49.51400   87.61390  269.76180  538.51890  415.40310   17.92920    0.14900    3.44790    0.00390   -0.00560 3312.52170    2.72130
 3867.50000    0.13920   13.65250    2.77530   11.99890  994.68470   19.59710    9.24000    0.01480   49.64510   87.50590  244.43910 1272.45350  762.84200   19.37310    0.14510    3.46510    0.00490   -0.00860 3313.11990    2.72240
 3868.00000    0.12050   12.35020    2.74770   12.06420  994.05430   19.31680    9.23280    0.01540   49.76500   87.50850  281.38100 2040.85010 1739.08830   18.67590    0.14130    3.53870    0.00080   -0.00970 3310.81880    2.72470
 3868.50000    0.10820   11.97060    2.71400   12.04510  993.62610   16.91280    9.22600    0.01560   49.76800   87.53980  334.86860 1486.49600  733.33450   16.56980    0.13740    3.54580   -0.00240   -0.01090 3300.02490    2.72700
 3869.00000    0.10160   12.84540    2.65500   11.97040  993.19770   14.37720    9.22540    0.01470   49.61750   87.41580  234.36890  499.42620  294.55120   14.35830    0.13500    3.49120   -0.00290   -0.00780 3293.06640    2.72630
 3869.50000    0.10130   14.05170    2.61310   11.91900  992.76950   12.38760    9.23610    0.01330   49.40910   87.21880  132.27490  182.65740  154.58270   12.24810    0.13630    3.43450   -0.00150   -0.00890 3292.82960    2.72580
 3870.00000    0.10220   14.42250    2.61860   12.07220  993.53560   11.09530    9.23030    0.01110   49.16000   87.03270  111.25660  317.83110  175.31170   11.03550    0.13590    3.48440    0.00880   -0.01190 3292.59300    2.72870
 3870.50000    0.10350   14.79330    2.64030   12.45110  996.63420   10.60620    9.22980    0.00850   48.81900   86.84530  140.91200 1754.95420  937.92160   10.53140    0.12170    3.63950    0.01110   -0.01780 3290.93900    2.73590
 3871.00000    0.10420   15.16410    2.65260   12.82260  994.73980   10.96040    9.23980    0.00590   48.36880   86.61900  268.87220 5430.83500 4156.87110   10.86560    0.10360    3.76940    0.00970   -0.03340 3288.23000    2.76220
 3871.50000    0.10720   15.53500    2.57050   12.92300  991.10710   11.50490    9.22590    0.00380   48.06450   86.43690  396.93650 8008.36670 5300.90140   11.36810    0.08420    3.88450    0.00340   -0.04950 3291.34550    2.77580
 3872.00000    0.12150   15.68560    2.46950   12.67150  992.47680   12.06140    9.22180    0.00410   48.11320   86.48130  391.51930 6520.68410 4077.17800   11.94130    0.07290    3.95310    0.00090   -0.06520 3280.79100    2.80120
 3872.50000    0.13950   15.60540    2.46440   12.41970  994.46440   11.93340    9.22540    0.00490   48.28450   86.82050  376.69510 2726.56300 1790.36800   11.98250    0.06990    3.96330   -0.00120   -0.06660 3281.68460    2.82140
 3873.00000    0.16340   15.23790    2.51840   12.21870  996.45220   10.54880    9.21610    0.00710   48.59780   87.28280  375.50290 1435.76710 1355.86060   10.59750    0.07900    3.97420   -0.00190   -0.05620 3291.92630    2.80870
 3873.50000    0.18060   14.34230    2.59550   12.30390  998.43750    8.97520    9.20510    0.00950   48.93330   87.58490  395.35090 2276.09860 1751.60660    9.10480    0.08800    3.98490   -0.00170   -0.05200 3293.17310    2.79460
 3874.00000    0.19110   13.57540    2.62200   12.61960 1000.42550    8.21940    9.19110    0.01160   49.23830   87.78300  568.62200 4538.89110 3479.25120    8.42390    0.08450    3.98050    0.00010   -0.05970 3288.17410    2.80250
 3874.50000    0.19600   13.25170    2.64810   12.89350 1002.41160    8.29830    9.15220    0.01310   49.36780   87.88100  805.52730 6020.90330 5211.36080    8.22390    0.07950    3.92490    0.00180   -0.07130 3279.12740    2.82350
 3875.00000    0.20000   13.02010    2.68940   12.82580 1004.39790    8.67200    9.11430    0.01360   49.44790   87.65320  692.27080 1925.14900 1217.72940    8.52840    0.08130    3.76900    0.00100   -0.06910 3278.51490    2.82110
 3875.50000    0.20250   12.70870    2.75110   12.52710 1006.03130    9.52920    9.12990    0.01450   49.57610   87.39570  343.72870  624.60530  418.75450    9.18030    0.10590    3.56800   -0.00200   -0.03610 3305.01000    2.79890
 3876.00000    0.20300   12.43260    2.81270   12.25040 1005.88040   11.08150    9.14900    0.01600   49.80890   87.54730  171.42320  264.19920  209.34280   11.07160    0.13450    3.39870   -0.00430   -0.01140 3328.29080    2.75480
 3876.50000    0.19950   12.03520    2.87650   12.06130 1005.64840   13.04070    9.16880    0.01740   50.01210   88.19780  140.28330  318.44900  236.40160   12.91420    0.15660    3.37640   -0.00650    0.00570 3308.18600    2.71930
 3877.00000    0.19360   11.13470    2.90260   12.04010 1003.66130   15.24840    9.17880    0.01850   50.11640   88.63420  156.83840  489.91280  361.58180   14.92440    0.16810    3.38010   -0.00690    0.01200 3298.95730    2.69980
 3877.50000    0.18170   10.30870    2.87700   11.99280 1001.28490   16.52790    9.18220    0.01920   50.08370   88.55620   90.74260  252.33890  152.61910   16.29460    0.17520    3.38810   -0.00770    0.01710 3290.16500    2.69090
 3878.00000    0.17650   10.24600    2.85130   12.00430  997.48950   16.63580    9.19580    0.01940   50.05880   88.46370   55.89680  116.10880   95.38640   16.46830    0.18030    3.35390   -0.00670    0.01990 3281.86990    2.67950
