~Version ---------------------------------------------------
VERS.   2.0 : CWLS log ASCII Standard -VERSION 2.0
WRAP.    NO : One line per depth step
DLM . SPACE : Column Data Section Delimiter
~Well ------------------------------------------------------
STRT .F                 186.0 : START DEPTH
STOP .F                9080.0 : STOP DEPTH
STEP .F                   0.5 : STEP
NULL .               -9999.25 : NULL VALUE
COMP .                        : COMPANY
WELL .                        : WELL
FLD  .                        : FIELD
LOC  .                        : LOCATION
PROV .                        : PROVINCE
CNTY .                        : COUNTY
STAT .                        : STATE
CTRY .                        : COUNTRY
SRVC .                        : SERVICE COMPANY
DATE .                        : DATE
UWI  .                        : UNIQUE WELL ID
API  .                        : API NUMBER
SLAT .WGS84   1.6820631858774 : SURFACE LATITUDE
SLON .WGS84 7.087157923745991 : SURFACE LONGITUDE
DATUM.F               2565.68 : DEPTH DATUM ELEV
~Curve Information -----------------------------------------
DEPT    .F     : 1 MEASURED DEPTH
TPHI_LS .DEC   : TDT POROSITY [LIMESTONE]
GRT     .GAPI  : THEORETICAL GAMMA RAY VALUE TDT
CIRF_FIL.N/A   : RST CAPTURE TO INELASTIC RATIO FAR FILTERED
SIGM    .CU    : FORMATION SIGMA (NEUTRON CAPTURE CROSS SECTION)
TEN     .LB    : DIFFERENTIAL TENSION
GRS     .GAPI  : GAMMA RAY FROM SONIC LOG
HCALS   .IN    : HRCC CALIPER CALIBRATED FROM SONIC LOG
SPHI_LS .DEC   : SONIC POROSITY [LIMESTONE]
DTCO    .US/F  : DELTA-T COMPRESSIONAL
DTSM    .US/F  : DELTA-T SHEAR
RXO_HRLT.OHMM  : HRLT INVADED ZONE RESISTIVITY
RLA5    .OHMM  : APPARENT RESISTIVITY FROM COMPUTED FOCUSING MODE 5
RLA4    .OHMM  : APPARENT RESISTIVITY FROM COMPUTED FOCUSING MODE 4
GRD     .GAPI  : GAMMA RAY FROM DENSITY LOG
TNPH_LS .DEC   : THERMAL NEUTRON POROSITY [LIMESTONE]
PEFZ    .B/E   : HRDD STANDARD RESOLUTION FORMATION PHOTOELECTRIC FACTOR
HDRA    .G/C3  : HRDD SPINE AND RIBS DENSITY CORRECTION
DPHZ_LS .DEC   : HGRD STANDARD RESOLUTION DENSITY POROSITY
TEND    .LB    : TENSION FROM DENSITY LOG
RHOZ    .G/C3  : HRDD STANDARD RESOLUTION FORMATION DENSITY
~Params ----------------------------------------------------
~Other -----------------------------------------------------
~ASCII -----------------------------------------------------
# ...
 7273.50000    0.01620   13.74460    2.96950    8.34610 1668.17180    8.72500    8.13130    0.00370   48.02390   90.69550  527.15850  625.27770  602.45500    8.41340   -0.01170    5.25900    0.00460   -0.00970 4247.47800    2.71670
 7274.00000    0.01510   13.84450    2.98340    8.39810 1676.66310    8.35150    8.15210    0.00450   48.20910   90.66960  458.78300  766.87800  655.85020    8.23540   -0.01110    5.30920    0.00310   -0.00530 4234.74560    2.70710
 7274.50000    0.01180   15.15140    3.00560    8.47570 1675.89930    8.21910    8.17530    0.00410   48.26960   90.83450  429.34820  995.81240  853.60890    7.99250   -0.01090    5.37890    0.00110   -0.00010 4193.23290    2.69410
 7275.00000    0.01000   16.61460    2.99240    8.57810 1672.79830    7.94820    8.19390    0.00360   48.11430   90.67530  530.83540 1098.75220  939.60840    8.22030   -0.01100    5.46890   -0.00270    0.00780 4194.97950    2.68830
 7275.50000    0.00930   18.13830    2.89040    8.64420 1664.91270    8.14140    8.21650    0.00320   47.99410   91.32520  703.33620 1379.85880 1118.45450    9.38840   -0.01110    5.55010   -0.00510    0.01510 4201.06640    2.69240
 7276.00000    0.01040   18.31700    2.78630    8.71070 1656.90060    9.39150    8.24130    0.00270   47.95140   91.20530  699.03300 1306.00870 1242.25460   11.24420   -0.01130    5.53020   -0.00550    0.01450 4249.41210    2.70040
 7276.50000    0.01320   16.92310    2.68280    8.76460 1654.65270   11.94070    8.25470    0.00300   47.98460   90.26470  690.04580 1257.54160 1190.99280   13.74390   -0.01130    5.45270   -0.00280    0.00910 4290.12210    2.70230
 7277.00000    0.01630   17.31500    2.67160    8.80430 1662.36330   14.81490    8.27220    0.00320   48.04220   89.82980  685.82390 1611.80360 1508.50960   15.59940   -0.01130    5.40050   -0.00030    0.00460 4267.31740    2.70380
 7277.50000    0.01820   18.57810    2.72260    8.71720 1670.06750   16.08240    8.29330    0.00310   47.99560   90.06620  588.50010 3037.30320 2040.60250   15.86180   -0.01130    5.38210    0.00330    0.00580 4232.77150    2.71370
 7278.00000    0.01770   19.76490    2.77980    8.48400 1676.42970   16.10360    8.33110    0.00320   47.99200   90.27000  230.94410 1627.72940 2073.69800   15.49330   -0.01130    5.39470    0.00870    0.00370 4207.50930    2.72020
 7278.50000    0.01720   20.27040    2.83690    8.31370 1673.58060   15.52390    8.36560    0.00230   47.90870   90.22430  152.51450 1284.89430 1124.93930   14.77700   -0.01130    5.37820    0.01310   -0.00340 4185.77540    2.72200
 7279.00000    0.01680   19.64420    2.87140    8.30740 1666.21300   15.01590    8.39220    0.00160   47.79200   90.34000  163.29660 1901.64000 1626.69580   14.30270   -0.01140    5.31770    0.01510   -0.00700 4206.91940    2.71710
 7279.50000    0.01650   18.35640    2.89160    8.36850 1658.84570   13.49710    8.39780    0.00080   47.74130   90.77130  245.47940 3467.14360 1985.98300   13.06660   -0.01220    5.27720    0.00940   -0.00420 4250.27730    2.71600
 7280.00000    0.01610   17.15430    2.93610    8.38090 1651.51550   11.94140    8.40300    0.00010   47.66100   90.87620  325.22980 3462.33130 1985.36060   12.02210   -0.01330    5.23660    0.00390    0.00110 4249.52050    2.71930
 7280.50000    0.01480   17.49980    2.98080    8.28110 1645.39030   11.56140    8.40900   -0.00000   47.60900   90.85800  362.25690 2833.16240 1978.62220   11.48480   -0.01430    5.22160    0.00200   -0.00290 4247.03610    2.72770
 7281.00000    0.01340   18.47720    2.99400    8.17800 1660.13310   11.91520    8.39080    0.00010   47.61680   90.77910  366.53310 3314.47920 1967.28860   11.88720   -0.01460    5.25240    0.00130   -0.00540 4238.31150    2.73460
 7281.50000    0.01220   19.91780    2.99340    8.11540 1674.73580   12.09780    8.38010    0.00040   47.65640   90.71350  397.37170 3172.26680 1956.02090   11.89720   -0.01480    5.30660    0.00310   -0.01120 4231.05910    2.74110
 7282.00000    0.01130   20.96480    2.98850    8.16140 1677.75790   11.38160    8.38010    0.00070   47.69400   90.48110  244.60070 3575.13160 1944.81680   11.30010   -0.01500    5.41220    0.00710   -0.01550 4259.66700    2.74760
 7282.50000    0.01180   21.08900    2.96270    8.27170 1666.19020   10.57980    8.37690    0.00100   47.72940   90.15160  149.42330 2561.04790 1933.67680   10.53330   -0.01520    5.45790    0.01380   -0.02440 4286.91210    2.74660
 7283.00000    0.01240   19.97120    2.93050    8.44530 1657.37760   10.47830    8.38480    0.00130   47.77450   89.90380  114.24070 2185.08030 1885.02840   10.28090   -0.01550    5.41470    0.02120   -0.02550 4287.83110    2.73950
 7283.50000    0.01340   18.34220    2.89820    8.61380 1662.96230   10.99020    8.41210    0.00170   47.82550   89.71690  123.67430 1809.11270 1731.98250   10.97600   -0.01570    5.25970    0.02100   -0.02040 4268.44820    2.73310
 7284.00000    0.01440   16.71980    2.87730    8.76930 1670.44600   12.18680    8.43010    0.00250   47.89670   89.58930  119.29520 1507.65940 1399.92210   12.21340   -0.01530    5.19970    0.02020   -0.01450 4259.96240    2.72540
 7284.50000    0.01490   15.61710    2.86460    8.92180 1677.75790   13.61990    8.42980    0.00330   47.97920   89.58250  141.34400 1307.59060 1158.36050   13.59720   -0.01460    5.18020    0.01800   -0.01010 4254.81200    2.71800
 7285.00000    0.01530   16.67180    2.85180    8.97570 1674.27280   14.93180    8.44530    0.00370   48.06950   89.60200  249.82080 1882.25820 1484.07420   14.36620   -0.01390    5.20000    0.01450   -0.00710 4276.68650    2.71550
 7285.50000    0.01570   18.50420    2.84250    8.86000 1670.13540   15.12370    8.43750    0.00400   48.20170   89.46980  125.41640 2176.08350 1987.10520   14.66230   -0.01330    5.21030    0.01450   -0.00130 4294.27780    2.71610
 7286.00000    0.01570   20.29320    2.83600    8.76150 1668.32120   14.13800    8.43610    0.00400   48.18680   89.44610   45.22770 1989.18010 1960.16160   13.88090   -0.01300    5.28060    0.02420   -0.00190 4284.22220    2.71810
 7286.50000    0.01440   20.36440    2.82960    8.66320 1671.07100   13.04780    8.47240    0.00360   48.10830   89.48850   34.32200 2091.58300 1931.11470   13.08910   -0.01230    5.36480    0.03920   -0.00430 4259.08350    2.72090
 7287.00000    0.01380   19.50930    2.82570    8.53120 1664.74840   12.65980    8.53130    0.00320   48.02720   89.04460   36.26740 1983.02840 1787.86160   12.60200   -0.01120    5.45310    0.06270   -0.00460 4217.37790    2.73200
 7287.50000    0.01190   18.14980    2.82290    8.50930 1663.02110   12.56960    8.72330    0.00270   47.93680   88.71830   61.21380 1694.44040 1550.13780   12.64590   -0.01050    5.50600    0.07950   -0.01250 4212.10400    2.73500
 7288.00000    0.00930   17.03480    2.82150    8.54290 1660.07180   12.38360    8.82140    0.00220   47.89730   88.75240   90.06570 1453.43850 1303.60180   12.36190   -0.01030    5.48480    0.08360   -0.01640 4246.60350    2.73460
 7288.50000    0.00800   18.15400    2.82400    8.55430 1655.46000   11.90400    8.72030    0.00200   47.87840   89.05200   89.81490 1271.61130 1096.27470   11.81960   -0.01090    5.44980    0.07440   -0.01420 4284.80710    2.73360
 7289.00000    0.00960   18.98520    2.84950    8.44340 1652.81900   11.45470    8.67120    0.00190   47.87360   90.02950   84.78590 1230.42520 1017.87790   11.52410   -0.01190    5.40270    0.05960   -0.01030 4291.18310    2.73280
 7289.50000    0.01170   18.16730    2.90350    8.27080 1662.60340   11.27080    8.66660    0.00170   47.82160   90.80340  101.11980 1802.92690 1282.88420   11.26080   -0.01210    5.35560    0.04870   -0.01200 4272.82570    2.73140
 7290.00000    0.01350   16.14030    2.95800    8.23890 1662.71980   10.92570    8.60750    0.00180   47.74380   91.32930  126.14370 2465.80910 1917.77670   11.01100   -0.01230    5.29500    0.03300   -0.01430 4268.10250    2.72810
 7290.50000    0.01520   15.03420    2.99100    8.24900 1662.73060   10.65480    8.54400    0.00230   47.73870   91.12380  159.74780 2153.64790 1924.12410   10.68390   -0.01250    5.23520    0.01950   -0.00620 4269.68990    2.72470
