~Version ---------------------------------------------------
VERS.   2.0 : CWLS log ASCII Standard -VERSION 2.0
WRAP.    NO : One line per depth step
DLM . SPACE : Column Data Section Delimiter
~Well ------------------------------------------------------
STRT .F                 186.0 : START DEPTH
STOP .F                9080.0 : STOP DEPTH
STEP .F                   0.5 : STEP
NULL .               -9999.25 : NULL VALUE
COMP .                        : COMPANY
WELL .                        : WELL
FLD  .                        : FIELD
LOC  .                        : LOCATION
PROV .                        : PROVINCE
CNTY .                        : COUNTY
STAT .                        : STATE
CTRY .                        : COUNTRY
SRVC .                        : SERVICE COMPANY
DATE .                        : DATE
UWI  .                        : UNIQUE WELL ID
API  .                        : API NUMBER
SLAT .WGS84   1.6820631858774 : SURFACE LATITUDE
SLON .WGS84 7.087157923745991 : SURFACE LONGITUDE
DATUM.F               2565.68 : DEPTH DATUM ELEV
~Curve Information -----------------------------------------
DEPT    .F     : 1 MEASURED DEPTH
TPHI_LS .DEC   : TDT POROSITY [LIMESTONE]
GRT     .GAPI  : THEORETICAL GAMMA RAY VALUE TDT
CIRF_FIL.N/A   : RST CAPTURE TO INELASTIC RATIO FAR FILTERED
SIGM    .CU    : FORMATION SIGMA (NEUTRON CAPTURE CROSS SECTION)
TEN     .LB    : DIFFERENTIAL TENSION
GRS     .GAPI  : GAMMA RAY FROM SONIC LOG
HCALS   .IN    : HRCC CALIPER CALIBRATED FROM SONIC LOG
SPHI_LS .DEC   : SONIC POROSITY [LIMESTONE]
DTCO    .US/F  : DELTA-T COMPRESSIONAL
DTSM    .US/F  : DELTA-T SHEAR
RXO_HRLT.OHMM  : HRLT INVADED ZONE RESISTIVITY
RLA5    .OHMM  : APPARENT RESISTIVITY FROM COMPUTED FOCUSING MODE 5
RLA4    .OHMM  : APPARENT RESISTIVITY FROM COMPUTED FOCUSING MODE 4
GRD     .GAPI  : GAMMA RAY FROM DENSITY LOG
TNPH_LS .DEC   : THERMAL NEUTRON POROSITY [LIMESTONE]
PEFZ    .B/E   : HRDD STANDARD RESOLUTION FORMATION PHOTOELECTRIC FACTOR
HDRA    .G/C3  : HRDD SPINE AND RIBS DENSITY CORRECTION
DPHZ_LS .DEC   : HGRD STANDARD RESOLUTION DENSITY POROSITY
TEND    .LB    : TENSION FROM DENSITY LOG
RHOZ    .G/C3  : HRDD STANDARD RESOLUTION FORMATION DENSITY
~Params ----------------------------------------------------
~Other -----------------------------------------------------
~ASCII -----------------------------------------------------
# ...
 8568.50000    0.16540   11.53680    1.87550   19.06950 1946.47960    5.17610    7.68890    0.16030   69.78830   62.14100    2.27000    6.42600    4.66400    5.38390    0.12640    2.95670   -0.00340    0.21490 4322.48580    2.36460
 8569.00000    0.16700   13.40710    1.81650   19.40460 1936.62880    5.72490    7.69560    0.15750   69.43630   61.58180    2.24790    6.32500    4.27660    5.91000    0.12320    2.83150   -0.00280    0.20480 4307.70560    2.37980
 8569.50000    0.16300   14.42010    1.82700   19.40630 1938.63480    6.26580    7.69390    0.15400   68.64130   60.96200    2.47310    6.70160    4.95600    6.43630    0.12190    2.72210    0.00090    0.19340 4337.64550    2.39680
 8570.00000    0.14550   13.74530    1.87280   19.36000 1941.09560    6.37610    7.67240    0.14300   67.00580   59.50550    3.12710    7.89100    6.85260    6.46900    0.12110    2.63300    0.00340    0.18450 4361.46830    2.41430
 8570.50000    0.12640   13.11180    1.91880   19.45450 1943.18900    6.25690    7.65360    0.12830   64.51560   57.27280    4.70900   13.92970   10.06000    6.38910    0.11640    2.59420    0.00770    0.16520 4378.24760    2.44170
 8571.00000    0.11590   14.21540    1.93260   19.58720 1947.42570    6.23220    7.72960    0.11230   62.83200   55.40840    6.36980   21.09260   15.44440    6.31430    0.10760    2.61370    0.01620    0.15080 4381.27540    2.46920
 8571.50000    0.12680   16.53270    1.92730   19.67980 1951.88310    6.40150    7.73420    0.10740   62.27190   54.47900   11.24280   23.05180   17.16530    6.54550    0.09860    2.61740    0.01790    0.13930 4349.15670    2.48000
 8572.00000    0.14000   17.71030    1.91890   19.67120 1950.87350    7.08530    7.70630    0.10690   62.22370   54.24340   15.28570   22.78660   16.68120    7.05510    0.09440    2.62110    0.02050    0.14980 4344.41550    2.46750
 8572.50000    0.15290   17.86580    1.91310   19.66090 1945.47360    7.55390    7.65820    0.11010   62.70520   52.23680   10.02140   21.49730   15.23740    7.50760    0.09740    2.64140    0.02470    0.15980 4344.04540    2.45360
 8573.00000    0.17040   17.70680    1.90640   19.59810 1942.05550    7.48010    7.60160    0.11680   63.81630   47.82990    6.94620   17.73690   13.14840    7.61380    0.10280    2.70390    0.02460    0.16630 4369.95950    2.44830
 8573.50000    0.16650   17.67110    1.89540   19.65600 1942.35450    7.15730    7.61900    0.12480   64.77720   45.86880    4.92210   14.18260    8.65020    7.27100    0.10820    2.77820    0.01830    0.16360 4393.19040    2.44510
 8574.00000    0.15610   17.25640    1.88600   19.82940 1937.58790    6.55460    7.68620    0.12590   65.03050   47.40270    4.50070   11.51440    9.06770    6.99420    0.11400    2.82710    0.01000    0.16910 4398.41650    2.43690
 8574.50000    0.14540   15.96880    1.87650   20.01520 1931.75350    5.96420    7.71350    0.12610   64.89230   48.39910    4.41950   10.85280    8.48380    6.29330    0.12000    2.86670    0.00410    0.17550 4403.98190    2.42630
 8575.00000    0.14010   15.53550    1.87220   19.93120 1928.29980    5.59310    7.74090    0.12350   64.51820   48.59820    4.24900   11.09150    9.19310    5.92420    0.11990    2.84190    0.00220    0.18090 4403.00730    2.41990
 8575.50000    0.14170   16.76250    1.86990   19.66570 1937.32370    5.90010    7.76700    0.12270   64.42150   48.59840    4.32700   14.24120   11.76080    5.97630    0.11290    2.79310    0.00050    0.18120 4394.32320    2.41990
 8576.00000    0.14910   17.75270    1.86770   19.43700 1946.35230    6.65640    7.76300    0.12220   64.36220   48.61440    5.87850   18.69920   15.47330    6.56650    0.10410    2.73920   -0.00060    0.17610 4387.60500    2.42300
 8576.50000    0.15430   16.07440    1.86920   19.34470 1955.38070    7.45660    7.74180    0.12190   64.27890   50.42600    7.99120   22.95280   18.17050    7.45220    0.10070    2.71630   -0.00100    0.17230 4384.33200    2.42940
 8577.00000    0.15710   13.75660    1.87620   19.35760 1958.65250    7.33910    7.70750    0.12220   64.29030   54.29560    6.66600   16.64410   12.53870    7.13270    0.10860    2.75480   -0.00130    0.17250 4381.41060    2.43340
 8577.50000    0.14870   11.76540    1.88230   19.56660 1959.65750    6.80930    7.76700    0.12250   64.30810   57.73930    4.86230   11.63100    9.15290    6.57860    0.11650    2.81600   -0.00230    0.17740 4379.56740    2.42810
 8578.00000    0.12780   11.86010    1.86850   19.89050 1961.20940    6.33030    7.86830    0.11960   63.86940   58.93910    4.18820   10.60980    8.94980    6.41570    0.11600    2.87720   -0.00570    0.18450 4369.89450    2.41390
 8578.50000    0.10850   12.91900    1.82140   20.22860 1962.76160    6.60190    7.91320    0.11510   63.19260   58.43730    4.54630   10.90800    8.98740    6.72940    0.10730    2.91200   -0.00750    0.19080 4366.92290    2.40320
 8579.00000    0.09570   14.35530    1.77430   20.22630 1965.16760    7.42750    7.89260    0.10920   62.60930   56.85750    4.93700   11.47760    9.79760    7.57420    0.09280    2.87470   -0.00630    0.19300 4371.47800    2.40060
 8579.50000    0.08680   15.01730    1.74580   19.88600 1957.96810    8.35430    7.87070    0.10400   61.85390   54.42320    5.84690   19.61830   14.31070    8.31930    0.07660    2.80680   -0.00060    0.17430 4368.97800    2.40670
 8580.00000    0.07670   15.16070    1.75260   19.29300 1946.14310    8.53590    7.83780    0.09370   60.81350   51.69880    7.99420   31.33510   24.06350    8.42130    0.05480    2.76830    0.01310    0.13150 4385.02100    2.48260
 8580.50000    0.06270   14.84450    1.76260   19.00410 1933.78600    8.33060    7.77860    0.08420   59.02180   50.29670   13.08370   34.98590   32.98430    8.06690    0.04200    2.71640    0.02140    0.09060 4401.06350    2.53880
 8581.00000    0.05650   14.46170    1.75710   18.81680 1934.11210    8.48210    7.71340    0.06910   56.89580   45.93020   20.05540   40.67840   27.82650    8.40730    0.03720    2.61960    0.01840    0.05580 4407.21340    2.59490
 8581.50000    0.05250   14.69720    1.75560   18.46800 1937.15670    8.73980    7.68920    0.05700   55.31700   42.53070   30.68150   48.56340   38.85220    8.59610    0.03470    2.52560    0.00490    0.05940 4370.71730    2.61940
 8582.00000    0.04980   15.44080    1.76450   17.91090 1940.83970    8.50500    7.68930    0.04770   54.13480   40.57630   42.01260   52.02390   50.42120    8.05730    0.03210    2.59760    0.00200    0.06650 4350.32470    2.61300
 8582.50000    0.04510   15.84610    1.77130   17.37820 1944.52260    7.77470    7.69170    0.04260   53.40820   37.93830   47.39090   52.50300   49.14760    7.12120    0.02910    2.71060   -0.00080    0.07430 4352.59620    2.59440
 8583.00000    0.04030   15.64070    1.76290   17.12280 1948.20560    7.08870    7.69290    0.04360   53.60330   33.67250   43.25330   54.10280   49.85570    6.75540    0.02530    2.76510   -0.00090    0.07500 4385.82130    2.59230
 8583.50000    0.03560   15.38420    1.73670   17.27700 1951.88870    6.85910    7.69330    0.04730   54.13860   30.67200   42.70050   65.00090   55.97390    7.07610    0.02310    2.71250    0.00220    0.07400 4408.79690    2.59960
 8584.00000    0.03490   15.43790    1.73070   17.47170 1955.70870    7.35820    7.69340    0.04970   54.40890   29.64980   47.48080   75.07520   62.84460    7.61380    0.02190    2.64820    0.00540    0.06520 4422.78660    2.60910
 8584.50000    0.03750   16.09240    1.72820   17.50000 1959.07750    7.98870    7.69350    0.04800   54.11890   29.64720   48.12020   73.99300   61.51280    8.23460    0.02300    2.60730    0.00650    0.06170 4409.11470    2.61020
 8585.00000    0.04310   17.64590    1.72260   17.42250 1962.36180    8.34960    7.68460    0.04500   53.60900   29.67600   42.12600   71.87870   60.08130    8.38330    0.02460    2.61320    0.00690    0.06580 4373.35600    2.60350
 8585.50000    0.05260   19.22060    1.71700   17.39890 1971.72300    8.28300    7.67570    0.04370   53.44800   29.75550   43.37650   77.79540   64.59510    8.19060    0.02580    2.61760    0.00750    0.07100 4361.92720    2.60020
