~Version ---------------------------------------------------
VERS.   2.0 : CWLS log ASCII Standard -VERSION 2.0
WRAP.    NO : One line per depth step
DLM . SPACE : Column Data Section Delimiter
~Well ------------------------------------------------------
STRT .F                 186.0 : START DEPTH
STOP .F                9080.0 : STOP DEPTH
STEP .F                   0.5 : STEP
NULL .               -9999.25 : NULL VALUE
COMP .                        : COMPANY
WELL .                        : WELL
FLD  .                        : FIELD
LOC  .                        : LOCATION
PROV .                        : PROVINCE
CNTY .                        : COUNTY
STAT .                        : STATE
CTRY .                        : COUNTRY
SRVC .                        : SERVICE COMPANY
DATE .                        : DATE
UWI  .                        : UNIQUE WELL ID
API  .                        : API NUMBER
SLAT .WGS84   1.6820631858774 : SURFACE LATITUDE
SLON .WGS84 7.087157923745991 : SURFACE LONGITUDE
DATUM.F               2565.68 : DEPTH DATUM ELEV
~Curve Information -----------------------------------------
DEPT    .F     : 1 MEASURED DEPTH
TPHI_LS .DEC   : TDT POROSITY [LIMESTONE]
GRT     .GAPI  : THEORETICAL GAMMA RAY VALUE TDT
CIRF_FIL.N/A   : RST CAPTURE TO INELASTIC RATIO FAR FILTERED
SIGM    .CU    : FORMATION SIGMA (NEUTRON CAPTURE CROSS SECTION)
TEN     .LB    : DIFFERENTIAL TENSION
GRS     .GAPI  : GAMMA RAY FROM SONIC LOG
HCALS   .IN    : HRCC CALIPER CALIBRATED FROM SONIC LOG
SPHI_LS .DEC   : SONIC POROSITY [LIMESTONE]
DTCO    .US/F  : DELTA-T COMPRESSIONAL
DTSM    .US/F  : DELTA-T SHEAR
RXO_HRLT.OHMM  : HRLT INVADED ZONE RESISTIVITY
RLA5    .OHMM  : APPARENT RESISTIVITY FROM COMPUTED FOCUSING MODE 5
RLA4    .OHMM  : APPARENT RESISTIVITY FROM COMPUTED FOCUSING MODE 4
GRD     .GAPI  : GAMMA RAY FROM DENSITY LOG
TNPH_LS .DEC   : THERMAL NEUTRON POROSITY [LIMESTONE]
PEFZ    .B/E   : HRDD STANDARD RESOLUTION FORMATION PHOTOELECTRIC FACTOR
HDRA    .G/C3  : HRDD SPINE AND RIBS DENSITY CORRECTION
DPHZ_LS .DEC   : HGRD STANDARD RESOLUTION DENSITY POROSITY
TEND    .LB    : TENSION FROM DENSITY LOG
RHOZ    .G/C3  : HRDD STANDARD RESOLUTION FORMATION DENSITY
~Params ----------------------------------------------------
~Other -----------------------------------------------------
~ASCII -----------------------------------------------------
# ...
 8988.50000   -9999.25   -9999.25   -9999.25   -9999.25 2071.22220  117.22760    7.81360    0.14760   67.81360   62.02500   21.88970   33.61390   29.19710   -9999.25   -9999.25    3.35660    0.00100   -0.00370 4498.65870    2.71590
 8989.00000   -9999.25   -9999.25   -9999.25   -9999.25 2071.06740  117.23290    7.81790    0.15100   68.28690   62.69200   23.06430   32.46930   27.47940   -9999.25   -9999.25    3.41000    0.00000    0.00030 4497.73970    2.71670
 8989.50000   -9999.25   -9999.25   -9999.25   -9999.25 2077.43970  117.23820    7.81320    0.15230   68.49100   62.84090   23.62820   29.82010   25.83090   -9999.25   -9999.25    3.45450   -0.00100    0.01050 4495.89060    2.71200
 8990.00000   -9999.25   -9999.25   -9999.25   -9999.25 2086.03540  117.24350    7.80730    0.15130   68.29720   62.48390   20.94980   27.04770   24.44540   -9999.25   -9999.25    3.41790   -0.00200    0.01770 4499.44820    2.68760
 8990.50000   -9999.25   -9999.25   -9999.25   -9999.25 2092.13700  117.24870    7.80170    0.14840   67.95320   61.53530   18.43900   26.79690   23.30210   -9999.25   -9999.25    3.35650   -0.00060    0.01890 4506.09080    2.68000
 8991.00000   -9999.25   -9999.25   -9999.25   -9999.25 2095.58230  117.25400    7.79640    0.14420   67.41920   60.56740   16.28430   27.23350   22.73540   -9999.25   -9999.25    3.33170    0.01310    0.01230 4511.28660    2.68190
 8991.50000   -9999.25   -9999.25   -9999.25   -9999.25 2077.73290  117.25930    7.79430    0.13960   66.74430   59.54030   15.46940   27.16320   21.80720   -9999.25   -9999.25    3.35150    0.03000   -0.00140 4544.55470    2.69820
 8992.00000   -9999.25   -9999.25   -9999.25   -9999.25 2061.94240  117.26460    7.79280    0.13420   65.95670   57.57160   15.08260   26.91200   21.93320   -9999.25   -9999.25    3.38090    0.04280   -0.01360 4555.01460    2.73020
 8992.50000   -9999.25   -9999.25   -9999.25   -9999.25 2048.06130  117.26990    7.79130    0.12870   65.26570   55.08790   14.93320   26.85290   22.32670   -9999.25   -9999.25    3.39160    0.03540   -0.01690 4557.36670    2.73820
 8993.00000   -9999.25   -9999.25   -9999.25   -9999.25 2066.14970  117.27520    7.79000    0.12060   64.37530   52.99190   15.13570   27.22310   22.30610   -9999.25   -9999.25    3.37700    0.02310   -0.00810 4532.03860    2.73540
 8993.50000   -9999.25   -9999.25   -9999.25   -9999.25 2100.89700  117.28040    7.78140    0.11290   63.07000   51.84290   14.60170   26.61420   22.17280   -9999.25   -9999.25   -9999.25   -9999.25   -9999.25 4495.15620   -9999.25
 8994.00000   -9999.25   -9999.25   -9999.25   -9999.25 2116.87840  117.28570    7.75110    0.10170   61.33040   51.19830   14.41430   26.78310   22.13770   -9999.25   -9999.25   -9999.25   -9999.25   -9999.25 4485.61130   -9999.25
 8994.50000   -9999.25   -9999.25   -9999.25   -9999.25 2106.77810  117.29100    7.72080    0.09290   60.32530   50.97740   14.86940   30.29860   24.46620   -9999.25   -9999.25   -9999.25   -9999.25   -9999.25 4505.36330   -9999.25
 8995.00000   -9999.25   -9999.25   -9999.25   -9999.25 2073.24100  117.29630    7.69050    0.09080   60.06040   51.32900   15.55330   32.87150   26.95410   -9999.25   -9999.25   -9999.25   -9999.25   -9999.25 4524.55470   -9999.25
 8995.50000   -9999.25   -9999.25   -9999.25   -9999.25 2050.17820  117.30140    7.66230    0.09050   60.11600   51.97000   16.12930   34.77430   29.36890   -9999.25   -9999.25   -9999.25   -9999.25   -9999.25 4543.44190   -9999.25
 8996.00000   -9999.25   -9999.25   -9999.25   -9999.25 2044.54700  117.30000    7.65360    0.09440   60.58390   52.41860   16.41270   35.36590   28.77820   -9999.25   -9999.25   -9999.25   -9999.25   -9999.25 4538.79050   -9999.25
 8996.50000   -9999.25   -9999.25   -9999.25   -9999.25 2076.86520  117.29870    7.64880    0.09840   61.28600   52.73180   16.67800   33.97620   26.59830   -9999.25   -9999.25   -9999.25   -9999.25   -9999.25 4506.39310   -9999.25
 8997.00000   -9999.25   -9999.25   -9999.25   -9999.25 2124.24830  117.29730    7.64870    0.10230   61.65750   52.79030    6.79510   29.75540   24.19810   -9999.25   -9999.25   -9999.25   -9999.25   -9999.25 4487.70610   -9999.25
 8997.50000   -9999.25   -9999.25   -9999.25   -9999.25 2152.98360  117.29600    7.62090    0.10340   61.81380   53.00550    0.24640   26.41890   21.51750   -9999.25   -9999.25   -9999.25   -9999.25   -9999.25 4489.66750   -9999.25
 8998.00000   -9999.25   -9999.25   -9999.25   -9999.25 2160.55590  117.29470    6.69880    0.10140   61.67160   53.68820    0.20380   25.95340   21.27730   -9999.25   -9999.25   -9999.25   -9999.25   -9999.25 4516.63280   -9999.25
 8998.50000   -9999.25   -9999.25   -9999.25   -9999.25 2144.95650  117.29340    4.01650    0.09940   61.35140   54.09130    0.19980   27.01240   21.38890   -9999.25   -9999.25   -9999.25   -9999.25   -9999.25 4539.39110   -9999.25
 8999.00000   -9999.25   -9999.25   -9999.25   -9999.25 2092.27100  117.29200    4.01650    0.09710   60.97740   54.09330    0.19930   28.11460   22.09390   -9999.25   -9999.25   -9999.25   -9999.25   -9999.25 4529.21920   -9999.25
 8999.50000   -9999.25   -9999.25   -9999.25   -9999.25 2044.11870  117.29070    4.01660    0.09520   60.69090   54.11630    0.19900   29.64650   23.63470   -9999.25   -9999.25   -9999.25   -9999.25   -9999.25 4507.00290   -9999.25
 9000.00000   -9999.25   -9999.25   -9999.25   -9999.25 2000.74340  117.28940    4.01670    0.09390   60.47530   54.26130    0.19870   32.36100   25.27990   -9999.25   -9999.25   -9999.25   -9999.25   -9999.25 4495.08590   -9999.25
 9000.50000   -9999.25   -9999.25   -9999.25   -9999.25 1967.59090  117.28800    4.01670    0.09370   60.39620   54.45790    0.19840   34.79880   26.50670   -9999.25   -9999.25   -9999.25   -9999.25   -9999.25 4487.17430   -9999.25
 9001.00000   -9999.25   -9999.25   -9999.25   -9999.25 1953.20280  117.28670    4.01680    0.09340   60.43580   54.69840    0.19850   35.11610   27.53000   -9999.25   -9999.25   -9999.25   -9999.25   -9999.25 4495.54740   -9999.25
 9001.50000   -9999.25   -9999.25   -9999.25   -9999.25 1948.79640  117.28540    4.01690    0.09580   60.79740   54.99720    0.19860   35.98560   28.54030   -9999.25   -9999.25   -9999.25   -9999.25   -9999.25 4557.64940   -9999.25
 9002.00000   -9999.25   -9999.25   -9999.25   -9999.25 1942.09900  117.28400    4.01690    0.10140   61.37980   55.34130    0.19860   35.87450   28.48650   -9999.25   -9999.25   -9999.25   -9999.25   -9999.25 4569.14060   -9999.25
 9002.50000   -9999.25   -9999.25   -9999.25   -9999.25 1935.07230  117.28270    4.01700    0.10440   61.88690   55.63350    0.19870   35.11810   28.38440   -9999.25   -9999.25   -9999.25   -9999.25   -9999.25 4563.93600   -9999.25
 9003.00000   -9999.25   -9999.25   -9999.25   -9999.25 1935.62660  117.28140    4.01710    0.10640   62.14530   55.63330    0.19880   30.67990   24.80190   -9999.25   -9999.25   -9999.25   -9999.25   -9999.25 4551.25630   -9999.25
 9003.50000   -9999.25   -9999.25   -9999.25   -9999.25 1928.71900  117.28000    4.01710    0.10670   62.25020   55.23710    0.19880   26.38530   21.86930   -9999.25   -9999.25   -9999.25   -9999.25   -9999.25 4541.85640   -9999.25
 9004.00000   -9999.25   -9999.25   -9999.25   -9999.25 1918.52950  117.27870    4.01720    0.10550   62.07580   54.72850    0.19890   25.52350   21.27590   -9999.25   -9999.25   -9999.25   -9999.25   -9999.25 4541.57520   -9999.25
 9004.50000   -9999.25   -9999.25   -9999.25   -9999.25 1912.83680  117.27740    4.01730    0.10380   61.81880   53.91800    0.19900   25.16990   21.47510   -9999.25   -9999.25   -9999.25   -9999.25   -9999.25 4578.10890   -9999.25
 9005.00000   -9999.25   -9999.25   -9999.25   -9999.25 1907.14600  117.27600    4.01730    0.09870   61.04020   53.26980    0.19900   25.04880   21.73410   -9999.25   -9999.25   -9999.25   -9999.25   -9999.25 4618.98100   -9999.25
 9005.50000   -9999.25   -9999.25   -9999.25   -9999.25 1901.82030  117.27470    4.01740    0.09330   60.35900   52.41860    0.19910   25.13450   22.18000   -9999.25   -9999.25   -9999.25   -9999.25   -9999.25 4599.34810   -9999.25
