~Version ---------------------------------------------------
VERS.   2.0 : CWLS log ASCII Standard -VERSION 2.0
WRAP.    NO : One line per depth step
DLM . SPACE : Column Data Section Delimiter
~Well ------------------------------------------------------
STRT .F                 186.0 : START DEPTH
STOP .F                9080.0 : STOP DEPTH
STEP .F                   0.5 : STEP
NULL .               -9999.25 : NULL VALUE
COMP .                        : COMPANY
WELL .                        : WELL
FLD  .                        : FIELD
LOC  .                        : LOCATION
PROV .                        : PROVINCE
CNTY .                        : COUNTY
STAT .                        : STATE
CTRY .                        : COUNTRY
SRVC .                        : SERVICE COMPANY
DATE .                        : DATE
UWI  .                        : UNIQUE WELL ID
API  .                        : API NUMBER
SLAT .WGS84   1.6820631858774 : SURFACE LATITUDE
SLON .WGS84 7.087157923745991 : SURFACE LONGITUDE
DATUM.F               2565.68 : DEPTH DATUM ELEV
~Curve Information -----------------------------------------
DEPT    .F     : 1 MEASURED DEPTH
TPHI_LS .DEC   : TDT POROSITY [LIMESTONE]
GRT     .GAPI  : THEORETICAL GAMMA RAY VALUE TDT
CIRF_FIL.N/A   : RST CAPTURE TO INELASTIC RATIO FAR FILTERED
SIGM    .CU    : FORMATION SIGMA (NEUTRON CAPTURE CROSS SECTION)
TEN     .LB    : DIFFERENTIAL TENSION
GRS     .GAPI  : GAMMA RAY FROM SONIC LOG
HCALS   .IN    : HRCC CALIPER CALIBRATED FROM SONIC LOG
SPHI_LS .DEC   : SONIC POROSITY [LIMESTONE]
DTCO    .US/F  : DELTA-T COMPRESSIONAL
DTSM    .US/F  : DELTA-T SHEAR
RXO_HRLT.OHMM  : HRLT INVADED ZONE RESISTIVITY
RLA5    .OHMM  : APPARENT RESISTIVITY FROM COMPUTED FOCUSING MODE 5
RLA4    .OHMM  : APPARENT RESISTIVITY FROM COMPUTED FOCUSING MODE 4
GRD     .GAPI  : GAMMA RAY FROM DENSITY LOG
TNPH_LS .DEC   : THERMAL NEUTRON POROSITY [LIMESTONE]
PEFZ    .B/E   : HRDD STANDARD RESOLUTION FORMATION PHOTOELECTRIC FACTOR
HDRA    .G/C3  : HRDD SPINE AND RIBS DENSITY CORRECTION
DPHZ_LS .DEC   : HGRD STANDARD RESOLUTION DENSITY POROSITY
TEND    .LB    : TENSION FROM DENSITY LOG
RHOZ    .G/C3  : HRDD STANDARD RESOLUTION FORMATION DENSITY
~Params ----------------------------------------------------
~Other -----------------------------------------------------
~ASCII -----------------------------------------------------
# ...
 5996.00000    0.07140   85.95030    2.89810    9.42780 1384.13950   69.33760    7.94810   -0.01280   45.75070   83.26190  116.67980  618.84160  573.30050   67.89380    0.02820    3.36230    0.01480   -0.07880 3972.10690    2.84170
 5996.50000    0.06790   86.89140    2.90950    9.39440 1384.02010   78.13260    7.95330   -0.01140   45.97260   83.57090  102.11850  531.74450  449.48450   76.18050    0.02910    3.40010    0.02420   -0.08380 3986.79880    2.84940
 5997.00000    0.06210   88.54230    3.01680    8.88110 1386.24300   87.45920    7.95780   -0.01030   46.09970   83.53740  104.45610  343.03560  274.90050   86.47550    0.03200    3.42920    0.03010   -0.08670 4001.49070    2.84990
 5997.50000    0.05820   90.17890    3.11570    8.39940 1392.88000   97.69680    7.97800   -0.01060   46.04550   83.43840   87.75370  192.39270  138.67730   96.88480    0.03760    3.42410    0.02500   -0.08310 4016.18290    2.84050
 5998.00000    0.05810   91.02350    3.18990    8.09170 1395.59630  104.02200    7.96080   -0.01240   45.86490   83.37660   36.29360  128.56370  124.21460  104.19530    0.04350    3.41360    0.01470   -0.07440 4030.87480    2.82710
 5998.50000    0.05880   90.80190    3.18690    7.92570 1397.63790  104.88300    7.94230   -0.01460   45.56250   83.31520   36.50770  126.28240  124.15800  105.76890    0.04490    3.43830    0.00570   -0.06850 4045.56690    2.82300
 5999.00000    0.05950   90.42840    3.15430    8.00610 1394.65810   97.76600    7.94710   -0.01480   45.40460   82.92350  113.28980  132.74990  127.73370   99.27920    0.04230    3.46300   -0.00150   -0.06780 4053.32740    2.82320
 5999.50000    0.05930   90.22360    3.11620    8.13500 1390.74550   86.08260    7.95260   -0.01490   45.45860   82.30260  204.04520  146.62410  133.80350   85.31680    0.03590    3.45850   -0.00370   -0.07190 4044.82470    2.82530
 6000.00000    0.05900   90.58070    3.12490    8.18980 1391.35910   72.73770    7.95840   -0.01440   45.63010   82.81200  165.90240  160.58520  141.55600   72.81820    0.03010    3.45600   -0.00240   -0.07310 4036.32180    2.82810
 6000.50000    0.05920   90.91010    3.13640    8.23380 1393.19690   65.93430    7.96430   -0.01350   45.71560   84.25670  176.16640  156.49890  139.75060   66.29170    0.02820    3.46480   -0.00330   -0.07160 4027.81880    2.82810
 6001.00000    0.06130   90.52150    3.10540    8.29840 1390.74320   63.69000    7.97020   -0.01330   45.76820   84.76920  116.18410  155.70090  134.36150   63.84060    0.02920    3.53330   -0.00620   -0.06540 4019.31590    2.82130
 6001.50000    0.06500   89.24390    3.00330    8.53370 1382.70510   59.65210    7.97610   -0.01320   45.82710   84.53240   77.10820  360.33440  172.80090   60.33770    0.03030    3.57630   -0.00350   -0.06340 4010.81320    2.81640
 6002.00000    0.07330   86.58470    2.87860    9.19970 1378.13940   52.89490    7.98200   -0.01280   45.88700   84.90940   88.00010  999.81940  476.16740   53.13870    0.02770    3.57920    0.00330   -0.06470 4002.31030    2.81540
 6002.50000    0.08470   82.74920    2.77700   10.07750 1381.54270   46.34240    7.98790   -0.01110   46.00810   88.61100  152.84670  774.86910  543.39610   46.20450    0.02470    3.53960    0.00650   -0.07000 4000.65430    2.81850
 6003.00000    0.09080   79.60990    2.68980   10.72910 1384.95020   49.76230    7.99380   -0.00880   46.38850   95.34690  233.97260  354.61610  297.40430   49.20100    0.02290    3.45830    0.00350   -0.07190 4003.24900    2.82350
 6003.50000    0.09690   76.86570    2.74070   10.69790 1385.10620   56.85290    7.99970   -0.00430   47.01480   99.53940  239.46470  181.31680  245.05140   54.62120    0.02720    3.37060    0.00180   -0.07340 3996.18310    2.82710
 6004.00000    0.10690   74.90680    2.83300   10.35580 1384.02170   63.02970    8.00010    0.00070   47.72020   97.02320  234.98670  184.29370  238.93990   61.76510    0.03480    3.37300    0.00180   -0.06830 4001.68410    2.82820
 6004.50000    0.11750   69.63490    2.92970   10.07060 1383.26650   65.23650    8.00020    0.00470   48.29990   89.66600  218.49450  226.59700  231.93000   65.10420    0.04240    3.38340    0.00210   -0.06430 4007.18530    2.82680
 6005.00000    0.12590   65.33420    2.97890   10.19560 1388.02150   64.02190    8.02240    0.00740   48.67130   85.59420  198.88180  267.09000  210.28180   64.71930    0.04940    3.42810    0.00240   -0.05560 4025.32080    2.81790
 6005.50000    0.13060   64.14540    3.01340   10.62160 1385.69190   58.24160    8.04090    0.00880   48.78310   85.74240   72.61540  174.14500  109.63810   59.74280    0.05550    3.39280    0.00270   -0.04110 4044.21510    2.80730
 6006.00000    0.12010   66.94770    3.09170   10.79880 1386.76920   49.82090    8.06840    0.00970   48.86990   86.22410   55.51680   77.68590   64.53690   50.89760    0.06110    3.31510    0.00300   -0.02930 4029.31250    2.78580
 6006.50000    0.10170   72.56260    3.21000   10.21790 1390.34330   40.67900    8.07930    0.01090   49.05030   86.91130   40.60330   62.40630   58.60590   42.20320    0.07230    3.23230    0.00370   -0.02190 4009.63230    2.76800
 6007.00000    0.08820   77.77450    3.29970    9.50210 1394.16440   34.94310    8.07580    0.01130   49.17300   87.32930   43.86840   99.88180   75.43130   35.08140    0.08750    3.17290    0.00470   -0.01840 4011.07080    2.75040
 6007.50000    0.07890   81.74110    3.31280    8.75140 1396.57690   32.64520    8.07990    0.00870   48.62060   87.13620   71.70090  173.28900  137.48560   32.36860    0.10530    3.16630    0.00550   -0.01860 4022.99290    2.74240
 6008.00000    0.07450   83.94140    3.25160    8.49090 1398.22720   32.56310    8.07650    0.00340   47.83290   86.67470  113.65810  185.89350  182.50420   32.09780    0.11210    3.18830    0.00370   -0.02190 4014.24710    2.74060
 6008.50000    0.07310   84.94700    3.01000    8.83110 1399.53020   33.37040    8.07180   -0.00250   47.11770   86.10400  196.91600  379.44390  340.27500   32.96210    0.09410    3.24440    0.00110   -0.02650 3969.71950    2.74460
 6009.00000    0.07240   85.36300    2.86670    9.19500 1396.97060   34.06750    8.07130   -0.00570   46.79940   85.28060  347.88820  811.96720  801.98410   33.68150    0.07200    3.27520   -0.00160   -0.03420 3925.83130    2.75180
 6009.50000    0.07130   85.64050    2.88560    9.39740 1389.54140   36.01400    8.06810   -0.00730   46.55100   84.83990  117.86830  749.37030  724.44370   35.69490    0.04790    3.25770    0.00100   -0.04600 3907.99930    2.76210
 6010.00000    0.06590   86.45810    2.95780    8.88910 1389.20200   44.70710    8.06660   -0.00710   46.56310   84.33500   93.41280  548.75100  487.05920   42.43630    0.04100    3.23020    0.00470   -0.05580 3943.54390    2.78140
 6010.50000    0.06370   87.90100    3.08200    8.32750 1392.69960   54.82520    8.06170   -0.00510   46.83150   83.96990   57.35980  414.96710  304.11160   52.47970    0.04510    3.23080    0.00240   -0.05940 3974.17870    2.79330
 6011.00000    0.05850   89.78320    3.16550    7.80820 1396.20530   62.96820    8.05960   -0.00410   47.01550   84.73950   59.42700  125.45150   93.16850   61.66360    0.05170    3.28780   -0.00030   -0.05900 3994.10940    2.79920
 6011.50000    0.05410   91.79420    3.23250    7.49750 1392.90590   60.97360    8.06150   -0.00490   46.90580   85.84400   76.29540  171.09410  133.00870   62.88370    0.05560    3.35600   -0.00270   -0.05930 3975.06670    2.80510
 6012.00000    0.05210   93.39570    3.26790    7.39910 1389.60280   57.63770    8.06920   -0.00690   46.54310   86.53570  416.66080  131.80810  105.47430   59.12680    0.04950    3.40140   -0.00480   -0.06120 3923.44290    2.80690
 6012.50000    0.05270   93.18580    3.31930    7.39150 1386.30180   58.59940    8.10800   -0.01020   45.97300   86.15570  261.73840   88.39790   78.75090   56.89890    0.04130    3.40500   -0.00380   -0.06400 3909.54080    2.80800
 6013.00000    0.05460   92.17120    3.36200    7.43360 1383.87880   59.07790    8.15950   -0.01520   45.29310   85.42400   91.51750   96.71040   89.20690   58.25350    0.03380    3.38330    0.01020   -0.08320 3991.87990    2.81300
