~Version ---------------------------------------------------
VERS.   2.0 : CWLS log ASCII Standard -VERSION 2.0
WRAP.    NO : One line per depth step
DLM . SPACE : Column Data Section Delimiter
~Well ------------------------------------------------------
STRT .F                 186.0 : START DEPTH
STOP .F                9080.0 : STOP DEPTH
STEP .F                   0.5 : STEP
NULL .               -9999.25 : NULL VALUE
COMP .                        : COMPANY
WELL .                        : WELL
FLD  .                        : FIELD
LOC  .                        : LOCATION
PROV .                        : PROVINCE
CNTY .                        : COUNTY
STAT .                        : STATE
CTRY .                        : COUNTRY
SRVC .                        : SERVICE COMPANY
DATE .                        : DATE
UWI  .                        : UNIQUE WELL ID
API  .                        : API NUMBER
SLAT .WGS84   1.6820631858774 : SURFACE LATITUDE
SLON .WGS84 7.087157923745991 : SURFACE LONGITUDE
DATUM.F               2565.68 : DEPTH DATUM ELEV
~Curve Information -----------------------------------------
DEPT    .F     : 1 MEASURED DEPTH
TPHI_LS .DEC   : TDT POROSITY [LIMESTONE]
GRT     .GAPI  : THEORETICAL GAMMA RAY VALUE TDT
CIRF_FIL.N/A   : RST CAPTURE TO INELASTIC RATIO FAR FILTERED
SIGM    .CU    : FORMATION SIGMA (NEUTRON CAPTURE CROSS SECTION)
TEN     .LB    : DIFFERENTIAL TENSION
GRS     .GAPI  : GAMMA RAY FROM SONIC LOG
HCALS   .IN    : HRCC CALIPER CALIBRATED FROM SONIC LOG
SPHI_LS .DEC   : SONIC POROSITY [LIMESTONE]
DTCO    .US/F  : DELTA-T COMPRESSIONAL
DTSM    .US/F  : DELTA-T SHEAR
RXO_HRLT.OHMM  : HRLT INVADED ZONE RESISTIVITY
RLA5    .OHMM  : APPARENT RESISTIVITY FROM COMPUTED FOCUSING MODE 5
RLA4    .OHMM  : APPARENT RESISTIVITY FROM COMPUTED FOCUSING MODE 4
GRD     .GAPI  : GAMMA RAY FROM DENSITY LOG
TNPH_LS .DEC   : THERMAL NEUTRON POROSITY [LIMESTONE]
PEFZ    .B/E   : HRDD STANDARD RESOLUTION FORMATION PHOTOELECTRIC FACTOR
HDRA    .G/C3  : HRDD SPINE AND RIBS DENSITY CORRECTION
DPHZ_LS .DEC   : HGRD STANDARD RESOLUTION DENSITY POROSITY
TEND    .LB    : TENSION FROM DENSITY LOG
RHOZ    .G/C3  : HRDD STANDARD RESOLUTION FORMATION DENSITY
~Params ----------------------------------------------------
~Other -----------------------------------------------------
~ASCII -----------------------------------------------------
# ...
 2583.50000    0.12650   14.65420    1.38270   26.67370  738.96340    8.25280   10.74730    0.03390   52.26550   97.98200  133.48200  600.80560  509.45340    8.13500    0.03420    5.46600    0.00210   -0.11830 2915.64450    2.90840
 2584.00000    0.13530   14.34000    1.37630   27.42410  739.16410    7.94550   10.76060    0.03300   52.11220   97.77910  106.99820  187.53790  163.71280    7.99730    0.03320    5.45340    0.00030   -0.12590 2890.50070    2.92940
 2584.50000    0.15250   14.85920    1.31830   28.20180  739.36490    8.02850   10.77910    0.03080   51.87910   97.23190  142.79720  459.24940  221.17160    7.90160    0.03430    5.47500    0.00010   -0.13660 2887.96190    2.95090
 2585.00000    0.18820   16.07110    1.25990   29.36400  739.56570    7.96320   10.78640    0.02810   51.40870   96.28990  500.36450 1326.05830  987.47340    7.80170    0.03320    5.49660    0.00010   -0.15390 2870.64040    2.97170
 2585.50000    0.24910   18.19320    1.13950   30.95920  739.76650    7.29880   10.76310    0.02560   51.09060   95.22980 1564.56160 5831.60450 2311.70730    7.30300    0.02410    5.49440    0.00020   -0.16320 2852.63720    2.98130
 2586.00000    0.29880   20.82890    0.97190   34.02550  739.96740    6.42650   10.75860    0.02460   50.93680   94.41650 1927.47130 13248.45410 6811.47220    6.30090    0.01250    5.43380    0.00100   -0.16900 2861.76270    2.97910
 2586.50000    0.29880   23.23450    0.85270   37.54210  740.24020    5.39410   10.77360    0.02500   50.87660   97.28910 2548.79050 7669.44530 5509.69730    5.33580    0.00870    5.37350    0.00220   -0.16570 2845.55980    2.97360
 2587.00000    0.29880   25.94960    0.86480   40.82210  740.54660    5.02310   10.80210    0.02780   51.22450  101.69320 1900.35740 3947.00100 1995.92490    4.98760    0.01120    5.34460   -0.00560   -0.16090 2843.86250    2.97210
 2587.50000   -9999.25   27.34940    0.88310   41.47070  740.85290    6.11160   10.83010    0.03490   52.84420  102.44430  567.07300 1410.81270  797.07690    5.76170    0.01760    5.27270   -0.00820   -0.16210 2841.24370    2.97140
 2588.00000   -9999.25   27.53550    0.92310   41.25150  741.15930    9.81940   10.86140    0.06090   55.73140  103.20680  129.17260  612.55910  343.19510    8.90150    0.02940    4.97240   -0.00810   -0.16090 2829.33470    2.95490
 2588.50000   -9999.25   27.46440    0.96180   40.38960  741.46560   17.89450   10.90530    0.08440   59.75720  107.63820   44.76700  244.72810  117.60230   15.83520    0.04570    4.55230   -0.00600   -0.14010 2824.33720    2.87890
 2589.00000   -9999.25   27.33010    0.97260   39.45420  741.88760   27.06530   10.92980    0.11510   63.68750  114.61990   15.51480   69.46610   32.92890   25.10540    0.07330    4.17340   -0.00070   -0.08940 2840.68020    2.79000
 2589.50000   -9999.25   26.81850    0.94940   38.70110  742.36130   35.32830   10.95050    0.13750   67.18350  119.21990    8.60110   19.52540   13.26160   33.20120    0.10390    3.99910    0.00510   -0.04330 2842.82060    2.70830
 2590.00000   -9999.25   26.70110    0.90920   38.20530  742.83500   40.87110   10.97130    0.15740   68.73600  124.56670    6.15240   12.94450   10.06980   40.58820    0.15120    3.88190    0.01110    0.01650 2836.06590    2.65460
 2590.50000   -9999.25   27.39730    0.86940   39.32460  743.30870   43.31980   10.99200    0.15990   69.29300  126.95680    6.02190   11.07380    9.41520   44.48320    0.16860    3.78320    0.00950    0.04060 2823.31320    2.62550
 2591.00000   -9999.25   29.73120    0.83360   40.17110  743.78250   43.45110   11.01770    0.15460   68.79850  127.53290    5.97410   14.07880   11.78570   42.35800    0.15490    3.70510    0.00160    0.05450 2835.98630    2.62650
 2591.50000   -9999.25   31.42990    0.80840   40.98620  744.25620   41.55880   11.03720    0.14690   67.90360  127.21640    9.00690   26.38680   19.03750   40.00260    0.13890    3.72910   -0.00210    0.04290 2804.71560    2.63670
 2592.00000   -9999.25   32.63830    0.79310   41.14890  744.72990   39.43680   11.03580    0.14520   67.64590  126.87650   15.97200   37.26560   29.63890   38.60440    0.13410    3.77270    0.00030    0.04040 2815.04590    2.64810
 2592.50000   -9999.25   34.96120    0.81320   40.93000  745.20360   38.82160   11.02120    0.15080   69.41790  128.38090   15.60890   31.30730   23.78880   38.84970    0.14010    3.72700    0.00990    0.04670 2821.04030    2.64160
 2593.00000    0.29850   37.69390    0.86720   39.53670  745.67730   38.94110   11.08720    0.16420   72.17210  130.72740    9.75870   16.61810   15.11300   39.82170    0.15700    3.66880    0.01630    0.05910 2803.75850    2.62890
 2593.50000    0.29880   36.12580    0.93810   37.62280  742.50460   39.59130   11.15100    0.18110   76.28810  132.74570    6.69490   13.38960   11.85820   41.58830    0.17530    3.70150    0.01310    0.07240 2812.38720    2.61150
 2594.00000    0.28200   31.75310    1.01050   35.75170  736.54590   41.76000   11.19470    0.19590   79.83000  134.53340    5.63810   13.03890   11.10080   44.28250    0.18550    3.83800    0.00450    0.07690 2820.86250    2.59630
 2594.50000    0.27590   28.64680    1.04040   34.35860  735.74640   44.64790   11.23830    0.20490   81.46740  135.72780    6.00400   12.49590   10.98050   46.78710    0.19270    4.03190    0.00080    0.06730 2823.78830    2.58900
 2595.00000    0.29820   26.89180    1.01380   34.82320  735.54580   47.40950   11.26400    0.20140   78.47110  135.17960    6.83130   11.67070   10.90040   47.10220    0.19460    4.24880    0.01180    0.04940 2835.16060    2.60290
 2595.50000    0.29830   25.85400    0.95000   36.04510  735.39150   47.18030   11.24250    0.18870   73.92370  132.65150    6.82540   10.44660    9.99410   42.96170    0.17720    4.51300    0.03390    0.02220 2840.09790    2.62330
 2596.00000    0.29850   24.27370    0.93340   36.65790  735.83110   43.73770   11.17090    0.16380   69.72200  127.54800    4.98400    9.63680    8.99660   34.30370    0.12200    4.89180    0.06800   -0.04010 2820.30790    2.66910
 2596.50000    0.29870   21.92720    0.95810   36.59060  736.27080   35.02740   11.05170    0.13200   65.53970  121.50790    4.62660   21.69090   11.57660   25.08700    0.07660    5.35620    0.12670   -0.07620 2833.60160    2.74250
 2597.00000    0.29880   19.62320    1.00100   35.75990  736.71040   25.02710   10.92190    0.11300   62.75780  117.31730    6.17210   76.52020   50.74480   16.99760    0.06670    5.48660    0.14940   -0.06680 2842.43530    2.84000
 2597.50000    0.29000   17.53050    1.05060   33.52790  737.15010   18.53690   10.78600    0.09830   61.22400  114.32410   12.82580  140.62490   96.39860   18.42550    0.08240    5.42530    0.15780   -0.03000 2846.00240    2.84100
 2598.00000    0.24740   17.63970    1.13700   31.11380  737.58970   17.65730   10.70920    0.09710   61.11930  113.19390   11.98200   82.83550   51.81860   21.46320    0.10050    5.36830    0.16520   -0.01240 2849.56960    2.80100
 2598.50000    0.20720   19.26000    1.22660   28.42290  738.02940   20.74100   10.63800    0.10530   62.15840  114.07450    7.85150   31.95850   27.10380   22.04720    0.10770    5.33630    0.17540   -0.00860 2839.15280    2.72920
 2599.00000    0.17700   19.87060    1.32380   26.47960  738.46910   22.30570   10.63480    0.11470   63.52640  115.64160    6.70620   39.58150   33.71180   21.05640    0.10590    5.34940    0.18290   -0.00850 2830.68480    2.72550
 2599.50000    0.14280   18.63810    1.38860   25.54230  738.90870   20.74480   10.63570    0.11930   64.04400  114.45040    6.51090   57.25240   45.46390   19.78560    0.10230    5.35900    0.18360   -0.01140 2827.90480    2.73580
 2600.00000    0.10850   16.42300    1.41260   25.39790  739.34830   18.25420   10.63650    0.11290   62.73020  111.69360    4.99220   42.52760   26.30350   18.40430    0.09690    5.36350    0.18110   -0.01680 2825.12500    2.78110
 2600.50000    0.09370   14.02720    1.43570   25.20450  739.78800   16.32760   10.64960    0.09140   60.22360  108.85420    4.06660   27.22540   24.61370   17.02310    0.09000    5.37020    0.17660   -0.02260 2822.34500    2.82630
