~Version ---------------------------------------------------
VERS.   2.0 : CWLS log ASCII Standard -VERSION 2.0
WRAP.    NO : One line per depth step
DLM . SPACE : Column Data Section Delimiter
~Well ------------------------------------------------------
STRT .F                 186.0 : START DEPTH
STOP .F                9080.0 : STOP DEPTH
STEP .F                   0.5 : STEP
NULL .               -9999.25 : NULL VALUE
COMP .                        : COMPANY
WELL .                        : WELL
FLD  .                        : FIELD
LOC  .                        : LOCATION
PROV .                        : PROVINCE
CNTY .                        : COUNTY
STAT .                        : STATE
CTRY .                        : COUNTRY
SRVC .                        : SERVICE COMPANY
DATE .                        : DATE
UWI  .                        : UNIQUE WELL ID
API  .                        : API NUMBER
SLAT .WGS84   1.6820631858774 : SURFACE LATITUDE
SLON .WGS84 7.087157923745991 : SURFACE LONGITUDE
DATUM.F               2565.68 : DEPTH DATUM ELEV
~Curve Information -----------------------------------------
DEPT    .F     : 1 MEASURED DEPTH
TPHI_LS .DEC   : TDT POROSITY [LIMESTONE]
GRT     .GAPI  : THEORETICAL GAMMA RAY VALUE TDT
CIRF_FIL.N/A   : RST CAPTURE TO INELASTIC RATIO FAR FILTERED
SIGM    .CU    : FORMATION SIGMA (NEUTRON CAPTURE CROSS SECTION)
TEN     .LB    : DIFFERENTIAL TENSION
GRS     .GAPI  : GAMMA RAY FROM SONIC LOG
HCALS   .IN    : HRCC CALIPER CALIBRATED FROM SONIC LOG
SPHI_LS .DEC   : SONIC POROSITY [LIMESTONE]
DTCO    .US/F  : DELTA-T COMPRESSIONAL
DTSM    .US/F  : DELTA-T SHEAR
RXO_HRLT.OHMM  : HRLT INVADED ZONE RESISTIVITY
RLA5    .OHMM  : APPARENT RESISTIVITY FROM COMPUTED FOCUSING MODE 5
RLA4    .OHMM  : APPARENT RESISTIVITY FROM COMPUTED FOCUSING MODE 4
GRD     .GAPI  : GAMMA RAY FROM DENSITY LOG
TNPH_LS .DEC   : THERMAL NEUTRON POROSITY [LIMESTONE]
PEFZ    .B/E   : HRDD STANDARD RESOLUTION FORMATION PHOTOELECTRIC FACTOR
HDRA    .G/C3  : HRDD SPINE AND RIBS DENSITY CORRECTION
DPHZ_LS .DEC   : HGRD STANDARD RESOLUTION DENSITY POROSITY
TEND    .LB    : TENSION FROM DENSITY LOG
RHOZ    .G/C3  : HRDD STANDARD RESOLUTION FORMATION DENSITY
~Params ----------------------------------------------------
~Other -----------------------------------------------------
~ASCII -----------------------------------------------------
# ...
 4298.50000    0.11680   68.75230    2.71890   10.51940 1072.30540   23.45720    8.36070    0.00980   48.98310   88.59840   28.35300   66.00080   49.19730   22.62020    0.06770    3.40820    0.00190   -0.03060 3452.92850    2.76890
 4299.00000    0.11520   68.95130    2.69820   10.77350 1076.83970   21.83240    8.35790    0.01240   49.32460   88.47170   19.88040   45.48610   37.15770   21.62090    0.07190    3.31840    0.00180   -0.04320 3449.41940    2.79800
 4299.50000    0.11120   70.44250    2.67590   10.86210 1081.52100   21.78880    8.35510    0.01510   49.63270   88.48130   20.73470  200.32420   63.88890   22.05500    0.07330    3.31020    0.00200   -0.05350 3437.58720    2.79860
 4300.00000    0.10780   71.75720    2.64540   10.81900 1083.55210   21.97030    8.35240    0.01680   49.87100   88.65080   24.19450  144.28020   49.85020   22.27620    0.07450    3.38150   -0.00140   -0.04700 3454.01930    2.76950
 4300.50000    0.10700   72.42430    2.63680   10.73660 1080.26100   22.01720    8.34960    0.01840   50.07940   88.82030   37.90320   43.39740   30.48750   22.27660    0.07730    3.49020   -0.00480   -0.02580 3479.34030    2.72960
 4301.00000    0.10900   71.97500    2.65010   10.73270 1076.87000   22.20690    8.34690    0.01990   50.30640   88.88120   59.37940   76.72400   28.97920   22.44410    0.08460    3.54990   -0.00630   -0.01000 3478.74950    2.72950
 4301.50000    0.11300   70.58070    2.64100   10.95460 1076.89280   22.69150    8.34410    0.02080   50.43510   88.94800   55.77330   83.11670   60.54710   22.87950    0.08660    3.50400   -0.00550   -0.01280 3466.02510    2.73550
 4302.00000    0.11500   69.45670    2.57700   11.36380 1078.85250   23.28250    8.34130    0.02000   50.45340   89.04280   26.29070   60.54450   57.05820   23.27200    0.08440    3.42820   -0.00510   -0.02060 3464.10180    2.74490
 4302.50000    0.11130   70.41210    2.49290   11.77610 1080.75830   23.31380    8.33860    0.02010   50.36170   89.10640   25.11090   49.41510   46.29880   23.47490    0.08360    3.40590   -0.00510   -0.02450 3476.28760    2.74950
 4303.00000    0.09890   74.24850    2.47320   11.66740 1081.30240   23.50870    8.33580    0.01970   50.31490   89.12730   26.22740   46.38210   44.88140   23.92410    0.08450    3.39070   -0.00540   -0.02510 3483.07960    2.75280
 4303.50000    0.08200   79.84500    2.58100   10.78390 1083.26790   25.28170    8.33460    0.02020   50.33280   89.05380   25.59640   47.16600   45.33170   25.82440    0.08380    3.36350   -0.00490   -0.02760 3473.68850    2.75750
 4304.00000    0.07030   84.64250    2.69250    9.91890 1081.53270   28.15290    8.33560    0.02120   50.32060   88.53920   27.99670   52.87040   49.08160   28.09650    0.08120    3.33810   -0.00320   -0.03200 3478.60670    2.76350
 4304.50000    0.06960   86.61060    2.80500    9.10770 1077.95250   31.25080    8.33660    0.02000   50.22360   87.97030   35.42190   71.17730   59.79180   31.58810    0.07850    3.30420   -0.00100   -0.03580 3480.86110    2.77530
 4305.00000    0.07280   85.85690    2.82390    8.90020 1083.08110   34.45380    8.33760    0.01440   49.54280   87.72110   35.54000   66.75330   61.37810   34.28800    0.07650    3.25330   -0.00010   -0.04130 3473.15310    2.78540
 4305.50000    0.07620   84.00690    2.82450    9.04970 1082.38000   36.90970    8.33810    0.00720   48.62110   87.35360   32.37760   74.63800   63.37780   36.43120    0.07470    3.22460   -0.00060   -0.04590 3475.85990    2.80890
 4306.00000    0.07970   82.72580    2.82410    9.32100 1080.57630   32.74480    8.33370   -0.00070   47.41270   85.60670   46.11080  367.26720  135.78940   34.38710    0.07120    3.20400   -0.00130   -0.05570 3480.12570    2.83290
 4306.50000    0.08300   81.61100    2.81280    9.54580 1084.98060   26.75720    8.32940   -0.00620   46.57360   83.59340  101.80290 2736.38180 1328.34330   30.26150    0.05960    3.21550   -0.00140   -0.06770 3484.39160    2.83920
 4307.00000    0.08750   80.16810    2.75120    9.87800 1094.59450   22.65810    8.32500   -0.01100   46.09190   82.90050  201.89530  916.93580  307.37330   24.43560    0.04600    3.22980    0.00030   -0.07890 3493.00490    2.82880
 4307.50000    0.09570   77.32880    2.63050   10.67010 1078.14470   23.39400    8.32070   -0.01080   46.09110   84.41130  159.43890  241.39450  121.43470   23.29180    0.04090    3.24940    0.00200   -0.07920 3508.51490    2.81090
 4308.00000    0.10300   74.49120    2.39250   12.34390 1083.41100   24.45350    8.31630   -0.00930   46.30730   85.56750  100.00960  152.52330  140.76470   24.07290    0.04380    3.29630    0.00230   -0.06590 3524.23950    2.80740
 4308.50000    0.10690   72.50900    2.15150   14.13690 1087.04280   23.32880    8.31200   -0.00780   46.48040   86.60320   97.62460  227.82510  162.80040   23.89200    0.04510    3.35480    0.00370   -0.06120 3539.03710    2.82120
 4309.00000    0.10840   71.93100    2.00580   15.66360 1080.65780   21.70830    8.30760   -0.00380   46.84770   87.88250  124.04300  396.07450  277.95880   22.19230    0.04270    3.35410    0.00350   -0.06620 3551.53320    2.84580
 4309.50000    0.11420   69.68980    1.87350   16.51910 1080.79320   20.70770    8.30330    0.00170   47.80710   88.77290  198.30230 1005.95760  590.52120   20.71290    0.03940    3.35330    0.00180   -0.08180 3516.28120    2.82580
 4310.00000    0.11870   67.86610    1.90040   15.86610 1085.39550   23.45560    8.30650    0.01200   49.42340   89.34690  217.20300  467.95640  343.86930   23.70280    0.03910    3.37230   -0.00260   -0.08440 3484.16940    2.80300
 4310.50000    0.11640   69.28690    2.00750   14.75650 1090.65300   28.91910    8.31020    0.02550   51.21690   90.49760  113.11200  169.25730  147.03080   28.02420    0.04510    3.39470   -0.00450   -0.07140 3475.67750    2.80280
 4311.00000    0.10520   72.10810    2.15980   13.70780 1086.20230   35.51170    8.31570    0.03090   52.13350   92.11520   65.91340   91.54810   75.72310   34.05820    0.05240    3.36670   -0.00490   -0.06090 3494.38770    2.80900
 4311.50000    0.09730   75.50300    2.31960   12.71180 1086.18140   42.35220    8.32750    0.03400   52.29930   93.09160   42.87920   55.51880   51.71600   40.67370    0.06500    3.35170   -0.00390   -0.05690 3501.39430    2.81860
 4312.00000    0.09500   76.72260    2.47220   11.68250 1089.38500   43.47010    8.33920    0.03140   51.93930   92.07440   41.11320   54.29380   51.40730   44.01830    0.07870    3.35610   -0.00240   -0.06030 3497.25980    2.82540
 4312.50000    0.09660   76.66720    2.60690   10.82840 1090.86010   40.55760    8.35100    0.02520   50.93990   90.59790   52.53250  129.65800   76.92220   41.22480    0.07950    3.36240   -0.00090   -0.06420 3500.29960    2.82210
 4313.00000    0.09670   76.49640    2.70940   10.19550 1087.32750   36.00540    8.36280    0.01760   49.99270   89.35000   73.32540  113.48600  107.49930   35.88780    0.07680    3.33300    0.00060   -0.07070 3501.76220    2.81060
 4313.50000    0.09590   76.48900    2.75850    9.94230 1084.75830   32.83330    8.36720    0.01410   49.44270   88.91650   64.55210   90.89680   76.85790   32.12340    0.07190    3.30840    0.00110   -0.07000 3498.46920    2.79540
 4314.00000    0.09600   76.64050    2.75930    9.83420 1081.02930   31.28610    8.36180    0.01260   49.23790   88.81120   60.84730  122.28510   99.98490   30.64640    0.06870    3.31940   -0.00040   -0.06840 3495.17630    2.78480
 4314.50000    0.09590   76.67060    2.74590    9.78320 1079.72510   29.71130    8.35640    0.01130   49.10630   88.64880   76.90010  165.24720  148.06480   29.33680    0.06690    3.35340   -0.00250   -0.06160 3498.42310    2.78410
 4315.00000    0.09550   76.70070    2.70860    9.77300 1085.67970   27.22480    8.35110    0.01060   49.00280   88.84430   77.60740  123.43910  102.47470   26.85290    0.06660    3.38730   -0.00440   -0.05150 3512.89310    2.79240
 4315.50000    0.09640   76.53480    2.64520    9.91110 1095.84860   24.45420    8.34570    0.01020   48.99320   89.00390   62.26190   90.90960   81.13830   24.12880    0.06720    3.38400   -0.00470   -0.04360 3520.87500    2.79410
