~Version ---------------------------------------------------
VERS.   2.0 : CWLS log ASCII Standard -VERSION 2.0
WRAP.    NO : One line per depth step
DLM . SPACE : Column Data Section Delimiter
~Well ------------------------------------------------------
STRT .F                 186.0 : START DEPTH
STOP .F                9080.0 : STOP DEPTH
STEP .F                   0.5 : STEP
NULL .               -9999.25 : NULL VALUE
COMP .                        : COMPANY
WELL .                        : WELL
FLD  .                        : FIELD
LOC  .                        : LOCATION
PROV .                        : PROVINCE
CNTY .                        : COUNTY
STAT .                        : STATE
CTRY .                        : COUNTRY
SRVC .                        : SERVICE COMPANY
DATE .                        : DATE
UWI  .                        : UNIQUE WELL ID
API  .                        : API NUMBER
SLAT .WGS84   1.6820631858774 : SURFACE LATITUDE
SLON .WGS84 7.087157923745991 : SURFACE LONGITUDE
DATUM.F               2565.68 : DEPTH DATUM ELEV
~Curve Information -----------------------------------------
DEPT    .F     : 1 MEASURED DEPTH
TPHI_LS .DEC   : TDT POROSITY [LIMESTONE]
GRT     .GAPI  : THEORETICAL GAMMA RAY VALUE TDT
CIRF_FIL.N/A   : RST CAPTURE TO INELASTIC RATIO FAR FILTERED
SIGM    .CU    : FORMATION SIGMA (NEUTRON CAPTURE CROSS SECTION)
TEN     .LB    : DIFFERENTIAL TENSION
GRS     .GAPI  : GAMMA RAY FROM SONIC LOG
HCALS   .IN    : HRCC CALIPER CALIBRATED FROM SONIC LOG
SPHI_LS .DEC   : SONIC POROSITY [LIMESTONE]
DTCO    .US/F  : DELTA-T COMPRESSIONAL
DTSM    .US/F  : DELTA-T SHEAR
RXO_HRLT.OHMM  : HRLT INVADED ZONE RESISTIVITY
RLA5    .OHMM  : APPARENT RESISTIVITY FROM COMPUTED FOCUSING MODE 5
RLA4    .OHMM  : APPARENT RESISTIVITY FROM COMPUTED FOCUSING MODE 4
GRD     .GAPI  : GAMMA RAY FROM DENSITY LOG
TNPH_LS .DEC   : THERMAL NEUTRON POROSITY [LIMESTONE]
PEFZ    .B/E   : HRDD STANDARD RESOLUTION FORMATION PHOTOELECTRIC FACTOR
HDRA    .G/C3  : HRDD SPINE AND RIBS DENSITY CORRECTION
DPHZ_LS .DEC   : HGRD STANDARD RESOLUTION DENSITY POROSITY
TEND    .LB    : TENSION FROM DENSITY LOG
RHOZ    .G/C3  : HRDD STANDARD RESOLUTION FORMATION DENSITY
~Params ----------------------------------------------------
~Other -----------------------------------------------------
~ASCII -----------------------------------------------------
# ...
 6853.50000    0.07350   33.89470    2.80380   10.25560 1582.03650   38.89290    8.11560    0.00500   48.27230   89.32950  329.31010  425.45470  303.48420   37.66860    0.01250    4.38190    0.00000   -0.06410 4341.69290    2.79040
 6854.00000    0.09260   34.42140    2.65580   11.23460 1576.70720   37.00490    8.10860    0.00700   48.91940   89.22710  233.43880  503.16390  185.65400   37.63100    0.01660    4.38000   -0.00240   -0.05520 4354.09470    2.80150
 6854.50000    0.11040   39.45530    2.52980   12.19870 1587.70000   42.00460    8.09840    0.01590   49.73740   89.61190   96.48370  112.19270   68.84720   41.73650    0.02560    4.34800   -0.00520   -0.04220 4352.60550    2.81530
 6855.00000    0.11600   43.54110    2.48130   12.56930 1599.22470   49.51640    8.09280    0.02220   50.63030   90.53650   47.93850   57.36350   37.56650   48.72860    0.03710    4.27020   -0.00500   -0.02950 4344.09470    2.81610
 6855.50000    0.10290   43.00940    2.60790   12.14990 1606.54490   54.05020    8.08110    0.02710   51.29920   91.46350   29.08280   40.18560   22.84960   54.40810    0.04420    4.18380   -0.00160   -0.02420 4347.74610    2.79190
 6856.00000    0.07780   39.85960    2.76390   11.48390 1602.53610   55.91940    8.07770    0.02950   51.59540   92.01930   27.65880   39.52680   25.35970   55.36180    0.05130    4.12340   -0.00070   -0.02490 4348.10790    2.76860
 6856.50000    0.05730   37.81520    2.92920   10.79410 1598.43260   52.48660    8.07050    0.02840   51.44290   91.91170   33.60590   40.21700   31.23460   52.14990    0.05450    4.08230   -0.00080   -0.02800 4349.83840    2.75600
 6857.00000    0.04450   38.64340    2.96060   10.01930 1594.48280   49.05490    8.07260    0.02200   50.54170   91.09460   42.11610   50.63540   38.49140   49.37450    0.05060    4.04240   -0.00110   -0.02800 4384.14990    2.75130
 6857.50000    0.03710   39.61950    2.94450    9.51140 1592.66580   46.64990    8.07450    0.01610   49.61250   90.00650   62.13290   93.23380   71.82210   46.48360    0.03960    4.06150   -0.00240   -0.02780 4422.14650    2.75200
 6858.00000    0.03670   38.38810    2.88990    9.38660 1594.44600   42.79540    8.07890    0.01230   49.29740   89.45550  106.05250  204.03230  157.49870   43.11470    0.02800    4.16790   -0.00170   -0.03120 4405.58400    2.75560
 6858.50000    0.04120   37.46040    2.85170    9.38780 1596.22710   39.06830    8.09540    0.01200   49.22220   89.41750  193.87730  273.93920  207.10320   38.81950    0.01760    4.33690   -0.00040   -0.03790 4386.56980    2.75920
 6859.00000    0.05040   39.31200    2.85450    9.53970 1598.00680   36.29430    8.11160    0.01260   49.34280   89.64120  186.73560  243.19420  210.63370   36.50220    0.01270    4.54340    0.00090   -0.04310 4376.77000    2.76270
 6859.50000    0.06470   42.58920    2.85020    9.87760 1599.78750   38.41980    8.11000    0.01450   49.62760   89.88770  169.68080  237.26750  191.29960   37.90900    0.01320    4.57060    0.00060   -0.05240 4376.82470    2.76920
 6860.00000    0.07790   45.71440    2.83360   10.22820 1601.51400   42.32450    8.10880    0.01670   49.95300   90.25910  107.79440  169.80060  134.58600   42.70590    0.01810    4.54190    0.00040   -0.05430 4379.09380    2.77610
 6860.50000    0.08950   44.50100    2.81680   10.57780 1601.65110   46.52260    8.10870    0.01950   50.22860   90.64620   67.85100  101.89080   88.65290   47.15800    0.03030    4.28160    0.00010   -0.05230 4382.42430    2.78850
 6861.00000    0.09560   41.09320    2.79430   10.88030 1600.80240   49.61860    8.12310    0.02230   50.71280   91.18840   53.81010   77.30510   62.69370   51.03920    0.04280    3.98820    0.00070   -0.04260 4381.58450    2.79840
 6861.50000    0.10270   36.94450    2.77540   11.20530 1599.95450   52.01590    8.13580    0.02700   51.39070   91.61890   47.33720   64.51200   53.06320   51.54920    0.05050    3.75090    0.00280   -0.04830 4370.60890    2.79740
 6862.00000    0.10920   33.51360    2.75100   11.59600 1599.10520   50.60950    8.13800    0.03140   51.95330   91.97600   42.25610   55.43130   45.71860   46.29590    0.05880    3.71810    0.00250   -0.04360 4371.37400    2.78400
 6862.50000    0.11320   34.17240    2.74850   11.95230 1598.25720   45.66470    8.13980    0.03490   52.47440   92.35400   33.74310   48.36160   40.59590   41.01400    0.06810    3.76330   -0.00020   -0.02800 4391.13330    2.78050
 6863.00000    0.11300   36.59520    2.77120   12.14320 1597.40890   41.17760    8.14740    0.03880   52.93290   92.77660   27.37610   38.80910   34.76600   40.15070    0.07590    3.80710   -0.00220   -0.02000 4379.49760    2.78420
 6863.50000    0.10840   38.70710    2.79390   12.05630 1596.55930   40.19320    8.15490    0.04060   53.23750   93.11870   24.31170   33.83140   28.74560   39.74140    0.07920    3.80290   -0.00160   -0.02550 4328.47170    2.78760
 6864.00000    0.09760   38.62240    2.79800   11.79190 1595.71120   40.35400    8.15750    0.03990   53.22110   93.18770   22.19520   30.52640   24.58850   38.26890    0.08130    3.80660   -0.00100   -0.02810 4303.76810    2.76230
 6864.50000    0.09100   36.58150    2.77460   11.52950 1594.86380   39.21380    8.15360    0.03920   53.00580   93.15390   20.33870   27.19910   21.64160   37.46740    0.07570    3.81520   -0.00110   -0.03090 4319.41700    2.74470
 6865.00000    0.08760   33.64290    2.73820   11.45190 1594.01480   37.56130    8.15800    0.03570   52.50820   93.08900   21.92730   30.49510   23.78580   38.65210    0.06710    3.84300   -0.00120   -0.03090 4320.19630    2.74670
 6865.50000    0.09450   31.52150    2.73390   11.49520 1593.16590   37.47470    8.15890    0.03350   52.13860   93.03640   27.53430   47.90620   32.61800   41.15670    0.06430    3.88030   -0.00240   -0.02890 4292.56300    2.75170
 6866.00000    0.10490   31.22420    2.72400   11.68060 1592.29350   38.70660    8.16930    0.03440   52.28030   93.07240   35.04790   72.76190   53.29060   44.31520    0.06540    3.91130   -0.00390   -0.02230 4268.55520    2.75650
 6866.50000    0.11480   34.14390    2.72110   11.80500 1591.34290   40.78250    8.19940    0.03690   52.65520   93.35560   33.70210   90.05600   61.69980   48.26790    0.07060    3.90640   -0.00540   -0.01680 4254.35740    2.75960
 6867.00000    0.12190   40.01010    2.71590   11.83710 1590.49540   43.68390    8.22780    0.04020   53.15230   94.47200   33.99940   77.07540   58.25090   52.21640    0.07560    3.89310   -0.00580   -0.01300 4258.09720    2.75980
 6867.50000    0.12440   45.52610    2.70840   11.83910 1589.64600   48.55510    8.24790    0.04410   53.70190   96.10850   23.88600   59.70490   35.28540   56.16490    0.07730    3.87970   -0.00300   -0.01010 4304.81200    2.75790
 6868.00000    0.12040   47.18860    2.71420   11.87560 1588.79720   54.93550    8.26580    0.04740   54.22400   96.89560   18.38400   32.69790   21.77090   58.47090    0.07940    3.86630    0.00140   -0.00850 4381.84380    2.74630
 6868.50000    0.11440   44.69840    2.72910   11.96500 1587.94970   58.74620    8.27380    0.05250   54.75780   97.60470   16.20040   21.54410   17.73350   59.16620    0.08550    3.85650    0.00600   -0.00680 4426.26460    2.73310
 6869.00000    0.10930   42.25970    2.74290   12.11380 1587.10030   59.66460    8.28880    0.05480   55.20700   98.64870   12.85690   16.76050   15.83200   59.66520    0.09140    3.86990    0.00600   -0.00520 4399.56450    2.72250
 6869.50000    0.10660   42.16600    2.74910   12.31890 1586.25290   59.63690    8.31340    0.05660   55.37170   98.99710    8.93980   15.58380   15.25560   59.58410    0.09180    3.89770    0.00280    0.00050 4354.28610    2.72000
 6870.00000    0.10490   45.14310    2.75520   12.61280 1585.41870   59.14410    8.34030    0.05720   55.45010   99.24770    6.92690   14.68380   13.21940   59.09780    0.08750    4.03870   -0.00270    0.01560 4336.98580    2.71580
 6870.50000    0.10440   50.98320    2.76270   12.90170 1585.23800   58.73000    8.35480    0.05790   55.55250   99.67490    6.01400   12.35510   10.31000   58.45180    0.08490    4.21090   -0.00270    0.02590 4347.44530    2.70260
