~Version ---------------------------------------------------
VERS.   2.0 : CWLS log ASCII Standard -VERSION 2.0
WRAP.    NO : One line per depth step
DLM . SPACE : Column Data Section Delimiter
~Well ------------------------------------------------------
STRT .F                 186.0 : START DEPTH
STOP .F                9080.0 : STOP DEPTH
STEP .F                   0.5 : STEP
NULL .               -9999.25 : NULL VALUE
COMP .                        : COMPANY
WELL .                        : WELL
FLD  .                        : FIELD
LOC  .                        : LOCATION
PROV .                        : PROVINCE
CNTY .                        : COUNTY
STAT .                        : STATE
CTRY .                        : COUNTRY
SRVC .                        : SERVICE COMPANY
DATE .                        : DATE
UWI  .                        : UNIQUE WELL ID
API  .                        : API NUMBER
SLAT .WGS84   1.6820631858774 : SURFACE LATITUDE
SLON .WGS84 7.087157923745991 : SURFACE LONGITUDE
DATUM.F               2565.68 : DEPTH DATUM ELEV
~Curve Information -----------------------------------------
DEPT    .F     : 1 MEASURED DEPTH
TPHI_LS .DEC   : TDT POROSITY [LIMESTONE]
GRT     .GAPI  : THEORETICAL GAMMA RAY VALUE TDT
CIRF_FIL.N/A   : RST CAPTURE TO INELASTIC RATIO FAR FILTERED
SIGM    .CU    : FORMATION SIGMA (NEUTRON CAPTURE CROSS SECTION)
TEN     .LB    : DIFFERENTIAL TENSION
GRS     .GAPI  : GAMMA RAY FROM SONIC LOG
HCALS   .IN    : HRCC CALIPER CALIBRATED FROM SONIC LOG
SPHI_LS .DEC   : SONIC POROSITY [LIMESTONE]
DTCO    .US/F  : DELTA-T COMPRESSIONAL
DTSM    .US/F  : DELTA-T SHEAR
RXO_HRLT.OHMM  : HRLT INVADED ZONE RESISTIVITY
RLA5    .OHMM  : APPARENT RESISTIVITY FROM COMPUTED FOCUSING MODE 5
RLA4    .OHMM  : APPARENT RESISTIVITY FROM COMPUTED FOCUSING MODE 4
GRD     .GAPI  : GAMMA RAY FROM DENSITY LOG
TNPH_LS .DEC   : THERMAL NEUTRON POROSITY [LIMESTONE]
PEFZ    .B/E   : HRDD STANDARD RESOLUTION FORMATION PHOTOELECTRIC FACTOR
HDRA    .G/C3  : HRDD SPINE AND RIBS DENSITY CORRECTION
DPHZ_LS .DEC   : HGRD STANDARD RESOLUTION DENSITY POROSITY
TEND    .LB    : TENSION FROM DENSITY LOG
RHOZ    .G/C3  : HRDD STANDARD RESOLUTION FORMATION DENSITY
~Params ----------------------------------------------------
~Other -----------------------------------------------------
~ASCII -----------------------------------------------------
# ...
 5138.50000    0.07390   35.31300    2.46640   11.42710 1227.16760   40.70460    8.79510    0.02870   51.48690   96.58060  647.34250  272.25780  309.43490   40.94030    0.01660    5.17220    0.00060    0.00670 3609.72750    2.69050
 5139.00000    0.07550   36.52030    2.49590   11.28220 1227.43650   39.62560    8.81900    0.03560   52.39840   97.85470  483.34740  166.87600  201.13940   39.66190    0.02440    5.13040    0.00370    0.00370 3597.29790    2.66810
 5139.50000    0.07760   36.94990    2.49640   10.78700 1227.70560   38.88420    8.86420    0.04220   53.40760   99.06310  267.06790  112.73330  130.74500   38.74420    0.03560    5.13410    0.00200    0.01770 3593.54910    2.64570
 5140.00000    0.07910   33.89520    2.50640   10.31950 1227.97460   37.76120    8.87250    0.04650   53.80210   99.55340  135.94250   94.29150  100.36610   37.67540    0.04670    5.13560    0.00050    0.03820 3604.35620    2.63100
 5140.50000    0.07740   29.53370    2.52850   10.09980 1228.24350   36.58560    8.87990    0.04630   53.90760   99.46140   89.96620   83.03790   88.59430   36.56610    0.05690    5.12310   -0.00010    0.05080 3612.49760    2.63160
 5141.00000    0.07280   26.54560    2.55820   10.02190 1228.51260   34.54820    8.88730    0.04420   53.67860   99.07640   65.79410   74.36290   82.47520   34.77000    0.05840    5.04780    0.00140    0.04580 3604.88430    2.65980
 5141.50000    0.06650   26.97780    2.58700    9.92490 1228.78160   32.22900    8.88960    0.04020   53.15580   98.78320   60.26310   71.28950   81.07000   32.40810    0.05730    4.90720    0.00280    0.02770 3587.76930    2.69080
 5142.00000    0.06170   28.09740    2.61030    9.72890 1229.05050   30.56890    8.88960    0.03660   52.69580   98.38350   63.40840   73.58280   81.70400   30.85590    0.05230    4.77610    0.00300    0.01280 3571.25170    2.69650
 5142.50000    0.05670   28.72360    2.63360    9.59380 1229.31960   30.23500    8.88120    0.03360   52.21040   98.17290   75.95950   79.18760   83.86470   29.93650    0.04590    4.67930    0.00320    0.00810 3576.74780    2.69650
 5143.00000    0.05090   28.53630    2.63020    9.52850 1229.58860   29.99710    8.86000    0.03110   51.86430   97.75740   90.03240   78.94530   84.11610   29.08500    0.04140    4.70060    0.00330    0.01210 3591.56050    2.69280
 5143.50000    0.04590   28.49090    2.59220    9.54940 1229.85750   28.51960    8.83870    0.02810   51.47370   96.81700   70.21600   54.09830   65.85790   27.71910    0.03970    4.71650    0.00350    0.00820 3579.21900    2.69780
 5144.00000    0.04440   29.34500    2.54120    9.58620 1230.12660   27.14180    8.81750    0.02470   50.95570   95.76980   60.54860   43.29230   46.65360   27.22720    0.03910    4.58300    0.00210   -0.00180 3559.89140    2.72420
 5144.50000    0.04430   30.69740    2.49110    9.61680 1230.39560   27.30420    8.79530    0.02020   50.33460   94.58980  107.48540   37.65140   70.68490   28.04570    0.03790    4.45870    0.00060   -0.00810 3555.70360    2.72420
 5145.00000    0.04500   32.87120    2.47790    9.67820 1230.66460   29.48390    8.77080    0.01670   49.88360   93.19840  159.52430   66.52760  133.96310   30.07300    0.03220    4.41280   -0.00070   -0.00870 3564.45120    2.71850
 5145.50000    0.04450   34.74540    2.49510    9.72120 1230.93360   31.83650    8.74630    0.01400   49.53990   92.28990  343.01370  167.63420  240.23320   32.26870    0.02350    4.50790   -0.00210   -0.00470 3557.33740    2.71570
 5146.00000    0.04280   33.74670    2.53860    9.61630 1231.20260   32.52620    8.72590    0.01360   49.41420   91.94490  512.83410  327.19060  388.46930   31.92570    0.01570    4.70010   -0.00340   -0.00220 3539.05570    2.71680
 5146.50000    0.04080   30.03910    2.59460    9.47720 1231.47160   30.97610    8.71490    0.01390   49.49980   91.85320  620.67850  462.77790  491.26720   30.76410    0.00750    4.74300   -0.00220   -0.01280 3533.54710    2.74100
 5147.00000    0.03900   27.47940    2.65930    9.39480 1231.74060   28.66020    8.70860    0.01440   49.58740   91.78960  729.40690  584.28400  549.00780   28.34360    0.00410    4.74800    0.00090   -0.02220 3546.24340    2.74270
 5147.50000    0.03770   27.88620    2.66040    9.37300 1232.00960   27.41610    8.70230    0.01400   49.54960   91.65690  898.02330  666.19920  564.50810   27.45930    0.00360    4.77700    0.00250   -0.02070 3566.47920    2.73400
 5148.00000    0.03920   28.68320    2.65650    9.41640 1232.27860   27.96380    8.69830    0.01340   49.42920   91.41760 1115.40030  615.07150  526.84110   28.19280    0.00400    4.86940   -0.00050   -0.00980 3562.84230    2.72530
 5148.50000    0.04110   28.94680    2.65010    9.46840 1232.54760   29.27040    8.69540    0.01290   49.31440   91.23130 1167.23160  635.17880  541.37370   29.29140    0.00450    4.95460   -0.00340   -0.00270 3546.91580    2.71660
 5149.00000    0.04290   28.54680    2.64250    9.52790 1232.81670   30.17280    8.69260    0.01090   49.17510   91.30110 1335.28610  684.01230  511.14260   30.14430    0.00160    4.99010   -0.00190    0.00050 3549.51000    2.71130
 5149.50000    0.04510   28.59790    2.63300    9.58140 1233.08560   32.55190    8.68970    0.01020   49.06980   91.46010 1029.68730  540.15660  427.33250   32.61290   -0.00080    5.04400   -0.00130   -0.00450 3571.08790    2.71180
 5150.00000    0.04750   28.19710    2.57700    9.68590 1233.35460   36.00980    8.69060    0.01170   49.18380   91.62810  824.97490  549.56050  389.87230   35.02170    0.00090    5.09570    0.00070   -0.01110 3566.60550    2.73170
 5150.50000    0.05280   27.48050    2.49490   10.27160 1233.62370   36.20080    8.69320    0.01330   49.39510   91.77540  965.87620  587.97020  423.24350   35.66430    0.00100    5.11970    0.00230   -0.01450 3567.15360    2.73420
 5151.00000    0.05760   28.20630    2.40210   10.81960 1233.89260   33.35800    8.68810    0.01360   49.48190   91.68740 1233.35890  631.01820  500.89050   33.14650    0.00190    5.07210    0.00220   -0.01370 3588.95240    2.73440
 5151.50000    0.05880   31.02900    2.31660   11.36670 1234.16160   30.21580    8.67390    0.01360   49.47510   91.55640 1355.58360  690.28670  535.48950   29.96490    0.00430    4.91290    0.00240   -0.01370 3606.90720    2.73440
 5152.00000    0.05700   33.60120    2.29350   11.41730 1234.43070   29.03710    8.66840    0.01380   49.47890   91.44530 1426.69130  798.62700  601.30580   28.53190    0.00720    4.74410    0.00070   -0.01410 3609.91670    2.73090
 5152.50000    0.05360   33.93920    2.32750   10.99610 1234.69960   28.13070    8.66280    0.01430   49.51180   91.35670 1591.20520  842.20750  640.27380   27.92730    0.01010    4.62380   -0.00180   -0.01490 3604.32740    2.72290
 5153.00000    0.05140   33.05060    2.38120   10.56900 1234.96860   27.53790    8.65050    0.01480   49.57970   91.44250 1173.58500  683.94290  575.21570   27.42250    0.01290    4.57230   -0.00550   -0.01460 3593.08330    2.71670
 5153.50000    0.05330   33.80390    2.43430   10.28520 1235.23770   26.69890    8.63930    0.01530   49.64550   91.64110 1034.02640  604.95320  555.56060   26.69080    0.01390    4.58150   -0.00510   -0.01950 3579.56030    2.71570
 5154.00000    0.05930   36.95770    2.45530   10.48190 1235.50660   25.99420    8.64320    0.01680   49.75530   92.07260  424.38860  601.51610  582.98030   25.99590    0.01220    4.77770   -0.00400   -0.00840 3576.50630    2.72010
 5154.50000    0.06520   42.13420    2.46350   10.71630 1235.77560   25.59420    8.66270    0.01850   50.01600   92.75340  374.83790  641.22560  613.02130   25.61900    0.00940    5.16340   -0.00310    0.00050 3585.84080    2.72850
 5155.00000    0.07170   44.85600    2.46770   10.95060 1236.04470   26.34860    8.67510    0.02110   50.49420   93.63730  650.82850  979.03020  648.84070   27.01020    0.00740    5.23360   -0.00210    0.00130 3590.96120    2.73100
 5155.50000    0.07410   45.42840    2.48930   11.18500 1236.31360   30.11440    8.68760    0.02430   50.93580   94.61720  912.24680 1497.70410  642.46700   32.02990    0.00890    5.14900    0.00070   -0.00610 3590.14480    2.73090
