~Version ---------------------------------------------------
VERS.   2.0 : CWLS log ASCII Standard -VERSION 2.0
WRAP.    NO : One line per depth step
DLM . SPACE : Column Data Section Delimiter
~Well ------------------------------------------------------
STRT .F                 140.0 : START DEPTH
STOP .F               11646.0 : STOP DEPTH
STEP .F                   0.5 : STEP
NULL .               -9999.25 : NULL VALUE
COMP .                        : COMPANY
WELL .                        : WELL
FLD  .                        : FIELD
LOC  .                        : LOCATION
PROV .                        : PROVINCE
CNTY .                        : COUNTY
STAT .                        : STATE
CTRY .                        : COUNTRY
SRVC .                        : SERVICE COMPANY
DATE .                        : DATE
UWI  .                        : UNIQUE WELL ID
API  .                        : API NUMBER
SLAT .WGS84   2.9942216610361 : SURFACE LATITUDE
SLON .WGS84 8.664145051535002 : SURFACE LONGITUDE
DATUM.F               3540.72 : DEPTH DATUM ELEV
~Curve Information -----------------------------------------
DEPT.F     : 
GRD .GAPI  : GAMMA RAY FROM DENSITY LOG
TNPH.DEC   : THERMAL NEUTRON POROSITY
GRS .GAPI  : GAMMA RAY FROM SONIC LOG
DTCO.US/F  : DELTA-T COMPRESSIONAL
DTSM.US/F  : DELTA-T SHEAR
~Params ----------------------------------------------------
~Other -----------------------------------------------------
~ASCII -----------------------------------------------------
# ...
 4940.00000   21.16760    0.05500   -9999.25   -9999.25   -9999.25
 4940.50000   20.42470    0.05380   -9999.25   -9999.25   -9999.25
 4941.00000   20.20640    0.05270   -9999.25   -9999.25   -9999.25
 4941.50000   20.20740    0.05150   -9999.25   -9999.25   -9999.25
 4942.00000   20.53470    0.05030   -9999.25   -9999.25   -9999.25
 4942.50000   21.81780    0.04870   -9999.25   -9999.25   -9999.25
 4943.00000   24.56660    0.04630   -9999.25   -9999.25   -9999.25
 4943.50000   28.87080    0.04520   -9999.25   -9999.25   -9999.25
 4944.00000   29.14020    0.04070   -9999.25   -9999.25   -9999.25
 4944.50000   29.10610    0.04060   -9999.25   -9999.25   -9999.25
 4945.00000   28.41410    0.04060   -9999.25   -9999.25   -9999.25
 4945.50000   27.14600    0.04070   -9999.25   -9999.25   -9999.25
 4946.00000   25.87790    0.04110   -9999.25   -9999.25   -9999.25
 4946.50000   -9999.25   -9999.25   -9999.25   -9999.25   -9999.25
 4947.00000   -9999.25   -9999.25   -9999.25   -9999.25   -9999.25
 4947.50000   -9999.25   -9999.25   -9999.25   -9999.25   -9999.25
 4948.00000   -9999.25   -9999.25   -9999.25   -9999.25   -9999.25
 4948.50000   -9999.25   -9999.25   -9999.25   -9999.25   -9999.25
 4949.00000   -9999.25   -9999.25   -9999.25   -9999.25   -9999.25
 4949.50000   -9999.25   -9999.25   -9999.25   -9999.25   -9999.25
 4950.00000   -9999.25   -9999.25   -9999.25   -9999.25   -9999.25
 4950.50000   -9999.25   -9999.25   -9999.25   -9999.25   -9999.25
 4951.00000   -9999.25   -9999.25   -9999.25   -9999.25   -9999.25
 4951.50000   27.62850    0.03770   -9999.25   -9999.25   -9999.25
 4952.00000   27.56280    0.03890   27.46120   -9999.25   89.07970
 4952.50000   27.00900    0.04080   26.41720   -9999.25   89.07700
 4953.00000   27.23950    0.04200   27.90310   -9999.25   89.07440
 4953.50000   29.83270    0.04530   30.41820   -9999.25   89.07170
 4954.00000   32.82550    0.04950   33.36920   -9999.25   89.06900
 4954.50000   35.56650    0.05430   35.81470   -9999.25   89.06630
 4955.00000   38.08550    0.05910   37.99250   -9999.25   89.06370
 4955.50000   39.79610    0.05700   39.56000   -9999.25   89.06100
 4956.00000   37.57330    0.05160   38.15330   -9999.25   89.05830
 4956.50000   35.18750    0.04680   34.88670   -9999.25   89.05560
 4957.00000   32.64790    0.04400   32.27810   -9999.25   89.05300
 4957.50000   31.04570    0.04400   30.77020   -9999.25   88.99660
 4958.00000   29.00920    0.04400   28.47090   -9999.25   88.77580
 4958.50000   25.75160    0.04370   25.56120   -9999.25   88.55510
 4959.00000   23.16440    0.04090   23.31000   -9999.25   88.33430
 4959.50000   23.44480    0.03810   23.51400   -9999.25   88.11350
 4960.00000   26.15380    0.03710   25.57270   -9999.25   88.03550
 4960.50000   28.83980    0.03760   29.24200   -9999.25   88.04100
 4961.00000   30.74440    0.03940   30.81700   -9999.25   87.98800
 4961.50000   31.48250    0.04130   31.35550   -9999.25   87.84280
 4962.00000   31.31580    0.04450   31.17360   -9999.25   87.47690
 4962.50000   31.25410    0.04650   31.02930   -9999.25   86.97820
 4963.00000   32.72470    0.04840   32.60450   -9999.25   86.80540
 4963.50000   33.78670    0.05020   33.82210   -9999.25   87.16340
 4964.00000   33.30600    0.05320   32.89920   -9999.25   87.45140
 4964.50000   31.53170    0.05610   31.33540   -9999.25   87.40000
 4965.00000   30.14300    0.05710   30.04440   -9999.25   87.34850
 4965.50000   30.22680    0.05810   30.15190   -9999.25   86.60790
 4966.00000   30.60750    0.05760   30.73890   -9999.25   84.45420
 4966.50000   30.46880    0.05660   31.42810   -9999.25   82.87300
 4967.00000   28.86130    0.05250   28.99800   -9999.25   82.04220
 4967.50000   24.94640    0.04530   25.32210   -9999.25   82.42400
 4968.00000   20.12490    0.03770   21.28680   -9999.25   85.06490
 4968.50000   22.09600    0.03320   20.55860   -9999.25   87.83780
 4969.00000   27.27660    0.03490   25.60530   -9999.25   89.30030
 4969.50000   34.65570    0.03720   33.43760   -9999.25   89.24760
 4970.00000   39.46380    0.03620   39.59420   -9999.25   88.23270
 4970.50000   38.38840    0.03420   38.40120   -9999.25   88.01400
 4971.00000   33.81190    0.03130   34.77620   -9999.25   88.53170
 4971.50000   29.96190    0.03160   30.38730   -9999.25   89.12070
 4972.00000   26.97360    0.03270   27.62150   -9999.25   88.68430
 4972.50000   25.86720    0.03390   25.84060   -9999.25   88.24780
 4973.00000   26.64830    0.03600   26.32360   -9999.25   87.81130
 4973.50000   29.02720    0.03850   28.43660   -9999.25   87.15730
 4974.00000   30.79820    0.04060   30.48630   -9999.25   85.84150
 4974.50000   29.42170    0.04300   30.54690   -9999.25   84.79840
 4975.00000   27.67900    0.04050   28.20230   -9999.25   84.87540
 4975.50000   26.22710    0.03630   26.27230   -9999.25   85.96340
 4976.00000   26.60690    0.03550   26.26840   -9999.25   87.09110
 4976.50000   28.37440    0.03600   28.00190   -9999.25   88.03370
 4977.00000   30.67780    0.03750   30.26590   -9999.25   89.53420
 4977.50000   32.71360    0.03830   32.16790   -9999.25   91.08180
 4978.00000   32.19060    0.03660   32.38120   -9999.25   92.19550
 4978.50000   30.20400    0.03440   30.67760   -9999.25   92.11530
 4979.00000   28.08590    0.03130   28.46350   -9999.25   91.81260
 4979.50000   27.38690    0.03050   27.38390   -9999.25   91.68050
 4980.00000   27.99590    0.03110   28.03320   -9999.25   91.59860
 4980.50000   29.25960    0.03210   29.36800   -9999.25   91.27620
 4981.00000   29.54180    0.03280   29.68610   -9999.25   90.43450
 4981.50000   28.93850    0.03320   28.85410   -9999.25   89.24720
 4982.00000   28.28720    0.03470   28.29450   -9999.25   88.25160
 4982.50000   28.86700    0.03550   28.44590   -9999.25   87.32940
 4983.00000   30.07770    0.03760   29.95000   -9999.25   87.05280
 4983.50000   31.05060    0.03850   30.83490   -9999.25   86.77630
 4984.00000   30.65380    0.03900   30.58400   -9999.25   86.28200
 4984.50000   29.78300    0.03910   29.77360   -9999.25   86.41560
 4985.00000   28.38830    0.03850   28.36490   -9999.25   86.58410
 4985.50000   26.40880    0.03820   26.38470   -9999.25   86.48390
 4986.00000   24.73270    0.03890   24.43370   -9999.25   86.16750
 4986.50000   23.02320    0.03980   23.04770   -9999.25   85.85400
 4987.00000   22.50180    0.03860   22.55200   -9999.25   85.54870
 4987.50000   21.54240    0.03650   21.65490   -9999.25   84.54010
 4988.00000   20.96180    0.03570   21.03110   -9999.25   83.97870
 4988.50000   22.25230    0.03530   21.74050   -9999.25   84.11590
 4989.00000   23.00830    0.03780   22.74000   -9999.25   84.25320
 4989.50000   23.47000    0.04040   23.58670   -9999.25   84.75930
 4990.00000   23.69860    0.04000   23.66780   -9999.25   85.89070
 4990.50000   23.60270    0.03800   23.60350   -9999.25   86.90580
 4991.00000   23.50690    0.03600   23.58960   -9999.25   87.87280
 4991.50000   24.14760    0.03440   23.95100   -9999.25   88.05720
 4992.00000   24.99110    0.03400   24.78420   -9999.25   88.33170
 4992.50000   25.56200    0.03450   25.49560   -9999.25   88.85530
 4993.00000   25.58520    0.03590   25.49890   -9999.25   89.28600
 4993.50000   25.21740    0.03660   25.26240   -9999.25   89.71680
 4994.00000   24.70220    0.03520   24.85150   -9999.25   90.14750
 4994.50000   24.15270    0.03370   24.32740   -9999.25   90.57830
 4995.00000   22.97770    0.03510   23.54700   -9999.25   90.99830
 4995.50000   21.58720    0.03710   22.04140   -9999.25   91.03700
 4996.00000   20.88970    0.03900   20.58620   -9999.25   90.71780
 4996.50000   23.10190    0.04090   21.31240   -9999.25   90.44980
 4997.00000   25.31410    0.04280   24.75020   -9999.25   90.83490
 4997.50000   24.34290    0.04320   25.12430   -9999.25   90.94670
 4998.00000   22.08100    0.04150   22.62870   -9999.25   90.54880
 4998.50000   20.39340    0.03630   19.94430   -9999.25   89.73260
 4999.00000   20.93170    0.03670   19.80180   -9999.25   89.29300
 4999.50000   22.29690    0.04230   22.20380   -9999.25   89.24210
