~Version ---------------------------------------------------
VERS.   2.0 : CWLS log ASCII Standard -VERSION 2.0
WRAP.    NO : One line per depth step
DLM . SPACE : Column Data Section Delimiter
~Well ------------------------------------------------------
STRT .F                 140.0 : START DEPTH
STOP .F               11646.0 : STOP DEPTH
STEP .F                   0.5 : STEP
NULL .               -9999.25 : NULL VALUE
COMP .                        : COMPANY
WELL .                        : WELL
FLD  .                        : FIELD
LOC  .                        : LOCATION
PROV .                        : PROVINCE
CNTY .                        : COUNTY
STAT .                        : STATE
CTRY .                        : COUNTRY
SRVC .                        : SERVICE COMPANY
DATE .                        : DATE
UWI  .                        : UNIQUE WELL ID
API  .                        : API NUMBER
SLAT .WGS84   2.9942216610361 : SURFACE LATITUDE
SLON .WGS84 8.664145051535002 : SURFACE LONGITUDE
DATUM.F               3540.72 : DEPTH DATUM ELEV
~Curve Information -----------------------------------------
DEPT.F     : 
GRD .GAPI  : GAMMA RAY FROM DENSITY LOG
TNPH.DEC   : THERMAL NEUTRON POROSITY
GRS .GAPI  : GAMMA RAY FROM SONIC LOG
DTCO.US/F  : DELTA-T COMPRESSIONAL
DTSM.US/F  : DELTA-T SHEAR
~Params ----------------------------------------------------
~Other -----------------------------------------------------
~ASCII -----------------------------------------------------
# ...
 8960.00000   37.33360    0.08760   37.43410   -9999.25  107.38790
 8960.50000   37.71590    0.08780   37.78640   -9999.25  109.90220
 8961.00000   38.80440    0.09320   38.54420   66.16050  111.74670
 8961.50000   40.50600    0.10090   40.18230   66.12080  113.11880
 8962.00000   42.87820    0.10850   42.52110   66.46110  114.49100
 8962.50000   45.86170    0.11490   45.39750   67.37830  115.75710
 8963.00000   49.24810    0.11880   49.29230   67.98820  116.75820
 8963.50000   51.79880    0.12260   52.25730   67.77910  117.04820
 8964.00000   53.58700    0.12650   53.43380   66.98170  115.64690
 8964.50000   49.93810    0.12680   50.29870   66.41310  113.65250
 8965.00000   44.63230    0.12220   44.36900   66.19620  110.56970
 8965.50000   39.68260    0.10430   38.53690   66.19620  107.66980
 8966.00000   38.24340    0.09120   37.93860   -9999.25  104.76990
 8966.50000   39.45930    0.09040   38.64460   -9999.25  101.92010
 8967.00000   38.71130    0.09150   38.64720   -9999.25   99.36190
 8967.50000   38.26300    0.09180   38.04900   -9999.25   96.58000
 8968.00000   38.46730    0.09060   38.44550   -9999.25   94.63980
 8968.50000   39.71910    0.09000   39.45320   -9999.25   95.58980
 8969.00000   39.83700    0.09170   39.71800   -9999.25   98.96400
 8969.50000   39.54790    0.09550   39.34430   -9999.25  102.83000
 8970.00000   39.99270    0.10080   40.08140   -9999.25  107.75870
 8970.50000   40.89340    0.10980   40.81440   -9999.25  112.68740
 8971.00000   41.51480    0.11670   41.36900   -9999.25  117.57350
 8971.50000   41.86680    0.10940   41.75700   -9999.25  117.78670
 8972.00000   43.12340    0.09590   42.84820   -9999.25  115.08230
 8972.50000   44.46000    0.09410   44.53750   -9999.25  113.33100
 8973.00000   45.11580    0.09670   45.01220   -9999.25  112.80070
 8973.50000   45.17610    0.10250   45.19340   -9999.25  111.58710
 8974.00000   43.81970    0.10250   43.61660   -9999.25  109.86550
 8974.50000   40.22200    0.09950   39.60030   -9999.25  108.32710
 8975.00000   35.54800    0.09400   34.46270   -9999.25  109.74840
 8975.50000   33.38220    0.08970   32.92950   -9999.25  110.51850
 8976.00000   35.54540    0.09030   36.56070   65.80630  111.36900
 8976.50000   41.71100    0.09990   42.44220   65.80630  111.73550
 8977.00000   46.94970    0.11410   46.37610   66.58300  113.39750
 8977.50000   48.59690    0.12920   48.85030   67.20000  114.68780
 8978.00000   48.14620    0.12820   48.09620   66.98770  114.86940
 8978.50000   46.44220    0.11780   46.04190   66.57500  113.94620
 8979.00000   45.14830    0.10320   45.18420   66.21060  113.51520
 8979.50000   45.76050    0.10150   45.82810   66.00990  113.62380
 8980.00000   45.89660    0.10360   46.54210   66.35010  113.27440
 8980.50000   44.16600    0.10200   44.74630   67.01470  112.74310
 8981.00000   41.59300    0.09460   41.97920   67.37810  112.44780
 8981.50000   40.29750    0.08990   40.48500   66.78800  113.06680
 8982.00000   41.98520    0.09390   42.32630   65.91560  114.16000
 8982.50000   45.30680    0.10790   45.55100   65.85100  115.67560
 8983.00000   48.04100    0.11940   48.35640   66.31330  116.95790
 8983.50000   49.05280    0.12540   49.33400   66.90260  117.38820
 8984.00000   48.89380    0.12390   49.00740   66.86730  116.04000
 8984.50000   48.51350    0.12060   48.44540   66.05180  114.57480
 8985.00000   47.75280    0.11730   47.72960   65.46780  113.74930
 8985.50000   45.80480    0.11720   45.03640   65.63270  114.13520
 8986.00000   44.27890    0.11930   43.51950   66.12530  116.35250
 8986.50000   47.45300    0.12370   47.08110   66.99530  119.43450
 8987.00000   53.16610    0.13220   54.48000   68.10800  122.43220
 8987.50000   60.60660    0.13990   61.37900   69.57450  124.13490
 8988.00000   63.57030    0.15490   64.14530   70.94460  125.62670
 8988.50000   63.53240    0.15690   63.40380   71.45810  127.01480
 8989.00000   62.93890    0.15690   62.89620   71.35770  126.60780
 8989.50000   62.90310    0.15040   62.79110   70.48770  125.84710
 8990.00000   61.70700    0.15070   62.14200   69.53210  124.94550
 8990.50000   58.86460    0.15260   60.18220   68.70410  124.28940
 8991.00000   54.62050    0.15040   55.04980   68.30190  124.25750
 8991.50000   50.42850    0.13910   50.75430   68.49480  124.71720
 8992.00000   52.45150    0.13070   51.61940   69.35180  127.88910
 8992.50000   57.67710    0.13790   58.52160   71.55300  131.48110
 8993.00000   62.15730    0.15000   62.71340   73.61240  133.00520
 8993.50000   63.16180    0.16240   63.35920   74.24290  132.75020
 8994.00000   63.81960    0.17830   63.85370   73.60470  131.06880
 8994.50000   64.10930    0.19600   64.53220   72.07500  128.07320
 8995.00000   62.97220    0.19770   62.76440   70.46230  124.88200
 8995.50000   58.48280    0.19330   58.11100   68.87540  121.81820
 8996.00000   52.18410    0.16000   52.83730   68.06170  121.32310
 8996.50000   48.88700    0.13510   48.83970   68.19560  122.01640
 8997.00000   51.03320    0.12390   48.41810   68.55110  123.13620
 8997.50000   53.22150    0.13080   52.33080   69.01150  124.10130
 8998.00000   55.99480    0.14390   58.44100   69.56880  124.70170
 8998.50000   63.39960    0.15650   63.86560   70.06890  124.86420
 8999.00000   69.15000    0.15850   69.11420   70.24230  124.97850
 8999.50000   73.50280    0.15630   73.96740   69.64980  125.13850
 9000.00000   76.38990    0.15230   76.09600   68.84700  126.00880
 9000.50000   72.90050    0.14760   72.42740   69.35010  126.81850
 9001.00000   65.09230    0.14230   66.00470   70.22880  126.55410
 9001.50000   57.72030    0.13690   59.18280   70.57930  126.36190
 9002.00000   57.66720    0.13510   57.31980   70.30370  126.36410
 9002.50000   59.66860    0.14720   59.25030   70.02760  126.27080
 9003.00000   61.09100    0.15650   61.65050   69.82630  125.16550
 9003.50000   60.04570    0.15870   60.49730   69.02270  123.78560
 9004.00000   57.75530    0.14480   58.64100   68.41140  122.50130
 9004.50000   57.77070    0.13830   57.54190   68.00500  121.21700
 9005.00000   58.80230    0.13760   58.74610   67.36630  120.10160
 9005.50000   60.33880    0.13680   60.19890   66.79270  119.01840
 9006.00000   59.36970    0.13480   60.16030   66.44600  118.46380
 9006.50000   56.24020    0.12950   56.61660   66.79730  118.19860
 9007.00000   52.85060    0.12000   53.04780   67.01150  118.04700
 9007.50000   52.13750    0.10760   51.68060   66.99810  118.09970
 9008.00000   58.57220    0.10980   55.42130   67.33990  118.89100
 9008.50000   64.83680    0.12220   64.58030   68.44840  120.02120
 9009.00000   64.53680    0.13170   64.23820   69.37680  121.12530
 9009.50000   58.15750    0.13250   59.56020   69.24060  122.22930
 9010.00000   54.54950    0.12850   54.46480   68.63260  123.14810
 9010.50000   56.69620    0.12810   55.97490   68.16550  123.71350
 9011.00000   59.39060    0.13490   59.28070   68.63650  124.31630
 9011.50000   57.53340    0.13370   57.00280   69.45070  124.07730
 9012.00000   53.30570    0.13080   53.50400   70.09870  123.96430
 9012.50000   53.26090    0.13280   52.75090   70.62460  124.36200
 9013.00000   54.84810    0.14520   55.85070   71.11820  124.74490
 9013.50000   57.62090    0.15560   58.30330   71.15540  124.64300
 9014.00000   56.68040    0.15320   57.01060   70.72400  124.26370
 9014.50000   54.80900    0.15010   54.47400   70.51610  123.68930
 9015.00000   54.50100    0.14770   54.36630   70.88940  123.10250
 9015.50000   55.94320    0.15350   56.17000   71.95390  122.48340
 9016.00000   57.47250    0.16750   57.59140   73.79680  123.06320
 9016.50000   57.74820    0.18160   57.59580   76.17790  145.66190
 9017.00000   54.76910    0.18260   53.90500   82.38560  172.96270
 9017.50000   48.20260    0.17640   47.63780   88.32720  205.24450
 9018.00000   40.55790    0.15720   39.67380   88.83410  214.90400
 9018.50000   35.85300    0.12080   35.54750   88.72780  216.60980
 9019.00000   34.86080    0.10600   34.73560   88.47820  218.62030
 9019.50000   38.74530    0.09450   38.12200   88.06340  221.13680
