~Version ---------------------------------------------------
VERS.   2.0 : CWLS log ASCII Standard -VERSION 2.0
WRAP.    NO : One line per depth step
DLM . SPACE : Column Data Section Delimiter
~Well ------------------------------------------------------
STRT .F                 140.0 : START DEPTH
STOP .F               11646.0 : STOP DEPTH
STEP .F                   0.5 : STEP
NULL .               -9999.25 : NULL VALUE
COMP .                        : COMPANY
WELL .                        : WELL
FLD  .                        : FIELD
LOC  .                        : LOCATION
PROV .                        : PROVINCE
CNTY .                        : COUNTY
STAT .                        : STATE
CTRY .                        : COUNTRY
SRVC .                        : SERVICE COMPANY
DATE .                        : DATE
UWI  .                        : UNIQUE WELL ID
API  .                        : API NUMBER
SLAT .WGS84   2.9942216610361 : SURFACE LATITUDE
SLON .WGS84 8.664145051535002 : SURFACE LONGITUDE
DATUM.F               3540.72 : DEPTH DATUM ELEV
~Curve Information -----------------------------------------
DEPT.F     : 
GRD .GAPI  : GAMMA RAY FROM DENSITY LOG
TNPH.DEC   : THERMAL NEUTRON POROSITY
GRS .GAPI  : GAMMA RAY FROM SONIC LOG
DTCO.US/F  : DELTA-T COMPRESSIONAL
DTSM.US/F  : DELTA-T SHEAR
~Params ----------------------------------------------------
~Other -----------------------------------------------------
~ASCII -----------------------------------------------------
# ...
 10275.50000   18.86440    0.00490   18.66050   95.63960  224.91440
 10276.00000   20.09000    0.00960   20.27430   96.88320  224.42970
 10276.50000   26.10510    0.01660   25.75750   98.24250  223.48610
 10277.00000   33.33400    0.03520   32.71130   99.84090  222.53810
 10277.50000   37.70750    0.05370   37.38160  103.19150  223.11270
 10278.00000   40.04540    0.06280   39.48600  105.84030  223.80810
 10278.50000   41.68650    0.07080   41.47950  107.76030  224.48460
 10279.00000   42.40090    0.07030   42.58320  107.92970  224.71750
 10279.50000   41.23310    0.06610   41.55120  105.99770  224.55420
 10280.00000   37.00490    0.04740   37.28500  102.77190  225.07310
 10280.50000   31.89540    0.02590   31.63470   99.32860  225.45490
 10281.00000   27.39490    0.01130   27.60070   95.91780  224.97810
 10281.50000   26.71100    0.00660   26.59840   93.58360  224.30700
 10282.00000   28.15320    0.00290   27.94810   93.12770  223.63590
 10282.50000   31.14320    0.00040   30.77500   92.60230  223.26640
 10283.00000   33.78410    0.00110   33.40620   92.48900  222.98780
 10283.50000   35.62210    0.00180   35.42910   92.89360  222.47270
 10284.00000   34.57280    0.00240   35.17070   94.18890  222.52710
 10284.50000   32.52320    0.00300   32.67600   95.59300  222.77480
 10285.00000   30.43700    0.00470   30.92560   96.03580  222.91160
 10285.50000   30.74410    0.00800   30.89300   96.94370  222.45870
 10286.00000   31.43970    0.01200   31.49570   98.33490  221.58160
 10286.50000   31.96150    0.01590   31.91100  100.13560  220.70590
 10287.00000   32.99920    0.01900   32.92500  102.45840  220.49850
 10287.50000   35.43850    0.02190   35.12390  102.34930  220.53440
 10288.00000   39.41840    0.02980   38.56040  101.37150  220.49810
 10288.50000   41.43130    0.03320   40.96390  100.47600  220.46180
 10289.00000   39.35080    0.03130   40.66700   98.78970  220.44420
 10289.50000   36.13530    0.01810   37.76080   96.95290  220.35720
 10290.00000   33.50860    0.00740   34.35790   95.54610  220.19260
 10290.50000   33.10130    0.00130   33.10520   94.83050  219.96150
 10291.00000   34.58800    0.00220   34.67960   95.45920  219.38600
 10291.50000   36.20500    0.00510   36.54590   96.84160  219.28310
 10292.00000   36.27510    0.01100   36.45500   97.81220  218.45210
 10292.50000   35.91340    0.01530   35.89800   97.80410  217.91850
 10293.00000   35.71040    0.01620   35.59240   96.88230  218.25930
 10293.50000   37.32460    0.01440   37.69360   96.05240  217.83050
 10294.00000   40.54810    0.00840   40.24170   95.20360  217.58170
 10294.50000   40.66010    0.00420   40.35010   94.48160  219.46170
 10295.00000   38.70910    0.00460   38.20140   94.72330  219.91020
 10295.50000   36.65350    0.00610   36.44320   94.84190  220.54190
 10296.00000   37.31410    0.00750   37.06610   94.77780  220.64110
 10296.50000   38.49070    0.00850   38.49420   94.73620  220.51930
 10297.00000   38.33490    0.00810   38.40560   94.93150  221.20230
 10297.50000   37.42740    0.00800   37.39610   95.04260  223.59910
 10298.00000   36.39220    0.00870   36.39010   95.06920  224.32580
 10298.50000   35.28520    0.01120   35.47070   94.89200  224.44390
 10299.00000   33.85580    0.01270   34.02660   94.65260  225.00660
 10299.50000   32.37070    0.01310   32.44270   94.53760  224.11810
 10300.00000   32.59450    0.01300   32.46510   94.63260  222.88930
 10300.50000   34.59030    0.01270   33.97840   94.44950  222.03900
 10301.00000   35.95710    0.01250   35.96200   93.93230  221.17440
 10301.50000   35.91170    0.01210   36.07760   93.26110  221.21290
 10302.00000   34.51770    0.00910   34.65590   92.61810  223.06890
 10302.50000   31.96180    0.00550   32.13940   92.25820  225.26950
 10303.00000   29.54910    0.00070   29.56010   92.39470  224.87600
 10303.50000   29.22800   -0.00120   28.57320   92.47520  224.37780
 10304.00000   30.44530   -0.00030   30.58860   92.30460  224.31350
 10304.50000   34.37700    0.00070   34.61520   92.02920  224.15110
 10305.00000   37.49620    0.00080   37.58990   91.85420  223.16530
 10305.50000   37.44840    0.00080   37.05480   91.67030  222.90290
 10306.00000   32.67460   -0.00040   33.18970   91.13860  221.84980
 10306.50000   29.08040   -0.00250   28.92090   91.40890  220.33860
 10307.00000   29.01080   -0.00410   28.87730   91.99990  219.22210
 10307.50000   31.11630   -0.00540   30.65270   92.89870  219.01290
 10308.00000   32.41030   -0.00580   32.32560   93.84530  220.20670
 10308.50000   30.09490   -0.00600   31.16640   93.87430  220.77730
 10309.00000   27.36370   -0.00650   27.38160   92.65500  220.62840
 10309.50000   25.85560   -0.00700   25.79280   91.59980  220.44680
 10310.00000   27.40550   -0.00720   27.39700   91.08980  220.69310
 10310.50000   29.41890   -0.00730   29.43400   91.01560  221.02040
 10311.00000   31.04750   -0.00750   31.00440   91.13590  220.59920
 10311.50000   32.25160   -0.00780   32.00450   91.28740  219.83810
 10312.00000   33.58470   -0.00810   33.25260   91.71300  218.49400
 10312.50000   34.77810   -0.00790   34.76190   92.33890  217.23160
 10313.00000   34.64270   -0.00610   34.50870   92.80800  217.69820
 10313.50000   32.56720   -0.00340   32.43190   93.19920  218.70760
 10314.00000   30.48530   -0.00260   30.74710   93.34380  218.67100
 10314.50000   29.98690   -0.00180   30.16970   93.26300  217.97290
 10315.00000   32.16720   -0.00100   32.75960   92.98800  218.35500
 10315.50000   36.01180   -0.00140   36.14630   92.64010  220.12340
 10316.00000   39.84090   -0.00210   40.11600   92.30570  219.55690
 10316.50000   43.47160   -0.00250   43.61600   92.02410  218.37230
 10317.00000   43.76630   -0.00150   44.13230   92.31940  217.49250
 10317.50000   40.38070    0.00140   40.39480   95.31240  217.04930
 10318.00000   35.02880    0.00510   35.92430   98.30530  217.42790
 10318.50000   32.78370    0.01110   32.80750  102.54000  218.01600
 10319.00000   36.51890    0.02010   36.88440  105.40930  218.60410
 10319.50000   43.33210    0.03450   43.20070  106.64840  219.22650
 10320.00000   49.89690    0.05000   50.05570  105.59250  219.67790
 10320.50000   49.04770    0.05370   50.03240  102.66440  220.12600
 10321.00000   43.06050    0.04090   43.06220   99.23840  220.51100
 10321.50000   35.66230    0.02010   34.62680   94.42320  220.88090
 10322.00000   28.50590    0.01270   29.30720   91.39960  221.25040
 10322.50000   27.32700    0.00700   26.82080   91.95520  221.62000
 10323.00000   28.15010    0.00910   27.77950   95.57760  221.95770
 10323.50000   33.23930    0.02030   34.80330   97.27780  222.21500
 10324.00000   41.57570    0.03970   43.43490   96.33830  222.31450
 10324.50000   51.17200    0.07360   52.90230   95.00250  222.21140
 10325.00000   59.35860    0.11230   60.18460   93.66670  222.26490
 10325.50000   59.54140    0.12920   59.39310   92.33090  222.60100
 10326.00000   55.83250    0.12200   53.56840   92.16950  222.01020
 10326.50000   49.03470    0.10080   48.19510   95.46190  221.25410
 10327.00000   44.13730    0.08310   43.73840   98.80880  221.25530
 10327.50000   41.47390    0.07170   41.08320  100.56860  221.48480
 10328.00000   41.62920    0.06090   40.92830   99.92210  220.99420
 10328.50000   42.50830    0.05340   42.61730   99.49980  220.28350
 10329.00000   43.46150    0.04680   43.54250   99.59840  219.74290
 10329.50000   44.64360    0.04140   44.53630  100.43570  219.62840
 10330.00000   47.62650    0.04870   47.21570  101.81570  219.47420
 10330.50000   49.60090    0.05770   50.25260  102.87490  218.91400
 10331.00000   51.64700    0.06570   51.71480  103.24260  218.89060
 10331.50000   52.00810    0.06610   52.10280  102.96710  219.63680
 10332.00000   51.66900    0.06450   51.88110  103.09350  219.93770
 10332.50000   50.51490    0.06340   50.23660  104.17850  219.52240
 10333.00000   48.76930    0.06550   48.11990  105.95070  218.50540
 10333.50000   46.11520    0.06770   46.24730  107.35000  218.33840
 10334.00000   45.37630    0.07400   45.25860  108.00280  218.65300
