~Version ---------------------------------------------------
VERS.   2.0 : CWLS log ASCII Standard -VERSION 2.0
WRAP.    NO : One line per depth step
DLM . SPACE : Column Data Section Delimiter
~Well ------------------------------------------------------
STRT .F                 140.0 : START DEPTH
STOP .F               11646.0 : STOP DEPTH
STEP .F                   0.5 : STEP
NULL .               -9999.25 : NULL VALUE
COMP .                        : COMPANY
WELL .                        : WELL
FLD  .                        : FIELD
LOC  .                        : LOCATION
PROV .                        : PROVINCE
CNTY .                        : COUNTY
STAT .                        : STATE
CTRY .                        : COUNTRY
SRVC .                        : SERVICE COMPANY
DATE .                        : DATE
UWI  .                        : UNIQUE WELL ID
API  .                        : API NUMBER
SLAT .WGS84   2.9942216610361 : SURFACE LATITUDE
SLON .WGS84 8.664145051535002 : SURFACE LONGITUDE
DATUM.F               3540.72 : DEPTH DATUM ELEV
~Curve Information -----------------------------------------
DEPT.F     : 
GRD .GAPI  : GAMMA RAY FROM DENSITY LOG
TNPH.DEC   : THERMAL NEUTRON POROSITY
GRS .GAPI  : GAMMA RAY FROM SONIC LOG
DTCO.US/F  : DELTA-T COMPRESSIONAL
DTSM.US/F  : DELTA-T SHEAR
~Params ----------------------------------------------------
~Other -----------------------------------------------------
~ASCII -----------------------------------------------------
# ...
 5840.00000   23.16640    0.03300   23.69130   -9999.25   88.71700
 5840.50000   19.99660    0.03290   19.96350   -9999.25   88.18460
 5841.00000   20.16300    0.03580   20.59400   -9999.25   87.65220
 5841.50000   23.61540    0.03880   23.01800   -9999.25   87.04400
 5842.00000   25.24150    0.04060   25.36960   -9999.25   85.78210
 5842.50000   24.66080    0.04020   24.80900   -9999.25   85.71820
 5843.00000   21.73750    0.03910   21.75790   -9999.25   87.58930
 5843.50000   19.27720    0.03470   19.55940   -9999.25   90.13050
 5844.00000   19.75620    0.03530   19.94000   -9999.25   92.14940
 5844.50000   20.54040    0.03700   20.46070   -9999.25   94.83620
 5845.00000   20.90670    0.03790   20.84700   -9999.25   95.23850
 5845.50000   21.03850    0.03600   20.91790   -9999.25   94.42240
 5846.00000   21.47280    0.03680   21.31220   -9999.25   92.87790
 5846.50000   21.89780    0.03830   21.89880   -9999.25   91.99920
 5847.00000   20.42150    0.04170   21.31100   -9999.25   91.97730
 5847.50000   18.35640    0.04420   19.17500   -9999.25   91.75970
 5848.00000   18.80440    0.04410   17.90350   -9999.25   91.33290
 5848.50000   21.50740    0.04370   19.68310   -9999.25   90.75320
 5849.00000   24.21050    0.04130   23.29990   -9999.25   90.17350
 5849.50000   24.59370    0.03680   25.21210   -9999.25   89.59380
 5850.00000   22.71200    0.03190   22.98940   -9999.25   90.12720
 5850.50000   20.19890    0.02920   19.92290   -9999.25   90.69580
 5851.00000   19.34570    0.02950   19.06140   -9999.25   90.99620
 5851.50000   20.37110    0.02980   20.59180   -9999.25   91.07910
 5852.00000   22.36970    0.03010   22.63520   -9999.25   90.83380
 5852.50000   24.16370    0.03040   24.21140   -9999.25   90.52080
 5853.00000   25.10400    0.03100   25.07310   -9999.25   90.47550
 5853.50000   24.48090    0.03200   24.71890   -9999.25   90.30300
 5854.00000   22.62940    0.03230   22.99640   -9999.25   90.04360
 5854.50000   21.12660    0.03200   21.10110   -9999.25   89.80300
 5855.00000   20.79170    0.03220   20.27840   -9999.25   89.56250
 5855.50000   20.95420    0.03390   20.71540   -9999.25   88.76520
 5856.00000   22.68920    0.03640   22.34710   -9999.25   88.65690
 5856.50000   24.97150    0.03920   25.14890   -9999.25   89.14570
 5857.00000   26.05410    0.04250   26.13280   -9999.25   89.75020
 5857.50000   24.65530    0.04180   24.93520   -9999.25   90.40380
 5858.00000   21.73070    0.03740   22.39580   -9999.25   92.26340
 5858.50000   20.04280    0.03450   20.04260   -9999.25   93.86840
 5859.00000   19.72360    0.03540   19.82600   -9999.25   94.05850
 5859.50000   20.22520    0.03690   20.20650   -9999.25   93.92180
 5860.00000   20.28890    0.03590   20.24470   -9999.25   93.55630
 5860.50000   20.04430    0.03470   19.91220   -9999.25   92.66760
 5861.00000   19.53400    0.03250   19.45460   -9999.25   91.78460
 5861.50000   19.80180    0.03130   19.85650   -9999.25   90.88300
 5862.00000   20.96270    0.03260   21.25230   -9999.25   90.71290
 5862.50000   22.92580    0.03560   23.15810   -9999.25   90.67040
 5863.00000   25.38340    0.03780   24.82540   -9999.25   90.72780
 5863.50000   25.13040    0.03870   25.34200   -9999.25   90.49670
 5864.00000   22.47380    0.03610   23.17510   -9999.25   90.02360
 5864.50000   19.62480    0.03250   19.39430   -9999.25   89.42360
 5865.00000   16.79910    0.03140   16.98140   -9999.25   88.82360
 5865.50000   18.43080    0.03230   17.36430   -9999.25   88.24760
 5866.00000   20.79040    0.03530   20.11470   -9999.25   88.30220
 5866.50000   23.19480    0.03800   23.24700   -9999.25   88.85840
 5867.00000   23.66070    0.04050   23.85230   -9999.25   89.16030
 5867.50000   23.01870    0.03980   22.98190   -9999.25   89.46230
 5868.00000   21.96910    0.03810   21.92500   -9999.25   89.76420
 5868.50000   21.23420    0.03700   21.21220   -9999.25   90.06620
 5869.00000   20.95680    0.03760   20.92690   -9999.25   90.36810
 5869.50000   20.08030    0.03620   20.12430   -9999.25   90.66220
 5870.00000   18.48760    0.03360   18.83790   -9999.25   90.62750
 5870.50000   18.78780    0.03130   18.45730   -9999.25   90.11170
 5871.00000   20.40870    0.03130   20.10500   -9999.25   89.48030
 5871.50000   21.93000    0.03170   22.26860   -9999.25   88.61840
 5872.00000   22.83940    0.03210   23.19360   -9999.25   87.54800
 5872.50000   22.50870    0.03010   22.36530   -9999.25   88.04840
 5873.00000   21.29200    0.02850   21.30730   -9999.25   88.89480
 5873.50000   20.05530    0.02940   19.95670   -9999.25   89.47680
 5874.00000   19.09170    0.03000   19.32290   -9999.25   89.91640
 5874.50000   18.66590    0.03050   18.69220   -9999.25   90.13810
 5875.00000   18.53470    0.03170   18.42860   -9999.25   90.35980
 5875.50000   18.95020    0.03230   18.72890   -9999.25   90.58160
 5876.00000   20.50460    0.03280   20.15740   -9999.25   91.00930
 5876.50000   22.16720    0.03350   21.47480   -9999.25   91.68970
 5877.00000   23.06980    0.03420   22.79210   -9999.25   91.89200
 5877.50000   23.72450    0.03480   23.37620   -9999.25   91.57500
 5878.00000   24.69620    0.03500   24.21700   -9999.25   91.00710
 5878.50000   25.61440    0.03520   25.30770   -9999.25   90.48050
 5879.00000   25.76000    0.03550   25.76380   -9999.25   89.86750
 5879.50000   24.39300    0.03520   24.61290   -9999.25   89.20300
 5880.00000   22.09070    0.03220   22.19170   -9999.25   89.66670
 5880.50000   20.12970    0.02960   20.11620   -9999.25   91.10000
 5881.00000   19.82560    0.03140   19.48320   -9999.25   92.25610
 5881.50000   20.69130    0.03480   20.00430   -9999.25   92.63410
 5882.00000   21.85920    0.03850   21.54250   -9999.25   92.99180
 5882.50000   22.83650    0.03930   22.60110   -9999.25   93.17190
 5883.00000   23.54570    0.04020   23.54640   -9999.25   92.27940
 5883.50000   23.27330    0.03890   23.33730   -9999.25   90.56060
 5884.00000   21.33610    0.03590   22.11730   -9999.25   89.27580
 5884.50000   20.45770    0.03380   20.69340   -9999.25   88.01160
 5885.00000   21.34380    0.03430   20.74030   -9999.25   86.55980
 5885.50000   22.48980    0.03610   22.06640   -9999.25   85.73740
 5886.00000   24.04080    0.03700   23.60200   -9999.25   85.60160
 5886.50000   25.08680    0.03700   24.81940   -9999.25   86.05450
 5887.00000   25.01820    0.03490   25.09150   -9999.25   86.52890
 5887.50000   24.68660    0.03310   24.66910   -9999.25   88.46260
 5888.00000   24.02710    0.03230   24.11300   -9999.25   90.05610
 5888.50000   23.18680    0.03240   23.38070   -9999.25   91.20580
 5889.00000   23.07330    0.03280   22.88160   -9999.25   91.41400
 5889.50000   23.89510    0.03400   23.59160   -9999.25   91.47040
 5890.00000   25.61560    0.03530   25.25440   -9999.25   91.44050
 5890.50000   25.52190    0.03600   25.92990   -9999.25   91.32560
 5891.00000   24.37970    0.03500   24.51450   -9999.25   91.37130
 5891.50000   22.70050    0.03550   22.51210   -9999.25   91.46800
 5892.00000   21.87620    0.03590   21.74530   -9999.25   91.39320
 5892.50000   21.48750    0.03660   21.35550   -9999.25   91.25190
 5893.00000   21.56260    0.03760   21.33700   -9999.25   91.25830
 5893.50000   23.32530    0.04000   22.59020   -9999.25   91.37890
 5894.00000   26.05780    0.04230   24.50090   -9999.25   91.43380
 5894.50000   26.38720    0.04540   26.35530   -9999.25   91.10730
 5895.00000   25.57760    0.04440   26.11080   -9999.25   91.35290
 5895.50000   23.48770    0.04330   24.50390   -9999.25   91.95110
 5896.00000   23.33270    0.04220   23.48060   -9999.25   92.70140
 5896.50000   23.61260    0.04140   23.30430   -9999.25   93.41080
 5897.00000   24.56510    0.04050   24.19240   -9999.25   94.12020
 5897.50000   25.46040    0.03970   25.15840   -9999.25   94.73020
 5898.00000   25.74460    0.03710   25.66890   -9999.25   94.85020
 5898.50000   25.72620    0.03650   25.77430   -9999.25   94.49930
 5899.00000   25.37000    0.03740   25.29040   -9999.25   93.47320
 5899.50000   25.40940    0.03840   25.28760   -9999.25   92.46200
