~Version ---------------------------------------------------
VERS.   2.0 : CWLS log ASCII Standard -VERSION 2.0
WRAP.    NO : One line per depth step
DLM . SPACE : Column Data Section Delimiter
~Well ------------------------------------------------------
STRT .F                 140.0 : START DEPTH
STOP .F               11646.0 : STOP DEPTH
STEP .F                   0.5 : STEP
NULL .               -9999.25 : NULL VALUE
COMP .                        : COMPANY
WELL .                        : WELL
FLD  .                        : FIELD
LOC  .                        : LOCATION
PROV .                        : PROVINCE
CNTY .                        : COUNTY
STAT .                        : STATE
CTRY .                        : COUNTRY
SRVC .                        : SERVICE COMPANY
DATE .                        : DATE
UWI  .                        : UNIQUE WELL ID
API  .                        : API NUMBER
SLAT .WGS84   2.9942216610361 : SURFACE LATITUDE
SLON .WGS84 8.664145051535002 : SURFACE LONGITUDE
DATUM.F               3540.72 : DEPTH DATUM ELEV
~Curve Information -----------------------------------------
DEPT.F     : 
GRD .GAPI  : GAMMA RAY FROM DENSITY LOG
TNPH.DEC   : THERMAL NEUTRON POROSITY
GRS .GAPI  : GAMMA RAY FROM SONIC LOG
DTCO.US/F  : DELTA-T COMPRESSIONAL
DTSM.US/F  : DELTA-T SHEAR
~Params ----------------------------------------------------
~Other -----------------------------------------------------
~ASCII -----------------------------------------------------
# ...
 11160.50000   79.56960    0.40440   79.66180   79.97910  154.92570
 11161.00000   81.05940    0.41480   81.28940   80.21220  154.38480
 11161.50000   82.71090    0.41840   82.93620   80.43520  153.81010
 11162.00000   84.34270    0.41340   84.50000   80.27740  154.81510
 11162.50000   85.79620    0.40740   86.22950   79.53920  156.26010
 11163.00000   85.25310    0.40950   85.30050   79.02880  153.92300
 11163.50000   82.59950    0.41760   82.26180   78.93450  151.45870
 11164.00000   78.92370    0.42270   79.03900   78.87470  151.33280
 11164.50000   77.51900    0.41900   77.43980   78.73440  151.08900
 11165.00000   77.33150    0.40750   77.22880   78.73100  147.23100
 11165.50000   76.61450    0.40810   76.44740   78.78870  144.00040
 11166.00000   75.85100    0.42250   75.16090   79.23310  142.57140
 11166.50000   76.18300    0.44270   75.94050   80.21150  144.04700
 11167.00000   77.35460    0.47150   77.54520   80.89230  149.56240
 11167.50000   77.27190    0.54320   77.69540   80.90460  158.29830
 11168.00000   75.73970    0.66070   75.32340   81.12360  177.84340
 11168.50000   73.94450    0.66450   73.64780   81.93060  196.66410
 11169.00000   74.34230    0.59920   74.20980   82.08640  195.56930
 11169.50000   76.59220    0.52120   76.32480   81.57810  189.17560
 11170.00000   79.06260    0.46370   78.48480   81.40460  181.43650
 11170.50000   80.50290    0.45620   80.51100   81.66730  171.17000
 11171.00000   81.61070    0.44790   81.78350   81.72880  162.03920
 11171.50000   81.93240    0.43830   82.03730   81.48490  159.08260
 11172.00000   80.88830    0.41610   80.58180   80.96220  160.85130
 11172.50000   77.01820    0.40240   77.68100   80.52070  165.36670
 11173.00000   72.97390    0.39390   73.48440   80.57890  168.25130
 11173.50000   71.39080    0.42510   70.85270   81.23430  166.50720
 11174.00000   73.58360    0.49130   72.67680   81.95380  160.88000
 11174.50000   76.76470    0.55410   75.25500   82.72160  154.12590
 11175.00000   75.80590    0.51520   76.08820   83.27150  155.78960
 11175.50000   74.70170    0.45660   74.51650   82.81910  156.97320
 11176.00000   74.25970    0.41320   74.10420   82.06290  156.83170
 11176.50000   74.12700    0.42440   74.05100   81.32620  156.07330
 11177.00000   74.20840    0.44330   74.07980   80.65100  154.48280
 11177.50000   74.34330    0.42690   74.16860   80.27110  153.70120
 11178.00000   77.65490    0.39810   77.66540   80.77230  154.09140
 11178.50000   83.41520    0.38370   82.57890   83.20240  160.39670
 11179.00000   86.43290    0.39100   86.96000   86.49180  168.07950
 11179.50000   83.92240    0.41170   84.45320   90.05720  180.09570
 11180.00000   80.51750    0.43530   80.17770   92.16360  188.64130
 11180.50000   76.83770    0.45990   76.17280   93.63200  195.85840
 11181.00000   74.86500    0.49340   74.88910   92.18440  195.72700
 11181.50000   74.61640    0.54370   75.08410   88.83180  192.16650
 11182.00000   76.35880    0.52580   75.99500   86.31690  183.71180
 11182.50000   79.35430    0.47380   78.39470   85.23860  176.13020
 11183.00000   80.60220    0.44310   80.74370   85.27090  171.34100
 11183.50000   80.52190    0.44280   81.34580   85.85720  171.72940
 11184.00000   78.53050    0.46070   79.22280   86.89940  173.40910
 11184.50000   76.16650    0.47170   76.69410   88.33350  178.39740
 11185.00000   74.20280    0.46970   74.52460   89.89040  185.74860
 11185.50000   73.38040    0.45940   73.35080   91.42050  192.36630
 11186.00000   73.50890    0.45620   73.35090   92.60120  198.92670
 11186.50000   73.89090    0.46200   73.72520   92.03510  199.54160
 11187.00000   74.80810    0.46540   74.54550   89.57430  191.77970
 11187.50000   77.78740    0.46490   76.34120   84.00570  177.63160
 11188.00000   82.81570    0.45370   81.63120   79.00950  162.03800
 11188.50000   88.96900    0.37430   88.03110   74.64550  148.59240
 11189.00000   92.39340    0.24920   92.07410   77.00920  134.48310
 11189.50000   89.81150    0.17550   91.38560   79.21490  117.26120
 11190.00000   79.03700    0.13920   80.73680   79.28650  111.29720
 11190.50000   65.55220    0.10430   68.17780   78.99680  109.26070
 11191.00000   49.74540    0.08300   50.56930   79.10220  108.39670
 11191.50000   39.07480    0.08370   39.39530   79.15550  110.24620
 11192.00000   39.98730    0.09330   40.06190   77.90120  113.26050
 11192.50000   47.39490    0.11330   46.88630   74.57030  116.41000
 11193.00000   55.17120    0.15000   53.82800   70.97820  118.99210
 11193.50000   61.09220    0.18340   60.17800   69.56960  121.51490
 11194.00000   65.62410    0.20780   65.03610   70.36640  123.06610
 11194.50000   67.58570    0.22830   67.58240   71.09310  124.19780
 11195.00000   67.73190    0.23690   67.97560   71.69310  123.75820
 11195.50000   66.27890    0.23240   67.09350   72.55170  121.14710
 11196.00000   64.79990    0.21180   64.94460   72.53890  117.12230
 11196.50000   63.33130    0.18730   63.15480   72.07230  115.27650
 11197.00000   63.15520    0.17780   63.00950   72.33480  115.53070
 11197.50000   63.71230    0.18080   63.81490   73.91490  119.95660
 11198.00000   62.93070    0.21420   63.27500   74.33270  124.67540
 11198.50000   62.03940    0.25540   61.89540   72.85780  127.24990
 11199.00000   61.96420    0.27390   61.85660   71.04350  126.71250
 11199.50000   62.06090    0.27260   62.03200   69.30680  124.26720
 11200.00000   62.21970    0.23560   60.72030   68.13490  120.29270
 11200.50000   59.15440    0.19760   59.03400   67.91390  116.53590
 11201.00000   61.34810    0.19930   61.44950   68.60930  113.12400
 11201.50000   68.32250    0.20930   67.69260   69.28070  110.57850
 11202.00000   74.71510    0.22510   73.06860   70.56020  116.99360
 11202.50000   77.87920    0.25320   77.80650   72.63950  131.81590
 11203.00000   79.69070    0.30780   79.89450   75.43760  160.40240
 11203.50000   78.66100    0.37790   79.65530   78.12600  195.22420
 11204.00000   76.53960    0.42010   77.68690   77.68780  226.21990
 11204.50000   77.50330    0.35690   76.99610   75.69440  234.25220
 11205.00000   78.62980    0.26450   78.75890   75.20900  230.08790
 11205.50000   76.10090    0.18540   77.05100   76.96630  226.85340
 11206.00000   69.07130    0.11110   68.27280   76.60090  229.58290
 11206.50000   60.68600    0.10090   60.39740   75.68420  231.26410
 11207.00000   57.43290    0.11270   57.49400   79.63510  229.02080
 11207.50000   60.89550    0.13670   61.27160   84.05640  225.51050
 11208.00000   64.47640    0.14700   64.80920   82.50460  213.31350
 11208.50000   67.56050    0.15550   67.61160   77.87490  194.86400
 11209.00000   67.95190    0.16130   68.01040   73.24520  168.83770
 11209.50000   68.74770    0.17280   68.83120   68.44730  138.35030
 11210.00000   68.62730    0.19110   69.73850   66.61130  125.91560
 11210.50000   68.50700    0.19970   68.77260   66.43070  123.33650
 11211.00000   66.25580    0.20020   66.55460   66.68100  140.80720
 11211.50000   64.39770    0.19470   64.33570   67.04780  189.92420
 11212.00000   63.31270    0.18750   63.21810   67.18080  215.77920
 11212.50000   62.49460    0.17650   62.42100   67.32290  226.29170
 11213.00000   62.94360    0.17150   62.79610   68.18180  227.61780
 11213.50000   64.84690    0.17430   64.25790   68.20300  225.47620
 11214.00000   67.41120    0.18270   66.45370   68.23060  224.81830
 11214.50000   68.13220    0.18760   68.56560   71.16270  225.47660
 11215.00000   66.32590    0.18550   67.64930   73.94470  225.93710
 11215.50000   59.95540    0.16920   58.68060   74.36710  226.15460
 11216.00000   49.63010    0.11940   49.58710   75.00800  226.75140
 11216.50000   41.40020    0.07920   40.51250   76.33540  229.09190
 11217.00000   40.26780    0.07610   40.65650   77.45760  229.99200
 11217.50000   46.23420    0.10370   46.76130   78.41420  230.89210
 11218.00000   55.96050    0.18780   56.32230   80.62820  232.01240
 11218.50000   62.45260    0.32720   64.07990   85.77350  233.23390
 11219.00000   69.47950    0.37120   69.39140   89.01840  233.39220
