~Version ---------------------------------------------------
VERS.   2.0 : CWLS log ASCII Standard -VERSION 2.0
WRAP.    NO : One line per depth step
DLM . SPACE : Column Data Section Delimiter
~Well ------------------------------------------------------
STRT .F                 140.0 : START DEPTH
STOP .F               11646.0 : STOP DEPTH
STEP .F                   0.5 : STEP
NULL .               -9999.25 : NULL VALUE
COMP .                        : COMPANY
WELL .                        : WELL
FLD  .                        : FIELD
LOC  .                        : LOCATION
PROV .                        : PROVINCE
CNTY .                        : COUNTY
STAT .                        : STATE
CTRY .                        : COUNTRY
SRVC .                        : SERVICE COMPANY
DATE .                        : DATE
UWI  .                        : UNIQUE WELL ID
API  .                        : API NUMBER
SLAT .WGS84   2.9942216610361 : SURFACE LATITUDE
SLON .WGS84 8.664145051535002 : SURFACE LONGITUDE
DATUM.F               3540.72 : DEPTH DATUM ELEV
~Curve Information -----------------------------------------
DEPT.F     : 
GRD .GAPI  : GAMMA RAY FROM DENSITY LOG
TNPH.DEC   : THERMAL NEUTRON POROSITY
GRS .GAPI  : GAMMA RAY FROM SONIC LOG
DTCO.US/F  : DELTA-T COMPRESSIONAL
DTSM.US/F  : DELTA-T SHEAR
~Params ----------------------------------------------------
~Other -----------------------------------------------------
~ASCII -----------------------------------------------------
# ...
 7580.00000   60.95270    0.05960   60.91290   -9999.25  102.58720
 7580.50000   61.45190    0.05840   61.35470   -9999.25  102.21380
 7581.00000   61.45520    0.05670   61.39440   -9999.25  101.86160
 7581.50000   61.37570    0.05750   61.55730   -9999.25  101.61640
 7582.00000   61.21890    0.06060   61.13390   -9999.25  101.55170
 7582.50000   58.98510    0.06580   59.39350   -9999.25  101.57950
 7583.00000   56.55530    0.06580   56.63020   -9999.25  101.58580
 7583.50000   54.12540    0.06440   54.10490   -9999.25  101.44520
 7584.00000   51.89650    0.06190   51.88730   -9999.25  100.97570
 7584.50000   51.29750    0.05960   51.24490   -9999.25  100.85840
 7585.00000   52.57810    0.05980   52.59150   -9999.25  100.99460
 7585.50000   55.12120    0.06040   54.88240   -9999.25  100.99420
 7586.00000   56.55020    0.05990   56.67630   -9999.25  100.86900
 7586.50000   54.58090    0.05840   54.33740   -9999.25  100.70320
 7587.00000   51.04670    0.05680   50.68100   -9999.25  100.53740
 7587.50000   46.88870    0.05590   47.27350   -9999.25   99.73230
 7588.00000   47.88200    0.05670   47.44620   -9999.25   98.36670
 7588.50000   49.29890    0.05720   49.30580   -9999.25   97.00120
 7589.00000   51.75910    0.05510   51.83360   -9999.25   95.63570
 7589.50000   53.59170    0.05020   53.68660   -9999.25   94.16760
 7590.00000   53.56200    0.04600   52.71090   -9999.25   92.69710
 7590.50000   50.29420    0.04360   50.10420   -9999.25   92.19000
 7591.00000   47.02240    0.04250   47.43050   -9999.25   92.41480
 7591.50000   45.22290    0.04250   45.23120   -9999.25   92.63960
 7592.00000   46.77830    0.04320   45.79480   -9999.25   93.29960
 7592.50000   51.02570    0.04410   50.77620   -9999.25   93.99840
 7593.00000   56.79290    0.04960   55.48850   -9999.25   94.24320
 7593.50000   59.15920    0.05470   59.02760   -9999.25   95.18340
 7594.00000   60.20480    0.06480   60.07740   -9999.25   97.92340
 7594.50000   60.30550    0.07110   60.25440   -9999.25  101.40430
 7595.00000   59.84810    0.07660   59.85250   -9999.25  103.81650
 7595.50000   59.58200    0.07940   59.61100   -9999.25  105.26820
 7596.00000   59.58160    0.07820   59.55950   -9999.25  105.12270
 7596.50000   59.45220    0.07420   59.40720   -9999.25  104.74500
 7597.00000   58.85980    0.07170   58.90630   -9999.25  103.96590
 7597.50000   58.70030    0.07230   58.52400   -9999.25  103.40390
 7598.00000   59.34860    0.07310   59.13830   -9999.25  103.14710
 7598.50000   60.76680    0.07410   60.56930   -9999.25  103.09480
 7599.00000   62.22910    0.07650   62.07640   -9999.25  103.66460
 7599.50000   63.56920    0.07740   63.28310   -9999.25  104.23450
 7600.00000   63.74420    0.07680   63.50810   -9999.25  104.63920
 7600.50000   62.51220    0.07590   62.37700   -9999.25  104.59070
 7601.00000   61.31710    0.07500   61.15240   -9999.25  104.06080
 7601.50000   61.09160    0.07380   61.02260   -9999.25  103.87920
 7602.00000   61.18920    0.07210   61.34330   -9999.25  104.13400
 7602.50000   60.44360    0.07050   60.62080   -9999.25  104.34480
 7603.00000   59.41180    0.06990   59.23500   -9999.25  104.23840
 7603.50000   59.32870    0.06960   59.04050   -9999.25  104.37710
 7604.00000   60.71970    0.06960   60.60370   -9999.25  104.89860
 7604.50000   61.86560    0.07000   61.86670   -9999.25  104.83590
 7605.00000   62.36300    0.07330   62.32670   -9999.25  104.37420
 7605.50000   62.88200    0.07840   62.93870   -9999.25  104.09480
 7606.00000   62.90610    0.08040   62.91700   -9999.25  104.02170
 7606.50000   61.62170    0.08030   61.71590   -9999.25  103.59210
 7607.00000   59.45820    0.07940   59.35010   -9999.25  103.04450
 7607.50000   57.31430    0.07800   57.39580   -9999.25  103.07320
 7608.00000   55.64740    0.07760   55.64390   -9999.25  103.47330
 7608.50000   54.29420    0.07760   54.21940   -9999.25  103.95860
 7609.00000   54.11100    0.07720   53.68350   -9999.25  104.44380
 7609.50000   55.53050    0.07500   55.51580   -9999.25  105.02500
 7610.00000   57.93510    0.07250   58.14770   -9999.25  104.32210
 7610.50000   59.44270    0.06980   59.51680   -9999.25  103.46600
 7611.00000   58.67620    0.06890   59.17820   65.96440  102.60980
 7611.50000   56.36190    0.06900   56.46950   65.89020  102.05250
 7612.00000   53.89010    0.06940   53.86860   65.81600  103.16170
 7612.50000   53.92190    0.07050   53.48420   65.74170  104.15300
 7613.00000   56.37920    0.07300   56.57090   65.75640  105.02250
 7613.50000   59.62920    0.07530   59.79890   65.65950  105.44790
 7614.00000   61.10260    0.07720   61.50700   65.50350  105.89660
 7614.50000   61.77950    0.07910   61.73150   65.41900  106.28090
 7615.00000   61.31450    0.08130   61.17630   65.42590  105.75780
 7615.50000   61.10120    0.08350   61.01460   65.36340  105.11440
 7616.00000   62.14170    0.08140   62.00920   65.25950  104.67690
 7616.50000   62.95320    0.07610   62.97640   65.13620  104.04240
 7617.00000   62.34770    0.07020   62.38710   -9999.25  103.40790
 7617.50000   61.06100    0.06800   60.97120   -9999.25  102.94020
 7618.00000   60.67670    0.06840   60.01080   -9999.25  102.76810
 7618.50000   60.56090    0.06890   60.49850   -9999.25  102.31650
 7619.00000   60.80430    0.06740   60.88870   -9999.25  100.63060
 7619.50000   58.28300    0.06510   59.04270   -9999.25   99.85850
 7620.00000   55.03350    0.06010   55.30960   -9999.25   99.50900
 7620.50000   49.86830    0.05890   49.85490   -9999.25   98.67730
 7621.00000   45.24520    0.05700   46.65170   -9999.25   97.13630
 7621.50000   45.02940    0.05470   44.24470   -9999.25   95.71920
 7622.00000   47.47730    0.05290   47.13460   -9999.25   94.62620
 7622.50000   50.45170    0.05110   51.97460   -9999.25   93.90100
 7623.00000   53.35810    0.04950   53.54150   -9999.25   93.56270
 7623.50000   53.15670    0.04820   53.02220   -9999.25   93.89630
 7624.00000   53.50720    0.04740   53.48940   -9999.25   95.42420
 7624.50000   54.34760    0.05380   54.32940   -9999.25   97.32840
 7625.00000   55.44950    0.06070   55.45090   -9999.25  100.45970
 7625.50000   56.80200    0.07070   57.06110   -9999.25  103.73400
 7626.00000   59.74550    0.08110   59.16440   -9999.25  107.60720
 7626.50000   61.49850    0.09050   61.26770   -9999.25  111.91890
 7627.00000   63.99720    0.09110   63.91430   -9999.25  111.62580
 7627.50000   66.70190    0.08340   66.21940   -9999.25  108.77320
 7628.00000   66.97470    0.07380   67.08420   -9999.25  106.38140
 7628.50000   64.22780    0.06410   64.50140   -9999.25  105.18300
 7629.00000   60.48140    0.06250   61.45190   -9999.25  104.41860
 7629.50000   59.46120    0.06320   59.65500   -9999.25  104.74640
 7630.00000   61.21580    0.06760   61.31160   -9999.25  105.07420
 7630.50000   65.08020    0.07170   65.52420   -9999.25  105.10660
 7631.00000   67.53960    0.07570   67.77110   -9999.25  104.95150
 7631.50000   67.55560    0.07790   67.45430   -9999.25  104.32020
 7632.00000   67.19750    0.07780   67.03100   -9999.25  103.26690
 7632.50000   67.03130    0.07720   67.15590   -9999.25  103.30960
 7633.00000   67.29270    0.07590   67.35550   -9999.25  103.42350
 7633.50000   65.67530    0.07370   65.67900   -9999.25  103.03830
 7634.00000   63.35550    0.07140   63.40430   -9999.25  102.54020
 7634.50000   62.64850    0.06760   62.33790   -9999.25  102.21630
 7635.00000   63.68340    0.06420   63.76640   -9999.25  101.56430
 7635.50000   65.43350    0.06410   65.37680   -9999.25  100.89340
 7636.00000   65.42850    0.06690   64.94090   -9999.25  100.40870
 7636.50000   63.82550    0.07360   61.29070   -9999.25   99.83300
 7637.00000   58.06240    0.08110   57.60970   -9999.25   98.75840
 7637.50000   54.47660    0.08620   54.43020   -9999.25   96.93490
 7638.00000   51.41590    0.08930   50.46840   -9999.25   95.02990
 7638.50000   43.92560    0.08880   45.09080   -9999.25   94.20670
 7639.00000   36.08030    0.08340   35.48750   -9999.25   93.97490
 7639.50000   28.87970    0.07540   28.72250   -9999.25   94.07090
