~Version ---------------------------------------------------
VERS.   2.0 : CWLS log ASCII Standard -VERSION 2.0
WRAP.    NO : One line per depth step
DLM . SPACE : Column Data Section Delimiter
~Well ------------------------------------------------------
STRT .F                 140.0 : START DEPTH
STOP .F               11646.0 : STOP DEPTH
STEP .F                   0.5 : STEP
NULL .               -9999.25 : NULL VALUE
COMP .                        : COMPANY
WELL .                        : WELL
FLD  .                        : FIELD
LOC  .                        : LOCATION
PROV .                        : PROVINCE
CNTY .                        : COUNTY
STAT .                        : STATE
CTRY .                        : COUNTRY
SRVC .                        : SERVICE COMPANY
DATE .                        : DATE
UWI  .                        : UNIQUE WELL ID
API  .                        : API NUMBER
SLAT .WGS84   2.9942216610361 : SURFACE LATITUDE
SLON .WGS84 8.664145051535002 : SURFACE LONGITUDE
DATUM.F               3540.72 : DEPTH DATUM ELEV
~Curve Information -----------------------------------------
DEPT.F     : 
GRD .GAPI  : GAMMA RAY FROM DENSITY LOG
TNPH.DEC   : THERMAL NEUTRON POROSITY
GRS .GAPI  : GAMMA RAY FROM SONIC LOG
DTCO.US/F  : DELTA-T COMPRESSIONAL
DTSM.US/F  : DELTA-T SHEAR
~Params ----------------------------------------------------
~Other -----------------------------------------------------
~ASCII -----------------------------------------------------
# ...
 6260.00000   25.97070    0.04140   25.98890   -9999.25   91.13120
 6260.50000   26.03870    0.04250   25.95380   -9999.25   91.63790
 6261.00000   26.38930    0.04390   26.34430   -9999.25   92.81210
 6261.50000   27.02300    0.04490   27.04720   -9999.25   94.52190
 6262.00000   28.05120    0.04450   27.87780   -9999.25   94.61620
 6262.50000   28.65670    0.04270   28.59060   -9999.25   94.47370
 6263.00000   28.29170    0.04100   28.18100   -9999.25   95.10220
 6263.50000   27.30380    0.03940   26.85580   -9999.25   95.76110
 6264.00000   25.84320    0.03690   25.60230   -9999.25   96.22660
 6264.50000   25.44780    0.03640   25.24530   -9999.25   96.19820
 6265.00000   25.78520    0.03700   25.75790   -9999.25   95.97270
 6265.50000   26.92860    0.03760   26.99010   -9999.25   96.22220
 6266.00000   28.65320    0.03730   28.67110   -9999.25   96.60890
 6266.50000   30.06660    0.03630   30.27390   -9999.25   97.03750
 6267.00000   31.02920    0.03640   31.08980   -9999.25   98.01800
 6267.50000   30.76190    0.03810   30.68200   -9999.25   98.69890
 6268.00000   30.43350    0.04170   30.23540   -9999.25   98.30590
 6268.50000   30.19910    0.04500   30.16820   -9999.25   97.41820
 6269.00000   31.26000    0.04730   31.24700   -9999.25   96.53370
 6269.50000   31.49370    0.04850   31.52810   -9999.25   95.43650
 6270.00000   30.95050    0.04730   30.98770   -9999.25   94.58990
 6270.50000   30.44840    0.04480   30.33630   -9999.25   94.86030
 6271.00000   30.99080    0.04270   30.97840   -9999.25   95.70130
 6271.50000   31.80280    0.04260   31.91630   -9999.25   96.89840
 6272.00000   31.58700    0.04250   31.62060   -9999.25   97.95980
 6272.50000   30.50690    0.04260   30.48540   -9999.25   98.44340
 6273.00000   29.20450    0.04200   28.96880   -9999.25   98.35780
 6273.50000   27.52870    0.04070   27.39480   -9999.25   97.16380
 6274.00000   27.20650    0.03930   26.22460   -9999.25   94.68750
 6274.50000   27.56240    0.03780   27.48460   -9999.25   92.67250
 6275.00000   29.94800    0.03460   29.90670   -9999.25   91.42940
 6275.50000   32.47120    0.03360   32.58770   -9999.25   90.74030
 6276.00000   33.60030    0.03380   33.60810   -9999.25   90.94820
 6276.50000   34.03180    0.03430   34.03510   -9999.25   91.60150
 6277.00000   32.43460    0.03490   32.63340   -9999.25   92.24540
 6277.50000   29.51330    0.03660   29.73960   -9999.25   93.16950
 6278.00000   26.11180    0.04260   26.48840   -9999.25   93.13100
 6278.50000   23.29850    0.04760   23.13860   -9999.25   92.23730
 6279.00000   21.46210    0.05080   21.28500   -9999.25   90.77830
 6279.50000   21.08040    0.05040   20.87380   -9999.25   90.02500
 6280.00000   22.27680    0.04710   22.29570   -9999.25   90.12930
 6280.50000   24.03670    0.04200   24.29610   -9999.25   90.23550
 6281.00000   24.53780    0.04060   24.50200   -9999.25   90.39160
 6281.50000   23.65860    0.04190   23.60060   -9999.25   92.08940
 6282.00000   23.12760    0.04230   23.01140   -9999.25   93.98050
 6282.50000   23.22150    0.04200   23.29060   -9999.25   95.80260
 6283.00000   24.68340    0.04130   24.90570   -9999.25   95.91600
 6283.50000   26.06800    0.04020   26.06760   -9999.25   95.96880
 6284.00000   25.99610    0.03990   25.91120   -9999.25   96.18590
 6284.50000   25.88410    0.04030   25.67970   -9999.25   96.11480
 6285.00000   26.95500    0.04150   27.02900   -9999.25   95.88010
 6285.50000   28.77390    0.04250   29.21710   -9999.25   95.89810
 6286.00000   30.47200    0.04350   30.37600   -9999.25   95.79310
 6286.50000   30.30650    0.04380   29.80430   -9999.25   95.42480
 6287.00000   28.46970    0.04300   28.32990   -9999.25   94.53770
 6287.50000   27.54390    0.04120   27.58500   -9999.25   94.15210
 6288.00000   26.57840    0.04120   26.74100   -9999.25   94.47340
 6288.50000   25.94370    0.04180   25.91240   -9999.25   94.60440
 6289.00000   25.53050    0.04360   25.50440   -9999.25   94.50380
 6289.50000   25.87310    0.04650   25.81690   -9999.25   94.02190
 6290.00000   26.98070    0.04710   26.65470   -9999.25   92.77470
 6290.50000   27.90780    0.04750   27.86690   -9999.25   91.47100
 6291.00000   28.04030    0.04450   27.96710   -9999.25   90.86740
 6291.50000   27.85540    0.04190   27.75460   -9999.25   90.39450
 6292.00000   27.94850    0.04120   27.86650   -9999.25   90.91220
 6292.50000   28.32900    0.04080   28.40190   -9999.25   91.36400
 6293.00000   28.91350    0.04160   29.02010   -9999.25   91.61360
 6293.50000   28.97100    0.04220   29.54620   -9999.25   91.94000
 6294.00000   28.40790    0.04150   28.49960   -9999.25   92.26650
 6294.50000   27.34910    0.04110   27.20780   -9999.25   92.40440
 6295.00000   27.02010    0.04180   26.90870   -9999.25   92.45020
 6295.50000   27.82250    0.04340   27.99390   -9999.25   93.70930
 6296.00000   28.51160    0.04410   28.78570   -9999.25   95.85830
 6296.50000   27.64840    0.04450   27.92000   -9999.25   98.09600
 6297.00000   26.17530    0.04480   26.05360   -9999.25   98.99440
 6297.50000   25.98370    0.04510   25.68940   -9999.25   99.88690
 6298.00000   27.35020    0.04640   27.45460   -9999.25  100.77940
 6298.50000   29.72780    0.04730   30.00710   -9999.25  101.09910
 6299.00000   31.31800    0.04710   31.44710   -9999.25  100.77840
 6299.50000   31.15480    0.04660   31.47900   -9999.25  100.41260
 6300.00000   29.08370    0.04710   29.52680   -9999.25  100.01880
 6300.50000   27.31060    0.04760   27.17810   -9999.25   99.45180
 6301.00000   26.54850    0.04810   26.46430   -9999.25   97.74170
 6301.50000   26.75800    0.04880   26.83410   -9999.25   95.91560
 6302.00000   27.30640    0.04810   27.45290   -9999.25   94.76190
 6302.50000   28.06100    0.04530   28.10830   -9999.25   93.47120
 6303.00000   28.54240    0.04240   28.64930   -9999.25   92.64400
 6303.50000   29.43030    0.04240   29.53270   -9999.25   92.09430
 6304.00000   29.76440    0.04410   29.92930   -9999.25   91.90350
 6304.50000   29.79510    0.04620   29.92140   -9999.25   91.77790
 6305.00000   29.63640    0.04780   29.91920   -9999.25   91.65960
 6305.50000   29.31240    0.04840   29.86320   -9999.25   91.64760
 6306.00000   28.56990    0.04800   29.22580   -9999.25   92.02450
 6306.50000   26.99880    0.04790   27.02130   -9999.25   92.48710
 6307.00000   25.92610    0.04810   25.88690   -9999.25   92.92670
 6307.50000   25.82320    0.04770   25.85420   -9999.25   93.55120
 6308.00000   26.00750    0.04650   26.02100   -9999.25   95.58420
 6308.50000   26.07750    0.04640   26.10190   -9999.25   97.42120
 6309.00000   25.69020    0.04800   25.68580   -9999.25   96.95130
 6309.50000   24.69720    0.04860   24.72500   -9999.25   96.11320
 6310.00000   24.09110    0.04730   24.00190   -9999.25   96.26200
 6310.50000   23.70530    0.04530   23.72100   -9999.25   96.58170
 6311.00000   24.28760    0.04390   24.42770   -9999.25   96.70480
 6311.50000   24.91680    0.04220   25.17110   -9999.25   96.72430
 6312.00000   25.90950    0.04000   25.92010   -9999.25   95.95350
 6312.50000   28.01210    0.03830   27.90780   -9999.25   95.39690
 6313.00000   30.52730    0.03680   30.64190   -9999.25   94.87650
 6313.50000   32.04580    0.03700   32.37430   -9999.25   94.35610
 6314.00000   30.89100    0.03840   31.01560   -9999.25   93.83580
 6314.50000   28.50110    0.04040   28.22690   -9999.25   93.31540
 6315.00000   26.15650    0.04090   25.83650   -9999.25   92.85340
 6315.50000   25.81710    0.04140   25.68320   -9999.25   92.77050
 6316.00000   26.75550    0.04180   26.55450   -9999.25   93.11700
 6316.50000   27.57340    0.04210   27.54490   -9999.25   93.62670
 6317.00000   27.03420    0.04110   27.02410   -9999.25   93.96320
 6317.50000   26.43270    0.03990   26.25300   -9999.25   94.29110
 6318.00000   26.99580    0.03980   26.85600   -9999.25   94.29800
 6318.50000   28.19860    0.04060   28.18410   -9999.25   94.15130
 6319.00000   28.98900    0.04200   29.02170   -9999.25   94.00090
 6319.50000   28.98630    0.04450   28.94510   -9999.25   93.76380
