~Version ---------------------------------------------------
VERS.   2.0 : CWLS log ASCII Standard -VERSION 2.0
WRAP.    NO : One line per depth step
DLM . SPACE : Column Data Section Delimiter
~Well ------------------------------------------------------
STRT .F                 140.0 : START DEPTH
STOP .F               11646.0 : STOP DEPTH
STEP .F                   0.5 : STEP
NULL .               -9999.25 : NULL VALUE
COMP .                        : COMPANY
WELL .                        : WELL
FLD  .                        : FIELD
LOC  .                        : LOCATION
PROV .                        : PROVINCE
CNTY .                        : COUNTY
STAT .                        : STATE
CTRY .                        : COUNTRY
SRVC .                        : SERVICE COMPANY
DATE .                        : DATE
UWI  .                        : UNIQUE WELL ID
API  .                        : API NUMBER
SLAT .WGS84   2.9942216610361 : SURFACE LATITUDE
SLON .WGS84 8.664145051535002 : SURFACE LONGITUDE
DATUM.F               3540.72 : DEPTH DATUM ELEV
~Curve Information -----------------------------------------
DEPT.F     : 
GRD .GAPI  : GAMMA RAY FROM DENSITY LOG
TNPH.DEC   : THERMAL NEUTRON POROSITY
GRS .GAPI  : GAMMA RAY FROM SONIC LOG
DTCO.US/F  : DELTA-T COMPRESSIONAL
DTSM.US/F  : DELTA-T SHEAR
~Params ----------------------------------------------------
~Other -----------------------------------------------------
~ASCII -----------------------------------------------------
# ...
 9800.00000   79.87950    0.16510   79.40600   72.44470  119.69550
 9800.50000   78.08900    0.16410   77.26760   65.67560  116.38230
 9801.00000   74.00780    0.15240   73.96490   62.85890  113.49330
 9801.50000   70.10440    0.13810   70.35880   62.65840  111.47620
 9802.00000   67.93720    0.12710   68.18160   62.56900  110.53780
 9802.50000   66.20610    0.11630   66.16470   62.86690  110.71600
 9803.00000   65.91130    0.10980   65.50490   64.54300  111.46400
 9803.50000   67.03590    0.11090   66.41400   66.21910  113.98770
 9804.00000   72.23750    0.13090   71.09180   67.76100  118.49920
 9804.50000   78.63200    0.15220   77.23710   68.90460  123.01070
 9805.00000   83.49040    0.17290   82.46830   70.19730  127.52220
 9805.50000   83.90840    0.19280   83.78330   71.85920  131.40920
 9806.00000   83.75040    0.20270   83.85990   73.85290  133.69230
 9806.50000   87.68330    0.21260   86.92110   75.84670  135.11990
 9807.00000   93.40740    0.22040   91.90820   77.04940  135.29540
 9807.50000   96.58780    0.22450   96.37010   76.79260  134.84380
 9808.00000   95.99110    0.22710   96.84640   75.07420  132.10820
 9808.50000   89.38340    0.22220   90.17660   73.56260  127.98400
 9809.00000   82.20140    0.21100   81.70760   73.22440  121.52700
 9809.50000   69.76330    0.16350   71.02740   76.87910  115.18720
 9810.00000   59.00230    0.13480   60.08360   78.22740  109.94180
 9810.50000   53.26470    0.10230   52.32510   76.41570  107.72580
 9811.00000   53.92110    0.10110   55.88810   75.30320  107.11350
 9811.50000   64.52170    0.10960   65.02170   75.72920  108.71840
 9812.00000   77.34820    0.12640   76.20840   76.49480  109.77190
 9812.50000   81.39320    0.13810   81.15980   77.20110  109.35040
 9813.00000   80.08350    0.13070   76.20380   76.92620  106.79690
 9813.50000   66.76940    0.10980   64.63350   75.89610  104.24340
 9814.00000   55.84720    0.08580   56.45260   73.31120  101.68990
 9814.50000   56.21920    0.06430   56.41580   71.63950  100.41680
 9815.00000   62.58930    0.06470   62.14260   71.24200  100.58140
 9815.50000   70.71410    0.07400   70.71330   72.00710  100.97790
 9816.00000   73.97230    0.08100   75.61190   73.40560  101.38030
 9816.50000   75.96240    0.08670   76.36590   74.08100  100.79720
 9817.00000   73.88490    0.09230   74.23320   74.37540   97.88500
 9817.50000   69.95220    0.09520   70.09000   74.43660   94.40420
 9818.00000   64.78480    0.09510   65.27420   74.47810   97.48930
 9818.50000   60.58710    0.08900   60.72040   74.44230  101.35530
 9819.00000   60.53910    0.08240   60.09240   74.33280  104.22570
 9819.50000   61.60660    0.08660   61.63430   74.08710  107.13640
 9820.00000   64.65860    0.09700   64.46680   71.75630  110.07140
 9820.50000   69.43220    0.11230   68.36530   68.87420  113.04720
 9821.00000   74.70450    0.13030   72.85420   66.23740  115.36680
 9821.50000   80.41350    0.14270   79.12620   67.18130  117.37180
 9822.00000   86.12250    0.15300   85.12570   69.05850  119.37680
 9822.50000   91.83150    0.16330   91.05080   71.12150  123.95150
 9823.00000   95.95060    0.17930   95.27610   73.11170  127.16700
 9823.50000   99.05900    0.19810   98.63810   74.67640  130.04540
 9824.00000  101.34270    0.21700  101.31800   76.16090  132.37580
 9824.50000  103.62640    0.23250  103.99790   77.44730  136.06000
 9825.00000  107.14080    0.24310  107.48270   79.15830  137.78200
 9825.50000  109.09230    0.25060  108.77060   80.31970  139.30700
 9826.00000  108.04240    0.25570  108.33230   81.44990  141.49490
 9826.50000  104.58720    0.26170  104.95480   82.05590  143.45560
 9827.00000  101.13190    0.26810  101.38090   82.42460  144.85680
 9827.50000   96.04940    0.27570   97.25440   82.89090  146.06880
 9828.00000   94.02730    0.28090   94.07270   83.98590  146.79300
 9828.50000   94.02730    0.28070   93.66340   85.02850  147.26340
 9829.00000   93.33450    0.27950   93.51230   85.58770  147.43470
 9829.50000   92.83410    0.28870   92.77700   85.41800  146.92970
 9830.00000   93.76410    0.29180   93.85640   85.02920  146.16600
 9830.50000   96.09690    0.28390   96.15980   84.70390  145.60330
 9831.00000   97.49240    0.26940   97.19400   84.38140  144.99770
 9831.50000   95.54330    0.25840   95.20100   83.77300  143.99170
 9832.00000   99.01820    0.25020   96.43640   83.00490  142.81220
 9832.50000  101.07110    0.25460  101.00710   83.36410  140.22790
 9833.00000  100.69210    0.25960  100.61690   86.00600  136.51110
 9833.50000   94.58880    0.25800   96.15310   88.70650  132.27060
 9834.00000   84.87260    0.22280   86.93410   84.93280  124.93650
 9834.50000   76.92910    0.19230   76.15430   83.74930  145.88520
 9835.00000   69.25580    0.17000   68.68820   89.88630  193.11630
 9835.50000   68.60680    0.15790   68.71370   92.04480  222.76020
 9836.00000   71.05430    0.16250   71.07100   91.14820  223.33950
 9836.50000   69.99570    0.16570   70.35230   91.85930  223.51520
 9837.00000   62.62220    0.15550   63.91700   95.78530  223.83500
 9837.50000   54.62790    0.12710   56.56350   98.70420  223.88180
 9838.00000   47.26170    0.09850   49.73030   99.65330  223.66060
 9838.50000   41.33430    0.07220   42.89710   99.51750  223.44320
 9839.00000   35.72460    0.05450   36.61270   98.74360  223.20410
 9839.50000   30.03920    0.03800   31.04270   98.79450  222.69090
 9840.00000   25.68040    0.03150   25.86890   99.37920  222.96960
 9840.50000   28.66550    0.02740   27.44140  100.72000  223.23720
 9841.00000   35.33570    0.03000   34.25900  102.06070  223.58670
 9841.50000   42.87100    0.04280   42.53740  104.29410  223.36310
 9842.00000   47.79310    0.06170   46.62600  104.33860  222.71370
 9842.50000   51.24440    0.08070   50.01970   99.47450  222.17320
 9843.00000   56.60460    0.10290   55.19040   94.67320  221.97790
 9843.50000   64.07480    0.13900   62.85830   93.86050  222.41740
 9844.00000   68.53710    0.15960   68.08050   96.46150  222.85690
 9844.50000   70.25210    0.16720   70.24900   97.78990  223.29640
 9845.00000   71.35070    0.16330   71.21200   97.68680  223.73600
 9845.50000   72.78910    0.16260   72.54960   97.29950  224.27150
 9846.00000   72.98240    0.16430   73.25720   96.38080  224.87980
 9846.50000   70.64080    0.15910   72.20040   93.89980  225.46600
 9847.00000   66.03050    0.13970   68.15100   90.80950  224.73030
 9847.50000   61.61030    0.12750   63.77750   92.65880  223.97740
 9848.00000   59.26500    0.11790   60.51390   98.20490  224.40350
 9848.50000   57.84060    0.11300   57.81770  109.24070  224.66700
 9849.00000   58.31680    0.11230   58.22730  106.13930  223.80550
 9849.50000   59.83420    0.11430   59.64870  101.31090  223.31990
 9850.00000   62.38530    0.11930   62.31540   96.48250  223.01310
 9850.50000   65.78520    0.13490   65.93890   94.29850  222.82190
 9851.00000   66.52530    0.14930   65.80390   98.18280  222.67160
 9851.50000   57.28710    0.12880   56.51810  107.45330  222.41230
 9852.00000   42.92180    0.08500   45.42720  104.19100  221.86970
 9852.50000   33.07860    0.05730   32.88250  101.92400  220.98940
 9853.00000   34.58410    0.05290   34.96850  100.82310  221.96040
 9853.50000   38.89710    0.05780   39.90990  101.01250  222.62550
 9854.00000   42.18550    0.06610   42.47640  101.36960  221.81160
 9854.50000   42.68050    0.06260   42.61770  101.02030  220.64340
 9855.00000   42.11910    0.05060   42.12820  100.35910  220.03380
 9855.50000   42.40020    0.04440   42.51990  100.96380  220.58420
 9856.00000   44.24460    0.04740   44.54890  102.54150  220.99690
 9856.50000   47.80300    0.05580   48.25380  104.08670  221.07390
 9857.00000   51.68220    0.06530   51.57640  105.42650  220.72090
 9857.50000   54.84250    0.08240   55.18770  106.14550  220.37790
 9858.00000   55.42430    0.09160   55.38770  106.70910  220.73330
 9858.50000   51.56190    0.08620   51.91440  107.10740  221.85070
 9859.00000   47.04790    0.07660   47.67020  106.96600  222.27680
 9859.50000   46.46100    0.07290   45.93810  106.57360  222.05730
