~Version ---------------------------------------------------
VERS.   2.0 : CWLS log ASCII Standard -VERSION 2.0
WRAP.    NO : One line per depth step
DLM . SPACE : Column Data Section Delimiter
~Well ------------------------------------------------------
STRT .F                 140.0 : START DEPTH
STOP .F               11646.0 : STOP DEPTH
STEP .F                   0.5 : STEP
NULL .               -9999.25 : NULL VALUE
COMP .                        : COMPANY
WELL .                        : WELL
FLD  .                        : FIELD
LOC  .                        : LOCATION
PROV .                        : PROVINCE
CNTY .                        : COUNTY
STAT .                        : STATE
CTRY .                        : COUNTRY
SRVC .                        : SERVICE COMPANY
DATE .                        : DATE
UWI  .                        : UNIQUE WELL ID
API  .                        : API NUMBER
SLAT .WGS84   2.9942216610361 : SURFACE LATITUDE
SLON .WGS84 8.664145051535002 : SURFACE LONGITUDE
DATUM.F               3540.72 : DEPTH DATUM ELEV
~Curve Information -----------------------------------------
DEPT.F     : 
GRD .GAPI  : GAMMA RAY FROM DENSITY LOG
TNPH.DEC   : THERMAL NEUTRON POROSITY
GRS .GAPI  : GAMMA RAY FROM SONIC LOG
DTCO.US/F  : DELTA-T COMPRESSIONAL
DTSM.US/F  : DELTA-T SHEAR
~Params ----------------------------------------------------
~Other -----------------------------------------------------
~ASCII -----------------------------------------------------
# ...
 7160.00000   35.77160    0.10060   36.27420   -9999.25   93.37310
 7160.50000   34.65260    0.09640   35.21590   -9999.25   92.52240
 7161.00000   32.88780    0.09190   33.12790   -9999.25   92.05470
 7161.50000   31.49330    0.08820   31.58760   -9999.25   91.59500
 7162.00000   30.40560    0.08460   30.83700   -9999.25   91.13050
 7162.50000   29.78590    0.08220   30.12520   -9999.25   90.06450
 7163.00000   29.88990    0.08140   30.02090   -9999.25   88.95450
 7163.50000   31.25890    0.08150   31.48150   -9999.25   88.40000
 7164.00000   33.18890    0.08200   33.01480   -9999.25   88.78850
 7164.50000   33.59360    0.08250   33.71670   -9999.25   89.58240
 7165.00000   33.65030    0.08240   33.74570   -9999.25   90.37640
 7165.50000   34.08160    0.08040   34.03680   -9999.25   91.44680
 7166.00000   34.49960    0.08020   34.74020   -9999.25   92.54360
 7166.50000   34.29460    0.08020   34.45300   -9999.25   93.02460
 7167.00000   33.01760    0.08160   33.07930   -9999.25   93.44700
 7167.50000   32.94170    0.08210   32.70770   -9999.25   93.82770
 7168.00000   35.48930    0.08220   35.11590   -9999.25   93.68910
 7168.50000   37.60700    0.08240   37.70870   -9999.25   92.91020
 7169.00000   37.96770    0.08390   37.96460   -9999.25   92.93500
 7169.50000   36.83290    0.08570   36.83040   -9999.25   92.49100
 7170.00000   35.57540    0.08380   35.62820   -9999.25   91.89860
 7170.50000   34.02030    0.08040   34.31080   -9999.25   91.06430
 7171.00000   32.50640    0.07960   32.61770   -9999.25   90.56690
 7171.50000   31.85890    0.07850   31.47420   -9999.25   90.07260
 7172.00000   32.81610    0.07520   32.39450   -9999.25   89.97310
 7172.50000   34.12860    0.07330   34.14270   -9999.25   90.14650
 7173.00000   34.01790    0.07350   34.01060   -9999.25   90.41380
 7173.50000   32.25340    0.07480   32.47300   -9999.25   90.72260
 7174.00000   31.39560    0.07950   31.05820   -9999.25   91.08660
 7174.50000   31.15640    0.08110   31.11050   -9999.25   91.24840
 7175.00000   31.97810    0.08010   31.64370   -9999.25   91.32300
 7175.50000   31.39340    0.07860   31.89020   -9999.25   91.06380
 7176.00000   29.13850    0.07680   30.15320   -9999.25   90.80460
 7176.50000   26.79390    0.07520   27.02070   -9999.25   90.51830
 7177.00000   25.99520    0.07300   25.64140   -9999.25   90.09990
 7177.50000   26.53960    0.07320   26.39900   -9999.25   89.26880
 7178.00000   28.15890    0.07470   28.20260   -9999.25   88.91300
 7178.50000   29.67830    0.07630   29.67930   -9999.25   88.82550
 7179.00000   29.76250    0.07300   29.73090   -9999.25   89.02680
 7179.50000   27.60580    0.06900   28.09020   -9999.25   89.34100
 7180.00000   24.48570    0.06850   25.24300   -9999.25   89.49490
 7180.50000   23.93410    0.07070   23.23190   -9999.25   89.64880
 7181.00000   25.43470    0.07380   24.94770   -9999.25   89.80280
 7181.50000   27.85230    0.07280   27.78510   -9999.25   89.95670
 7182.00000   28.91090    0.07160   28.62430   -9999.25   90.00410
 7182.50000   26.75500    0.07110   26.44110   -9999.25   89.71900
 7183.00000   24.64310    0.07320   24.19950   -9999.25   89.52600
 7183.50000   23.83020    0.07570   23.84300   -9999.25   89.33310
 7184.00000   24.59160    0.07660   24.74490   -9999.25   89.14020
 7184.50000   25.12210    0.07740   24.94850   -9999.25   89.13030
 7185.00000   24.50490    0.07630   24.37540   -9999.25   89.14190
 7185.50000   23.98890    0.07100   23.94860   -9999.25   89.21200
 7186.00000   24.62510    0.06320   24.69840   -9999.25   89.34980
 7186.50000   25.69370    0.05970   25.78890   -9999.25   89.48760
 7187.00000   25.96090    0.06300   25.86700   -9999.25   89.62540
 7187.50000   26.05030    0.06620   25.93430   -9999.25   89.79650
 7188.00000   26.76660    0.07050   26.78110   -9999.25   90.04190
 7188.50000   27.53050    0.07260   27.49060   -9999.25   90.06330
 7189.00000   27.41930    0.07360   27.48330   -9999.25   89.96800
 7189.50000   27.13520    0.07420   27.01980   -9999.25   89.66290
 7190.00000   27.25560    0.07280   26.97950   -9999.25   89.35780
 7190.50000   27.74010    0.07060   27.39110   -9999.25   89.05270
 7191.00000   29.18760    0.06810   29.07990   -9999.25   88.81370
 7191.50000   30.07040    0.06850   30.46900   -9999.25   88.84630
 7192.00000   29.66970    0.06940   29.54690   -9999.25   88.94550
 7192.50000   27.83730    0.07080   27.76500   -9999.25   89.09940
 7193.00000   25.76990    0.07340   25.42020   -9999.25   89.29790
 7193.50000   25.72580    0.07440   25.50880   -9999.25   89.53460
 7194.00000   28.56300    0.07410   28.47000   -9999.25   89.78260
 7194.50000   32.37640    0.07300   32.00240   -9999.25   90.03060
 7195.00000   33.56500    0.07110   33.51750   -9999.25   90.04830
 7195.50000   32.98710    0.06820   32.93630   -9999.25   89.95460
 7196.00000   31.56260    0.06550   31.56530   -9999.25   89.33620
 7196.50000   29.98240    0.06490   30.11210   -9999.25   88.65310
 7197.00000   28.74220    0.06420   28.73360   -9999.25   87.57270
 7197.50000   28.60920    0.06750   28.62500   -9999.25   87.08970
 7198.00000   29.61720    0.07080   29.29350   -9999.25   87.06630
 7198.50000   29.32460    0.07010   29.30370   -9999.25   86.48510
 7199.00000   26.36850    0.06780   26.24500   -9999.25   85.90390
 7199.50000   22.35780    0.06510   22.34230   -9999.25   84.84900
 7200.00000   22.62510    0.06410   22.25890   -9999.25   83.38130
 7200.50000   23.47310    0.06310   23.44600   -9999.25   81.87480
 7201.00000   24.69120    0.06240   24.63500   -9999.25   80.43520
 7201.50000   24.71700    0.06230   24.64230   -9999.25   81.55420
 7202.00000   24.71450    0.06370   24.67180   -9999.25   84.68110
 7202.50000   25.58960    0.06430   25.41340   -9999.25   86.55190
 7203.00000   27.74060    0.06460   27.53300   -9999.25   88.66090
 7203.50000   33.03170    0.06650   32.06750   -9999.25   90.65560
 7204.00000   39.95560    0.06830   38.40170   -9999.25   93.28080
 7204.50000   44.21340    0.07010   43.41750   -9999.25   94.20100
 7205.00000   48.08790    0.07110   47.62690   -9999.25   95.72690
 7205.50000   50.55460    0.07230   49.99600   -9999.25   97.36760
 7206.00000   53.03910    0.07770   52.88480   -9999.25   99.31570
 7206.50000   55.05910    0.08180   55.29480   -9999.25  100.25760
 7207.00000   54.68600    0.08460   54.90040   -9999.25   99.60800
 7207.50000   53.00880    0.08440   52.94630   -9999.25   98.11130
 7208.00000   50.42640    0.08060   50.82600   -9999.25   96.98690
 7208.50000   47.98530    0.07670   48.20720   -9999.25   96.15320
 7209.00000   46.29720    0.07550   46.50180   -9999.25   95.31950
 7209.50000   46.03990    0.07790   45.46520   -9999.25   95.22840
 7210.00000   47.59610    0.08960   47.48670   -9999.25   95.94720
 7210.50000   49.98770    0.09650   49.96890   -9999.25   96.76730
 7211.00000   50.96790    0.09630   51.06590   -9999.25   97.38950
 7211.50000   50.32000    0.09330   50.82120   -9999.25   97.20040
 7212.00000   49.62080    0.08980   49.79470   -9999.25   96.64420
 7212.50000   48.26130    0.08770   48.34130   -9999.25   95.81360
 7213.00000   44.78330    0.08530   45.27560   -9999.25   94.71660
 7213.50000   42.39030    0.08220   42.37930   -9999.25   94.41410
 7214.00000   45.56170    0.07830   44.39230   -9999.25   95.84960
 7214.50000   49.87800    0.07770   49.72340   -9999.25   98.10180
 7215.00000   55.38320    0.08010   54.56390   -9999.25  100.27590
 7215.50000   58.67700    0.08330   58.58260   -9999.25  102.64980
 7216.00000   60.26320    0.08640   60.15120   -9999.25  103.89560
 7216.50000   61.14980    0.08960   61.13110   -9999.25  103.57090
 7217.00000   61.26750    0.09270   61.34010   -9999.25  103.33650
 7217.50000   61.02360    0.09500   61.05430   -9999.25  103.29780
 7218.00000   60.83090    0.09620   60.84570   -9999.25  103.25920
 7218.50000   60.23410    0.09740   60.36630   -9999.25  102.73470
 7219.00000   59.05790    0.09930   59.04750   -9999.25  102.50190
 7219.50000   55.15970    0.10170   55.72030   -9999.25  102.91840
