~Version ---------------------------------------------------
VERS.   2.0 : CWLS log ASCII Standard -VERSION 2.0
WRAP.    NO : One line per depth step
DLM . SPACE : Column Data Section Delimiter
~Well ------------------------------------------------------
STRT .F                 140.0 : START DEPTH
STOP .F               11646.0 : STOP DEPTH
STEP .F                   0.5 : STEP
NULL .               -9999.25 : NULL VALUE
COMP .                        : COMPANY
WELL .                        : WELL
FLD  .                        : FIELD
LOC  .                        : LOCATION
PROV .                        : PROVINCE
CNTY .                        : COUNTY
STAT .                        : STATE
CTRY .                        : COUNTRY
SRVC .                        : SERVICE COMPANY
DATE .                        : DATE
UWI  .                        : UNIQUE WELL ID
API  .                        : API NUMBER
SLAT .WGS84   2.9942216610361 : SURFACE LATITUDE
SLON .WGS84 8.664145051535002 : SURFACE LONGITUDE
DATUM.F               3540.72 : DEPTH DATUM ELEV
~Curve Information -----------------------------------------
DEPT.F     : 
GRD .GAPI  : GAMMA RAY FROM DENSITY LOG
TNPH.DEC   : THERMAL NEUTRON POROSITY
GRS .GAPI  : GAMMA RAY FROM SONIC LOG
DTCO.US/F  : DELTA-T COMPRESSIONAL
DTSM.US/F  : DELTA-T SHEAR
~Params ----------------------------------------------------
~Other -----------------------------------------------------
~ASCII -----------------------------------------------------
# ...
 10688.50000   27.02390    0.01600   27.02660  105.07720  226.49910
 10689.00000   28.10230    0.01520   28.41230  102.51530  226.46440
 10689.50000   29.31650    0.01420   29.29300   95.79730  226.19020
 10690.00000   29.63340    0.01220   29.44460   91.74570  226.02580
 10690.50000   29.61670    0.01090   29.59570   90.77010  225.86130
 10691.00000   29.18410    0.00960   29.34040   89.42320  225.74170
 10691.50000   28.85380    0.00870   28.99200   89.24520  225.71210
 10692.00000   28.18560    0.00810   28.49880   89.89760  226.06480
 10692.50000   26.35640    0.00750   26.98000   90.40890  227.10990
 10693.00000   24.38730    0.00750   24.23780   90.70660  227.33280
 10693.50000   22.42490    0.00850   22.51730   89.48520  227.21320
 10694.00000   24.54090    0.01060   23.17420   87.93100  226.92190
 10694.50000   29.06820    0.01360   27.30110   89.42670  226.87160
 10695.00000   30.80710    0.01740   30.89170   92.45230  226.89350
 10695.50000   30.91810    0.01930   31.01120   92.81510  226.44580
 10696.00000   31.34640    0.01990   30.96510   92.18450  225.52850
 10696.50000   32.13800    0.02140   32.62600   92.98060  224.89820
 10697.00000   34.80280    0.02500   35.06540   95.13370  225.65470
 10697.50000   38.01340    0.03260   38.04790   97.78330  226.23850
 10698.00000   41.11690    0.04020   41.68740  100.58310  225.80750
 10698.50000   44.81600    0.05280   45.42790   98.66770  204.33620
 10699.00000   47.29090    0.07000   47.25740   93.26240  161.83330
 10699.50000   44.91150    0.09020   44.64940   87.90800  136.01300
 10700.00000   40.32570    0.12210   41.09340   86.50960  121.75740
 10700.50000   37.61470    0.12390   37.63290   85.98220  142.73860
 10701.00000   36.47610    0.10610   36.48590   86.21200  172.49530
 10701.50000   35.99260    0.07220   35.95350   86.97460  218.46140
 10702.00000   36.24580    0.04340   36.05980   87.77820  223.32230
 10702.50000   37.07430    0.04430   36.96470   88.16680  223.82710
 10703.00000   38.72820    0.05040   38.13870   88.63330  224.49660
 10703.50000   38.61610    0.05660   39.15630   89.59390  224.91160
 10704.00000   37.51070    0.06130   37.86930   90.41110  225.01680
 10704.50000   36.17820    0.06330   36.38720   93.61310  225.16000
 10705.00000   35.49840    0.06520   35.59630  100.68620  224.87210
 10705.50000   35.04580    0.06870   35.16730  106.16470  224.84680
 10706.00000   34.21870    0.07220   34.30670  105.94630  224.27840
 10706.50000   33.46890    0.07370   33.40110  103.10050  223.62190
 10707.00000   34.14410    0.07540   34.35860  104.94710  223.26760
 10707.50000   35.62150    0.07760   36.00120  107.41270  223.41250
 10708.00000   36.48890    0.07930   36.46860  109.86460  223.75580
 10708.50000   36.74730    0.08070   36.74650  111.58800  221.14940
 10709.00000   38.73470    0.08260   38.84140  106.96220  201.60600
 10709.50000   44.04800    0.10640   45.94180   92.48310  169.57350
 10710.00000   53.44420    0.15110   53.87830   84.80420  147.48010
 10710.50000   59.13400    0.18640   59.84170   80.76940  143.66720
 10711.00000   61.63440    0.21560   62.48320   81.66870  145.33810
 10711.50000   61.00540    0.19580   61.49110   82.51100  145.20750
 10712.00000   60.34210    0.16670   60.57700   82.92290  144.15180
 10712.50000   60.34210    0.15110   60.37050   89.36820  166.11720
 10713.00000   59.60230    0.15530   60.08980   98.50100  199.87340
 10713.50000   57.54210    0.16890   58.08790  109.69950  224.06220
 10714.00000   56.30640    0.18240   56.24720  109.87800  225.28340
 10714.50000   56.83310    0.19230   56.81050  107.19560  225.41600
 10715.00000   57.18110    0.19670   57.38800  102.50400  225.21330
 10715.50000   53.31830    0.18350   53.82900   95.05590  224.84840
 10716.00000   49.47810    0.15230   48.83080   94.22700  224.33640
 10716.50000   45.29810    0.13320   45.18100   94.42620  223.35140
 10717.00000   43.81010    0.12330   43.84830   94.49310  223.83610
 10717.50000   43.84820    0.12080   43.89650   93.05260  223.66240
 10718.00000   44.81090    0.12110   44.98030   92.11670  223.28300
 10718.50000   47.31500    0.12630   47.79620   91.67710  223.07530
 10719.00000   49.88130    0.14230   50.21590   91.77930  223.43830
 10719.50000   51.61690    0.14970   51.73090   91.70250  223.70220
 10720.00000   51.91180    0.13710   51.75580   91.53360  223.78500
 10720.50000   51.86350    0.11310   51.67880   91.10410  222.26920
 10721.00000   53.15660    0.09970   53.25020   87.45260  210.97930
 10721.50000   56.68460    0.09460   56.79970   78.95590  192.39850
 10722.00000   56.02480    0.08650   55.57840   70.45910  115.46450
 10722.50000   49.64480    0.06650   50.11650   68.91510  106.52100
 10723.00000   43.13090    0.05170   43.22530   71.95000  107.76630
 10723.50000   40.69510    0.05070   40.50280   79.28610  109.90730
 10724.00000   43.58790    0.06240   41.85750   79.83200  115.97680
 10724.50000   47.62080    0.09130   47.16100   72.84620  122.80740
 10725.00000   52.13300    0.11400   52.45670   70.65040  129.55340
 10725.50000   55.82180    0.14230   55.88020   71.47070  134.69930
 10726.00000   57.82360    0.16050   58.28800   72.13660  137.55460
 10726.50000   59.87320    0.18690   60.01490   71.52020  133.39300
 10727.00000   60.61180    0.18470   60.61120   70.44200  128.34920
 10727.50000   59.84520    0.15670   60.27670   70.79440  122.51060
 10728.00000   57.28940    0.12350   57.41670   72.19060  117.94240
 10728.50000   50.70730    0.10550   50.01980   74.30000  115.76690
 10729.00000   43.15460    0.08740   43.09970   76.14110  117.13330
 10729.50000   38.65220    0.07740   38.57450   77.65080  121.03890
 10730.00000   41.48310    0.09570   40.50100   77.38570  127.64710
 10730.50000   47.24220    0.12240   46.15020   76.33970  138.85700
 10731.00000   52.81370    0.17380   52.08960   78.51230  151.40160
 10731.50000   58.25200    0.21830   57.79600   82.50970  156.93550
 10732.00000   60.92780    0.26180   61.06000   85.43030  158.04600
 10732.50000   62.59730    0.26560   62.65450   86.64630  157.89660
 10733.00000   61.58280    0.25460   61.81930   86.04580  155.15910
 10733.50000   59.09790    0.23840   59.98060   83.52810  149.34980
 10734.00000   58.90720    0.22340   58.52730   80.08510  143.51610
 10734.50000   59.37930    0.21520   59.46960   77.33320  140.54890
 10735.00000   59.27730    0.21980   59.34610   76.82670  140.19220
 10735.50000   58.48840    0.22500   57.90240   76.88640  140.41590
 10736.00000   59.01430    0.23020   59.70010   76.92400  141.32850
 10736.50000   61.96580    0.23520   62.06270   76.82270  141.87120
 10737.00000   61.30100    0.23510   61.99360   76.48400  140.35650
 10737.50000   56.24650    0.22500   56.53560   76.17130  138.61690
 10738.00000   49.93230    0.21180   51.38240   76.37900  139.14890
 10738.50000   49.18650    0.20830   49.50470   77.15450  140.81480
 10739.00000   51.29520    0.20990   51.34840   78.37300  142.49260
 10739.50000   54.79250    0.22700   55.20310   80.04580  144.31720
 10740.00000   59.65880    0.24590   59.17650   81.68170  146.78890
 10740.50000   63.68500    0.26230   63.17560   82.75290  150.30480
 10741.00000   65.61660    0.27200   65.80050   83.25340  154.06770
 10741.50000   65.76460    0.28180   66.32960   84.10230  156.91140
 10742.00000   65.57690    0.30230   66.11050   85.28220  162.49510
 10742.50000   65.43210    0.32280   65.93130   86.26500  170.37090
 10743.00000   65.72800    0.35340   65.90680   87.14700  187.93070
 10743.50000   65.36740    0.39620   65.63180   88.04070  203.24530
 10744.00000   64.17350    0.43710   64.02220   88.00210  210.72110
 10744.50000   61.71100    0.44620   62.11810   86.02540  215.11420
 10745.00000   59.71000    0.43320   59.76600   84.04870  219.26720
 10745.50000   56.32320    0.36620   56.72890   86.84480  224.76120
 10746.00000   49.97730    0.25230   51.25610   95.30200  225.47050
 10746.50000   42.17840    0.13530   42.37430   95.05050  226.09540
 10747.00000   35.77380    0.08470   36.39950   94.50300  226.28850
