~Version ---------------------------------------------------
VERS.   2.0 : CWLS log ASCII Standard -VERSION 2.0
WRAP.    NO : One line per depth step
DLM . SPACE : Column Data Section Delimiter
~Well ------------------------------------------------------
STRT .F                 140.0 : START DEPTH
STOP .F               11646.0 : STOP DEPTH
STEP .F                   0.5 : STEP
NULL .               -9999.25 : NULL VALUE
COMP .                        : COMPANY
WELL .                        : WELL
FLD  .                        : FIELD
LOC  .                        : LOCATION
PROV .                        : PROVINCE
CNTY .                        : COUNTY
STAT .                        : STATE
CTRY .                        : COUNTRY
SRVC .                        : SERVICE COMPANY
DATE .                        : DATE
UWI  .                        : UNIQUE WELL ID
API  .                        : API NUMBER
SLAT .WGS84   2.9942216610361 : SURFACE LATITUDE
SLON .WGS84 8.664145051535002 : SURFACE LONGITUDE
DATUM.F               3540.72 : DEPTH DATUM ELEV
~Curve Information -----------------------------------------
DEPT.F     : 
GRD .GAPI  : GAMMA RAY FROM DENSITY LOG
TNPH.DEC   : THERMAL NEUTRON POROSITY
GRS .GAPI  : GAMMA RAY FROM SONIC LOG
DTCO.US/F  : DELTA-T COMPRESSIONAL
DTSM.US/F  : DELTA-T SHEAR
~Params ----------------------------------------------------
~Other -----------------------------------------------------
~ASCII -----------------------------------------------------
# ...
 6740.00000   70.69800    0.08270   70.20660  100.63430  214.72720
 6740.50000   69.24670    0.08170   70.67560  100.18480  214.29560
 6741.00000   66.61600    0.08060   66.58940   99.73540  212.51630
 6741.50000   62.52310    0.07830   62.06990   99.52050  209.40940
 6742.00000   60.37180    0.07550   60.13780   99.50690  206.57140
 6742.50000   58.83320    0.07280   58.58880   99.55590  206.42440
 6743.00000   57.64730    0.07340   57.28160   99.55680  210.45250
 6743.50000   55.58750    0.07570   55.14550   99.18040  214.04720
 6744.00000   53.80310    0.07670   53.81910   98.38250  214.01720
 6744.50000   52.62590    0.07380   52.50730   97.10200  213.83550
 6745.00000   51.54460    0.06990   51.11620   95.89830  213.65370
 6745.50000   49.63580    0.06760   49.24550   95.34030  214.67290
 6746.00000   48.13830    0.06690   47.81850   95.08480  215.60720
 6746.50000   47.16880    0.06760   47.38360   95.19480  215.81890
 6747.00000   47.74280    0.06840   48.09140   95.67240  215.77850
 6747.50000   49.23590    0.06950   49.84570   96.17250  216.06770
 6748.00000   51.13580    0.07080   51.61060   96.99180  217.09840
 6748.50000   52.49810    0.07100   53.09020   97.75430  217.62380
 6749.00000   51.73470    0.07130   51.98250   97.51280  217.72140
 6749.50000   50.82390    0.07150   50.86250   96.69040  217.81100
 6750.00000   51.02880    0.07250   51.11100   95.97770  217.69610
 6750.50000   51.26610    0.07350   51.30800   95.68950  217.46400
 6751.00000   51.36590    0.07300   51.26720   95.83200  217.33250
 6751.50000   50.98520    0.07080   51.01320   96.46520  217.38080
 6752.00000   49.64790    0.06980   49.71550   97.17630  218.12450
 6752.50000   47.71870    0.07060   47.40040   97.46050  218.49190
 6753.00000   45.38620    0.07150   45.06750   96.87000  217.19510
 6753.50000   44.87280    0.07310   44.70670   92.06600  214.11910
 6754.00000   45.65730    0.07320   45.99480   86.64960  210.75260
 6754.50000   47.17530    0.07320   47.37320   81.13670  209.42080
 6755.00000   47.40750    0.07460   47.53280   81.62650  210.63730
 6755.50000   46.15060    0.07720   45.92590   82.54230  213.68280
 6756.00000   43.87560    0.07770   43.33750   83.33400  215.89600
 6756.50000   43.59630    0.07400   43.53540   83.98640  217.62830
 6757.00000   45.09440    0.07430   45.50270   84.31830  217.99750
 6757.50000   47.84850    0.08170   48.11200   84.46550  218.68050
 6758.00000   49.83950    0.08810   49.72100   84.64180  218.13040
 6758.50000   49.81260    0.09150   49.63410   86.98600  217.45040
 6759.00000   48.92600    0.08980   48.78040   90.68020  217.12210
 6759.50000   47.19350    0.08740   47.22320   93.27130  216.79380
 6760.00000   44.19490    0.08190   44.45190   93.33340  216.31340
 6760.50000   43.22750    0.06950   42.84280   92.71320  215.30770
 6761.00000   43.82890    0.06370   44.02120   92.09800  214.79770
 6761.50000   45.17240    0.06170   45.32250   91.48280  215.10060
 6762.00000   44.66030    0.06150   44.40680   90.86760  217.53040
 6762.50000   42.08610    0.06040   42.12100   90.56590  220.58360
 6763.00000   38.42430    0.05940   38.66560   91.71880  222.52660
 6763.50000   39.33830    0.05810   38.36590   92.44130  223.28350
 6764.00000   41.34220    0.05740   39.79950   90.11180  221.26820
 6764.50000   45.70860    0.05880   45.29540   86.78020  210.37190
 6765.00000   50.54760    0.06620   50.50300   80.98480  191.80740
 6765.50000   57.15270    0.07900   56.64380   73.95090  146.52070
 6766.00000   62.65490    0.08430   62.17770   67.04050  107.84600
 6766.50000   64.79280    0.08790   64.84090   66.67170  104.58390
 6767.00000   65.40840    0.09080   65.38320   66.30290  102.21710
 6767.50000   67.18240    0.09520   66.87020   65.93060  102.39220
 6768.00000   69.41150    0.10660   69.70180   65.59280  101.81910
 6768.50000   70.99680    0.11670   71.57110   -9999.25  100.15140
 6769.00000   67.88970    0.12260   68.60410   -9999.25   98.42890
 6769.50000   62.66720    0.11590   60.96450   -9999.25   96.86110
 6770.00000   55.56800    0.09790   55.11910   -9999.25   95.36550
 6770.50000   55.47720    0.08480   54.90980   -9999.25   93.63060
 6771.00000   57.26970    0.07570   58.24370   -9999.25   92.97440
 6771.50000   59.10380    0.07310   59.16060   -9999.25   93.34770
 6772.00000   57.61180    0.07090   57.40740   -9999.25   94.41740
 6772.50000   55.08870    0.06860   54.67670   -9999.25   95.02700
 6773.00000   53.13540    0.06540   53.34040   -9999.25   95.04690
 6773.50000   55.65760    0.06440   55.64350   -9999.25   95.73760
 6774.00000   59.12310    0.06780   59.73310   -9999.25   97.29290
 6774.50000   64.65110    0.07260   63.95220   -9999.25   98.87970
 6775.00000   68.67520    0.07770   68.18080   -9999.25  100.46660
 6775.50000   70.60300    0.08420   70.86440   -9999.25  101.59660
 6776.00000   71.08930    0.08890   71.26670   -9999.25  101.40790
 6776.50000   68.53400    0.09430   70.04610   -9999.25  100.64680
 6777.00000   65.97870    0.09500   66.68090   -9999.25   99.72920
 6777.50000   61.65070    0.09340   62.15240   -9999.25   98.89560
 6778.00000   57.64330    0.08680   57.47870   -9999.25   99.37070
 6778.50000   55.88490    0.08710   56.16700   -9999.25  100.68400
 6779.00000   58.90720    0.08990   58.13120   -9999.25  102.32190
 6779.50000   63.03210    0.09790   62.72920   -9999.25  103.95960
 6780.00000   66.37760    0.09870   66.74560   -9999.25  105.33610
 6780.50000   68.26220    0.09880   68.77990   -9999.25  105.94390
 6781.00000   70.06610    0.09780   70.21560   -9999.25  105.59020
 6781.50000   72.94680    0.09630   73.00650   -9999.25  104.97980
 6782.00000   72.64450    0.09640   73.83710   -9999.25  104.60760
 6782.50000   68.45210    0.09670   68.67050   -9999.25  104.47440
 6783.00000   63.29110    0.09590   63.70120   -9999.25  104.62790
 6783.50000   63.05450    0.09420   62.56750   -9999.25  104.63140
 6784.00000   64.81090    0.09500   65.63820   -9999.25  104.59210
 6784.50000   67.65960    0.09670   67.81290   -9999.25  104.64620
 6785.00000   68.47910    0.09770   68.67270   -9999.25  104.31200
 6785.50000   67.42910    0.09760   67.62200   -9999.25  103.84500
 6786.00000   64.31030    0.09720   65.30820   -9999.25  103.72210
 6786.50000   62.40220    0.09690   62.50810   -9999.25  103.89200
 6787.00000   62.86870    0.09640   62.28420   -9999.25  104.20660
 6787.50000   64.01340    0.09500   63.67440   -9999.25  104.42800
 6788.00000   64.37920    0.09220   64.72780   -9999.25  104.34730
 6788.50000   62.97660    0.09050   63.02630   -9999.25  104.03400
 6789.00000   62.01680    0.08950   62.07890   -9999.25  103.22610
 6789.50000   63.16400    0.08840   63.00420   -9999.25  102.56810
 6790.00000   64.21950    0.08690   64.17370   -9999.25  101.85580
 6790.50000   61.85520    0.08350   61.97090   -9999.25  101.07580
 6791.00000   58.44690    0.07860   58.10820   -9999.25  100.53830
 6791.50000   55.23750    0.07710   55.19990   -9999.25  100.54010
 6792.00000   53.05950    0.08270   53.09250   -9999.25  101.44060
 6792.50000   51.69010    0.08930   51.55730   -9999.25  102.28660
 6793.00000   52.39920    0.09310   52.04910   -9999.25  103.41310
 6793.50000   55.06800    0.09480   54.74170   -9999.25  105.11820
 6794.00000   58.33850    0.09940   58.13620   -9999.25  107.06870
 6794.50000   59.15820    0.10850   59.37840   -9999.25  109.41390
 6795.00000   58.83590    0.11470   58.84670   -9999.25  111.73310
 6795.50000   59.39810    0.11450   58.95120   -9999.25  112.44020
 6796.00000   60.46360    0.11220   60.41970   -9999.25  111.51510
 6796.50000   62.42440    0.10880   61.87010   66.11800  109.43750
 6797.00000   63.46140    0.10410   63.25480   66.35060  107.64290
 6797.50000   64.46600    0.10120   64.28450   66.66460  106.07540
 6798.00000   65.10950    0.10220   64.87590   67.03180  104.75040
 6798.50000   64.93530    0.10360   64.97730   66.80690  104.25050
 6799.00000   64.69630    0.10020   64.61610   66.44970  105.14340
 6799.50000   64.72530    0.09420   64.63120   66.38200  106.51270
