~Version ---------------------------------------------------
VERS.   2.0 : CWLS log ASCII Standard -VERSION 2.0
WRAP.    NO : One line per depth step
DLM . SPACE : Column Data Section Delimiter
~Well ------------------------------------------------------
STRT .F                 140.0 : START DEPTH
STOP .F               11646.0 : STOP DEPTH
STEP .F                   0.5 : STEP
NULL .               -9999.25 : NULL VALUE
COMP .                        : COMPANY
WELL .                        : WELL
FLD  .                        : FIELD
LOC  .                        : LOCATION
PROV .                        : PROVINCE
CNTY .                        : COUNTY
STAT .                        : STATE
CTRY .                        : COUNTRY
SRVC .                        : SERVICE COMPANY
DATE .                        : DATE
UWI  .                        : UNIQUE WELL ID
API  .                        : API NUMBER
SLAT .WGS84   2.9942216610361 : SURFACE LATITUDE
SLON .WGS84 8.664145051535002 : SURFACE LONGITUDE
DATUM.F               3540.72 : DEPTH DATUM ELEV
~Curve Information -----------------------------------------
DEPT.F     : 
GRD .GAPI  : GAMMA RAY FROM DENSITY LOG
TNPH.DEC   : THERMAL NEUTRON POROSITY
GRS .GAPI  : GAMMA RAY FROM SONIC LOG
DTCO.US/F  : DELTA-T COMPRESSIONAL
DTSM.US/F  : DELTA-T SHEAR
~Params ----------------------------------------------------
~Other -----------------------------------------------------
~ASCII -----------------------------------------------------
# ...
 9380.00000   20.14750    0.03800   19.17650   84.43520  227.62870
 9380.50000   19.67360    0.03870   19.31300   82.38280  227.33320
 9381.00000   19.67460    0.03960   19.44950   81.55850  227.21350
 9381.50000   19.61420    0.04010   19.50170   81.40890  226.99570
 9382.00000   19.52810    0.04060   19.20500   81.40880  226.83960
 9382.50000   19.61870    0.04060   19.55140   81.54000  226.64990
 9383.00000   20.14160    0.04060   20.04160   82.00230  227.08190
 9383.50000   20.54070    0.04260   20.52210   82.10070  227.79850
 9384.00000   19.98400    0.04430   20.21590   82.14130  228.33630
 9384.50000   19.12000    0.04340   19.11770   82.72680  227.64130
 9385.00000   18.15900    0.04040   18.30140   82.83750  226.60310
 9385.50000   17.27320    0.03750   17.33560   84.54980  226.55410
 9386.00000   17.31730    0.03380   17.27040   90.03490  226.50510
 9386.50000   17.65050    0.03050   17.64560   93.16570  226.41710
 9387.00000   17.73490    0.02720   17.92420   92.88190  226.21370
 9387.50000   16.54610    0.02610   17.09080   88.69040  225.89600
 9388.00000   16.33610    0.02710   15.91380   82.24780  223.56680
 9388.50000   18.08370    0.02940   17.03010   79.24170  201.96630
 9389.00000   23.11580    0.03190   22.01290   76.85570  155.32760
 9389.50000   34.93450    0.03910   34.41070   74.48440  115.42730
 9390.00000   49.77670    0.05030   48.21190   71.95380  118.36890
 9390.50000   64.06270    0.07310   63.13970   71.07870  119.93010
 9391.00000   75.87020    0.10600   74.10640   70.12520  120.05050
 9391.50000   78.85510    0.13130   79.08680   69.23990  118.46400
 9392.00000   71.15920    0.13370   77.49250   69.56650  115.51730
 9392.50000   59.53200    0.11900   63.91850   70.35360  112.31180
 9393.00000   49.73050    0.08780   52.73330   70.52720  108.65340
 9393.50000   47.05700    0.07430   46.91000   70.02380  106.23280
 9394.00000   50.31460    0.07750   48.64410   70.12210  104.57780
 9394.50000   52.41170    0.08950   52.58520   70.93790  103.21380
 9395.00000   49.32210    0.09270   49.89410   71.65770  102.49510
 9395.50000   45.41940    0.09350   44.82520   70.86690  101.98010
 9396.00000   44.28720    0.09380   44.28320   69.20000  102.06180
 9396.50000   44.21980    0.09400   44.29760   67.93430  102.72210
 9397.00000   41.88080    0.09290   42.31000   67.79940  103.45040
 9397.50000   37.11600    0.08300   36.89710   68.42310  104.74110
 9398.00000   33.45940    0.07960   33.19340   69.17210  106.93690
 9398.50000   35.33070    0.08670   35.34440   69.64500  109.18690
 9399.00000   39.37060    0.09980   39.31580   70.03060  111.30780
 9399.50000   43.67070    0.10960   44.27490   70.74170  113.26400
 9400.00000   48.40070    0.12700   48.71510   71.40340  114.36830
 9400.50000   54.15500    0.13690   53.83650   71.78950  115.07380
 9401.00000   53.86160    0.14330   54.09580   76.97390  139.62810
 9401.50000   51.06120    0.13890   51.70270   84.35400  168.63100
 9402.00000   48.44790    0.12980   47.94640   92.31640  197.37410
 9402.50000   44.67450    0.11950   44.93700   96.82450  223.39530
 9403.00000   43.04730    0.11520   43.26480  104.09710  225.32410
 9403.50000   42.66120    0.11080   42.71380  108.12980  226.36820
 9404.00000   42.11070    0.10460   42.30040  107.08020  226.81500
 9404.50000   41.42320    0.10060   41.61060  106.61860  226.52100
 9405.00000   40.59940    0.09720   40.59720  107.45820  226.23950
 9405.50000   41.05810    0.09500   40.98030  108.43350  227.06170
 9406.00000   44.36000    0.09530   43.52850  105.46330  227.54440
 9406.50000   48.69410    0.09800   48.46950   96.85740  227.92700
 9407.00000   55.56530    0.11630   55.19550   84.74170  227.99880
 9407.50000   62.96140    0.13820   62.85530   79.23880  227.91620
 9408.00000   70.02890    0.14960   68.51400   84.46330  227.61340
 9408.50000   70.75420    0.14850   71.31320   90.86640  227.26490
 9409.00000   69.96820    0.13760   69.89260   89.31030  226.90820
 9409.50000   65.43170    0.12480   66.37510   92.13650  227.70300
 9410.00000   61.51610    0.11410   62.52680  103.40050  228.81960
 9410.50000   58.71170    0.10320   59.05230  104.54540  228.94550
 9411.00000   59.55690    0.09950   58.72680  102.67820  227.81380
 9411.50000   60.13170    0.10070   60.91970  100.93070  226.72930
 9412.00000   58.14830    0.10320   58.54230  101.33760  226.02080
 9412.50000   50.36280    0.10180   51.73420  103.61040  226.45950
 9413.00000   46.83990    0.08450   46.89900  106.59890  227.12650
 9413.50000   48.29520    0.07790   49.16020  107.49090  227.80460
 9414.00000   52.01130    0.08530   52.11560   98.39920  228.20030
 9414.50000   53.75980    0.09890   53.83450   98.03520  227.81900
 9415.00000   53.37450    0.09660   53.30410  106.78420  226.87030
 9415.50000   52.37780    0.08930   52.55620  107.29900  225.83110
 9416.00000   50.88180    0.08210   50.85620   93.96260  191.56770
 9416.50000   50.35470    0.07780   50.29050   80.62610  145.86670
 9417.00000   52.44370    0.07900   52.14530   70.68750  116.01460
 9417.50000   59.78210    0.08800   59.67270   66.87740  116.91650
 9418.00000   67.43520    0.11360   67.36140   67.06590  120.06230
 9418.50000   71.58660    0.14450   71.85800   70.50660  123.45720
 9419.00000   73.86170    0.17460   73.97800   71.96430  126.12070
 9419.50000   74.67740    0.18860   74.68610   71.89040  127.57790
 9420.00000   73.29770    0.18640   73.97530   70.93880  127.55230
 9420.50000   71.01860    0.17550   71.81800   70.24960  125.99470
 9421.00000   68.27520    0.16330   68.77980   69.92250  123.53820
 9421.50000   65.57780    0.15960   65.74150   69.43990  122.37810
 9422.00000   64.29290    0.15720   64.04330   69.19720  121.90440
 9422.50000   63.30370    0.15090   63.32500   69.30460  121.27710
 9423.00000   63.22020    0.14570   63.19230   69.40020  120.97930
 9423.50000   63.59890    0.15350   63.61290   69.02810  121.83290
 9424.00000   64.95650    0.16680   65.10500   68.34130  122.70130
 9424.50000   65.96820    0.17700   66.05360   67.55790  120.91400
 9425.00000   65.09380    0.17230   64.98810   66.87680  119.48890
 9425.50000   59.92160    0.16170   60.63680   66.42630  118.56050
 9426.00000   54.32940    0.14810   54.69320   65.99520  117.12430
 9426.50000   49.30350    0.13640   50.02950   65.65290  115.64270
 9427.00000   47.34850    0.13270   47.78920   65.56500  115.40300
 9427.50000   48.76180    0.13200   48.47440   65.65610  115.02620
 9428.00000   51.22860    0.13300   51.47340   66.08960  115.29460
 9428.50000   53.79720    0.13370   54.23780   66.47350  120.19830
 9429.00000   54.44620    0.13180   54.42410   66.81840  125.91270
 9429.50000   54.67220    0.12560   54.67950   67.49500  124.47070
 9430.00000   58.40070    0.14200   57.64050   67.86080  125.92500
 9430.50000   62.29740    0.15900   62.26920   68.11440  130.71150
 9431.00000   65.58320    0.16720   65.76150   68.34590  131.82430
 9431.50000   67.33790    0.16230   67.58440   68.63320  131.98750
 9432.00000   70.20240    0.16200   70.23780   69.83770  133.10150
 9432.50000   75.85620    0.19690   76.29480   74.04480  133.37520
 9433.00000   81.29570    0.23590   81.61890   77.59370  133.36420
 9433.50000   84.26260    0.25940   84.37530   80.38750  133.10940
 9434.00000   83.33940    0.23410   83.68200   81.81310  135.97180
 9434.50000   82.25970    0.21140   82.22840   81.67900  140.89150
 9435.00000   81.84890    0.21230   81.95730   80.39610  146.88890
 9435.50000   82.97580    0.23200   82.88580   79.04610  153.20330
 9436.00000   84.30850    0.24790   84.11550   77.37130  156.83350
 9436.50000   82.98460    0.25310   83.96470   75.86950  155.93700
 9437.00000   75.83640    0.22470   75.62480   74.84060  150.84230
 9437.50000   65.92980    0.18400   66.46290   74.67830  137.11570
 9438.00000   56.70220    0.15440   58.49470   74.01410  146.80860
 9438.50000   50.30730    0.13100   49.96280   72.70540  169.98210
 9439.00000   47.10760    0.12300   46.99730   73.08580  188.91810
 9439.50000   46.59920    0.12590   46.39810   73.43380  195.27020
