~Version ---------------------------------------------------
VERS.   2.0 : CWLS log ASCII Standard -VERSION 2.0
WRAP.    NO : One line per depth step
DLM . SPACE : Column Data Section Delimiter
~Well ------------------------------------------------------
STRT .F                 140.0 : START DEPTH
STOP .F               11646.0 : STOP DEPTH
STEP .F                   0.5 : STEP
NULL .               -9999.25 : NULL VALUE
COMP .                        : COMPANY
WELL .                        : WELL
FLD  .                        : FIELD
LOC  .                        : LOCATION
PROV .                        : PROVINCE
CNTY .                        : COUNTY
STAT .                        : STATE
CTRY .                        : COUNTRY
SRVC .                        : SERVICE COMPANY
DATE .                        : DATE
UWI  .                        : UNIQUE WELL ID
API  .                        : API NUMBER
SLAT .WGS84   2.9942216610361 : SURFACE LATITUDE
SLON .WGS84 8.664145051535002 : SURFACE LONGITUDE
DATUM.F               3540.72 : DEPTH DATUM ELEV
~Curve Information -----------------------------------------
DEPT.F     : 
GRD .GAPI  : GAMMA RAY FROM DENSITY LOG
TNPH.DEC   : THERMAL NEUTRON POROSITY
GRS .GAPI  : GAMMA RAY FROM SONIC LOG
DTCO.US/F  : DELTA-T COMPRESSIONAL
DTSM.US/F  : DELTA-T SHEAR
~Params ----------------------------------------------------
~Other -----------------------------------------------------
~ASCII -----------------------------------------------------
# ...
 5360.00000   22.81250    0.03940   22.34870   -9999.25   88.29490
 5360.50000   25.62270    0.04280   24.97220   -9999.25   87.94080
 5361.00000   28.41190    0.04610   28.21220   -9999.25   88.12530
 5361.50000   28.84070    0.04590   29.21190   -9999.25   88.69050
 5362.00000   27.53260    0.04490   27.97940   -9999.25   89.28720
 5362.50000   25.80060    0.04390   25.82560   -9999.25   89.88390
 5363.00000   25.37250    0.04280   25.29390   -9999.25   90.48060
 5363.50000   25.77680    0.04220   25.80610   -9999.25   90.93880
 5364.00000   26.15610    0.04220   25.69860   -9999.25   90.57740
 5364.50000   25.13910    0.04230   25.19100   -9999.25   90.21160
 5365.00000   24.61000    0.04390   24.54850   -9999.25   89.62640
 5365.50000   25.04190    0.04700   24.83770   -9999.25   88.97430
 5366.00000   26.88600    0.04860   26.54550   -9999.25   88.32940
 5366.50000   28.82810    0.04870   28.57450   -9999.25   87.77640
 5367.00000   28.81420    0.04740   29.16690   -9999.25   87.68520
 5367.50000   28.14800    0.04580   28.27660   -9999.25   87.72050
 5368.00000   27.19530    0.04600   27.12160   -9999.25   87.58360
 5368.50000   27.51330    0.04670   27.23430   -9999.25   87.13350
 5369.00000   29.54580    0.04700   29.26900   -9999.25   86.68330
 5369.50000   32.45790    0.04760   32.42900   -9999.25   86.23460
 5370.00000   34.91550    0.04970   34.91580   -9999.25   85.51720
 5370.50000   35.76810    0.05180   35.89920   -9999.25   84.45660
 5371.00000   35.45540    0.05350   35.14470   -9999.25   83.96910
 5371.50000   33.94320    0.05510   33.94180   -9999.25   83.82400
 5372.00000   32.32500    0.05550   32.46260   -9999.25   83.54860
 5372.50000   29.67320    0.05050   29.91880   -9999.25   83.24060
 5373.00000   26.79660    0.04670   26.89810   -9999.25   83.54440
 5373.50000   27.17750    0.04630   26.00690   -9999.25   84.06560
 5374.00000   29.74880    0.05110   28.70580   -9999.25   83.83580
 5374.50000   33.12650    0.05480   33.17400   -9999.25   83.12450
 5375.00000   34.76890    0.05620   35.03580   -9999.25   82.98460
 5375.50000   32.15930    0.05420   32.73940   -9999.25   83.59640
 5376.00000   29.17050    0.04750   29.91050   -9999.25   84.87360
 5376.50000   27.63020    0.04610   27.82600   -9999.25   86.53020
 5377.00000   26.66150    0.04660   26.67410   -9999.25   89.14140
 5377.50000   26.49660    0.04760   26.40270   -9999.25   91.65670
 5378.00000   28.44870    0.05190   28.39100   -9999.25   93.29350
 5378.50000   32.20490    0.05780   32.08110   -9999.25   94.28600
 5379.00000   34.38810    0.05950   34.66400   -9999.25   94.10080
 5379.50000   33.13900    0.05790   33.67970   -9999.25   93.70970
 5380.00000   28.43420    0.05300   29.04600   -9999.25   92.62070
 5380.50000   24.71880    0.05150   25.04650   -9999.25   91.76830
 5381.00000   25.77400    0.05100   24.78280   -9999.25   91.40910
 5381.50000   27.63980    0.04920   27.14380   -9999.25   91.35870
 5382.00000   28.79610    0.04710   28.57800   -9999.25   91.48060
 5382.50000   28.58310    0.04460   28.61690   -9999.25   91.69220
 5383.00000   28.10140    0.04610   28.12960   -9999.25   91.84230
 5383.50000   26.92310    0.04830   26.83150   -9999.25   91.99250
 5384.00000   24.68900    0.04760   25.20380   -9999.25   91.87860
 5384.50000   23.61840    0.04390   23.68920   -9999.25   91.44600
 5385.00000   24.22780    0.04010   24.21000   -9999.25   90.44910
 5385.50000   27.04460    0.03970   27.20130   -9999.25   89.12450
 5386.00000   30.11510    0.04130   29.82040   -9999.25   87.75780
 5386.50000   29.21280    0.04190   30.03410   -9999.25   86.32280
 5387.00000   26.94410    0.04080   26.91470   -9999.25   85.55480
 5387.50000   22.33520    0.03990   23.35290   -9999.25   85.47870
 5388.00000   21.66380    0.03850   21.16480   -9999.25   86.24040
 5388.50000   23.16340    0.03720   22.74420   -9999.25   87.00750
 5389.00000   25.23890    0.03800   25.23090   -9999.25   88.33670
 5389.50000   24.37420    0.03810   24.90510   -9999.25   89.24550
 5390.00000   21.05880    0.03620   21.44990   -9999.25   89.89630
 5390.50000   17.95990    0.03520   18.12930   -9999.25   90.30820
 5391.00000   19.35890    0.03590   19.10330   -9999.25   89.78880
 5391.50000   21.97530    0.03630   22.36910   -9999.25   89.27760
 5392.00000   22.44570    0.03580   22.75600   -9999.25   89.04910
 5392.50000   22.72910    0.03510   22.65670   -9999.25   88.81450
 5393.00000   23.55920    0.03680   23.62430   -9999.25   87.78670
 5393.50000   27.77620    0.04010   27.85150   -9999.25   86.52970
 5394.00000   31.60660    0.04060   31.51090   -9999.25   85.39000
 5394.50000   31.95490    0.03990   32.24540   -9999.25   84.63700
 5395.00000   30.60370    0.03880   31.05320   -9999.25   84.46290
 5395.50000   30.50770    0.03900   30.27930   -9999.25   84.50670
 5396.00000   31.29060    0.03920   31.38670   -9999.25   84.77670
 5396.50000   32.31900    0.03990   32.41700   -9999.25   85.76950
 5397.00000   32.85330    0.04230   32.83180   -9999.25   86.85080
 5397.50000   33.44180    0.04430   33.24160   -9999.25   87.97200
 5398.00000   34.44410    0.04550   34.59200   -9999.25   89.17490
 5398.50000   35.23880    0.04660   35.26470   -9999.25   90.34720
 5399.00000   35.42760    0.04660   35.49110   -9999.25   91.51950
 5399.50000   36.94520    0.04640   36.62710   -9999.25   92.02830
 5400.00000   41.02220    0.04830   40.06000   -9999.25   91.70030
 5400.50000   43.24940    0.05170   43.65700   -9999.25   90.88830
 5401.00000   42.76470    0.05600   41.84150   -9999.25   89.39840
 5401.50000   37.34100    0.05600   36.49490   -9999.25   88.28240
 5402.00000   29.94490    0.05470   30.96910   -9999.25   88.09520
 5402.50000   27.49850    0.05290   27.44100   -9999.25   88.28380
 5403.00000   27.13060    0.05370   27.17000   -9999.25   88.70780
 5403.50000   27.24170    0.05950   27.28940   -9999.25   89.32560
 5404.00000   26.36120    0.05840   26.46460   -9999.25   89.95460
 5404.50000   24.18670    0.04990   24.32440   -9999.25   90.45580
 5405.00000   22.90820    0.04270   22.78340   -9999.25   90.57410
 5405.50000   23.69920    0.03660   23.36900   -9999.25   90.21960
 5406.00000   26.54290    0.03820   26.72740   -9999.25   89.53070
 5406.50000   30.17240    0.04090   30.20630   -9999.25   88.91320
 5407.00000   29.07060    0.04290   29.65260   -9999.25   88.56400
 5407.50000   26.63500    0.04210   26.81370   -9999.25   88.32140
 5408.00000   23.78810    0.04180   24.20910   -9999.25   88.24370
 5408.50000   22.75550    0.04330   22.73950   -9999.25   88.43550
 5409.00000   22.79680    0.05130   22.83130   -9999.25   88.73780
 5409.50000   22.85850    0.06170   22.91190   -9999.25   88.78980
 5410.00000   23.41190    0.06720   23.19080   -9999.25   88.69140
 5410.50000   24.50570    0.06890   24.76460   -9999.25   88.63260
 5411.00000   27.04620    0.06630   27.20000   -9999.25   88.46340
 5411.50000   30.51970    0.06070   30.57600   -9999.25   88.25630
 5412.00000   33.44140    0.05880   33.48300   -9999.25   88.13230
 5412.50000   35.83320    0.05710   35.42230   -9999.25   88.09630
 5413.00000   34.69010    0.05340   34.86980   -9999.25   88.07000
 5413.50000   31.50550    0.04750   31.79820   -9999.25   87.89600
 5414.00000   28.65850    0.04490   29.04310   -9999.25   87.92630
 5414.50000   28.25510    0.04240   28.28850   -9999.25   88.17190
 5415.00000   28.96990    0.04020   29.05210   -9999.25   88.09340
 5415.50000   28.99800    0.03910   29.13410   -9999.25   87.76640
 5416.00000   29.11560    0.03900   29.09380   -9999.25   87.43940
 5416.50000   31.57930    0.03920   30.38030   -9999.25   87.05090
 5417.00000   34.88200    0.03940   33.89040   -9999.25   86.60100
 5417.50000   36.80990    0.03960   36.46420   -9999.25   86.12370
 5418.00000   33.22540    0.04000   34.63960   -9999.25   85.93470
 5418.50000   27.67720    0.03840   29.06580   -9999.25   85.90440
 5419.00000   23.33510    0.03450   24.24570   -9999.25   85.71180
 5419.50000   22.39220    0.03020   22.47670   -9999.25   86.18510
