~Version ---------------------------------------------------
VERS.   2.0 : CWLS log ASCII Standard -VERSION 2.0
WRAP.    NO : One line per depth step
DLM . SPACE : Column Data Section Delimiter
~Well ------------------------------------------------------
STRT .F                 140.0 : START DEPTH
STOP .F               11646.0 : STOP DEPTH
STEP .F                   0.5 : STEP
NULL .               -9999.25 : NULL VALUE
COMP .                        : COMPANY
WELL .                        : WELL
FLD  .                        : FIELD
LOC  .                        : LOCATION
PROV .                        : PROVINCE
CNTY .                        : COUNTY
STAT .                        : STATE
CTRY .                        : COUNTRY
SRVC .                        : SERVICE COMPANY
DATE .                        : DATE
UWI  .                        : UNIQUE WELL ID
API  .                        : API NUMBER
SLAT .WGS84   2.9942216610361 : SURFACE LATITUDE
SLON .WGS84 8.664145051535002 : SURFACE LONGITUDE
DATUM.F               3540.72 : DEPTH DATUM ELEV
~Curve Information -----------------------------------------
DEPT.F     : 
GRD .GAPI  : GAMMA RAY FROM DENSITY LOG
TNPH.DEC   : THERMAL NEUTRON POROSITY
GRS .GAPI  : GAMMA RAY FROM SONIC LOG
DTCO.US/F  : DELTA-T COMPRESSIONAL
DTSM.US/F  : DELTA-T SHEAR
~Params ----------------------------------------------------
~Other -----------------------------------------------------
~ASCII -----------------------------------------------------
# ...
 11573.50000   50.87590    0.07690   51.58980   89.11260  228.87280
 11574.00000   46.84240    0.07240   46.77000   88.40400  228.04750
 11574.50000   43.42290    0.07020   44.05360   91.89680  227.49840
 11575.00000   40.69640    0.06930   41.35440   97.48190  226.97640
 11575.50000   40.91950    0.06910   39.81220  103.06710  226.63400
 11576.00000   43.45250    0.06970   42.39670  104.29170  226.43820
 11576.50000   46.33480    0.07380   46.46580  104.51560  226.21380
 11577.00000   45.48140    0.07520   46.22530  104.08470  226.60320
 11577.50000   43.21340    0.07180   43.73540  102.90490  227.51030
 11578.00000   43.33400    0.06820   43.28610  102.57100  227.90230
 11578.50000   43.86970    0.06900   44.01190  104.02780  227.83760
 11579.00000   44.13860    0.07770   44.25060  104.94330  227.40520
 11579.50000   43.30090    0.08390   43.32340  104.69640  227.15710
 11580.00000   43.16580    0.07550   42.84300  104.20820  226.76880
 11580.50000   43.36590    0.06920   43.51870  104.01010  226.05250
 11581.00000   43.09700    0.06990   43.42650  104.30100  225.37540
 11581.50000   40.90780    0.07430   40.75720  104.68430  224.89560
 11582.00000   38.86800    0.07660   38.50570  105.34480  225.43520
 11582.50000   40.25840    0.07590   39.72740  106.25330  225.80920
 11583.00000   42.47930    0.07440   41.90210  107.15370  225.24180
 11583.50000   42.39340    0.07920   42.27140  107.13640  225.38330
 11584.00000   38.21710    0.08480   39.34390  107.02980  225.62030
 11584.50000   34.17500    0.07990   35.39590  107.18310  225.79760
 11585.00000   31.96000    0.07350   32.28160  108.18960  226.36250
 11585.50000   32.72240    0.07320   32.02180  109.18350  227.14810
 11586.00000   36.37750    0.08180   35.82250  109.43260  227.61760
 11586.50000   41.36730    0.08870   40.63990  108.98000  227.31560
 11587.00000   44.58290    0.08900   44.56340  108.48320  226.64970
 11587.50000   43.74690    0.08210   44.14380  108.40680  225.57300
 11588.00000   42.71100    0.07540   42.95890  108.64410  224.47660
 11588.50000   44.36350    0.07650   44.19640  109.11860  224.97310
 11589.00000   46.54990    0.08250   46.40970  110.02160  225.69110
 11589.50000   45.82060    0.08690   46.32900  110.87880  226.44970
 11590.00000   42.12240    0.08210   43.59090  111.21270  227.03840
 11590.50000   40.31730    0.07110   40.45170  111.07590  225.41890
 11591.00000   41.55160    0.06790   41.35240  110.41620  223.41070
 11591.50000   43.81200    0.08310   43.75940  109.69400  223.26150
 11592.00000   43.47220    0.09800   43.85800  109.58560  225.05710
 11592.50000   42.02870    0.09880   42.31010  109.91560  226.14230
 11593.00000   42.49400    0.09220   42.35950  110.28670  225.28480
 11593.50000   45.18820    0.08780   44.98700  105.98810  224.09660
 11594.00000   47.33170    0.08920   47.49660   96.84000  223.54560
 11594.50000   47.78310    0.08850   48.05090   91.87570  222.99460
 11595.00000   47.17530    0.08710   47.25220   92.55560  222.46650
 11595.50000   46.27540    0.08850   46.45270   93.09920  222.07600
 11596.00000   46.16510    0.09140   46.22450   93.06440  224.09610
 11596.50000   46.51080    0.09490   46.57300   92.87850  227.36690
 11597.00000   46.57330    0.09710   46.67640   92.67100  227.13220
 11597.50000   43.91560    0.09150   44.56540   92.28540  225.54690
 11598.00000   40.49100    0.08460   41.03710   92.08170  223.95830
 11598.50000   42.88800    0.07610   41.86260   92.17660  223.74480
 11599.00000   47.32050    0.07530   46.29500   92.47020  223.62240
 11599.50000   50.91110    0.08200   50.95660   92.95940  222.62970
 11600.00000   50.55810    0.08580   50.56810   93.68250  221.07710
 11600.50000   47.40790    0.08730   47.46840   94.55270  221.50700
 11601.00000   44.79250    0.08780   45.15980   95.27310  222.64890
 11601.50000   43.79770    0.08980   43.91650   95.26740  223.38190
 11602.00000   43.37840    0.09310   43.54460   94.26570  223.67120
 11602.50000   42.52430    0.08810   42.53540   92.10990  223.97310
 11603.00000   42.27360    0.08120   42.44270   90.28640  222.54320
 11603.50000   45.98330    0.08030   45.60100   87.53480  210.43120
 11604.00000   53.87330    0.08720   51.67020   83.67960  151.04440
 11604.50000   61.28700    0.11180   61.52960   79.41610  118.76580
 11605.00000   66.97880    0.12250   66.22590   76.73980  115.17370
 11605.50000   66.80390    0.13540   66.51660   75.83340  115.10810
 11606.00000   61.64930    0.14150   62.05250   75.26380  116.17610
 11606.50000   57.21410    0.13590   56.33260   74.70220  118.25550
 11607.00000   54.58350    0.12370   54.54090   74.16950  120.61880
 11607.50000   56.06030    0.12280   56.54830   73.66650  121.22830
 11608.00000   59.88590    0.13450   60.35090   70.96750  120.75840
 11608.50000   64.21860    0.14980   64.42250   67.95980  120.28600
 11609.00000   67.36350    0.15840   67.12970   66.79020  120.33090
 11609.50000   68.88220    0.16220   68.76220   66.55300  120.61340
 11610.00000   68.45240    0.16300   67.93720   66.40140  120.89580
 11610.50000   67.76740    0.15730   68.63580   66.24040  121.02460
 11611.00000   74.07440    0.15170   74.16980   66.15570  120.95920
 11611.50000   82.31200    0.14790   83.51850   66.20000  120.95090
 11612.00000   87.22040    0.14960   87.61100   66.22990  120.99410
 11612.50000   84.29130    0.15530   83.87490   66.21500  121.01900
 11613.00000   79.73820    0.15970   77.00190   66.23170  121.04310
 11613.50000   73.00670    0.16540   70.41050   66.33870  121.04310
 11614.00000   64.58910    0.17040   65.40120   66.30760  120.99960
 11614.50000   61.95720    0.16860   61.71470   66.17130  120.87170
 11615.00000   60.81820    0.16190   61.05130   66.24190  120.86790
 11615.50000   61.21680    0.15330   61.33410   66.44840  120.88520
 11616.00000   62.29640    0.14500   62.35260   66.76330  120.90250
 11616.50000   62.94710    0.14530   63.13340   67.19870  120.91980
 11617.00000   62.39040    0.15050   62.41960   67.66990  120.93150
 11617.50000   61.39600    0.15500   61.17740   67.51970  120.79430
 11618.00000   60.85400    0.15860   61.07020   67.09740  120.77700
 11618.50000   61.54960    0.16220   61.55220   66.67190  120.82360
 11619.00000   62.98440    0.16600   63.02190   66.84340  120.87030
 11619.50000   64.78780    0.16660   64.75000   66.92250  120.91690
 11620.00000   67.16420    0.16480   66.68940   66.87750  120.96350
 11620.50000   67.56780    0.16150   67.75530   66.73450  121.00990
 11621.00000   67.55140    0.16470   67.68520   66.66370  121.02250
 11621.50000   66.75410    0.17030   66.91950   66.60090  121.01030
 11622.00000   65.96690    0.17640   66.23700   66.60540  121.01440
 11622.50000   65.87680    0.18370   65.96230   66.65240  121.01860
 11623.00000   68.21840    0.19140   67.45580   66.69380  121.02270
 11623.50000   72.09850    0.19580   70.53330   66.73530  121.02680
 11624.00000   74.01660    0.18850   73.64810   66.77670  121.03090
 11624.50000   74.08170    0.17970   74.23210   66.81810  121.03500
 11625.00000   73.11440    0.17010   72.16750   66.85960  121.03910
 11625.50000   69.59630    0.17610   68.77330   66.90040  121.04310
 11626.00000   66.48290    0.18430   66.62620   66.87640  121.02650
 11626.50000   65.64080    0.19060   65.67130   66.88440  120.92970
 11627.00000   65.30950    0.19210   65.44110   66.89250  120.83290
 11627.50000   65.94250    0.19390   65.85400   66.89930  120.70030
 11628.00000   67.33400    0.19660   67.66640   66.89980  120.75880
 11628.50000   69.59710    0.19770   69.40890   66.90020  120.86730
 11629.00000   69.99410    0.18740   70.52870   66.90070  120.97570
 11629.50000   68.95940    0.16860   69.04490   66.90070  121.04030
 11630.00000   67.28320    0.16410   67.19240   66.90070  121.04310
 11630.50000   65.97320    0.17260   65.72330   66.90070  120.98830
 11631.00000   65.08660    0.18970   65.28380   66.90070  120.96340
 11631.50000   63.33640    0.20410   63.53610   66.90070  120.95970
 11632.00000   62.21260    0.21380   61.81770   66.90070  120.95590
