~Version ---------------------------------------------------
VERS.   2.0 : CWLS log ASCII Standard -VERSION 2.0
WRAP.    NO : One line per depth step
DLM . SPACE : Column Data Section Delimiter
~Well ------------------------------------------------------
STRT .F                 140.0 : START DEPTH
STOP .F               11646.0 : STOP DEPTH
STEP .F                   0.5 : STEP
NULL .               -9999.25 : NULL VALUE
COMP .                        : COMPANY
WELL .                        : WELL
FLD  .                        : FIELD
LOC  .                        : LOCATION
PROV .                        : PROVINCE
CNTY .                        : COUNTY
STAT .                        : STATE
CTRY .                        : COUNTRY
SRVC .                        : SERVICE COMPANY
DATE .                        : DATE
UWI  .                        : UNIQUE WELL ID
API  .                        : API NUMBER
SLAT .WGS84   2.9942216610361 : SURFACE LATITUDE
SLON .WGS84 8.664145051535002 : SURFACE LONGITUDE
DATUM.F               3540.72 : DEPTH DATUM ELEV
~Curve Information -----------------------------------------
DEPT.F     : 
GRD .GAPI  : GAMMA RAY FROM DENSITY LOG
TNPH.DEC   : THERMAL NEUTRON POROSITY
GRS .GAPI  : GAMMA RAY FROM SONIC LOG
DTCO.US/F  : DELTA-T COMPRESSIONAL
DTSM.US/F  : DELTA-T SHEAR
~Params ----------------------------------------------------
~Other -----------------------------------------------------
~ASCII -----------------------------------------------------
# ...
 8060.00000   18.81780    0.06600   18.98050   85.33970  231.99260
 8060.50000   20.79500    0.06090   20.60450   85.88490  231.33790
 8061.00000   23.59430    0.05810   23.47570   86.08770  231.43520
 8061.50000   25.05360    0.05920   24.76450   86.31030  231.86060
 8062.00000   23.39320    0.06600   23.76380   86.36150  232.37770
 8062.50000   21.15330    0.07490   21.88820   86.34310  232.15950
 8063.00000   20.72630    0.07750   20.82240   86.50730  230.89680
 8063.50000   21.56480    0.08080   21.74420   86.70380  230.40300
 8064.00000   22.60720    0.08170   22.78590   87.07020  230.75550
 8064.50000   23.65290    0.08060   23.68440   87.41830  231.10800
 8065.00000   24.92490    0.07750   25.13090   87.59800  231.62700
 8065.50000   28.28500    0.07520   28.22300   87.41980  231.05790
 8066.00000   30.87560    0.07330   30.86490   86.64590  230.40430
 8066.50000   31.15560    0.07160   31.47700   85.88550  229.87470
 8067.00000   29.70640    0.06770   29.88050   85.18720  230.64160
 8067.50000   28.16770    0.06130   28.27740   84.54840  230.76540
 8068.00000   28.29270    0.05610   28.09470   84.21350  230.29170
 8068.50000   29.10290    0.05080   29.08800   84.30120  230.40000
 8069.00000   29.56870    0.04840   29.49660   84.57460  229.91570
 8069.50000   27.91300    0.04560   28.22920   84.48100  227.64000
 8070.00000   26.13060    0.04440   26.26310   84.24420  227.47300
 8070.50000   24.84770    0.04340   24.76370   84.04960  228.16140
 8071.00000   24.66760    0.04330   24.66820   84.04320  228.78790
 8071.50000   24.49600    0.04340   24.49930   84.25930  227.34050
 8072.00000   24.56270    0.04290   24.49690   84.47260  225.43690
 8072.50000   25.27670    0.04220   25.39140   84.91820  224.59140
 8073.00000   26.04300    0.04110   26.08340   85.75780  224.28110
 8073.50000   27.06050    0.04190   27.12260   87.02700  223.45410
 8074.00000   29.59880    0.04510   30.46400   88.63970  222.52570
 8074.50000   35.13260    0.05140   37.38080   90.36230  223.94790
 8075.00000   44.84370    0.05850   46.14170   92.41480  225.49480
 8075.50000   52.37200    0.06690   51.48140   94.26810  225.83650
 8076.00000   56.69980    0.06920   56.30640   95.17130  224.93040
 8076.50000   58.59420    0.07080   58.56070   94.65350  223.79360
 8077.00000   59.48960    0.07480   59.21770   92.71560  223.96360
 8077.50000   57.55130    0.08160   57.92550   90.67030  224.68100
 8078.00000   52.72260    0.08730   52.42300   88.76700  224.97880
 8078.50000   44.23310    0.08460   44.24800   86.83640  225.30410
 8079.00000   34.63560    0.07380   33.98970   84.96320  225.22060
 8079.50000   27.11070    0.06160   26.49120   83.77370  223.99060
 8080.00000   21.82470    0.05410   22.39260   83.76250  222.85590
 8080.50000   20.65400    0.05120   20.67680   84.23230  222.41450
 8081.00000   23.25940    0.04970   23.07660   84.28250  221.97930
 8081.50000   27.00680    0.04960   27.02100   84.36600  221.18680
 8082.00000   29.00730    0.05210   29.23690   84.62410  220.02900
 8082.50000   29.21670    0.05450   29.06680   84.16330  218.34590
 8083.00000   28.98420    0.05680   28.90590   83.47580  216.46840
 8083.50000   29.39310    0.05860   29.22450   83.06460  215.62850
 8084.00000   30.30090    0.06070   29.95830   82.90520  215.12190
 8084.50000   31.23460    0.06550   31.40170   83.16700  215.61380
 8085.00000   30.34350    0.07090   30.55350   83.64500  217.16270
 8085.50000   27.64970    0.07690   28.13570   85.39250  220.24330
 8086.00000   24.19240    0.07890   24.42960   86.98990  223.82420
 8086.50000   20.96710    0.07960   20.67650   87.64710  224.11820
 8087.00000   19.32660    0.08000   19.37880   86.94950  224.11620
 8087.50000   19.25430    0.08100   19.16180   87.05900  224.41080
 8088.00000   19.27210    0.08230   19.19680   87.80490  224.53070
 8088.50000   19.46500    0.08540   19.40010   87.91790  224.53220
 8089.00000   19.69660    0.08970   19.68830   87.71060  224.48170
 8089.50000   20.08680    0.10340   19.96940   88.56350  224.43120
 8090.00000   20.44790    0.11000   20.24750   88.28950  225.09410
 8090.50000   20.57340    0.10720   20.54530   86.20270  225.96860
 8091.00000   20.74600    0.09540   20.81400   85.17020  226.17430
 8091.50000   20.76970    0.08360   20.86980   84.71990  225.54570
 8092.00000   20.30180    0.07170   20.32670   84.43350  225.45030
 8092.50000   20.72090    0.05980   20.57110   83.90210  226.23730
 8093.00000   23.48500    0.05410   23.71580   83.67580  226.80110
 8093.50000   26.73700    0.05560   27.15900   84.14380  227.07560
 8094.00000   28.20830    0.06520   28.33590   84.84790  227.12360
 8094.50000   25.58290    0.07300   25.81180   85.68330  226.93770
 8095.00000   22.21100    0.08050   21.68650   85.79250  226.75180
 8095.50000   19.48020    0.08260   18.90990   85.77240  226.63960
 8096.00000   18.76210    0.08230   18.33230   85.91470  226.65680
 8096.50000   18.78120    0.08170   18.77670   85.96990  226.81540
 8097.00000   18.88300    0.08330   18.88890   85.11550  226.84670
 8097.50000   18.46730    0.08650   18.47810   84.53740  227.02230
 8098.00000   17.91430    0.09150   17.98920   85.56900  227.87550
 8098.50000   17.60570    0.09490   17.63160   87.46990  232.06540
 8099.00000   17.67030    0.08970   17.60280   88.34000  232.85890
 8099.50000   17.86960    0.08390   17.85560   89.20810  231.31470
 8100.00000   18.07830    0.07840   18.06100   90.15560  228.84270
 8100.50000   18.22000    0.07480   18.12560   90.90860  227.21690
 8101.00000   18.40680    0.07310   18.35450   90.85630  226.21160
 8101.50000   18.83510    0.07290   18.96810   89.55470  226.92230
 8102.00000   19.26670    0.07540   19.12440   88.77640  227.63310
 8102.50000   19.56860    0.07590   19.11140   89.84120  228.21710
 8103.00000   19.43350    0.07620   19.21220   90.35960  228.70100
 8103.50000   20.84810    0.07620   21.01410   90.16500  228.72500
 8104.00000   24.30870    0.07610   25.16550   89.69520  228.55680
 8104.50000   28.48120    0.07560   29.79030   88.24390  228.08760
 8105.00000   32.65830    0.07230   32.60090   86.69750  228.03740
 8105.50000   32.19720    0.06590   32.45910   85.70660  227.98250
 8106.00000   30.08880    0.05720   30.37100   84.94510  227.92770
 8106.50000   27.87470    0.05070   28.05190   85.13230  227.17530
 8107.00000   25.97270    0.04960   25.89140   85.69080  225.98710
 8107.50000   25.42920    0.04970   25.42100   86.48630  224.88570
 8108.00000   26.63920    0.05060   26.71300   86.98210  225.06620
 8108.50000   30.68800    0.05250   30.20530   86.64060  225.89230
 8109.00000   33.71740    0.05910   33.59830   86.25680  226.38090
 8109.50000   31.64940    0.06210   32.85830   86.08250  226.18830
 8110.00000   28.34650    0.06270   28.59500   85.79290  225.26720
 8110.50000   23.05710    0.06270   23.70330   85.64740  224.52860
 8111.00000   23.19930    0.06270   23.71790   85.97510  223.83440
 8111.50000   26.69050    0.06160   27.65240   85.85900  223.44380
 8112.00000   32.72180    0.05840   32.64860   85.10710  223.68260
 8112.50000   35.12650    0.05690   35.82530   84.44860  224.44230
 8113.00000   32.92950    0.05550   32.74180   84.40130  224.98200
 8113.50000   28.25090    0.05250   27.82920   84.85920  224.66130
 8114.00000   24.13270    0.04850   24.42110   85.12180  224.27360
 8114.50000   23.70610    0.04600   23.78540   85.57670  224.01000
 8115.00000   26.35450    0.04640   26.67950   86.48700  224.49970
 8115.50000   31.10320    0.05330   30.99620   87.45260  224.71390
 8116.00000   34.59290    0.06050   35.08130   87.53900  224.66710
 8116.50000   36.20840    0.06600   36.43950   86.61010  224.45740
 8117.00000   35.40600    0.07120   35.48370   86.01660  224.64880
 8117.50000   31.48060    0.07540   31.61020   87.99460  224.68640
 8118.00000   27.04470    0.07260   27.57470   96.53470  224.04380
 8118.50000   25.24210    0.06960   25.50250   97.49080  224.13850
 8119.00000   28.75920    0.06790   28.69210   97.45150  224.55790
 8119.50000   38.61250    0.07140   39.16520   97.51730  224.97310
