~Version ---------------------------------------------------
VERS.   2.0 : CWLS log ASCII Standard -VERSION 2.0
WRAP.    NO : One line per depth step
DLM . SPACE : Column Data Section Delimiter
~Well ------------------------------------------------------
STRT .F                 140.0 : START DEPTH
STOP .F               11646.0 : STOP DEPTH
STEP .F                   0.5 : STEP
NULL .               -9999.25 : NULL VALUE
COMP .                        : COMPANY
WELL .                        : WELL
FLD  .                        : FIELD
LOC  .                        : LOCATION
PROV .                        : PROVINCE
CNTY .                        : COUNTY
STAT .                        : STATE
CTRY .                        : COUNTRY
SRVC .                        : SERVICE COMPANY
DATE .                        : DATE
UWI  .                        : UNIQUE WELL ID
API  .                        : API NUMBER
SLAT .WGS84   2.9942216610361 : SURFACE LATITUDE
SLON .WGS84 8.664145051535002 : SURFACE LONGITUDE
DATUM.F               3540.72 : DEPTH DATUM ELEV
~Curve Information -----------------------------------------
DEPT.F     : 
GRD .GAPI  : GAMMA RAY FROM DENSITY LOG
TNPH.DEC   : THERMAL NEUTRON POROSITY
GRS .GAPI  : GAMMA RAY FROM SONIC LOG
DTCO.US/F  : DELTA-T COMPRESSIONAL
DTSM.US/F  : DELTA-T SHEAR
~Params ----------------------------------------------------
~Other -----------------------------------------------------
~ASCII -----------------------------------------------------
# ...
 8480.00000   19.64930    0.08590   19.99910   88.25230  228.39620
 8480.50000   18.83010    0.08960   18.90050   87.42890  228.57480
 8481.00000   22.30570    0.09400   21.52400   88.04780  229.00670
 8481.50000   28.29660    0.10200   26.83110   89.18450  227.49570
 8482.00000   30.88700    0.11010   30.57350   90.31670  226.63930
 8482.50000   28.89150    0.11110   29.84010   91.01760  228.45500
 8483.00000   25.87600    0.10580   26.78820   91.21860  230.25250
 8483.50000   23.67520    0.10270   23.84190   88.13920  231.06520
 8484.00000   22.41320    0.10240   22.48710   86.17770  231.17480
 8484.50000   21.44450    0.10410   21.53800   90.56400  230.08180
 8485.00000   20.18540    0.10910   20.26730   92.77140  228.71110
 8485.50000   19.21680    0.11590   19.02460   90.65220  226.35790
 8486.00000   18.06430    0.12260   18.10580   89.34490  226.87780
 8486.50000   17.47660    0.12750   17.42360   89.28480  227.67120
 8487.00000   17.26950    0.12540   17.19940   89.13250  228.31900
 8487.50000   17.71880    0.11640   17.56450   88.60810  227.90100
 8488.00000   18.89370    0.10940   18.50770   88.13480  227.80280
 8488.50000   20.41090    0.10470   20.04390   87.80780  227.99020
 8489.00000   21.55020    0.09300   21.42960   87.38310  227.64870
 8489.50000   22.32310    0.08480   22.20750   87.07170  226.62690
 8490.00000   23.31680    0.07220   22.90350   86.72010  226.38430
 8490.50000   23.51010    0.06330   23.44360   86.03980  226.14170
 8491.00000   24.15340    0.06190   24.15870   85.23740  225.89910
 8491.50000   24.86950    0.06270   24.83710   84.89370  225.48210
 8492.00000   25.42920    0.06480   25.14640   84.88760  225.40030
 8492.50000   24.59920    0.06680   24.84590   85.72530  225.55450
 8493.00000   23.11490    0.06760   23.43820   86.82870  225.35640
 8493.50000   20.90720    0.06940   20.89070   87.26390  224.36130
 8494.00000   20.96590    0.07270   21.34570   87.38430  223.36630
 8494.50000   23.13370    0.08040   23.59430   87.51550  222.45240
 8495.00000   25.26460    0.08440   25.49720   87.97990  222.84190
 8495.50000   25.73420    0.08540   25.92340   88.68930  223.91300
 8496.00000   25.52810    0.08620   25.46050   88.90630  223.62600
 8496.50000   24.66070    0.08970   24.48960   87.65630  223.21260
 8497.00000   23.29770    0.09410   22.90280   86.38790  223.99820
 8497.50000   21.09760    0.09340   21.17330   85.53540  224.46950
 8498.00000   21.08790    0.07770   20.75230   85.26260  225.05750
 8498.50000   22.70220    0.06300   22.67630   85.74660  225.64560
 8499.00000   25.03420    0.05360   25.31630   86.04290  226.08100
 8499.50000   28.08810    0.04950   28.34090   86.01580  225.78650
 8500.00000   30.00610    0.05080   30.06540   85.91050  225.15360
 8500.50000   29.72410    0.05420   30.52060   85.85580  225.01580
 8501.00000   28.20800    0.05750   28.09660   85.77420  224.96180
 8501.50000   24.82930    0.06080   25.57560   85.67030  224.69350
 8502.00000   24.95410    0.06160   25.24580   85.58630  224.43130
 8502.50000   25.90760    0.05650   26.04650   85.63090  224.52590
 8503.00000   26.86100    0.05110   26.75170   85.88010  225.26630
 8503.50000   26.61580    0.04580   26.46060   86.00840  226.01170
 8504.00000   25.85230    0.04510   25.84030   85.78600  226.75710
 8504.50000   25.11760    0.04480   25.13570   85.42450  227.50250
 8505.00000   24.70920    0.04460   24.66090   85.10540  228.36670
 8505.50000   24.74700    0.04440   24.82460   84.89890  230.30280
 8506.00000   25.20860    0.04440   25.37120   84.78710  229.91380
 8506.50000   25.48830    0.04580   25.55310   84.79790  228.88470
 8507.00000   24.72630    0.04800   24.51070   85.08830  228.87860
 8507.50000   23.63330    0.05080   23.40320   85.45030  229.16560
 8508.00000   23.12680    0.04990   22.70470   85.40260  228.36240
 8508.50000   23.84930    0.04600   23.69080   84.97540  227.03060
 8509.00000   25.32020    0.04230   25.42380   84.70540  226.17840
 8509.50000   26.84560    0.04110   27.02090   84.76070  226.08500
 8510.00000   27.05360    0.04020   27.64910   85.13860  226.47530
 8510.50000   26.76220    0.04000   26.77550   85.75480  227.02040
 8511.00000   25.04780    0.04100   25.01610   85.87840  227.49840
 8511.50000   22.96460    0.04310   23.16640   85.50730  227.61340
 8512.00000   21.74730    0.04470   21.75690   85.06920  227.47760
 8512.50000   22.42880    0.04470   22.27050   85.19880  227.29970
 8513.00000   23.96830    0.04480   24.18710   86.51130  227.43750
 8513.50000   27.06240    0.04460   27.90590   87.97520  228.01420
 8514.00000   30.88060    0.04810   32.68390   88.84080  227.58100
 8514.50000   35.56070    0.05430   36.83350   88.64080  226.90080
 8515.00000   38.91260    0.06170   39.08040   88.36160  227.35040
 8515.50000   38.01600    0.06040   38.22480   87.93750  228.52450
 8516.00000   35.80000    0.05570   35.34520   87.38590  229.14660
 8516.50000   32.68580    0.05110   32.38150   86.71790  230.16550
 8517.00000   29.74280    0.04880   29.19980   86.13670  230.70060
 8517.50000   27.58760    0.04840   27.17570   86.15470  231.14670
 8518.00000   26.57990    0.05030   26.05520   86.27380  230.90320
 8518.50000   27.88330    0.05030   27.61210   86.29630  229.74420
 8519.00000   30.57890    0.05140   30.17810   86.34680  228.54860
 8519.50000   31.44460    0.05810   31.93570   87.10250  228.89710
 8520.00000   29.67930    0.06590   30.35870   88.27840  230.62270
 8520.50000   27.15170    0.07110   27.86290   88.79010  230.85900
 8521.00000   25.96120    0.07100   26.23090   87.88010  230.71020
 8521.50000   25.80650    0.06980   25.76070   87.29190  230.71220
 8522.00000   25.89440    0.06760   25.84410   88.01180  230.85280
 8522.50000   26.44900    0.06430   26.25040   88.38720  231.02370
 8523.00000   27.43620    0.05990   27.33670   88.39810  231.10710
 8523.50000   28.35160    0.05880   28.18330   90.23060  231.19060
 8524.00000   28.19440    0.05810   28.16140   92.30990  231.30260
 8524.50000   27.99160    0.05800   27.91140   93.84490  231.32320
 8525.00000   27.70070    0.06090   27.58460   92.89700  231.32800
 8525.50000   27.67650    0.06650   27.64110   91.14550  231.23700
 8526.00000   27.66600    0.08480   27.67350   88.83960  230.97010
 8526.50000   27.45700    0.11810   27.37160   87.86790  230.70320
 8527.00000   26.79120    0.14090   26.73690   88.86790  230.52450
 8527.50000   27.64340    0.15120   27.34740   90.81490  230.14780
 8528.00000   28.72800    0.16130   28.62730   90.95370  229.90460
 8528.50000   29.14790    0.16940   29.35460   91.06330  229.49930
 8529.00000   29.06920    0.17120   29.20670   91.09220  228.91150
 8529.50000   28.73330    0.16880   28.86810   90.94280  227.42020
 8530.00000   28.13250    0.15760   28.25270   90.79850  228.40590
 8530.50000   27.69770    0.14830   27.79200   90.85100  229.66110
 8531.00000   28.38430    0.14650   28.15110   91.00790  230.04680
 8531.50000   29.29040    0.14520   29.33540   91.40010  230.41980
 8532.00000   29.09310    0.14410   29.05220   92.69440  230.76790
 8532.50000   28.20730    0.13730   27.94080   94.96840  231.11600
 8533.00000   27.06820    0.13670   26.74920   96.72470  231.43770
 8533.50000   26.55350    0.13620   26.54410   96.72540  231.66820
 8534.00000   26.47710    0.13130   26.53800   95.28880  231.74970
 8534.50000   26.57390    0.12310   26.68940   93.40460  231.73500
 8535.00000   27.34390    0.10990   27.61160   91.36570  230.87350
 8535.50000   28.45500    0.09270   28.51480   89.72250  229.14570
 8536.00000   28.55270    0.07780   28.69290   88.40940  227.81020
 8536.50000   26.71690    0.06610   26.27440   87.39500  227.08750
 8537.00000   24.00890    0.05770   23.28580   87.61240  227.15340
 8537.50000   21.86350    0.05430   21.86650   87.92780  227.25210
 8538.00000   22.40150    0.05470   22.34240   88.25850  226.12200
 8538.50000   24.01910    0.05510   24.18610   88.27110  225.63080
 8539.00000   25.74310    0.05390   25.76350   87.64790  226.68910
 8539.50000   27.27950    0.05210   27.34880   86.77770  227.75050
