~Version ---------------------------------------------------
VERS.   2.0 : CWLS log ASCII Standard -VERSION 2.0
WRAP.    NO : One line per depth step
DLM . SPACE : Column Data Section Delimiter
~Well ------------------------------------------------------
STRT .F                  20.0 : START DEPTH
STOP .F                4951.0 : STOP DEPTH
STEP .F                   0.5 : STEP
NULL .               -9999.25 : NULL VALUE
COMP .                        : COMPANY
WELL .                        : WELL
FLD  .                        : FIELD
LOC  .                        : LOCATION
PROV .                        : PROVINCE
CNTY .                        : COUNTY
STAT .                        : STATE
CTRY .                        : COUNTRY
SRVC .                        : SERVICE COMPANY
DATE .                        : DATE
UWI  .                        : UNIQUE WELL ID
API  .                        : API NUMBER
SLAT .WGS84 2.496511236493099 : SURFACE LATITUDE
SLON .WGS84 7.203273054830007 : SURFACE LONGITUDE
DATUM.F                3193.0 : DEPTH DATUM ELEV
~Curve Information -----------------------------------------
DEPT.F     : 
GRD .GAPI  : GAMMA RAY
NPHI.DEC   : NEUTRON POROSITY LIMESTONE
PE  .B/E   : PHOTOELECTRIC FACTOR
CALD.IN    : CALIPER FDC LOG
DPHI.DEC   : DENSITY POROSITY LIMESTONE
DRHO.G/C3  : DENSITY CORRECTION
RHOB.G/C3  : BULK DENSITY
LLD .OHMM  : LATEROLOG LOG DEEP
LLS .OHMM  : LATEROLO LOG SHALLOW
MSFL.OHMM  : MICRO SPHERICALLY FOCUSED
DTCO.US/F  : COMPRESSIONAL-WAVE INTERVAL TRANSIT TIME ACOUSTIC SLOWNESS
DTSM.US/F  : SHEAR-WAVE INTERVAL TRANSIT TIME DELTA-T
~Params ----------------------------------------------------
~Other -----------------------------------------------------
~ASCII -----------------------------------------------------
# ...
 2988.00000   29.08410    0.02480    4.26550    9.87870    0.32880    0.01540    2.15670   51.61460   68.32540   28.22950   -9999.25   -9999.25
 2988.50000   30.34440    0.02030    4.54370    9.91510    0.33050    0.01560    2.14600   54.96190   70.98470   28.53290   -9999.25   -9999.25
 2989.00000   30.54770    0.01630    4.39680    9.98160    0.33830    0.01530    2.13530   62.59120   79.01070   36.56660   -9999.25   -9999.25
 2989.50000   29.99860    0.01420    4.19370   10.05780    0.34550    0.01480    2.12280   71.27950   91.84290   53.60510   -9999.25   -9999.25
 2990.00000   29.28260    0.01210    4.04050   10.20890    0.34900    0.01540    2.11910   81.17380  106.75920   75.10780   92.17580  130.00470
 2990.50000   28.27210    0.00990    4.07580   10.34600    0.34870    0.01630    2.11750   92.44150  121.13520  112.31540   91.28950  129.97490
 2991.00000   26.79030    0.00670    4.12660   10.38930    0.35100    0.01720    2.11350  100.12550  125.19170  164.50120   90.51360  129.93580
 2991.50000   24.48530    0.00210    4.17900   10.46910    0.35900    0.01730    2.09700  107.10480  129.16510  160.07340   90.07560  129.85990
 2992.00000   21.30460   -0.00160    4.29740   10.53480    0.37180    0.01490    2.07660  111.44170  131.23890  106.04980   89.63770  129.55630
 2992.50000   17.59030   -0.00380    4.46360   10.65980    0.38460    0.01140    2.05570  115.95430  134.49340   72.91390   89.41310  128.66380
 2993.00000   14.26080   -0.00420    4.62970   10.79540    0.38860    0.00930    2.04850  131.46520  143.82920   86.76610   89.31660  128.06240
 2993.50000   12.82500   -0.00260    4.67770   10.83060    0.38310    0.01070    2.05810  150.67060  159.04290  231.37150   89.20240  127.81430
 2994.00000   13.03800    0.00150    4.62230   10.68930    0.37570    0.01340    2.07270  152.35500  171.60620 1957.08750   89.41810  128.53430
 2994.50000   13.94720    0.00550    4.51810   10.82230    0.36820    0.01590    2.08520  132.82830  164.86380 2024.91470   90.19470  129.74630
 2995.00000   14.65570    0.00740    4.41400   10.79130    0.36640    0.01640    2.08340  104.60290  129.32050 1886.28610   91.49850  130.85330
 2995.50000   14.19220    0.00380    4.30990   10.67110    0.37090    0.01700    2.07720   80.76520  101.17410  583.05290   92.71020  130.93090
 2996.00000   12.63660   -0.00180    4.23850   10.68870    0.37500    0.01490    2.06880   77.75440   95.23500  106.06120   93.17180  129.76410
 2996.50000   10.43310   -0.00580    4.24860   10.70400    0.37850    0.01230    2.06430   99.03010  109.10630   70.89110   92.90100  128.10940
 2997.00000    8.27380   -0.00970    4.36560   10.74740    0.38020    0.01020    2.06200  159.18730  145.68640   58.77610   91.36630  125.60220
 2997.50000    6.89860   -0.01290    4.48850   10.81110    0.38100    0.01020    2.05900  278.53130  196.87780  111.06570   89.32950  123.39270
 2998.00000    6.33880   -0.01430    4.58060   10.82000    0.38210    0.00980    2.05590  486.34400  346.43220  488.11680   88.30540  122.39620
 2998.50000    6.00310   -0.01530    4.55450   10.80210    0.38560    0.00900    2.04860  797.91400  609.59220 2014.39160   87.55650  121.61140
 2999.00000    5.97210   -0.01360    4.51620   10.78260    0.38870    0.00890    2.04830 1310.02770 1016.27980 2015.03980   87.37840  121.37950
 2999.50000    7.93800   -0.00700    4.32580   10.72470    0.38630    0.00920    2.11030 1993.54810 1673.57510 2017.27660   87.15500  120.73200
 3000.00000   13.94300    0.00640    4.13550   10.62880    0.36030    0.00930    2.24700 2677.06860 1942.64100 1158.24850   86.74440  119.41150
 3000.50000   23.78140    0.02720    3.94510    9.79750    0.30520    0.01230    2.28520 3915.97970 1983.03930   84.62090   85.55120  118.22810
 3001.00000   39.98420    0.05600    3.81810    9.10440    0.18620    0.02680    2.45990 4042.23000 2009.72140   24.58980   83.94010  117.20050
 3001.50000   61.81690    0.07470    3.69120    9.04510    0.13020    0.04370    2.44040 3000.14230 2017.55470   12.22730   81.18560  116.36400
 3002.00000   76.36570    0.04860    3.56430    9.04230    0.21130    0.03950    2.30670  838.50520 1247.96290    9.07680   78.63060  116.35550
 3002.50000   75.92730    0.02260    3.44170    9.23720    0.28790    0.01610    2.18170  217.43720  310.00590   10.85150   75.61640  118.94310
 3003.00000   61.56410    0.00400    3.50210    9.98410    0.36450    0.01410    2.06910   84.24520  119.44740   14.39270   77.60310  123.50740
 3003.50000   40.38560   -0.00620    3.56260   10.80580    0.38730    0.02560    2.04940   79.97970  106.26890   12.43920   82.53590  127.78130
 3004.00000   20.19810   -0.01140    3.77610   10.77130    0.38600    0.03610    2.04960  116.93210  128.90170    9.71620   87.88290  127.87840
 3004.50000    9.52780   -0.01350    4.07400   10.70760    0.38640    0.03420    2.04800  270.53560  196.19700   13.05350   89.46660  125.12990
 3005.00000    5.44450   -0.01400    4.42260   10.73700    0.39550    0.02220    2.03450  599.56770  509.28950   92.19570   88.80600  120.81990
 3005.50000    4.73450   -0.01440    4.66740   10.84210    0.39610    0.01140    2.03430 1403.36010  850.66590 1834.04640   87.07160  117.86480
 3006.00000    6.44000   -0.01490    4.80700   10.95340    0.39340    0.00670    2.04150 3090.08180 1429.30650 1985.26680   86.11310  116.72670
 3006.50000    8.80040   -0.01530    4.81220   11.03210    0.38930    0.00500    2.05140 6933.60450 1844.64590 1992.71810   85.80550  115.78110
 3007.00000   10.91550   -0.01540    4.73830   11.07210    0.38620    0.00330    2.05340 17100.87700 1936.88210 1997.81480   85.50370  114.77590
 3007.50000   12.92880   -0.01510    4.65550   11.15450    0.38510    0.00150    2.05420 25980.78910 1949.37670 2002.92460   85.02100  114.70150
 3008.00000   13.98990   -0.01360    4.57340   11.23110    0.38410    0.00210    2.05490 28148.87110 1962.19210 2008.04740   84.86620  116.68260
 3008.50000   14.59310   -0.01170    4.53580   11.27240    0.38290    0.00340    2.05960 18480.49610 1974.34610 2013.18320   85.96060  118.66370
 3009.00000   14.65670   -0.00560    4.60120   11.26810    0.38070    0.00600    2.06640 6119.27200 1955.70950 2018.33230   88.20250  121.95950
 3009.50000   14.73690    0.00470    4.55500   11.16680    0.37450    0.00950    2.07390 1103.49080 1333.26820 2023.49450   93.02820  123.97960
 3010.00000   15.68980    0.02480    4.16750   10.97250    0.36740    0.01480    2.09210  266.64080  459.63500 1531.10240   98.89620  125.81710
 3010.50000   16.98760    0.02570    3.79780   10.84210    0.36020    0.01960    2.10010   70.90670  146.16600   45.87290  104.53340  127.72420
 3011.00000   17.06660    0.01250    3.50260   10.69870    0.35460    0.01970    2.11530   40.56070   59.20520   17.52160  109.53150  129.30720
 3011.50000   14.91460    0.00620    3.34750   10.78580    0.33990    0.02000    2.15030   31.52470   46.04140    8.46430  111.00560  129.85780
 3012.00000   11.78430    0.00820    3.45070   10.85350    0.32140    0.02080    2.22910   39.57350   51.54400    5.89280  107.20080  127.11910
 3012.50000    9.27400    0.01650    3.68040   10.32050    0.26770    0.02420    2.36290   57.73300   81.42340    6.72290   98.50030  124.34590
 3013.00000   11.35250    0.04080    3.86930    9.38510    0.15100    0.03330    2.58150   99.44170  139.45080   24.13370   90.61190  119.98280
 3013.50000   21.86890    0.06910    4.32700    9.25900    0.04450    0.05570    2.63920  158.91550  230.93490  109.85540   85.55770  117.29970
 3014.00000   37.49880    0.09740    4.61800    9.29590    0.07100    0.06370    2.55700  195.13770  337.35910  107.39110   80.79600  114.15250
 3014.50000   62.34890    0.11610    4.46910    9.38280    0.14150    0.06110    2.39010  179.88890  304.16230   49.64130   77.51380  112.42310
 3015.00000   76.56270    0.11200    3.93330    9.45330    0.20320    0.06210    2.34230   95.94800  193.30250   24.33000   78.20240  114.87360
 3015.50000   80.28600    0.10020    3.39760    9.65340    0.23200    0.06810    2.31020   49.91300   70.68730   11.81370   83.11880  117.17910
