~Version ---------------------------------------------------
VERS.   2.0 : CWLS log ASCII Standard -VERSION 2.0
WRAP.    NO : One line per depth step
DLM . SPACE : Column Data Section Delimiter
~Well ------------------------------------------------------
STRT .F                  20.0 : START DEPTH
STOP .F                4951.0 : STOP DEPTH
STEP .F                   0.5 : STEP
NULL .               -9999.25 : NULL VALUE
COMP .                        : COMPANY
WELL .                        : WELL
FLD  .                        : FIELD
LOC  .                        : LOCATION
PROV .                        : PROVINCE
CNTY .                        : COUNTY
STAT .                        : STATE
CTRY .                        : COUNTRY
SRVC .                        : SERVICE COMPANY
DATE .                        : DATE
UWI  .                        : UNIQUE WELL ID
API  .                        : API NUMBER
SLAT .WGS84 2.496511236493099 : SURFACE LATITUDE
SLON .WGS84 7.203273054830007 : SURFACE LONGITUDE
DATUM.F                3193.0 : DEPTH DATUM ELEV
~Curve Information -----------------------------------------
DEPT.F     : 
GRD .GAPI  : GAMMA RAY
NPHI.DEC   : NEUTRON POROSITY LIMESTONE
PE  .B/E   : PHOTOELECTRIC FACTOR
CALD.IN    : CALIPER FDC LOG
DPHI.DEC   : DENSITY POROSITY LIMESTONE
DRHO.G/C3  : DENSITY CORRECTION
RHOB.G/C3  : BULK DENSITY
LLD .OHMM  : LATEROLOG LOG DEEP
LLS .OHMM  : LATEROLO LOG SHALLOW
MSFL.OHMM  : MICRO SPHERICALLY FOCUSED
DTCO.US/F  : COMPRESSIONAL-WAVE INTERVAL TRANSIT TIME ACOUSTIC SLOWNESS
DTSM.US/F  : SHEAR-WAVE INTERVAL TRANSIT TIME DELTA-T
~Params ----------------------------------------------------
~Other -----------------------------------------------------
~ASCII -----------------------------------------------------
# ...
 3128.00000    5.47430    0.00640    5.13840    8.66420   -0.11140    0.03290    2.88350  131.19990  174.38470  234.61980   61.11500   96.97580
 3128.50000    4.68900    0.01070    4.65220    8.68350   -0.10220    0.03980    2.87340  203.37180  256.13980 1948.34220   62.66090   99.73060
 3129.00000    4.53910    0.01960    4.31750    8.69470   -0.09310    0.04620    2.86370  231.23760  334.40420 1954.29390   65.97900  102.94340
 3129.50000    5.59900    0.03750    4.30100    8.71210   -0.08530    0.05980    2.78070  169.43490  290.12220 1960.89450   70.79920  107.39930
 3130.00000    7.72690    0.06290    4.06300    8.73610   -0.01630    0.06930    2.56820   77.89430  147.61790 1978.21920   75.40040  111.79870
 3130.50000   12.35260    0.04970    3.79220    8.76700    0.08300    0.07230    2.44350   36.24890   71.35300 1014.70500   81.44540  114.81930
 3131.00000   15.73270    0.02550    3.61470    8.81590    0.18550    0.07480    2.33300   19.11110   33.77190   26.52150   86.72400  114.64890
 3131.50000   16.02760    0.00610    3.58080    8.90490    0.25980    0.07910    2.25600   14.52580   22.85360    5.45300   88.06270  111.18880
 3132.00000   13.10010    0.00070    3.58640    9.50940    0.27620    0.08670    2.23590   18.57500   31.67690    3.30290   86.06330  109.35760
 3132.50000    9.24850   -0.00110    3.71880    9.61610    0.21840    0.09680    2.38120   30.76500   56.94170    1.90700   83.57430  108.56920
 3133.00000    5.52830   -0.00100    3.88660    8.86410    0.11590    0.10790    2.54510   69.40600  129.37000    1.81790   80.63570  107.63680
 3133.50000    3.60660   -0.00110    4.10830    8.73440    0.05790    0.11790    2.63780  159.70310  296.60060    2.39690   76.29650  105.62000
 3134.00000    3.34210    0.00000    4.33020    8.71980    0.05390    0.10340    2.59620  367.47640  682.72070    3.78470   71.89560  104.74920
 3134.50000    3.89620    0.00240    4.53370    8.72380    0.06740    0.06290    2.61020  983.10460 1523.55290   20.04140   69.81670  104.90160
 3135.00000    4.72440    0.01510    4.73730    8.73350    0.05390    0.06050    2.68220 1293.67720 1929.28050  180.24860   70.25010  105.46480
 3135.50000    7.19020    0.03160    4.81920    8.75490    0.00480    0.07290    2.74670  607.04490 1238.72570  127.68300   70.37280  106.20360
 3136.00000   11.16640    0.05800    4.54640    8.76430   -0.03520    0.08290    2.77250  119.16820  350.32550   98.09100   71.15050  107.66120
 3136.50000   17.67770    0.07070    4.06460    8.77580   -0.02400    0.07630    2.69060   51.80240   84.55670   35.22300   72.96900  109.55660
 3137.00000   24.15790    0.06740    3.57850    8.80070    0.05780    0.05040    2.56410   21.66290   23.66380   17.27290   76.54980  112.25230
 3137.50000   31.30570    0.05530    3.30540    8.82560    0.11590    0.03670    2.49350   14.60160   15.06590   11.07680   79.67350  113.01200
 3138.00000   36.48440    0.03740    3.09750    8.92220    0.14330    0.03890    2.44480   15.35520   14.81330    8.50420   79.82730  111.95760
 3138.50000   40.07230    0.02570    2.93920    9.03760    0.16090    0.04090    2.43370   22.81130   18.02510    9.80400   78.18060  110.35800
 3139.00000   42.49270    0.02130    2.79080    9.09700    0.16650    0.04170    2.42730   34.21760   26.82200   13.93680   77.20590  109.09650
 3139.50000   43.72990    0.01960    2.74690    9.11470    0.17060    0.03730    2.41990   55.19040   44.91130   30.28090   76.81300  108.51520
 3140.00000   43.74310    0.02070    2.76300    9.12500    0.17520    0.03050    2.41110   80.24200   61.32290   66.16000   76.53500  108.53490
 3140.50000   43.30810    0.02250    2.80980    9.12680    0.17790    0.02370    2.40860  105.43750   83.64850   95.05750   76.48130  108.90520
 3141.00000   42.55380    0.02550    2.91180    9.12850    0.17910    0.02050    2.40640  122.02980   90.96280   98.70210   76.55540  109.28050
 3141.50000   41.73990    0.02650    3.01130    9.13050    0.18030    0.01720    2.40420  123.47420   92.72070   96.60780   76.53120  109.77530
 3142.00000   41.38460    0.02630    3.04950    9.12560    0.18250    0.01380    2.39670  110.17990   88.71360   87.04580   76.93540  110.45020
 3142.50000   41.50810    0.02590    3.07460    9.12630    0.18560    0.01090    2.39610   97.94510   78.05160   75.68130   77.58100  111.24220
 3143.00000   42.06200    0.02590    3.08110    9.13440    0.18680    0.00990    2.39590   87.06880   68.67100   65.25760   78.16340  112.02370
 3143.50000   42.78250    0.02890    3.03440    9.14350    0.18650    0.00890    2.39600   77.40030   59.68620   55.25750   78.31060  113.34670
 3144.00000   43.51010    0.03220    2.94870    9.15160    0.18260    0.00990    2.40170   69.36750   51.81900   49.63010   78.37350  114.41440
 3144.50000   43.72240    0.04120    2.82390    9.15930    0.17870    0.01100    2.41370   62.72100   47.68590   44.79150   78.96130  115.96520
 3145.00000   43.30730    0.04700    2.75140    9.16560    0.17630    0.01220    2.41370   56.71130   44.61600   39.82050   80.52680  118.17880
 3145.50000   42.97250    0.06180    2.73720    9.16520    0.17800    0.01020    2.40780   51.24960   41.81950   36.98060   82.66150  121.77650
 3146.00000   43.03010    0.07680    2.72300    9.16300    0.18040    0.00920    2.40420   45.42700   37.92230   35.13330   85.32970  125.73230
 3146.50000   43.63130    0.09710    2.73220    9.16660    0.18160    0.00820    2.40610   37.54910   32.63720   32.96820   88.47570  130.14560
 3147.00000   46.31640    0.11750    2.77110    9.17120    0.17950    0.00660    2.41240   30.69210   28.08860   24.58920   91.99040  133.81480
 3147.50000   49.85100    0.13490    2.81590    9.17530    0.17560    0.00780    2.42240   24.29850   21.99740   18.99030   95.07630  135.89740
 3148.00000   52.18810    0.14580    2.90700    9.16760    0.17240    0.00900    2.40940   19.23680   17.07030   14.41830   97.44700  136.05490
 3148.50000   52.13990    0.12720    3.00120    9.15800    0.20330    0.01250    2.36240   15.92500   13.58860   10.38200   98.04480  135.40270
 3149.00000   48.80260    0.11040    3.09540    9.18330    0.23270    0.02410    2.30110   14.20350   13.20540    7.66910   97.93820  133.69680
 3149.50000   42.27520    0.09640    3.18960    9.36840    0.26240    0.03420    2.26850   14.68070   13.87270    6.51380   98.01070  131.17310
 3150.00000   36.64380    0.09500    3.28380    9.51030    0.26300    0.05290    2.27960   17.33250   15.64660    7.12830   98.96880  129.32560
 3150.50000   32.92190    0.10400    3.30230    9.53930    0.23850    0.05750    2.31060   21.92250   20.44510    7.89450  100.16020  128.44960
 3151.00000   33.08920    0.12450    3.17630    9.49910    0.21900    0.05630    2.33780   26.28060   23.88540    7.96300  102.23270  127.11490
 3151.50000   36.07420    0.14520    3.04130    9.51920    0.21610    0.05060    2.34730   28.19220   26.24480    7.81890  104.72390  126.86670
 3152.00000   41.30440    0.13480    2.90640    9.59960    0.24170    0.04500    2.30380   27.36700   24.65190    8.86130  106.84620  128.99190
 3152.50000   44.45170    0.07970    2.87210    9.72630    0.28460    0.04270    2.22020   23.91870   21.30200    9.42340  107.54000  133.30990
 3153.00000   42.48150    0.03890    2.95130   10.03620    0.30970    0.04730    2.17500   20.57450   19.00870    8.20660  106.26080  136.83090
 3153.50000   34.25100    0.00960    3.08340   10.45130    0.32100    0.06280    2.16380   23.23710   19.23370    6.63780  100.46870  136.44540
 3154.00000   24.21500    0.00360    3.29410   10.46330    0.30270    0.09000    2.20240   28.56970   23.79570    5.77640   91.96190  132.56700
 3154.50000   14.64470    0.00010    3.56730   10.01390    0.28540    0.12230    2.22790   40.89260   33.21090    5.02590   86.77670  128.87580
 3155.00000    8.41150   -0.00100    3.81510    9.28280    0.30040    0.13180    2.20990   63.78720   51.99330    5.18980   82.12340  127.13100
 3155.50000    6.20560   -0.00160    3.82870    9.54200    0.33060    0.13830    2.15810   97.60490   77.74360    6.41620   79.85770  129.43210
