~Version ---------------------------------------------------
VERS.   2.0 : CWLS log ASCII Standard -VERSION 2.0
WRAP.    NO : One line per depth step
DLM . SPACE : Column Data Section Delimiter
~Well ------------------------------------------------------
STRT .F                  20.0 : START DEPTH
STOP .F                4951.0 : STOP DEPTH
STEP .F                   0.5 : STEP
NULL .               -9999.25 : NULL VALUE
COMP .                        : COMPANY
WELL .                        : WELL
FLD  .                        : FIELD
LOC  .                        : LOCATION
PROV .                        : PROVINCE
CNTY .                        : COUNTY
STAT .                        : STATE
CTRY .                        : COUNTRY
SRVC .                        : SERVICE COMPANY
DATE .                        : DATE
UWI  .                        : UNIQUE WELL ID
API  .                        : API NUMBER
SLAT .WGS84 2.496511236493099 : SURFACE LATITUDE
SLON .WGS84 7.203273054830007 : SURFACE LONGITUDE
DATUM.F                3193.0 : DEPTH DATUM ELEV
~Curve Information -----------------------------------------
DEPT.F     : 
GRD .GAPI  : GAMMA RAY
NPHI.DEC   : NEUTRON POROSITY LIMESTONE
PE  .B/E   : PHOTOELECTRIC FACTOR
CALD.IN    : CALIPER FDC LOG
DPHI.DEC   : DENSITY POROSITY LIMESTONE
DRHO.G/C3  : DENSITY CORRECTION
RHOB.G/C3  : BULK DENSITY
LLD .OHMM  : LATEROLOG LOG DEEP
LLS .OHMM  : LATEROLO LOG SHALLOW
MSFL.OHMM  : MICRO SPHERICALLY FOCUSED
DTCO.US/F  : COMPRESSIONAL-WAVE INTERVAL TRANSIT TIME ACOUSTIC SLOWNESS
DTSM.US/F  : SHEAR-WAVE INTERVAL TRANSIT TIME DELTA-T
~Params ----------------------------------------------------
~Other -----------------------------------------------------
~ASCII -----------------------------------------------------
# ...
 3240.00000   50.28860    0.20930    2.66680    9.67830    0.17460    0.07210    2.41950    4.75940    4.45560    1.30540  111.56530  136.74980
 3240.50000   48.00770    0.20170    2.64760    9.65650    0.16790    0.06360    2.41410    4.98720    5.23550    0.99310  105.93690  134.64040
 3241.00000   47.38410    0.19830    2.61330    9.67790    0.19970    0.05440    2.37570    5.09040    6.03040    0.94350   99.85680  136.61180
 3241.50000   48.24500    0.22090    2.58140    9.67830    0.25030    0.03070    2.22700    4.84100    5.93980    1.68750   94.42870  137.56390
 3242.00000   48.46380    0.20240    2.54960    9.61330    0.28330    0.00740    2.22870    3.76480    5.13380    2.88650   90.77670  133.25710
 3242.50000   44.75760    0.08020    2.47940    9.42460    0.25640   -0.00080    2.25500    2.58300    3.85080    2.26280   85.82140  122.79060
 3243.00000   33.01000    0.02080    2.41360    9.08000    0.18050    0.00440    2.48380    3.60980    3.64830    1.38680   79.52900  110.08060
 3243.50000   23.35210    0.00320    2.61560    8.81600    0.05370    0.02590    2.79120   11.28570    5.95020    0.98620   71.28610   99.97110
 3244.00000   10.12480   -0.00360    3.44140    8.74700   -0.06040    0.05510    2.90670   29.11720   15.73910    0.98570   62.86850   96.35170
 3244.50000    5.07810   -0.00820    4.88790    8.68810   -0.17440    0.05630    3.02210   59.74070   39.90030    1.62530   58.34730   95.82520
 3245.00000    3.41350   -0.00740    5.66380    8.67880   -0.16550    0.05860    2.99670  137.50440   87.33080   19.88310   57.25890   96.33880
 3245.50000    2.98610   -0.00650    5.84930    8.66870   -0.16350    0.06670    2.99070  342.17370  195.24130 1239.74410   56.63890   97.83160
 3246.00000    4.08400   -0.00550    5.72530    8.65320   -0.16140    0.07710    2.98700 1061.83370  462.16710 1972.23470   55.39120  100.20250
 3246.50000    5.17820   -0.00470    5.37120    8.65080   -0.15910    0.08630    2.98430 3206.72730 1680.74670   -9999.25   54.13870  102.57790
 3247.00000    6.27250   -0.00390    5.01430    8.64620   -0.15820    0.09970    2.98520 6256.43750 1902.45760   -9999.25   53.07800  105.12550
 3247.50000    7.51030   -0.00290    4.86630    8.63610   -0.16110    0.11420    2.99660 6857.78760 1934.88620   -9999.25   52.92260  108.67770
 3248.00000    8.68960   -0.00200    4.90080    8.63980   -0.17180    0.12890    2.98510 7213.49460 1949.03640   -9999.25   53.02140  111.55310
 3248.50000    9.13740   -0.00050    4.93530    8.64480   -0.17910    0.14000    2.97370 8010.84670 1954.39370   -9999.25   53.61820  113.30450
 3249.00000    9.30270    0.00150    4.94040    8.65050   -0.14070    0.14660    3.00380 7896.15430 1954.23490   -9999.25   55.12500  113.12230
 3249.50000    9.89100    0.00630    4.90700    8.66220   -0.09950    0.12990    2.82010 4804.80660 1953.47120   -9999.25   58.11140  110.81620
 3250.00000   14.76950    0.03160    4.59900    8.67430    0.06490    0.08960    2.35720 2346.99680 1909.16410   -9999.25   62.60580  108.87880
 3250.50000   20.24550    0.06190    3.59530    8.69390    0.17230    0.05930    2.35520  905.44030  594.37850  289.94400   66.72630  107.20780
 3251.00000   26.70770    0.12480    2.96550    8.73360    0.21060    0.04470    2.35810  102.62990  167.11220    8.58200   69.99730  106.68900
 3251.50000   31.29530    0.13220    2.72720    8.74600    0.19260    0.04150    2.41610   32.67100   43.35760    2.94210   69.04360  108.70540
 3252.00000   30.47620    0.10590    2.74610    8.71620    0.12170    0.06650    2.54540   24.68190   26.69790    1.62520   67.73880  113.75130
 3252.50000   26.67950    0.06970    2.98290    8.69720    0.02110    0.09310    2.79150   25.01670   25.00570    1.03170   72.51770  121.48360
 3253.00000   21.94200    0.06660    3.78110    8.69110   -0.04590    0.14810    2.70720   28.53230   26.38050    1.05080   78.10820  126.86600
 3253.50000   21.46070    0.07360    3.82070    8.69850    0.04810    0.12730    2.58930   32.31880   27.64990    2.94300   84.92320  132.86350
 3254.00000   26.37660    0.09250    3.42350    8.74250    0.10310    0.12180    2.51340   34.69660   25.90590   15.82240   91.33680  134.30370
 3254.50000   34.63840    0.11820    3.13550    8.85330    0.12780    0.12980    2.48340   34.52470   21.73760   18.18190   94.86900  133.08530
 3255.00000   44.32530    0.13830    3.05220    9.03890    0.13770    0.14050    2.47790   31.51040   18.25400    9.75850   94.61150  129.74920
 3255.50000   51.49780    0.15290    2.96900    9.19760    0.14640    0.13630    2.45690   28.58350   15.57940    6.44830   95.64780  127.67590
 3256.00000   54.15670    0.16750    2.88570    9.32660    0.16400    0.13010    2.41630   25.19560   13.87940    6.14240   99.07730  128.22120
 3256.50000   54.74620    0.18220    2.76980    9.44780    0.17540    0.12080    2.41510   22.03400   12.37090    5.96580  104.82220  128.30700
 3257.00000   54.98010    0.18990    2.66420    9.59690    0.17520    0.10810    2.41630   19.15410   11.03600    3.55980  107.45220  126.92560
 3257.50000   53.55320    0.16700    2.63470    9.73390    0.16880    0.09310    2.42680   16.88260   10.18930    1.93780  101.89730  125.81070
 3258.00000   50.43770    0.14710    2.68580    9.79610    0.16690    0.06850    2.43250   16.49160   10.04490    1.43630   94.78170  126.01470
 3258.50000   46.79840    0.13460    2.77830    9.84100    0.16790    0.04390    2.42940   18.38630   10.88700    1.66920   89.94220  126.68900
 3259.00000   44.93240    0.13270    2.82500    9.85750    0.16890    0.02710    2.42260   19.83380   12.12930    2.63000   90.50990  128.13540
 3259.50000   46.24370    0.14030    2.86700    9.87210    0.16980    0.01170    2.41010   21.39530   13.51340    4.92070   91.98760  128.15830
 3260.00000   48.32870    0.15970    2.87620    9.89140    0.17470    0.01160    2.40530   22.58120   14.82350    8.67850   95.13450  125.93840
 3260.50000   49.82300    0.19280    2.86380    9.90810    0.18570    0.01970    2.39930   22.47680   14.73040   14.14850   97.62930  121.72250
 3261.00000   50.65410    0.22590    2.84830    9.92220    0.19420    0.02950    2.39200   19.61450   13.03030   11.52030  100.75930  118.43190
 3261.50000   50.83200    0.25340    2.83850    9.94930    0.19230    0.05310    2.38480   16.22570   10.30220    8.28700  104.69930  116.28810
 3262.00000   49.88980    0.24850    2.87940    9.98490    0.22740    0.07770    2.34600   12.25010    7.73540    4.88290  106.61630  115.78510
 3262.50000   48.45610    0.23210    2.91980    9.81830    0.27840    0.06250    2.21100    8.92440    5.83080    2.44120  105.60620  118.50510
 3263.00000   47.80490    0.23080    2.80280    9.78520    0.35580    0.04010    2.11060    7.08990    4.41280    1.38450  104.39000  127.61610
 3263.50000   49.08240    0.24010    2.50510    9.93980    0.37200    0.02150    2.08630    5.55110    3.61110    0.98930  108.26550  138.07600
 3264.00000   54.43190    0.24040    2.38540    9.85150    0.32500    0.01300    2.12160    5.55930    3.72420    0.80300  116.61030  151.22510
 3264.50000   60.73460    0.23830    2.38170    9.75860    0.25830    0.01330    2.20130    6.49510    4.32690    0.67930  123.42530  164.85150
 3265.00000   65.20770    0.23580    2.57930    9.68000    0.19330    0.01670    2.34440    8.45950    5.63810    0.75900  125.21780  171.48240
 3265.50000   67.46200    0.23920    2.80640    9.62810    0.17330    0.01720    2.41230   11.26100    7.41570    1.30160  125.50190  173.79520
 3266.00000   67.50450    0.24230    3.03350    9.59370    0.16560    0.00990    2.42460   14.14250    9.75370    2.20510  124.78610  170.15690
 3266.50000   67.21620    0.24570    3.23900    9.55320    0.14810    0.00890    2.45160   15.02480   11.10320    2.97610  129.77540  165.96260
 3267.00000   66.96160    0.24820    3.31660    9.52620    0.12940    0.00950    2.48610   14.10240   10.24960    3.00380  133.79930  160.58090
 3267.50000   66.22650    0.24930    3.35690    9.51130    0.12350    0.01070    2.49910   12.70080    8.52360    2.91730  134.59760  157.55440
