~Version ---------------------------------------------------
VERS.   2.0 : CWLS log ASCII Standard -VERSION 2.0
WRAP.    NO : One line per depth step
DLM . SPACE : Column Data Section Delimiter
~Well ------------------------------------------------------
STRT .F                  20.0 : START DEPTH
STOP .F                4951.0 : STOP DEPTH
STEP .F                   0.5 : STEP
NULL .               -9999.25 : NULL VALUE
COMP .                        : COMPANY
WELL .                        : WELL
FLD  .                        : FIELD
LOC  .                        : LOCATION
PROV .                        : PROVINCE
CNTY .                        : COUNTY
STAT .                        : STATE
CTRY .                        : COUNTRY
SRVC .                        : SERVICE COMPANY
DATE .                        : DATE
UWI  .                        : UNIQUE WELL ID
API  .                        : API NUMBER
SLAT .WGS84 2.496511236493099 : SURFACE LATITUDE
SLON .WGS84 7.203273054830007 : SURFACE LONGITUDE
DATUM.F                3193.0 : DEPTH DATUM ELEV
~Curve Information -----------------------------------------
DEPT.F     : 
GRD .GAPI  : GAMMA RAY
NPHI.DEC   : NEUTRON POROSITY LIMESTONE
PE  .B/E   : PHOTOELECTRIC FACTOR
CALD.IN    : CALIPER FDC LOG
DPHI.DEC   : DENSITY POROSITY LIMESTONE
DRHO.G/C3  : DENSITY CORRECTION
RHOB.G/C3  : BULK DENSITY
LLD .OHMM  : LATEROLOG LOG DEEP
LLS .OHMM  : LATEROLO LOG SHALLOW
MSFL.OHMM  : MICRO SPHERICALLY FOCUSED
DTCO.US/F  : COMPRESSIONAL-WAVE INTERVAL TRANSIT TIME ACOUSTIC SLOWNESS
DTSM.US/F  : SHEAR-WAVE INTERVAL TRANSIT TIME DELTA-T
~Params ----------------------------------------------------
~Other -----------------------------------------------------
~ASCII -----------------------------------------------------
# ...
 4528.00000    9.06840    0.07630    3.11670    8.44800   -0.06390    0.02530    2.82880  176.99990  213.91170  108.44370   52.62490   89.47480
 4528.50000    8.21730    0.06810    3.07900    8.44700   -0.07350    0.02180    2.84090  248.83510  269.95100  188.89330   52.23160   88.74210
 4529.00000    7.32350    0.05980    3.12850    8.44690   -0.07660    0.01900    2.84220  323.89060  357.70710  204.13620   51.69900   88.17310
 4529.50000    5.97020    0.05240    3.19860    8.44360   -0.07350    0.01710    2.83720  415.08010  451.92810  308.15490   51.13090   87.78340
 4530.00000    5.09710    0.04720    3.26870    8.43210   -0.06950    0.01710    2.83030  507.83270  544.14390  954.83590   50.44110   87.61250
 4530.50000    5.30730    0.04570    3.33220    8.41860   -0.06540    0.01730    2.82410  572.95820  565.03050 1950.19560   49.68050   87.44150
 4531.00000    5.60270    0.04630    3.37990    8.39440   -0.06490    0.01750    2.82260  572.54190  563.81240 1964.51820   49.17440   87.27530
 4531.50000    5.89800    0.04720    3.42850    8.39600   -0.06480    0.02430    2.82330  497.69420  503.73940 1956.27870   49.76900   87.32280
 4532.00000    6.10210    0.04800    3.51210    8.39750   -0.06600    0.03400    2.82390  429.59530  440.42870 1906.17520   51.06710   87.38990
 4532.50000    6.02090    0.04840    3.63100    8.39950   -0.06570    0.04310    2.82340  374.11470  397.14510 1172.14590   52.03410   87.33740
 4533.00000    6.09790    0.04670    3.68080    8.40300   -0.06550    0.04610    2.82480  362.90200  364.58640  568.08750   51.71620   87.38710
 4533.50000    6.19570    0.04610    3.67130    8.39900   -0.06790    0.04250    2.83010  365.32890  366.15350  381.57540   50.99490   87.64020
 4534.00000    6.37540    0.04850    3.60590    8.41810   -0.07100    0.03880    2.83310  391.40860  392.02130  410.44500   50.73610   87.89340
 4534.50000    6.57410    0.05200    3.54080    8.44650   -0.07190    0.03320    2.83430  424.46860  420.76620  575.53160   50.83170   88.14660
 4535.00000    6.25590    0.05470    3.47440    8.46690   -0.06960    0.02410    2.82830  458.04830  447.91220  670.55160   51.23980   88.39980
 4535.50000    6.38110    0.05690    3.40550    8.48250   -0.06380    0.01500    2.81950  472.63460  448.77190  596.39060   51.81060   88.86810
 4536.00000    7.37740    0.05850    3.34100    8.49050   -0.06060    0.00930    2.81420  456.81880  436.72090  628.78120   52.47050   89.58080
 4536.50000    8.73300    0.05990    3.25920    8.48800   -0.06010    0.00950    2.81400  406.12500  383.32020  678.21410   52.98350   90.29510
 4537.00000   10.58100    0.06060    3.17450    8.48550   -0.06000    0.00990    2.81350  355.93080  332.64880  539.14360   53.59910   90.82480
 4537.50000   12.15330    0.06150    3.11670    8.48590   -0.05920    0.01450    2.81180  307.56940  288.78770  366.69170   54.30090   91.11420
 4538.00000   12.27540    0.06350    3.12080    8.47240   -0.06010    0.02070    2.81190  265.39570  251.11130  309.28120   54.70280   90.93470
 4538.50000   11.65340    0.06330    3.16590    8.45880   -0.05800    0.02680    2.81310  237.82400  225.97460  284.58900   54.93000   90.75510
 4539.00000   11.27540    0.06240    3.20850    8.43120   -0.06050    0.03250    2.81500  227.84180  211.97120  255.93940   54.51670   90.32300
 4539.50000   11.18110    0.06170    3.21820    8.42710   -0.06350    0.03810    2.82160  228.78870  212.89040  240.40950   53.65790   89.63320
 4540.00000   11.31470    0.06200    3.21190    8.42360   -0.06660    0.04380    2.82990  239.19150  214.82950  254.49250   52.97410   88.94890
 4540.50000   11.31020    0.06200    3.21070    8.42060   -0.07240    0.04960    2.83850  250.06750  217.04520  301.77040   52.38870   88.35530
 4541.00000   10.79810    0.06200    3.22810    8.41710   -0.07540    0.05610    2.84200  258.03440  219.29510  365.75780   52.28350   87.75960
 4541.50000   11.01760    0.06190    3.27670    8.40020   -0.07690    0.06250    2.84790  257.94080  220.14680  290.07180   52.15250   87.29430
 4542.00000   11.42010    0.06380    3.29370    8.38530   -0.08130    0.06830    2.85240  253.57650  217.15500  218.19630   51.99860   87.29750
 4542.50000   11.90880    0.06490    3.27200    8.37820   -0.08170    0.07420    2.84720  248.51470  212.38640  175.92280   51.91220   87.59390
 4543.00000   13.63990    0.06610    3.19870    8.36340   -0.07270    0.07810    2.82610  242.97760  205.04530  198.61790   52.45400   88.79820
 4543.50000   16.09840    0.06790    3.14820    8.35020   -0.05790    0.07350    2.79250  221.35040  194.58090  270.87750   54.00980   91.13170
 4544.00000   19.92940    0.07030    3.14640    8.36290   -0.03990    0.06650    2.76160  196.72400  182.96250  314.46320   56.43910   93.60320
 4544.50000   23.73950    0.07220    3.04630    8.35880   -0.02260    0.05960    2.74560  163.34360  145.88320  309.34150   58.71480   95.54290
 4545.00000   29.05610    0.07120    2.94620    8.35460   -0.01730    0.06160    2.74460  135.07200  117.24620  224.78230   61.16670   97.33130
 4545.50000   32.29730    0.06690    2.80370    8.35280   -0.02110    0.06650    2.74800  110.82990   95.21580  146.73740   63.12370   98.71470
 4546.00000   34.87390    0.06440    2.77200    8.35410   -0.02190    0.07280    2.74810   91.18720   81.54970   98.15720   63.94210   99.13710
 4546.50000   37.14530    0.06370    2.74310    8.35540   -0.01870    0.07730    2.73470   76.01870   70.49080   77.87920   64.21650   99.31310
 4547.00000   38.78360    0.06570    2.78530    8.35330   -0.00530    0.07860    2.71210   65.53600   62.46020   67.39240   64.36520   99.39280
 4547.50000   39.29890    0.06970    2.82830    8.35120    0.00670    0.07550    2.69800   57.93950   56.17320   58.90510   64.29980   99.07990
 4548.00000   38.90850    0.06970    2.88910    8.34770    0.00900    0.07130    2.70310   51.22350   51.47700   48.76840   63.84300   98.63690
 4548.50000   37.97550    0.06910    2.95880    8.34330   -0.00150    0.07330    2.72250   49.14810   50.69700   40.17310   62.86130   97.65990
 4549.00000   35.60340    0.06910    3.02860    8.33890   -0.01510    0.07880    2.74290   50.80990   51.69910   35.65790   61.83100   95.87400
 4549.50000   33.02460    0.07020    3.13080    8.35480   -0.02800    0.08240    2.76030   54.31180   55.73400   36.70220   60.42730   95.03300
 4550.00000   29.50540    0.07230    3.25280    8.37990   -0.03820    0.08200    2.77660   62.28040   63.30150   44.87140   58.80480   94.07720
 4550.50000   25.55070    0.07420    3.30870    8.40490   -0.04570    0.07870    2.79280   72.96670   71.89650   51.38610   57.49660   93.05540
 4551.00000   21.50030    0.07530    3.35310    8.43000   -0.05460    0.07150    2.80930   87.21980   81.65850   57.71390   56.42190   92.62390
 4551.50000   17.43030    0.07520    3.40170    8.45510   -0.06380    0.05940    2.82090  104.25720   95.76760   70.80920   55.72510   92.27060
 4552.00000   14.22000    0.07510    3.48690    8.46050   -0.06410    0.04690    2.82030  124.43250  110.84590   79.53130   55.48440   92.27090
 4552.50000   12.46300    0.07580    3.60600    8.45650   -0.05580    0.03400    2.80460  137.12250  125.92600  101.60920   55.54870   93.24180
 4553.00000   12.62040    0.08250    3.76800    8.45420   -0.03490    0.02260    2.77660  134.52450  121.89440  202.61960   57.03250   94.90290
 4553.50000   16.32780    0.09040    3.77290    8.45580   -0.00710    0.01760    2.72920  115.41490   92.13410  703.08410   60.97070   98.22760
 4554.00000   23.46860    0.09980    3.58500    8.45730    0.01740    0.01360    2.66710   75.65490   50.02990  145.00650   64.83660  101.84430
 4554.50000   32.54690    0.11120    3.31970    8.45890    0.03590    0.00970    2.63900   42.41190   30.43820   43.47700   68.06390  102.97340
 4555.00000   38.46070    0.11840    3.06030    8.46050    0.04150    0.01210    2.64490   24.85330   22.55060   22.85870   69.03520  101.79170
 4555.50000   38.32030    0.11060    2.87410    8.46540    0.02070    0.01650    2.68300   17.63820   20.46350   12.77280   66.84140   99.26390
