~Version ---------------------------------------------------
VERS.   2.0 : CWLS log ASCII Standard -VERSION 2.0
WRAP.    NO : One line per depth step
DLM . SPACE : Column Data Section Delimiter
~Well ------------------------------------------------------
STRT .F                  20.0 : START DEPTH
STOP .F                4951.0 : STOP DEPTH
STEP .F                   0.5 : STEP
NULL .               -9999.25 : NULL VALUE
COMP .                        : COMPANY
WELL .                        : WELL
FLD  .                        : FIELD
LOC  .                        : LOCATION
PROV .                        : PROVINCE
CNTY .                        : COUNTY
STAT .                        : STATE
CTRY .                        : COUNTRY
SRVC .                        : SERVICE COMPANY
DATE .                        : DATE
UWI  .                        : UNIQUE WELL ID
API  .                        : API NUMBER
SLAT .WGS84 2.496511236493099 : SURFACE LATITUDE
SLON .WGS84 7.203273054830007 : SURFACE LONGITUDE
DATUM.F                3193.0 : DEPTH DATUM ELEV
~Curve Information -----------------------------------------
DEPT.F     : 
GRD .GAPI  : GAMMA RAY
NPHI.DEC   : NEUTRON POROSITY LIMESTONE
PE  .B/E   : PHOTOELECTRIC FACTOR
CALD.IN    : CALIPER FDC LOG
DPHI.DEC   : DENSITY POROSITY LIMESTONE
DRHO.G/C3  : DENSITY CORRECTION
RHOB.G/C3  : BULK DENSITY
LLD .OHMM  : LATEROLOG LOG DEEP
LLS .OHMM  : LATEROLO LOG SHALLOW
MSFL.OHMM  : MICRO SPHERICALLY FOCUSED
DTCO.US/F  : COMPRESSIONAL-WAVE INTERVAL TRANSIT TIME ACOUSTIC SLOWNESS
DTSM.US/F  : SHEAR-WAVE INTERVAL TRANSIT TIME DELTA-T
~Params ----------------------------------------------------
~Other -----------------------------------------------------
~ASCII -----------------------------------------------------
# ...
 4136.00000    4.06950   -0.00260    6.67240    9.84350   -0.13640   -0.00010    2.95370  287.98580  229.15870   77.22780   58.56480   97.00090
 4136.50000    3.57180   -0.00350    7.01070    9.84020   -0.14280    0.00360    2.96680  664.65650  461.12850  207.37440   58.22090   95.91800
 4137.00000    3.57010   -0.00430    6.41830    9.84210   -0.15300    0.00730    2.98510 1130.72350  946.82400 1505.10740   58.31580   95.28260
 4137.50000    3.94600   -0.00440    5.90450    9.83630   -0.16190    0.01100    2.99190 1827.72920 1523.41480   -9999.25   58.13080   94.68240
 4138.00000    4.32340   -0.00400    5.66450    9.82530   -0.16500    0.01480    2.99610 3916.61400 1884.81210   -9999.25   57.69400   94.44740
 4138.50000    3.94830   -0.00370    5.88740    9.81550   -0.16630    0.01650    2.99850 8756.16410 1941.39780   -9999.25   57.37130   94.37940
 4139.00000    3.47920   -0.00320    6.08330    9.80780   -0.16770    0.01650    2.99960 11759.38180 1992.79250   -9999.25   57.29540   94.86610
 4139.50000    3.01470   -0.00160    6.05780    9.80050   -0.17010    0.01640    2.99960 12395.27050 1997.56370   -9999.25   57.52900   96.29310
 4140.00000    2.95210    0.00320    5.78700    9.79440   -0.16180    0.01640    2.93980 10508.03610 2002.34630   -9999.25   58.61270   98.49150
 4140.50000    4.83460    0.01210    5.51640    9.78770   -0.13320    0.01920    2.87410 4906.71830 1945.19690   -9999.25   60.99320  101.86220
 4141.00000   10.37930    0.02650    5.05390    9.77820   -0.10970    0.01390    2.81500 1597.98340 1138.51070   -9999.25   65.23780  105.87520
 4141.50000   18.12480    0.04650    4.47050    9.76880   -0.02790    0.00220    2.71430  562.30710  301.36930   -9999.25   69.06220  110.15130
 4142.00000   27.52120    0.07790    3.80650    9.75940    0.00630   -0.00140    2.65910  101.99440   57.91750  278.25100   73.00710  113.34260
 4142.50000   36.90910    0.09430    3.33340    9.74990    0.03510   -0.00080    2.63680   42.31370   33.57370   31.24780   76.47460  115.89460
 4143.00000   43.34430    0.10150    3.03980    9.73840    0.04860    0.00140    2.62110   17.55440   21.72550   15.45880   78.82580  117.51590
 4143.50000   44.52290    0.10350    3.00830    9.72650    0.05730    0.00310    2.61120   11.83390   16.13590    9.34480   80.26430  118.31390
 4144.00000   43.62700    0.10130    3.01430    9.71610    0.06180    0.00250    2.60310    9.81020   14.21720    7.87230   81.28730  118.85930
 4144.50000   42.19740    0.09340    3.02030    9.71220    0.06250    0.00220    2.62670    8.79700   12.75010    6.98360   82.44680  119.12560
 4145.00000   41.03960    0.08310    3.02630    9.70080    0.04260    0.00300    2.66620    8.22220   12.18500    6.07700   83.36830  118.55910
 4145.50000   38.73780    0.07450    3.09780    9.68640    0.01260    0.00510    2.73050    8.76070   11.98530    4.99110   82.47700  117.36020
 4146.00000   34.62510    0.06590    3.49130    9.67200   -0.02050    0.00610    2.79940   10.23760   13.82310    4.66430   80.13460  116.07800
 4146.50000   28.31620    0.06040    4.06860    9.65770   -0.06560    0.00640    2.83480   13.19850   16.55550    5.37030   78.26870  115.26170
 4147.00000   24.83610    0.06160    4.66550    9.64330   -0.06980    0.00670    2.81500   17.03440   20.10030    7.57160   77.05520  115.53470
 4147.50000   24.88870    0.06820    4.99840    9.63330   -0.05660    0.00520    2.77290   21.57160   24.40410   10.25520   78.11560  117.43200
 4148.00000   29.69380    0.07750    4.85880    9.62330   -0.02070    0.00240    2.74980   23.58140   27.94480   20.53150   81.24940  120.28310
 4148.50000   35.20500    0.08190    4.69760    9.61330   -0.02060   -0.00030    2.75770   23.18560   26.84730   34.95760   84.73300  121.53700
 4149.00000   35.01020    0.07960    4.45200    9.60040   -0.03500    0.00170    2.78410   19.43850   22.61310   27.49190   85.93590  121.64610
 4149.50000   31.34750    0.07230    4.41550    9.58730   -0.04990    0.00650    2.79410   17.19560   19.48610   17.28420   85.58470  119.56220
 4150.00000   25.71350    0.07150    4.44490    9.57380   -0.05480    0.01100    2.79460   16.89470   18.98840   12.37580   81.14030  116.85030
 4150.50000   24.91480    0.07330    4.37860    9.55700   -0.04380    0.01540    2.78540   18.16210   20.85520   12.08830   77.31750  115.95230
 4151.00000   26.83020    0.07760    4.00840    9.53360   -0.02260    0.01420    2.74160   19.50340   23.18370   15.83610   75.50060  116.54420
 4151.50000   30.79600    0.07420    3.75200    9.51030   -0.01500    0.01260    2.74480   20.31820   24.96760   25.41120   76.57930  117.62760
 4152.00000   32.61170    0.06560    3.60640    9.49570   -0.02890    0.01490    2.80140   20.52730   24.94380   26.23840   77.61090  117.46170
 4152.50000   30.50830    0.04970    3.76300    9.48840   -0.06060    0.01880    2.84430   20.52540   24.61200   17.21110   77.16510  116.58910
 4153.00000   26.58500    0.04340    4.06680    9.46320   -0.08540    0.02280    2.86480   20.74670   24.86830   12.55700   75.83910  115.53370
 4153.50000   22.90320    0.03990    4.55640    9.42320   -0.08580    0.02500    2.84420   22.61330   27.17080   11.73010   74.59550  115.54000
 4154.00000   22.82270    0.04530    4.42190    9.39900   -0.05710    0.01960    2.75440   25.09840   29.88990   12.97040   75.19470  116.73520
 4154.50000   26.34540    0.05800    4.06100    9.37960   -0.01270    0.01100    2.70460   25.71650   30.21810   16.14830   77.82770  118.00970
 4155.00000   33.44930    0.07250    3.59450    9.36030    0.02110    0.00500    2.66290   22.72560   28.15250   21.03620   81.51150  118.71000
 4155.50000   43.19290    0.07980    3.24430    9.34100    0.02930    0.00390    2.66990   17.59410   21.05730   20.87950   83.69530  118.16760
 4156.00000   46.66390    0.07450    3.12450    9.32170    0.01820    0.00410    2.71810   13.44230   16.28030   12.86760   82.55020  115.12940
 4156.50000   44.82580    0.05210    3.32560    9.30330   -0.01900    0.00490    2.77820   11.44020   14.27390    9.63560   79.36220  110.19130
 4157.00000   37.18250    0.04000    3.58940    9.28710   -0.05950    0.00970    2.86100   12.62310   14.72160    7.07050   73.60930  105.85530
 4157.50000   27.40880    0.03060    4.08050    9.26080   -0.09040    0.01660    2.88390   16.79010   20.86140    7.50330   69.16770  102.91520
 4158.00000   21.75870    0.02990    4.45090    9.23130   -0.09930    0.01830    2.85420   24.38680   31.68730   13.53980   66.09380  102.25910
 4158.50000   21.16410    0.03430    4.65670    9.20170   -0.07830    0.01420    2.81730   35.42050   41.04680   29.89620   65.52290  103.57090
 4159.00000   25.62580    0.04090    4.36100    9.17220   -0.05410    0.01010    2.80410   40.06970   47.64080   71.96620   65.89200  105.08910
 4159.50000   31.78360    0.03930    4.14790    9.13060   -0.05990    0.00630    2.82760   41.45250   48.72970  120.66950   66.48370  107.03860
 4160.00000   31.85930    0.03450    4.09490    9.10910   -0.07020    0.01280    2.86530   36.98440   45.37210   63.96630   66.93330  106.97420
 4160.50000   30.15570    0.02860    4.04200    9.10290   -0.09160    0.01930    2.87650   34.03260   41.36290   36.19910   67.11610  106.26110
 4161.00000   26.63620    0.02790    4.27330    9.08800   -0.09660    0.02260    2.86910   35.33210   40.32070   27.73530   67.03950  105.85880
 4161.50000   23.65930    0.02720    4.75460    9.05770   -0.08940    0.02050    2.85940   39.69090   44.16520   34.77640   67.21960  105.94460
 4162.00000   22.74720    0.02580    4.84800    9.03730   -0.08460    0.01720    2.85820   44.72310   50.80410   55.53060   67.83580  105.97660
 4162.50000   22.02660    0.02380    4.84930    9.01880   -0.08510    0.01500    2.86170   48.28700   57.76810   73.80410   68.08140  105.96650
 4163.00000   20.87250    0.01920    4.76610    9.00270   -0.08850    0.01550    2.86610   47.46720   62.06380   57.15670   67.40430  104.99610
 4163.50000   18.67330    0.01540    4.94370    8.98650   -0.09150    0.01670    2.87640   44.86630   60.06990   45.57700   66.32410  103.72530
