~Version ---------------------------------------------------
VERS.   2.0 : CWLS log ASCII Standard -VERSION 2.0
WRAP.    NO : One line per depth step
DLM . SPACE : Column Data Section Delimiter
~Well ------------------------------------------------------
STRT .F                  20.0 : START DEPTH
STOP .F                4951.0 : STOP DEPTH
STEP .F                   0.5 : STEP
NULL .               -9999.25 : NULL VALUE
COMP .                        : COMPANY
WELL .                        : WELL
FLD  .                        : FIELD
LOC  .                        : LOCATION
PROV .                        : PROVINCE
CNTY .                        : COUNTY
STAT .                        : STATE
CTRY .                        : COUNTRY
SRVC .                        : SERVICE COMPANY
DATE .                        : DATE
UWI  .                        : UNIQUE WELL ID
API  .                        : API NUMBER
SLAT .WGS84 2.496511236493099 : SURFACE LATITUDE
SLON .WGS84 7.203273054830007 : SURFACE LONGITUDE
DATUM.F                3193.0 : DEPTH DATUM ELEV
~Curve Information -----------------------------------------
DEPT.F     : 
GRD .GAPI  : GAMMA RAY
NPHI.DEC   : NEUTRON POROSITY LIMESTONE
PE  .B/E   : PHOTOELECTRIC FACTOR
CALD.IN    : CALIPER FDC LOG
DPHI.DEC   : DENSITY POROSITY LIMESTONE
DRHO.G/C3  : DENSITY CORRECTION
RHOB.G/C3  : BULK DENSITY
LLD .OHMM  : LATEROLOG LOG DEEP
LLS .OHMM  : LATEROLO LOG SHALLOW
MSFL.OHMM  : MICRO SPHERICALLY FOCUSED
DTCO.US/F  : COMPRESSIONAL-WAVE INTERVAL TRANSIT TIME ACOUSTIC SLOWNESS
DTSM.US/F  : SHEAR-WAVE INTERVAL TRANSIT TIME DELTA-T
~Params ----------------------------------------------------
~Other -----------------------------------------------------
~ASCII -----------------------------------------------------
# ...
 4780.00000    8.08300    0.06220    3.10250    8.19780   -0.07800    0.10820    2.86120  300.54090  209.09480   42.87610   53.18840   89.76510
 4780.50000    7.61630    0.05950    3.32630    8.30550   -0.08680    0.11380    2.86930  404.45610  264.60400   47.20270   52.53540   89.75870
 4781.00000    6.92280    0.05660    3.56410    8.41940   -0.09200    0.12050    2.86320  544.30100  349.12730   45.17210   51.93110   89.72490
 4781.50000    6.30910    0.05690    3.77830    8.28480   -0.08670    0.12810    2.85380  697.54140  473.23900   40.13860   52.13160   89.91400
 4782.00000    6.30820    0.05830    3.75960    8.20780   -0.08450    0.14730    2.86470  844.99080  584.94160   34.26080   52.64100   90.14160
 4782.50000    6.50950    0.05960    3.56280    8.21680   -0.09380    0.17030    2.89320 1023.60820  687.39650   28.05960   53.42220   90.28670
 4783.00000    6.71170    0.06100    3.26010    8.22580   -0.11270    0.18930    2.91970 1086.73940  767.39900   28.00590   54.13970   90.16370
 4783.50000    6.83170    0.06450    3.14240    8.28810   -0.12130    0.17360    2.91680 1051.15150  744.29300   34.11900   54.44990   89.97650
 4784.00000    6.63040    0.06970    3.22160    8.33060   -0.11500    0.14850    2.90060  900.49110  683.74880   47.76140   54.19420   89.76030
 4784.50000    5.85940    0.07450    3.35370    8.35850   -0.09870    0.11410    2.86250  770.44750  608.06280   74.72230   53.76110   89.48440
 4785.00000    5.59190    0.07740    3.51150    8.29580   -0.08240    0.10650    2.83920  659.18440  515.84070   91.69520   53.73050   89.13220
 4785.50000    5.92710    0.08030    3.64560    8.23430   -0.07310    0.10650    2.83750  557.51010  413.20190  105.38100   53.57770   89.21090
 4786.00000    6.34050    0.08430    3.72740    8.17920   -0.07600    0.12330    2.84410  471.34840  343.42160  112.06270   53.65480   89.84750
 4786.50000    6.40990    0.09160    3.71280    8.17050   -0.08130    0.14460    2.85790  384.81120  290.68720  103.90150   54.33210   90.75610
 4787.00000    6.31920    0.10570    3.56350    8.19880   -0.08640    0.16040    2.86130  289.30770  217.02720   91.52750   55.78530   91.69340
 4787.50000    6.47750    0.12230    3.35140    8.27420   -0.08500    0.15720    2.84690  214.17770  161.89100   62.79030   57.27480   93.03820
 4788.00000    6.96980    0.13910    3.25580    8.34190   -0.07180    0.13550    2.81980  155.35800  113.32810   38.05550   58.33480   93.91400
 4788.50000    7.46200    0.14590    3.21890    8.36290   -0.05540    0.10840    2.79010  121.23440   82.15490   22.42620   59.59610   94.70940
 4789.00000    7.97430    0.14960    3.16940    8.38510   -0.03760    0.08530    2.76270   97.59240   62.73840   15.09550   60.40020   95.18940
 4789.50000    8.55620    0.15560    3.07950    8.38890   -0.02280    0.07210    2.75740   78.68740   52.85400   11.65800   60.62490   95.64870
 4790.00000    9.13810    0.16670    2.98960    8.36170   -0.01120    0.06070    2.73280   68.92430   47.00970   14.63380   60.44860   96.24740
 4790.50000    9.71990    0.18270    2.92560    8.32650    0.00120    0.04960    2.70200   58.95180   41.37290   20.58280   60.27230   96.99740
 4791.00000   10.19900    0.19380    2.96780    8.30440    0.01720    0.05230    2.67040   47.25760   34.87130   20.64540   60.47830   97.86490
 4791.50000   10.15470    0.19540    3.06370    8.29030    0.03210    0.05510    2.64510   37.88310   29.14720   13.14050   60.75490   98.87270
 4792.00000    9.44510    0.18920    3.06260    8.27000    0.04200    0.05960    2.63890   30.80630   24.43750    8.36380   60.82560   99.63400
 4792.50000    8.49880    0.18950    2.95220    8.27070    0.03350    0.06850    2.66720   27.30470   20.98120    5.12730   60.94840  100.39080
 4793.00000    7.84210    0.19260    2.84190    8.30410    0.01370    0.07730    2.70770   24.20100   18.34330    3.51620   61.28900  100.85280
 4793.50000    7.62060    0.19610    2.85110    8.34050   -0.00600    0.07930    2.72990   21.73400   16.95290    2.70290   62.05760  101.28750
 4794.00000    7.62060    0.20160    3.00190    8.35080   -0.01000    0.06460    2.71550   19.98920   15.96040    2.94620   62.67360  102.19880
 4794.50000    7.62060    0.20760    3.18470    8.35460    0.01060    0.04800    2.68120   18.59170   15.09030    4.01490   63.10040  103.23710
 4795.00000    7.33490    0.21230    3.21900    8.38430    0.02300    0.02970    2.66170   17.01960   13.67050    5.57750   63.96480  104.86150
 4795.50000    7.05650    0.21580    3.11620    8.36090    0.03710    0.02400    2.64540   15.25310   11.75370    4.92170   65.67100  106.53440
 4796.00000    6.92010    0.21820    2.96930    8.33750    0.04640    0.02360    2.63110   13.59200   10.80810    3.70050   67.62140  107.75650
 4796.50000    7.16020    0.21720    2.80970    8.32350    0.05030    0.02320    2.60160   12.10180    9.84000    2.75230   68.33800  108.73240
 4797.00000    7.31680    0.21660    2.88880    8.32420    0.07330    0.02340    2.57110   11.85460    9.20400    2.39630   68.42000  108.94000
 4797.50000    7.39920    0.21970    2.97660    8.31280    0.09030    0.02530    2.54140   11.67150    8.94180    2.30630   68.22510  109.08280
 4798.00000    7.33160    0.22370    3.06360    8.30910    0.10670    0.02720    2.52820   11.25900    8.66630    2.29300   68.24470  109.30080
 4798.50000    7.07790    0.22850    3.06100    8.32890    0.10800    0.02910    2.52770   10.78610    8.38840    1.99460   68.73430  109.52430
 4799.00000    6.86550    0.22850    2.96410    8.33910    0.10530    0.03400    2.53540   10.33250    8.09840    1.63370   69.29660  109.70420
 4799.50000    6.73550    0.22850    2.86630    8.32270    0.09490    0.03950    2.55070   10.17740    7.97650    1.38990   69.33140  109.35530
 4800.00000    6.73720    0.23020    2.85290    8.31460    0.08680    0.04160    2.56820   10.39610    7.96910    1.35780   68.52660  109.08850
 4800.50000    6.88710    0.23200    2.83950    8.33040    0.07890    0.04180    2.58490   10.78850    8.31680    1.41250   68.01590  108.84060
 4801.00000    7.17670    0.23280    2.88890    8.37050    0.06820    0.04120    2.60350   11.16910    8.76650    1.47590   68.11870  108.67160
 4801.50000    7.46630    0.22720    2.92080    8.35420    0.06330    0.04070    2.60250   11.90630    9.23340    1.54060   68.41690  108.57900
 4802.00000    7.50980    0.21710    2.91080    8.32140    0.06550    0.04430    2.59890   11.90650    9.21020    1.77780   68.67890  108.40830
 4802.50000    7.03930    0.21230    2.88850    8.26010    0.06800    0.04880    2.59320   11.45670    8.94080    2.21610   68.66480  108.08760
 4803.00000    6.47020    0.21160    2.89410    8.22850    0.07050    0.05540    2.58790   10.64090    8.61600    2.39080   68.04070  107.38000
 4803.50000    6.05740    0.21550    2.94890    8.20380    0.07240    0.05860    2.58790    9.82580    7.89350    2.02840   67.53460  106.31530
 4804.00000    6.00790    0.21980    2.96810    8.27150    0.07250    0.06180    2.59040    9.19940    7.34410    1.87250   67.28950  105.26250
 4804.50000    6.23190    0.22500    2.96640    8.29950    0.07120    0.06510    2.59970    8.70990    6.94400    1.79060   67.01300  104.22280
 4805.00000    6.74090    0.22490    2.95480    8.27390    0.06130    0.06820    2.63450    9.23690    6.90360    1.74280   65.99110  102.59210
 4805.50000    7.05820    0.21470    2.94120    8.24920    0.03640    0.07130    2.70020   10.86090    7.48840    1.68420   64.37530  100.55230
 4806.00000    6.90740    0.18830    2.92760    8.25600   -0.00430    0.08620    2.75350   13.59230    8.60570    1.88710   62.48290   99.48700
 4806.50000    6.78360    0.16250    2.91400    8.26620   -0.03370    0.10330    2.79810   18.08150   11.53690    2.44330   61.16970   98.69020
 4807.00000    6.81780    0.14280    2.92250    8.27240   -0.04920    0.11180    2.78600   24.59500   15.53250    4.82610   60.76740   98.71340
 4807.50000    6.85200    0.13920    3.01460    8.24300   -0.03650    0.11420    2.76710   32.69070   20.38480   12.55130   61.22270   99.64030
