~Version ---------------------------------------------------
VERS.   2.0 : CWLS log ASCII Standard -VERSION 2.0
WRAP.    NO : One line per depth step
DLM . SPACE : Column Data Section Delimiter
~Well ------------------------------------------------------
STRT .F                  20.0 : START DEPTH
STOP .F                4951.0 : STOP DEPTH
STEP .F                   0.5 : STEP
NULL .               -9999.25 : NULL VALUE
COMP .                        : COMPANY
WELL .                        : WELL
FLD  .                        : FIELD
LOC  .                        : LOCATION
PROV .                        : PROVINCE
CNTY .                        : COUNTY
STAT .                        : STATE
CTRY .                        : COUNTRY
SRVC .                        : SERVICE COMPANY
DATE .                        : DATE
UWI  .                        : UNIQUE WELL ID
API  .                        : API NUMBER
SLAT .WGS84 2.496511236493099 : SURFACE LATITUDE
SLON .WGS84 7.203273054830007 : SURFACE LONGITUDE
DATUM.F                3193.0 : DEPTH DATUM ELEV
~Curve Information -----------------------------------------
DEPT.F     : 
GRD .GAPI  : GAMMA RAY
NPHI.DEC   : NEUTRON POROSITY LIMESTONE
PE  .B/E   : PHOTOELECTRIC FACTOR
CALD.IN    : CALIPER FDC LOG
DPHI.DEC   : DENSITY POROSITY LIMESTONE
DRHO.G/C3  : DENSITY CORRECTION
RHOB.G/C3  : BULK DENSITY
LLD .OHMM  : LATEROLOG LOG DEEP
LLS .OHMM  : LATEROLO LOG SHALLOW
MSFL.OHMM  : MICRO SPHERICALLY FOCUSED
DTCO.US/F  : COMPRESSIONAL-WAVE INTERVAL TRANSIT TIME ACOUSTIC SLOWNESS
DTSM.US/F  : SHEAR-WAVE INTERVAL TRANSIT TIME DELTA-T
~Params ----------------------------------------------------
~Other -----------------------------------------------------
~ASCII -----------------------------------------------------
# ...
 3492.00000   11.70740    0.16720    3.58740    8.91220    0.06340    0.04390    2.59320  184.92070  485.66420 1176.17380   76.18250  121.75280
 3492.50000   15.72070    0.17660    2.96880    8.98630    0.10040    0.03990    2.55920   47.21020  103.51860   30.61450   85.16970  117.74210
 3493.00000   17.94140    0.09650    2.83470    9.16490    0.09410    0.04690    2.56060   12.68300   28.93860    5.51760   90.76990  111.33370
 3493.50000   16.53940    0.05340    2.86750    9.14090    0.04550    0.05780    2.73010    5.70770   10.48210    2.59120   84.91910  106.59540
 3494.00000   12.38130    0.01890    3.22090    8.91220   -0.02770    0.07120    2.80450    6.26440    9.66300    1.68050   73.58620  104.59850
 3494.50000    7.89110    0.00370    4.46000    8.85900   -0.14040    0.09280    2.95170   11.22610   17.52590    1.29340   67.85930  104.79550
 3495.00000    3.97670   -0.00140    5.37830    8.82200   -0.16120    0.08980    2.98710   23.35590   37.21940    1.82050   62.24280  111.15990
 3495.50000    3.45000   -0.00460    5.42810    8.81500   -0.15460    0.08480    2.97850   51.59190   78.06930    8.10880   59.14010  122.42790
 3496.00000    3.35350   -0.00570    5.22280    8.80790   -0.16340    0.08850    2.99070  125.83280  184.98910   50.98900   58.78270  134.67740
 3496.50000    3.09650   -0.00620    5.01090    8.80570   -0.17100    0.09790    3.00290  923.50260  877.21040  231.52180   61.59780  148.83720
 3497.00000    2.83950   -0.00700    5.07420    8.81170   -0.17210    0.10620    3.00670 2803.01490 1579.80980  283.99630   65.13110  158.39780
 3497.50000    2.55040   -0.00740    5.28550    8.83330   -0.16960    0.10530    3.00160 6402.34770 1910.28590  366.36110   70.68010  158.03120
 3498.00000    2.25660   -0.00800    5.54960    8.87590   -0.16440    0.09880    2.99600 12444.41600 1954.14590  389.16880   83.22210  151.98830
 3498.50000    2.25150   -0.00790    5.69300    8.92170   -0.15830    0.09840    2.97930 22701.51170 1988.51180  417.58940   87.43550  143.06290
 3499.00000    2.48600   -0.00610    5.78060    8.92130   -0.14210    0.10070    2.96020 41412.88670 1998.18880  793.95870   91.52890  133.76450
 3499.50000    2.74560   -0.00030    5.75800    8.93330   -0.12560    0.09640    2.93190 43787.27340 1987.46640 1920.71420   90.70380  125.71650
 3500.00000    3.29850    0.01360    5.47980    8.94530   -0.10770    0.09390    2.89460 20849.70510 1960.09390 2013.25840   85.53970  126.00510
 3500.50000    4.42630    0.03480    5.22500    8.95370   -0.08410    0.09960    2.83170 4301.46780 1963.09400 2016.94670   88.72940  135.06800
 3501.00000    6.19020    0.07380    4.72990    8.95870   -0.03000    0.11680    2.75410  893.18920 1479.61790 2018.38550  109.16850  145.57140
 3501.50000   14.12000    0.11070    3.75510    8.97550    0.07380    0.13260    2.58310  174.92080  314.77630 2019.79650  125.29520  154.51610
 3502.00000   21.97930    0.16440    3.20980    9.03550    0.22700    0.14780    2.30140   37.38490   59.62180 1680.93120  132.89540  155.57410
 3502.50000   30.31470    0.25220    2.85590    9.26530    0.28850    0.15280    2.14920   15.19820   24.87200    5.27080  128.31230  151.71990
 3503.00000   32.81200    0.25920    2.52130   10.76770    0.38550    0.15200    2.03170    7.96420   13.32420    1.50150  134.53310  145.91110
 3503.50000   31.24700    0.14190    2.33620   13.03270    0.43450    0.14220    1.95710    4.40640    8.90440    0.72960  134.08070  140.47570
 3504.00000   26.12030    0.04990    2.17410   13.33700    0.45150    0.12450    1.94760    4.29410    7.05960    0.51840  120.71180  139.54850
 3504.50000   20.24020    0.01160    2.23860   12.04480    0.44550    0.10190    1.94490    7.30080   10.43370    0.43060  104.27040  136.41740
 3505.00000   14.10770   -0.00600    2.57350   11.10370    0.42970    0.07930    1.97560   13.13840   19.75260    0.46340   93.69740  134.22710
 3505.50000    9.75230   -0.00940    3.09340   11.08300    0.40640    0.06070    2.00570   24.36930   41.56700    0.62050   92.06630  128.19190
 3506.00000    5.77550   -0.01080    3.73990   11.05570    0.39170    0.04240    2.03570   49.09950   80.92170    1.08660   90.63830  126.04870
 3506.50000    4.41750   -0.00990    4.22070   11.01080    0.38950    0.02870    2.04440   98.92640  159.47440    5.08120   90.68400  125.70400
 3507.00000    4.16960   -0.00570    4.33900   10.95990    0.38440    0.02560    2.04910  185.50190  262.84740   31.69260   91.91470  124.37110
 3507.50000    4.36140    0.00030    4.29040   10.83270    0.36910    0.02250    2.06500  246.00330  379.59310   83.08400   92.22130  121.75700
 3508.00000    5.13470    0.00630    4.21700   10.72860    0.33820    0.02640    2.11230  211.65480  292.01790  137.22400   91.99420  118.19830
 3508.50000    5.98110    0.01160    4.14830   10.29070    0.30820    0.03150    2.19200   91.50580  138.23900   51.31890   89.14270  114.81810
 3509.00000    6.03490    0.01410    4.16530    9.63110    0.21150    0.04370    2.39250   43.05830   65.06930   23.21250   83.65360  109.88230
 3509.50000    5.62470    0.01130    4.24120    9.39540    0.14330    0.07380    2.51410   45.16190   60.31910   12.44550   76.31270  108.64120
 3510.00000    5.24440    0.00550    4.28100    9.22910    0.10880    0.11050    2.39760   56.81900   72.53070   10.26170   71.00880  109.69460
 3510.50000    5.24340   -0.00050    4.16880    9.19840    0.21520    0.12950    2.31720   73.13680   98.96490   11.74820   69.39280  111.86620
 3511.00000    5.37560   -0.00640    3.98310    9.38910    0.27310    0.13310    2.23400   93.65450  121.34420   17.30390   70.83190  116.43400
 3511.50000    5.23130   -0.00800    3.91690    9.86510    0.33500    0.13200    2.16130  115.63900  147.22250   15.73030   76.29020  120.70200
 3512.00000    4.81050   -0.00950    3.94520   10.25560    0.34670    0.12100    2.12210  142.78390  167.78630    9.21220   82.00570  123.32290
 3512.50000    4.38970   -0.00870    4.02960   10.52160    0.35310    0.09620    2.10510  170.62110  187.53570    6.40520   87.09180  125.73500
 3513.00000    4.50220   -0.00600    4.12860   10.65550    0.36580    0.06650    2.09350  190.63400  209.60980    8.80780   90.86520  128.64660
 3513.50000    4.77780   -0.00320    4.17830   10.73750    0.38060    0.04100    2.05840  212.99440  234.28210   18.41560   91.63780  131.36630
 3514.00000    5.49510   -0.00090    4.21150   10.69090    0.38660    0.03360    2.05080  219.89580  255.09700   36.09360   92.20690  133.88280
 3514.50000    6.12870    0.00100    4.24460   10.58380    0.38640    0.02670    2.05000  201.93130  257.09890   45.38800   92.51260  135.41460
 3515.00000    6.53630    0.00110    4.27030   10.65940    0.38390    0.02990    2.05570  177.60930  226.98410   59.79900   92.81840  135.95750
 3515.50000    7.63010    0.00000    4.20940   10.78780    0.38160    0.03400    2.06030  166.16070  201.72890   52.47590   92.85800  135.57520
 3516.00000    8.56010   -0.00150    4.10210   10.76950    0.37960    0.03810    2.06390  176.48470  212.60530   42.88530   92.53340  134.07860
 3516.50000    9.09310   -0.00160    3.96050   10.69450    0.37630    0.04470    2.06910  201.43110  255.89990   42.64610   91.52890  131.99620
 3517.00000    8.37910   -0.00140    3.89590   10.57850    0.36570    0.05680    2.08640  230.80180  309.12680   47.65130   89.66120  128.52870
 3517.50000    7.45060   -0.00220    3.90710   10.30030    0.35320    0.07210    2.10980  261.07370  367.76440   44.80270   87.91700  123.79470
 3518.00000    6.85950   -0.00470    3.97110   10.01330    0.35050    0.08340    2.11260  246.05430  362.44130   29.56360   86.96530  120.13370
 3518.50000    6.80710   -0.00660    4.06360    9.94400    0.35940    0.07930    2.09100  182.36270  283.71120   12.72640   85.74280  117.48760
 3519.00000    6.58170   -0.00810    4.15620   10.14440    0.37420    0.07200    2.07080  135.15780  200.43050    7.07450   85.09640  115.71180
 3519.50000    6.17540   -0.00950    4.24870   10.71440    0.38740    0.06200    2.05250  119.37240  151.80970    4.44140   84.92800  114.14020
