~Version ---------------------------------------------------
VERS.   2.0 : CWLS log ASCII Standard -VERSION 2.0
WRAP.    NO : One line per depth step
DLM . SPACE : Column Data Section Delimiter
~Well ------------------------------------------------------
STRT .F                  20.0 : START DEPTH
STOP .F                4951.0 : STOP DEPTH
STEP .F                   0.5 : STEP
NULL .               -9999.25 : NULL VALUE
COMP .                        : COMPANY
WELL .                        : WELL
FLD  .                        : FIELD
LOC  .                        : LOCATION
PROV .                        : PROVINCE
CNTY .                        : COUNTY
STAT .                        : STATE
CTRY .                        : COUNTRY
SRVC .                        : SERVICE COMPANY
DATE .                        : DATE
UWI  .                        : UNIQUE WELL ID
API  .                        : API NUMBER
SLAT .WGS84 2.496511236493099 : SURFACE LATITUDE
SLON .WGS84 7.203273054830007 : SURFACE LONGITUDE
DATUM.F                3193.0 : DEPTH DATUM ELEV
~Curve Information -----------------------------------------
DEPT.F     : 
GRD .GAPI  : GAMMA RAY
NPHI.DEC   : NEUTRON POROSITY LIMESTONE
PE  .B/E   : PHOTOELECTRIC FACTOR
CALD.IN    : CALIPER FDC LOG
DPHI.DEC   : DENSITY POROSITY LIMESTONE
DRHO.G/C3  : DENSITY CORRECTION
RHOB.G/C3  : BULK DENSITY
LLD .OHMM  : LATEROLOG LOG DEEP
LLS .OHMM  : LATEROLO LOG SHALLOW
MSFL.OHMM  : MICRO SPHERICALLY FOCUSED
DTCO.US/F  : COMPRESSIONAL-WAVE INTERVAL TRANSIT TIME ACOUSTIC SLOWNESS
DTSM.US/F  : SHEAR-WAVE INTERVAL TRANSIT TIME DELTA-T
~Params ----------------------------------------------------
~Other -----------------------------------------------------
~ASCII -----------------------------------------------------
# ...
 4024.00000   23.11810    0.05190    4.40260    9.74080    0.03000    0.06310    2.66080  129.96160  153.85430   15.51080   80.53460  116.39260
 4024.50000   19.98430    0.03810    4.68900    9.77390   -0.06890    0.07250    2.82960  143.16260  179.61000   18.91280   77.00690  113.44010
 4025.00000   17.79930    0.02440    5.08190    9.80300   -0.12580    0.06120    2.92790  174.44890  214.36450   25.84650   73.38710  110.68680
 4025.50000   15.80020    0.01640    5.36890    9.81220   -0.12580    0.02530    2.92820  222.31920  255.84410   35.92280   70.43580  108.05110
 4026.00000   14.27280    0.01160    5.43670    9.82140   -0.12990    0.02520    2.92990  283.32570  314.07690   61.87150   67.26030  106.20430
 4026.50000   12.80940    0.01070    5.39300    9.82890   -0.14130    0.02920    2.94590  361.07280  385.66040  169.13930   65.19150  105.08470
 4027.00000   11.25010    0.01200    5.18830    9.82930   -0.14570    0.03000    2.96540  460.15460  414.70790  420.25000   64.34510  104.08080
 4027.50000   10.24350    0.01470    4.82320    9.83780   -0.12780    0.02790    2.94480  504.02320  384.34660  926.84720   63.92080  103.07110
 4028.00000   12.73270    0.02030    4.52870    9.84270   -0.05840    0.02330    2.84040  450.32230  269.43740 1840.46830   64.58610  102.98980
 4028.50000   19.44660    0.02660    4.21840    9.84650    0.01100    0.00920    2.63560  339.71450  183.95980 1999.07100   66.13560  104.35680
 4029.00000   27.75070    0.03130    3.72870    9.84620    0.09530   -0.00330    2.49140  253.06510  125.56670 1995.97640   69.85850  107.29090
 4029.50000   33.91370    0.03080    3.36630    9.89150    0.17530   -0.00270    2.46250  187.35150   98.04230 1992.88660   74.98570  110.99280
 4030.00000   38.85270    0.03040    3.21580    9.96250    0.20040   -0.00180    2.35270  183.18060   93.72940  626.77890   79.47700  113.18940
 4030.50000   38.85040    0.03320    3.08130   10.25520    0.20950    0.00450    2.36180  228.52060  136.21010   34.25110   80.41370  114.48290
 4031.00000   38.07030    0.04260    3.05470   10.14640    0.19510    0.01070    2.37520  283.21130  197.97730   12.27830   79.88000  114.17610
 4031.50000   38.77890    0.05980    3.02810   10.27270    0.17860    0.01680    2.40850  310.56890  330.76010    4.61090   79.83130  115.30320
 4032.00000   40.53920    0.07910    3.01620   10.70920    0.16430    0.02280    2.44780  306.44070  349.55490    2.65430   81.58550  117.62730
 4032.50000   43.54580    0.10010    3.01490   10.56110    0.14690    0.02760    2.47370  256.49060  355.86930    1.49840   84.26620  120.22190
 4033.00000   46.60520    0.11150    3.03290    9.95420    0.12200    0.02700    2.51660  156.94210  224.57530    1.36340   87.58490  122.66590
 4033.50000   47.83380    0.08780    3.12990    9.88040    0.08020    0.02640    2.61360  103.18640  131.07640    1.30960   90.64590  125.12600
 4034.00000   43.39330    0.05020    3.33800    9.82030    0.05970    0.03080    2.61390   81.37450   80.59220    1.34400   91.60020  126.28820
 4034.50000   35.23430    0.01420    3.61870    9.82460    0.11710    0.02790    2.53460   79.42170   65.90930    1.97590   89.59480  122.94260
 4035.00000   23.68870    0.00250    3.78040    9.85110    0.18170    0.01630    2.34470   84.59740   65.67650    3.52670   86.69000  119.73890
 4035.50000   14.49680   -0.00220    3.70900   10.25090    0.23790    0.01310    2.27180   91.42920   81.27540    4.79160   83.32190  118.65710
 4036.00000    8.10450   -0.00180    3.69830   10.09240    0.23670    0.01740    2.29840  104.51990   96.52580    3.74070   81.62900  120.05440
 4036.50000    6.32020   -0.00200    3.77770    9.85100    0.19310    0.02680    2.47340  143.83410  112.21420    1.95190   82.21920  121.69710
 4037.00000    5.12700   -0.00300    4.08700    9.76700    0.08580    0.03900    2.60350  222.35910  180.07050    1.16610   83.67330  119.77770
 4037.50000    4.72920   -0.00230    4.59420    9.74990    0.03300    0.03750    2.66190  405.79940  313.11490    0.99610   81.59500  113.00520
 4038.00000    4.40220    0.00250    4.97980    9.74390    0.02460    0.02580    2.66800  765.26640  566.55020    1.73310   77.92770  108.31880
 4038.50000    4.38760    0.00800    5.06100    9.74130    0.02680    0.01200    2.66600 1604.05590 1163.26160    4.94940   71.79840  104.52200
 4039.00000    4.37290    0.00670    5.08060    9.73860    0.02080    0.00990    2.67520 3051.46920   -9999.25  108.71740   68.97130  104.12560
 4039.50000    4.35820    0.00360    5.19900    9.73600   -0.00320    0.01060    2.71610 6631.05030   -9999.25 1890.31870   67.29950  103.48190
 4040.00000    4.37910    0.00060    5.38120    9.73330   -0.03340    0.01250    2.76910 20924.97270   -9999.25   -9999.25   65.75520  102.03790
 4040.50000    4.40470   -0.00250    5.52550    9.73070   -0.08530    0.01840    2.89870 40325.46480   -9999.25   -9999.25   63.47370  100.38610
 4041.00000    4.38120   -0.00400    5.60800    9.72810   -0.13020    0.02430    2.92870 45298.02730   -9999.25   -9999.25   61.18470   98.27480
 4041.50000    4.29540   -0.00450    5.69050    9.72540   -0.16270    0.02960    2.99560 51182.91800   -9999.25   -9999.25   59.34330   97.06460
 4042.00000    4.45970   -0.00430    5.72320    9.72070   -0.17220    0.03030    3.00910 58584.04300   -9999.25   -9999.25   58.03560   96.40380
 4042.50000    4.90940   -0.00360    5.66510    9.71770   -0.17090    0.02930    3.01150 62732.83200   -9999.25   -9999.25   57.72630   96.36720
 4043.00000    5.86010   -0.00060    5.70820    9.71930   -0.15510    0.02130    2.98600 33571.92190   -9999.25   -9999.25   58.46060   96.97940
 4043.50000    8.61080    0.00500    5.48040    9.70420   -0.12480    0.01460    2.91520 13384.63280   -9999.25   -9999.25   59.75750   98.53270
 4044.00000   12.07000    0.01330    4.94660    9.70740   -0.09980    0.01120    2.88290 2640.03470   -9999.25   -9999.25   62.17620  100.38440
 4044.50000   15.61280    0.02510    4.45200    9.70950   -0.08470    0.01100    2.84640  956.39870  629.76890 1574.64500   64.58910  103.32400
 4045.00000   20.27490    0.04410    4.05680    9.70840   -0.08220    0.01340    2.85740   65.86450  127.38540  203.11370   67.51110  106.58220
 4045.50000   21.41560    0.03370    3.83910    9.70940   -0.09590    0.02070    2.90440   26.50680   37.53140   54.27740   70.70100  109.59870
 4046.00000   18.64940    0.01660    4.25490    9.71430   -0.12530    0.02930    2.93850   23.88860   26.59360   25.47310   72.67450  111.16310
 4046.50000   14.90000    0.00280    5.11360    9.72150   -0.15080    0.03140    2.97110   38.62570   56.47410   16.39310   72.00620  108.93310
 4047.00000   10.56640   -0.00390    6.11320    9.72880   -0.16860    0.03350    2.99570   73.50910  108.91870   14.11260   68.80090  104.10800
 4047.50000    6.48500   -0.00560    6.38600    9.73280   -0.16910    0.03240    3.00490  142.45120  209.53970   16.33450   63.82070   99.24200
 4048.00000    4.59890   -0.00570    6.12070    9.73390   -0.17020    0.03080    3.00680  237.65240  326.28240   77.85380   60.85840   96.30930
 4048.50000    3.08470   -0.00550    5.65360    9.73780   -0.17340    0.02830    3.00980  368.21530  552.78060  425.65590   59.42610   95.10690
 4049.00000    2.91020   -0.00220    5.55690    9.74880   -0.17130    0.02410    3.00540  762.44810 1072.85950 2014.01780   59.33990   94.46000
 4049.50000    3.55660    0.00190    5.25010    9.75820   -0.14720    0.01530    2.91660 1626.52080 1903.89430 2016.52260   59.51780   93.91830
 4050.00000    5.62700    0.00590    4.76420    9.77080   -0.10460    0.00930    2.82790  631.91160 1114.30420 1574.19730   59.74440   93.72830
 4050.50000   13.03740    0.01750    4.27760    9.78350   -0.06200    0.00380    2.73910  165.17550  319.88630  582.64080   59.98130   93.62000
 4051.00000   21.80190    0.03230    3.96900    9.79620   -0.02230    0.00190    2.72610   61.42000  146.89740   82.37200   60.21810   93.83810
 4051.50000   29.71310    0.04260    3.69650    9.80880   -0.00660    0.00290    2.72990   34.32140   75.01990   34.89750   60.45490   94.62880
