~Version ---------------------------------------------------
VERS.   2.0 : CWLS log ASCII Standard -VERSION 2.0
WRAP.    NO : One line per depth step
DLM . SPACE : Column Data Section Delimiter
~Well ------------------------------------------------------
STRT .F                  20.0 : START DEPTH
STOP .F                4951.0 : STOP DEPTH
STEP .F                   0.5 : STEP
NULL .               -9999.25 : NULL VALUE
COMP .                        : COMPANY
WELL .                        : WELL
FLD  .                        : FIELD
LOC  .                        : LOCATION
PROV .                        : PROVINCE
CNTY .                        : COUNTY
STAT .                        : STATE
CTRY .                        : COUNTRY
SRVC .                        : SERVICE COMPANY
DATE .                        : DATE
UWI  .                        : UNIQUE WELL ID
API  .                        : API NUMBER
SLAT .WGS84 2.496511236493099 : SURFACE LATITUDE
SLON .WGS84 7.203273054830007 : SURFACE LONGITUDE
DATUM.F                3193.0 : DEPTH DATUM ELEV
~Curve Information -----------------------------------------
DEPT.F     : 
GRD .GAPI  : GAMMA RAY
NPHI.DEC   : NEUTRON POROSITY LIMESTONE
PE  .B/E   : PHOTOELECTRIC FACTOR
CALD.IN    : CALIPER FDC LOG
DPHI.DEC   : DENSITY POROSITY LIMESTONE
DRHO.G/C3  : DENSITY CORRECTION
RHOB.G/C3  : BULK DENSITY
LLD .OHMM  : LATEROLOG LOG DEEP
LLS .OHMM  : LATEROLO LOG SHALLOW
MSFL.OHMM  : MICRO SPHERICALLY FOCUSED
DTCO.US/F  : COMPRESSIONAL-WAVE INTERVAL TRANSIT TIME ACOUSTIC SLOWNESS
DTSM.US/F  : SHEAR-WAVE INTERVAL TRANSIT TIME DELTA-T
~Params ----------------------------------------------------
~Other -----------------------------------------------------
~ASCII -----------------------------------------------------
# ...
 3632.00000    7.02090   -0.00270    3.62210   10.64780    0.31030    0.04270    2.21750   65.03800  126.59420   19.12320   84.55380  105.50400
 3632.50000    6.90980   -0.00290    3.52910    9.99630    0.20360    0.04460    2.41080   38.16690   79.58300   12.89700   81.56070  103.09600
 3633.00000    6.17360   -0.00320    3.68870    9.67350    0.11680    0.04650    2.52940   37.69220   63.83050    6.87660   79.54270  103.64500
 3633.50000    4.80360   -0.00340    4.37420    9.55940    0.07400    0.03850    2.58880   77.52810   87.02020    4.16970   78.52320  104.74840
 3634.00000    3.43350   -0.00330    4.93360    9.45970    0.05110    0.02810    2.63040  216.45050  143.18440    4.51180   73.57990  104.40250
 3634.50000    2.79670   -0.00200    5.56070    9.35990    0.01870    0.02660    2.66360  477.71800  350.08190   12.29170   70.17220  103.99380
 3635.00000    2.84290   -0.00060    5.95330    9.27130   -0.02420    0.02520    2.76280  965.31210  715.59720   98.44870   69.35190  103.05370
 3635.50000    3.11090    0.00120    6.13390    9.17630   -0.07560    0.03100    2.86110 1768.14480 1277.31630  393.34060   68.53170  102.46520
 3636.00000    2.82980    0.00440    5.97460    9.10480   -0.09400    0.03400    2.90320 7927.38770 1919.53470 1402.73930   68.89920  102.72570
 3636.50000    2.96360    0.00800    5.66660    9.07380   -0.11240    0.03590    2.88010 8256.47660 1926.10050 1933.09620   70.41990  103.25200
 3637.00000    4.65280    0.01910    5.10200    9.09420   -0.06790    0.03040    2.83960 2448.12720 1836.41410 1937.64040   73.22430  104.15540
 3637.50000   10.51010    0.04560    4.56180    9.10310   -0.05010    0.02610    2.79130  199.34270  709.37110 1453.71700   76.51010  104.36770
 3638.00000   17.30250    0.05770    4.25150    9.10790   -0.04300    0.02180    2.78970   48.42380   85.81780  143.34930   78.93460  104.16090
 3638.50000   23.22430    0.03720    4.14340    9.11330   -0.05970    0.02190    2.80180   12.09130   33.92690   28.85910   79.71010  104.16220
 3639.00000   23.46120    0.00850    4.39740    9.11230   -0.06520    0.02750    2.82290   10.40860   19.79160   11.32650   74.22680  105.65100
 3639.50000   19.04940    0.00090    4.76700    9.10890   -0.03820    0.03310    2.76410   17.91630   18.32470    6.31320   68.92100  110.53340
 3640.00000   11.88350   -0.00180    4.91160    9.10480   -0.00450    0.02210    2.69150   49.27290   33.14170    5.24640   67.70840  118.99740
 3640.50000    5.80120   -0.00220    4.98910    9.09590    0.01140    0.01360    2.70340  133.84740   75.32390    7.32190   70.92700  124.50810
 3641.00000    3.73750    0.00130    5.06670    9.08470   -0.00800    0.01840    2.73820  261.61770  196.71800   10.82770   76.91880  134.49660
 3641.50000    3.37740    0.00550    5.28990    9.05580   -0.04960    0.03910    2.80560  501.64870  415.99140    7.66070   82.98770  149.96480
 3642.00000    3.38910    0.01480    5.91110    9.09490   -0.05490    0.05400    2.72270  772.91390  672.86040    5.34310   91.16330  155.02150
 3642.50000    5.88230    0.03500    6.02760    9.12380    0.05200    0.06180    2.51880  915.85470 1388.53370    4.25620   97.11790  154.40010
 3643.00000   10.75420    0.08000    5.54870    9.17200    0.13210    0.09150    2.44190  717.60000 1222.22530    8.46750   97.91090  148.99590
 3643.50000   16.25410    0.07970    5.01970    9.46440    0.17610    0.14600    2.38030  120.05010  396.18590   15.47630   91.86890  141.22240
 3644.00000   20.20100    0.04320    4.47590    9.59720    0.19760    0.21300    2.34280   31.14160   84.93460    5.98240   84.85660  134.05990
 3644.50000   18.74840    0.00740    3.93210    9.56730    0.24020    0.25360    2.27090   16.39230   26.59440    2.21760   81.46710  127.05840
 3645.00000   14.41690   -0.00270    3.76080    9.82130    0.28180    0.23440    2.21400   15.15890   23.54710    1.06690   82.00010  123.60220
 3645.50000    9.66460   -0.00510    3.61920   10.34480    0.33490    0.19070    2.11780   17.78230   24.57340    0.71920   84.54660  124.43790
 3646.00000    5.76510   -0.00320    3.50220   10.63290    0.35650    0.14030    2.10430   20.85970   30.99080    0.70680   93.48670  124.63280
 3646.50000    5.61910    0.00260    3.43360   10.58970    0.31930    0.10120    2.17550   25.33090   40.09210    1.17310   97.62920  120.81860
 3647.00000    6.20330    0.01270    3.36430   10.02450    0.25950    0.08690    2.34220   32.09040   51.86620    2.07050   94.00170  110.71710
 3647.50000    6.66320    0.01790    3.33770    9.40040    0.14960    0.06260    2.55330   41.59310   67.08940    3.25210   82.68710  102.26200
 3648.00000    6.06470    0.01660    3.57320    9.20060    0.03900    0.06060    2.71470   63.16920   84.25250    4.42160   72.17090   98.45990
 3648.50000    4.99360    0.00710    4.01590    9.10710   -0.05340    0.06210    2.82260   95.93770  134.00510    3.43530   63.79540   96.51180
 3649.00000    4.04240    0.00100    4.41000    9.08920   -0.08200    0.03830    2.88450  163.04700  243.27580    2.63040   60.55940   95.95590
 3649.50000    4.14880   -0.00180    4.56710    9.08080   -0.10110    0.03300    2.88430  290.93260  437.38330    3.55040   59.92340   95.87370
 3650.00000    4.38030   -0.00100    4.72350    9.08660   -0.10360    0.02660    2.87090  505.43580  748.56240   21.59310   61.74010   96.04810
 3650.50000    4.34650   -0.00030    4.99670    9.09390   -0.08820    0.02150    2.84860 1656.05490 1281.13240 1943.52750   64.28150  100.46390
 3651.00000    4.22250    0.00260    5.33510    9.10160   -0.08010    0.02100    2.83670 3421.11210 1843.85930 1968.42500   68.31230  105.14430
 3651.50000    4.32410    0.01760    5.49390    9.11360   -0.06880    0.02850    2.79790 5827.55620 1877.88400 1978.61890   73.13930  110.69670
 3652.00000    5.97790    0.04470    4.92350    9.12850   -0.03430    0.03460    2.72420 2137.97460 1846.87110 1979.15230   77.32740  116.98000
 3652.50000    9.47160    0.09010    3.82210    9.14810    0.01490    0.03610    2.63280  205.58230  889.54750 1580.26000   83.31430  121.64420
 3653.00000   15.32420    0.13440    3.10850    9.19010    0.06320    0.03510    2.58130   51.12310  123.63510  151.71240   88.33970  126.50240
 3653.50000   23.78830    0.15480    2.70010    9.23440    0.07470    0.03330    2.61380   16.30090   40.61790   21.88160   90.21390  126.98950
 3654.00000   29.88380    0.09390    2.58940    9.31360    0.05260    0.03950    2.74690    9.23950   18.83480    6.16640   87.18810  119.42360
 3654.50000   28.25620    0.03750    2.62760    9.34230   -0.01710    0.04930    2.81910    7.37110   12.37310    2.56040   80.96290  110.02480
 3655.00000   22.91940    0.01170    3.19730    9.29680   -0.08830    0.05550    2.92940    8.77700   12.54220    1.67320   68.51940  100.00430
 3655.50000   14.86270    0.00370    3.82180    9.26310   -0.13730    0.04500    2.98850   14.12730   19.90520    1.46290   61.69250   95.25040
 3656.00000    7.82370   -0.00010    4.46940    9.25930   -0.15910    0.01950    2.99020   37.25690   36.13740    1.57180   62.64940   93.97940
 3656.50000    4.03160   -0.00240    5.22260    9.26790   -0.16260    0.00830    2.98160  113.57750   69.86280    2.08070   67.86540   93.71470
 3657.00000    3.26440   -0.00220    5.46990    9.27640   -0.15820    0.00380    2.97150  169.06200  135.06280    6.41580   83.11290   94.21560
 3657.50000    3.33130   -0.00180    5.49040    9.27950   -0.15110    0.00240    2.96210  258.95820  257.90820  136.18160   94.60940   97.99050
 3658.00000    3.95720    0.00020    5.51090    9.27850   -0.14640   -0.00250    2.94820  401.73140  479.53020 1935.81260  118.36200  101.02460
 3658.50000    5.60260    0.00530    5.58930    9.28930   -0.14030    0.00140    2.92570  399.96630  522.84080 1978.73410  138.40770  104.03940
 3659.00000    7.24790    0.01040    5.70190    9.32880   -0.11430    0.00790    2.85390  251.42760  389.32920 1682.99120  154.56090  107.20670
 3659.50000    8.89330    0.01950    5.49000    9.37540   -0.06400    0.01160    2.75330  144.68010  214.40470  673.42720  159.17020  110.48300
