~Version ---------------------------------------------------
VERS.   2.0 : CWLS log ASCII Standard -VERSION 2.0
WRAP.    NO : One line per depth step
DLM . SPACE : Column Data Section Delimiter
~Well ------------------------------------------------------
STRT .F                  20.0 : START DEPTH
STOP .F                4951.0 : STOP DEPTH
STEP .F                   0.5 : STEP
NULL .               -9999.25 : NULL VALUE
COMP .                        : COMPANY
WELL .                        : WELL
FLD  .                        : FIELD
LOC  .                        : LOCATION
PROV .                        : PROVINCE
CNTY .                        : COUNTY
STAT .                        : STATE
CTRY .                        : COUNTRY
SRVC .                        : SERVICE COMPANY
DATE .                        : DATE
UWI  .                        : UNIQUE WELL ID
API  .                        : API NUMBER
SLAT .WGS84 2.496511236493099 : SURFACE LATITUDE
SLON .WGS84 7.203273054830007 : SURFACE LONGITUDE
DATUM.F                3193.0 : DEPTH DATUM ELEV
~Curve Information -----------------------------------------
DEPT.F     : 
GRD .GAPI  : GAMMA RAY
NPHI.DEC   : NEUTRON POROSITY LIMESTONE
PE  .B/E   : PHOTOELECTRIC FACTOR
CALD.IN    : CALIPER FDC LOG
DPHI.DEC   : DENSITY POROSITY LIMESTONE
DRHO.G/C3  : DENSITY CORRECTION
RHOB.G/C3  : BULK DENSITY
LLD .OHMM  : LATEROLOG LOG DEEP
LLS .OHMM  : LATEROLO LOG SHALLOW
MSFL.OHMM  : MICRO SPHERICALLY FOCUSED
DTCO.US/F  : COMPRESSIONAL-WAVE INTERVAL TRANSIT TIME ACOUSTIC SLOWNESS
DTSM.US/F  : SHEAR-WAVE INTERVAL TRANSIT TIME DELTA-T
~Params ----------------------------------------------------
~Other -----------------------------------------------------
~ASCII -----------------------------------------------------
# ...
 3884.00000    4.05010   -0.01380    3.69700   11.39860    0.37520    0.07430    2.06930  203.07870  708.76570 1952.12790   94.11860  136.18980
 3884.50000    5.84150   -0.00570    4.06450   11.25150    0.35690    0.07600    2.08550  165.97970  517.80290 1418.03870   95.47110  139.26940
 3885.00000    8.89210    0.00730    4.07740   11.04090    0.32760    0.06650    2.14260  112.35240  306.01070  114.76930   96.45050  140.05570
 3885.50000   12.91490    0.02050    4.02360   10.81640    0.25700    0.05840    2.25110   76.12450  154.24710   18.58800   96.08420  137.86660
 3886.00000   16.71020    0.03140    3.95050   10.64820    0.16620    0.05200    2.42740   51.65280   82.35890   10.79010   93.07000  129.25610
 3886.50000   17.87460    0.02410    3.83920   10.52310    0.04260    0.04490    2.61400   39.03920   53.68390    7.83510   87.02470  117.49160
 3887.00000   14.74590    0.00280    3.76850   10.50490   -0.07300    0.04200    2.82850   35.80610   42.10080    7.63890   75.54050  106.99570
 3887.50000   10.25380   -0.00240    4.04110   10.52250   -0.15250    0.04320    2.99790   37.75730   43.11630    6.81990   65.91330  101.23750
 3888.00000    5.70770   -0.00410    4.49630   10.53470   -0.16950    0.03010    2.99820   49.39390   56.94840    9.65430   61.07690  100.04300
 3888.50000    4.08690   -0.00510    4.76710   10.54090   -0.16020    0.01640    2.99070   70.58000   78.86210   24.93180   59.79140  101.19750
 3889.00000    3.53980   -0.00300    4.86230   10.53400   -0.14950    0.01090    2.97760  105.20830  140.18540  289.39570   61.90090  103.76790
 3889.50000    3.55830    0.00750    5.08330   10.52710   -0.13000    0.00550    2.95880  142.21390  249.19370 1954.96670   64.55450  107.45210
 3890.00000    5.35170    0.02050    5.29690   10.52020   -0.10750   -0.00130    2.92530  118.58570  244.72390 1974.51730   70.19920  111.53440
 3890.50000   11.30220    0.04200    5.23030   10.52410   -0.02530   -0.00420    2.82030   67.35670   99.77230 1974.18990   76.94270  117.55890
 3891.00000   20.20270    0.06910    4.52350   10.51570    0.05090   -0.00540    2.60540   42.43450   41.05040 1201.48110   86.71570  125.97910
 3891.50000   33.54560    0.10650    3.77370   10.50690    0.12720   -0.00300    2.48690   29.07310   22.35640   64.43160   96.42820  132.76900
 3892.00000   41.55070    0.11660    3.30740   10.51320    0.15450    0.00410    2.45210   20.59990   15.36060   15.25540  103.84040  137.25850
 3892.50000   47.11050    0.11460    3.01920   10.52270    0.16900    0.01140    2.42440   16.73730   13.23800    6.30410  104.42080  134.45110
 3893.00000   48.56780    0.10670    2.88450   10.52570    0.17740    0.01520    2.41350   16.21910   12.70820    3.77140   98.81270  130.03650
 3893.50000   48.72310    0.09820    2.92010   10.51200    0.18770    0.01130    2.40230   19.36230   13.23220    3.03750   93.66400  127.43830
 3894.00000   48.38350    0.09460    3.00520   10.52940    0.19450    0.00750    2.38170   24.19980   16.79820    3.72470   89.49850  125.21200
 3894.50000   47.93840    0.08970    3.08250   10.53320    0.19430    0.00360    2.37970   30.18490   21.37010    5.99040   87.16110  123.21690
 3895.00000   46.74330    0.07610    3.12530   10.52780    0.19340    0.01020    2.38340   37.47030   28.16220    8.71260   85.19070  122.30590
 3895.50000   43.77680    0.05820    3.15090   10.52240    0.20680    0.01790    2.37360   42.52680   37.39500   10.19410   84.44200  123.16680
 3896.00000   40.49840    0.05480    3.17530   10.51710    0.22500    0.02380    2.33800   44.35390   42.83740   12.34610   85.85500  125.63470
 3896.50000   36.40010    0.06210    3.19970   10.51170    0.24550    0.02930    2.29950   45.69830   43.61290   16.28100   88.68860  129.80810
 3897.00000   33.80370    0.08530    3.26240   10.52400    0.24340    0.03470    2.29620   44.80990   43.19210   19.45670   93.85010  136.97400
 3897.50000   36.34400    0.12500    3.29840   10.50540    0.21340    0.04160    2.32540   40.91750   36.83990   17.78940  100.33170  141.87650
 3898.00000   41.07230    0.16180    3.25290   10.48560    0.18430    0.04040    2.36790   30.61210   26.45180   11.64540  107.83600  144.11020
 3898.50000   47.26170    0.19440    3.20740   10.46580    0.15520    0.03920    2.41170   21.26040   19.11690    6.08810  114.16440  145.16900
 3899.00000   51.18650    0.20690    3.19140   10.43850    0.12480    0.03140    2.46540   15.22300   13.95000    2.80490  116.70550  135.08860
 3899.50000   45.79310    0.11680    3.22020   10.39930    0.09000    0.03600    2.55580   12.94480   10.67210    1.67740  111.44030  125.49320
 3900.00000   35.15910    0.04760    3.51660   10.36020   -0.00060    0.04120    2.76620   12.76440   10.38400    1.30420   99.10020  111.99230
 3900.50000   23.48530    0.01550    4.21210   10.33730   -0.07590    0.04550    2.94590   13.68450   10.89710    1.34610   88.86650  109.69250
 3901.00000   13.50460    0.00330    4.97160   10.33490   -0.13800    0.03940    2.94570   19.19300   13.39310    1.78290   80.56210  113.29050
 3901.50000    6.68990    0.00190    5.18290   10.33520   -0.12260    0.02740    2.93440   28.13090   20.82070    2.32880   82.28230  122.23090
 3902.00000    7.09100    0.00430    4.74990   10.33550   -0.09480    0.01860    2.88860   44.07000   34.94790    5.35990   89.58940  130.21980
 3902.50000   10.91500    0.03130    4.42180   10.33580   -0.06700    0.01510    2.83360   69.43860   70.55720 1929.08670   97.49210  138.04460
 3903.00000   19.73560    0.06250    4.19850   10.33610   -0.00850    0.01210    2.71250   82.40120   89.15740 1118.15490  104.74560  144.58780
 3903.50000   34.11850    0.09970    3.83620   10.32990    0.04710    0.00930    2.57230   50.96570   64.17120  117.79820  107.96500  149.45000
 3904.00000   45.52570    0.13980    3.61070   10.32220    0.10270    0.01250    2.52400   34.15170   40.24120   24.90570  103.65290  153.05400
 3904.50000   55.50550    0.16760    3.41860   10.31440    0.15670    0.02020    2.47080   24.38650   28.41830   10.34720  106.27160  153.85710
 3905.00000   58.93200    0.17010    3.28840   10.32020    0.18830    0.02780    2.40550   20.02790   22.35210    5.26060  108.31260  153.20840
 3905.50000   57.75610    0.12200    3.26930   10.33020    0.22920    0.04710    2.34200   17.50890   19.09800    3.99670  107.37920  152.15320
 3906.00000   53.48500    0.06600    3.27360   10.36030    0.27110    0.06710    2.25990   16.86850   18.13030    3.91920  105.63750  150.11290
 3906.50000   45.04740    0.03180    3.31510   10.40900    0.30000    0.08720    2.19040   16.85220   18.53520    4.08730  103.10950  146.91630
 3907.00000   36.31070    0.01040    3.38380   10.58410    0.32760    0.11860    2.15350   17.86170   21.08060    4.38770   99.98670  141.65800
 3907.50000   26.50400    0.00130    3.48970   10.87630    0.33200    0.14280    2.14500   20.24260   24.69520    4.62960   95.08120  139.34370
 3908.00000   18.55350   -0.00470    3.64560   11.10380    0.33580    0.14900    2.14060   23.89300   32.72930    5.72340   92.32530  135.72940
 3908.50000   13.61360   -0.00610    3.81170   11.19330    0.33850    0.14210    2.13780   31.46410   45.33440   11.73300   91.39770  134.45120
 3909.00000   10.44650   -0.00730    3.95490   11.24980    0.34670    0.12500    2.12120   49.55530   74.77030  181.66940   92.24050  132.77390
 3909.50000    9.06210   -0.00730    4.09820   11.36950    0.35720    0.10020    2.10500   80.94820  121.68930 1965.81700   93.60620  130.61510
 3910.00000    8.24700   -0.00620    4.22750   11.48860    0.36800    0.08430    2.09060  107.86220  181.01520 1916.58420   94.53920  129.61010
 3910.50000    8.19780   -0.00450    4.20010   11.59850    0.37790    0.06980    2.05960  105.86600  224.50060    9.79750   95.05510  129.24320
 3911.00000    9.64740    0.00030    4.00600   11.65050    0.37700    0.05790    2.06120   97.61310  222.32460    7.97650   95.00650  128.87640
 3911.50000   11.66330    0.01210    3.81300   11.44040    0.34830    0.04600    2.07680   87.21970  153.32290   15.49800   93.54730  128.27360
