~Version ---------------------------------------------------
VERS.   2.0 : CWLS log ASCII Standard -VERSION 2.0
WRAP.    NO : One line per depth step
DLM . SPACE : Column Data Section Delimiter
~Well ------------------------------------------------------
STRT .F                  20.0 : START DEPTH
STOP .F                4951.0 : STOP DEPTH
STEP .F                   0.5 : STEP
NULL .               -9999.25 : NULL VALUE
COMP .                        : COMPANY
WELL .                        : WELL
FLD  .                        : FIELD
LOC  .                        : LOCATION
PROV .                        : PROVINCE
CNTY .                        : COUNTY
STAT .                        : STATE
CTRY .                        : COUNTRY
SRVC .                        : SERVICE COMPANY
DATE .                        : DATE
UWI  .                        : UNIQUE WELL ID
API  .                        : API NUMBER
SLAT .WGS84 2.496511236493099 : SURFACE LATITUDE
SLON .WGS84 7.203273054830007 : SURFACE LONGITUDE
DATUM.F                3193.0 : DEPTH DATUM ELEV
~Curve Information -----------------------------------------
DEPT.F     : 
GRD .GAPI  : GAMMA RAY
NPHI.DEC   : NEUTRON POROSITY LIMESTONE
PE  .B/E   : PHOTOELECTRIC FACTOR
CALD.IN    : CALIPER FDC LOG
DPHI.DEC   : DENSITY POROSITY LIMESTONE
DRHO.G/C3  : DENSITY CORRECTION
RHOB.G/C3  : BULK DENSITY
LLD .OHMM  : LATEROLOG LOG DEEP
LLS .OHMM  : LATEROLO LOG SHALLOW
MSFL.OHMM  : MICRO SPHERICALLY FOCUSED
DTCO.US/F  : COMPRESSIONAL-WAVE INTERVAL TRANSIT TIME ACOUSTIC SLOWNESS
DTSM.US/F  : SHEAR-WAVE INTERVAL TRANSIT TIME DELTA-T
~Params ----------------------------------------------------
~Other -----------------------------------------------------
~ASCII -----------------------------------------------------
# ...
 4416.00000   49.41450    0.10840    3.17820    8.65240   -0.00030    0.01470    2.70950   25.22390   23.28510   12.84150   61.63630   96.65180
 4416.50000   51.55000    0.10830    3.21610    8.64340    0.00310    0.01530    2.70610   25.40710   23.73840   13.07830   61.69480   96.70440
 4417.00000   51.79910    0.10780    3.20180    8.63590    0.00480    0.01580    2.70400   26.16820   24.47550   14.36970   61.82260   97.05350
 4417.50000   50.68870    0.10510    3.18040    8.63290    0.00580    0.01620    2.70210   27.30390   25.41690   16.39710   61.54810   97.33240
 4418.00000   49.05540    0.10020    3.16170    8.62990    0.00710    0.01650    2.69990   28.48230   26.39460   16.25120   61.57310   97.42570
 4418.50000   46.81380    0.09510    3.11000    8.62690    0.01070    0.01610    2.68600   29.65850   26.93640   15.24570   62.36010   97.54720
 4419.00000   44.59740    0.09170    3.05380    8.62390    0.02210    0.01480    2.66640   29.98560   27.06760   16.43570   63.72950   97.97430
 4419.50000   42.87050    0.09080    2.99760    8.62080    0.03420    0.01550    2.65300   29.38800   26.95160   18.61920   66.19310   99.02790
 4420.00000   43.22750    0.09540    2.92510    8.61780    0.03800    0.01610    2.64790   28.08910   26.24070   18.24740   67.62190   99.41740
 4420.50000   44.66320    0.10140    2.84900    8.61480    0.03840    0.01690    2.64980   26.71690   24.87270   17.07050   67.92270   99.80690
 4421.00000   46.09720    0.10760    2.85960    8.61710    0.03570    0.01810    2.65580   24.75980   23.20310   16.30140   67.23430   99.28030
 4421.50000   46.55700    0.11280    2.88530    8.61960    0.03000    0.01870    2.66500   22.44960   21.64550   16.30330   66.05300   97.89530
 4422.00000   45.46260    0.11490    2.98560    8.61830    0.02390    0.01990    2.67830   20.87820   20.31700   16.24150   64.29550   96.09910
 4422.50000   43.99340    0.11070    3.12540    8.61640    0.01180    0.02260    2.69510   21.83860   20.39560   14.87080   62.22390   94.57390
 4423.00000   41.67250    0.10010    3.17750    8.61510   -0.00230    0.02560    2.72500   24.71010   22.60390   13.09420   60.44540   92.56100
 4423.50000   39.18900    0.09010    3.25070    8.62300   -0.01660    0.02930    2.75250   30.58780   27.21070   12.55420   58.73780   91.18280
 4424.00000   36.62120    0.08210    3.26580    8.63310   -0.03040    0.03270    2.77110   38.76320   34.27050   14.53970   57.95340   90.07010
 4424.50000   34.10380    0.07640    3.21630    8.64010   -0.04110    0.03420    2.79030   52.57670   43.16190   20.23890   57.50930   89.38150
 4425.00000   31.34930    0.06920    3.18460    8.63280   -0.05220    0.03390    2.80950   72.21020   59.63550   35.42130   57.01780   88.69280
 4425.50000   29.51530    0.06380    3.19260    8.62540   -0.06640    0.03900    2.83400   99.17530   81.27940   50.02900   56.40290   88.00420
 4426.00000   28.51700    0.05890    3.20870    8.62330   -0.08160    0.04410    2.86610  126.73310  100.68970   56.39850   55.76210   87.67890
 4426.50000   27.14040    0.05660    3.20600    8.62440   -0.09890    0.05030    2.89580  149.47570  122.11850   62.65150   55.07260   87.48700
 4427.00000   25.49360    0.05840    3.19970    8.62100   -0.10980    0.05750    2.90470  170.85790  132.62800   72.91690   54.36760   87.49110
 4427.50000   24.19970    0.06320    3.21580    8.61730   -0.11210    0.06120    2.89610  185.20730  143.25450   92.95600   53.87910   87.67180
 4428.00000   23.53360    0.06980    3.23200    8.61360   -0.09490    0.05470    2.86590  183.07160  143.25450  111.67570   53.69200   88.04860
 4428.50000   24.76840    0.07500    3.27050    8.61270   -0.07770    0.04720    2.83090  161.97090  140.70230  107.43810   53.60200   88.52670
 4429.00000   25.73510    0.07680    3.34830    8.61790   -0.06010    0.03970    2.80900  140.56190  126.78510   86.26470   53.57670   89.03060
 4429.50000   26.70170    0.07620    3.35750    8.62310   -0.05030    0.03540    2.79310  123.27140  107.40400   66.03920   53.93210   89.44680
 4430.00000   26.47560    0.07120    3.31280    8.62830   -0.04720    0.03120    2.79660  103.38240   91.74280   55.90150   54.32000   89.55740
 4430.50000   24.80290    0.06970    3.24590    8.63350   -0.05030    0.02950    2.80660   89.13110   81.10510   49.51220   54.56870   89.61980
 4431.00000   22.62020    0.07050    3.18960    8.63200   -0.05800    0.03100    2.81500   82.96310   74.67680   48.94880   54.87810   89.62030
 4431.50000   20.60750    0.07120    3.32990    8.62970   -0.06220    0.03290    2.82500   77.32280   68.75810   45.11560   55.63910   89.64660
 4432.00000   21.45800    0.07220    3.41650    8.62740   -0.06920    0.03480    2.83340   72.06590   64.38540   38.95610   56.01510   89.79350
 4432.50000   23.06460    0.07170    3.37840    8.62510   -0.07290    0.03580    2.83670   68.25920   62.88230   34.68500   56.69160   90.23370
 4433.00000   27.82040    0.07250    3.34020    8.62280   -0.07220    0.03490    2.83510   65.64230   61.41430   34.64040   57.31220   90.67030
 4433.50000   33.22290    0.07450    3.28600    8.62050   -0.06980    0.03390    2.83100   64.23550   60.49510   35.78510   57.56280   91.10700
 4434.00000   39.43700    0.07690    3.29090    8.61820   -0.06520    0.03250    2.81960   62.11520   59.64650   35.51720   57.62720   91.50000
 4434.50000   44.05970    0.07930    3.32660    8.61590   -0.05870    0.03120    2.80760   57.19380   58.78330   34.64760   57.54400   92.24910
 4435.00000   49.19740    0.08230    3.26310    8.61460   -0.05370    0.03060    2.80500   52.66230   56.53250   35.28400   57.46640   93.09830
 4435.50000   51.24340    0.08580    3.17340    8.61000   -0.05380    0.03080    2.80450   48.48990   52.08080   35.81840   57.59480   93.90000
 4436.00000   48.52350    0.08910    3.18710    8.61000   -0.05390    0.03280    2.80420   44.64800   47.97970   35.41970   57.83570   94.49340
 4436.50000   44.10550    0.09190    3.30640    8.61370   -0.05270    0.03460    2.79820   41.50250   44.20150   33.37450   57.79720   94.96530
 4437.00000   39.18350    0.09470    3.52490    8.61740   -0.04570    0.03480    2.78780   39.87340   41.29110   27.99640   57.72820   94.87610
 4437.50000   36.41460    0.09580    3.54010    8.61580   -0.03940    0.03380    2.77780   39.67620   41.02890   25.19520   57.83990   94.75310
 4438.00000   34.91740    0.09330    3.44980    8.61580   -0.03840    0.03290    2.77870   40.70890   41.42750   28.92580   57.90980   94.63010
 4438.50000   33.16400    0.08900    3.33560    8.61570   -0.03970    0.03210    2.77960   44.62810   42.91430   29.92990   57.64360   93.70880
 4439.00000   30.37290    0.08170    3.43840    8.61560   -0.03950    0.03130    2.77860   49.78280   47.09590   27.36930   56.77580   92.36180
 4439.50000   27.83850    0.07500    3.52960    8.61560   -0.03740    0.03050    2.77280   56.68450   55.01460   27.68220   55.79490   91.41040
 4440.00000   26.21260    0.07000    3.63080    8.61550   -0.03670    0.02980    2.77470   69.01350   66.29930   32.36150   55.01810   91.28090
 4440.50000   25.33410    0.06640    3.64970    8.61540   -0.04190    0.02910    2.78710   84.94920   81.08040   37.94670   55.12860   91.34840
 4441.00000   22.35150    0.06280    3.65920    8.61540   -0.05330    0.02930    2.80340  104.56450   99.76490   43.51780   55.25480   91.49630
 4441.50000   18.72550    0.05850    3.70100    8.61870   -0.06560    0.03090    2.82380  130.20220  122.61470   50.70730   54.92390   91.64420
 4442.00000   15.45890    0.05760    3.84460    8.62680   -0.07390    0.03070    2.83900  163.47960  149.96190   56.97380   54.44980   91.76320
 4442.50000   14.34580    0.05720    3.96770    8.61970   -0.07550    0.02990    2.83970  205.26210  179.65260   65.87820   53.81740   91.81760
 4443.00000   15.64000    0.05970    3.97220    8.61850   -0.07300    0.02850    2.83560  226.64740  196.25830   83.21340   53.61790   91.88390
 4443.50000   18.43450    0.06270    3.80480    8.62250   -0.06570    0.02960    2.82520  223.90820  189.18690  100.94490   54.02720   92.26460
