~Version ---------------------------------------------------
VERS.   2.0 : CWLS log ASCII Standard -VERSION 2.0
WRAP.    NO : One line per depth step
DLM . SPACE : Column Data Section Delimiter
~Well ------------------------------------------------------
STRT .F                  20.0 : START DEPTH
STOP .F                4951.0 : STOP DEPTH
STEP .F                   0.5 : STEP
NULL .               -9999.25 : NULL VALUE
COMP .                        : COMPANY
WELL .                        : WELL
FLD  .                        : FIELD
LOC  .                        : LOCATION
PROV .                        : PROVINCE
CNTY .                        : COUNTY
STAT .                        : STATE
CTRY .                        : COUNTRY
SRVC .                        : SERVICE COMPANY
DATE .                        : DATE
UWI  .                        : UNIQUE WELL ID
API  .                        : API NUMBER
SLAT .WGS84 2.496511236493099 : SURFACE LATITUDE
SLON .WGS84 7.203273054830007 : SURFACE LONGITUDE
DATUM.F                3193.0 : DEPTH DATUM ELEV
~Curve Information -----------------------------------------
DEPT.F     : 
GRD .GAPI  : GAMMA RAY
NPHI.DEC   : NEUTRON POROSITY LIMESTONE
PE  .B/E   : PHOTOELECTRIC FACTOR
CALD.IN    : CALIPER FDC LOG
DPHI.DEC   : DENSITY POROSITY LIMESTONE
DRHO.G/C3  : DENSITY CORRECTION
RHOB.G/C3  : BULK DENSITY
LLD .OHMM  : LATEROLOG LOG DEEP
LLS .OHMM  : LATEROLO LOG SHALLOW
MSFL.OHMM  : MICRO SPHERICALLY FOCUSED
DTCO.US/F  : COMPRESSIONAL-WAVE INTERVAL TRANSIT TIME ACOUSTIC SLOWNESS
DTSM.US/F  : SHEAR-WAVE INTERVAL TRANSIT TIME DELTA-T
~Params ----------------------------------------------------
~Other -----------------------------------------------------
~ASCII -----------------------------------------------------
# ...
 3380.00000    4.20950    0.00260    4.41410    8.77870   -0.08250    0.06230    2.85090 5190.28960   -9999.25   -9999.25   60.90580   98.17210
 3380.50000    4.21520    0.00280    4.63390    8.77350   -0.10560    0.07040    2.90130 7194.90620   -9999.25   -9999.25   59.83690   97.43540
 3381.00000    4.21020    0.00150    4.94070    8.77110   -0.11770    0.07780    2.91830 9973.75490   -9999.25   -9999.25   58.19700   97.00090
 3381.50000    4.20530    0.00130    5.00240    8.77280   -0.12480    0.07770    2.93400 13789.23540   -9999.25   -9999.25   57.18780   97.74950
 3382.00000    4.09740    0.00170    4.80010    8.77490   -0.14300    0.08610    2.96130 16214.30960   -9999.25   -9999.25   57.08450   99.89750
 3382.50000    3.68840    0.00150    4.66240    8.77590   -0.16380    0.09880    2.98860 14998.91110   -9999.25   -9999.25   57.93190  104.08380
 3383.00000    3.66210    0.00560    4.70300    8.76910   -0.18330    0.12520    3.01590 6894.07420   -9999.25   -9999.25   60.69070  109.51820
 3383.50000    5.22630    0.01040    4.77610    8.77950   -0.17970    0.14250    2.96570 1803.02780 1582.12290   -9999.25   66.51480  114.96360
 3384.00000    9.67200    0.02010    4.41990    8.83410   -0.08960    0.14430    2.84270  825.72390  348.66590   -9999.25   75.54440  117.94330
 3384.50000   20.28580    0.03430    3.94990    8.89110    0.04830    0.13800    2.71100  166.23530  179.54280  111.88300   82.44220  121.69750
 3385.00000   35.62070    0.04840    3.44720    8.97850    0.10600    0.13330    2.57310   57.41950   63.31310   42.58260   89.15430  125.82260
 3385.50000   48.30080    0.07320    3.04920    9.12480    0.12840    0.13610    2.52020   27.00410   33.29910   24.31770   96.01860  130.37700
 3386.00000   57.32860    0.11090    2.91740    9.46240    0.14990    0.13370    2.46720   19.90130   22.94670   16.15200  100.15340  134.78050
 3386.50000   57.15920    0.12500    2.98900    9.76240    0.18240    0.11770    2.40550   14.68230   20.98600   15.05110  104.48090  136.99470
 3387.00000   52.07320    0.13140    3.08120    9.98140    0.23670    0.08670    2.33170   12.78700   19.15200   14.54330  108.24570  136.82710
 3387.50000   45.71660    0.14530    3.20790   10.17910    0.29570    0.07860    2.22220   11.55700   17.59020   10.18890  111.72780  135.17870
 3388.00000   42.54990    0.16320    3.23560   10.31860    0.33930    0.03840    2.15120   10.43020   16.59870    6.13540  115.36410  134.14340
 3388.50000   41.04620    0.16990    3.06440   10.36830    0.35930    0.01530    2.09670    9.92180   15.69660    2.74650  118.26480  132.90840
 3389.00000   41.05940    0.14020    2.88820   10.36070    0.35770    0.01430    2.10330   10.06160   15.33440    1.45320  117.06780  131.38820
 3389.50000   38.63870    0.08510    2.71210   10.36020    0.31780    0.01970    2.11990   11.28260   16.07300    0.88960  107.91960  126.07580
 3390.00000   32.96540    0.04890    2.68190   10.15850    0.26960    0.02400    2.24670   15.17480   21.38540    0.70000   95.86190  117.97690
 3390.50000   24.62050    0.02510    2.87550    9.59780    0.19230    0.02810    2.43150   27.63100   43.38860    0.78350   78.69980  112.40050
 3391.00000   15.82730    0.01370    3.33760    8.92600    0.10170    0.03540    2.57250   63.66220   94.07140    1.89020   70.66690  107.06970
 3391.50000   10.29300    0.00400    4.70730    8.83930   -0.00530    0.04610    2.71340  149.57850  197.35530    6.59060   63.92070  106.25540
 3392.00000    7.87340    0.00100    6.10020    8.83810   -0.06420    0.04570    2.81770  438.73850  359.09380    9.05680   62.30990  108.85920
 3392.50000    7.93000    0.00060    6.00840    8.84150   -0.04450    0.03110    2.78600 1436.52640  711.23220   12.23180   61.33790  113.61670
 3393.00000    8.75120    0.00130    5.47070    8.84480   -0.02120    0.02340    2.75430 2473.85350 1500.90590   17.84220   64.84080  120.39410
 3393.50000    9.60980    0.00440    5.26380    8.84940    0.01530    0.02330    2.71210 4812.07370 1835.84960  106.42390   71.97060  128.89560
 3394.00000   10.46830    0.00840    5.17940    8.84700    0.05230    0.02320    2.65100 8752.11820 1909.82240 1319.81400   81.29230  139.81970
 3394.50000   13.50850    0.01910    5.01390    8.84050    0.08670    0.02320    2.58770 8974.90530 1943.46230 1982.29480   92.96400  150.74380
 3395.00000   17.41520    0.03250    4.60600    8.83450    0.09830    0.03070    2.54220 4866.58060 1792.95000 1995.91390  114.67560  156.29430
 3395.50000   21.28110    0.06220    4.30200    8.83410    0.10360    0.04140    2.53520 1879.37430 1229.68580 1995.91390  127.21720  158.09470
 3396.00000   24.49030    0.09790    4.18900    8.84320    0.16940    0.05360    2.42490  652.55970  532.37280  478.81520  145.04480  160.28120
 3396.50000   27.61920    0.15880    3.03630    8.89080    0.40450    0.02420    2.01910  129.52650  249.65600   19.48200  152.79130  159.45120
 3397.00000   30.48090    0.21950    2.34570    9.02730    0.53880    0.00540    1.77300   48.02190   80.65350    2.71770  157.01540  155.33980
 3397.50000   35.24750    0.27810    2.08080    9.44580    0.64750    0.00610    1.55330   21.33260   32.89690    1.03830  158.82800  149.26870
 3398.00000   35.83460    0.30350    1.89660   10.89120    0.70850    0.01130    1.49810   10.61170   15.72980    0.65790  156.93040  140.71210
 3398.50000   33.65750    0.29230    1.86240   14.16980    0.69800    0.02240    1.52660    8.15330   11.91700    0.44030  150.64440  138.55290
 3399.00000   29.59630    0.22380    1.91180   14.30610    0.61710    0.03680    1.57370    6.59220   10.65020    0.41400  140.69350  128.58990
 3399.50000   24.55610    0.15440    2.04190   11.66470    0.51800    0.03700    1.74360    5.68980   10.25540    0.43720  128.53490  121.90460
 3400.00000   20.52270    0.08010    2.33210   10.35200    0.41900    0.03140    2.00890    4.91090   10.04070    0.49140  114.87800  119.15290
 3400.50000   16.10340    0.02570    2.82400   10.88400    0.38350    0.02020    2.05330    5.21860   10.68280    0.63730   94.31100  119.07910
 3401.00000   12.82720   -0.00020    3.31580   11.20080    0.38280    0.00560    2.05280    6.27810   11.99840    0.85490   87.42840  119.11820
 3401.50000   10.41510   -0.00790    3.75650   10.50870    0.38610    0.00030    2.04980   16.45650   20.31340    0.96860   88.65140  119.13780
 3402.00000    8.18210   -0.01240    4.21010   10.48560    0.38760    0.00220    2.04680   47.22480   40.65470    0.99880   87.47960  119.56710
 3402.50000    5.94900   -0.01630    4.70400   10.64600    0.38900    0.00550    2.04550  135.31480   82.09350    2.20570   87.33860  120.07210
 3403.00000    4.62120   -0.01630    4.79240   10.72890    0.38940    0.01020    2.04410  357.93340  159.49830   28.63560   86.71120  120.40820
 3403.50000    4.07060   -0.01630    4.79150   10.74930    0.39050    0.00900    2.04160  946.80160  341.71440  208.33480   85.18520  120.86320
 3404.00000    3.52000   -0.01630    4.68460   10.75400    0.39180    0.00780    2.04730 4034.52050  861.27680  436.97890   84.49200  121.53210
 3404.50000    2.96940   -0.01600    4.58010   10.74180    0.39000    0.00710    2.05230 7122.23930   -9999.25  460.81700   84.09250  122.24680
 3405.00000    2.82670   -0.01570    4.55450   10.73480    0.38530    0.00760    2.06010 12682.60740   -9999.25 1719.47330   83.70620  122.86160
 3405.50000    2.80680   -0.01540    4.64380   10.72110    0.37960    0.00810    2.06860 12513.16800   -9999.25 1943.94360   83.55090  123.28880
 3406.00000    2.70370   -0.01480    4.72660   10.55710    0.37640    0.01010    2.06860 11012.67970   -9999.25 1948.44060   83.67210  123.14630
 3406.50000    3.46500   -0.01420    4.78030   10.49110    0.37910    0.01240    2.06490 9884.26950   -9999.25 1952.94900   84.48730  122.44700
 3407.00000    4.49340   -0.01360    4.71030   10.60600    0.38510    0.01470    2.05260 9316.46970   -9999.25 1957.46680   84.96390  121.11010
 3407.50000    5.53180   -0.01300    4.57590   10.35090    0.38990    0.01690    2.04610 9316.46970   -9999.25 1961.99610   84.71240  120.35100
