~Version ---------------------------------------------------
VERS.   2.0 : CWLS log ASCII Standard -VERSION 2.0
WRAP.    NO : One line per depth step
DLM . SPACE : Column Data Section Delimiter
~Well ------------------------------------------------------
STRT .F                  20.0 : START DEPTH
STOP .F                4951.0 : STOP DEPTH
STEP .F                   0.5 : STEP
NULL .               -9999.25 : NULL VALUE
COMP .                        : COMPANY
WELL .                        : WELL
FLD  .                        : FIELD
LOC  .                        : LOCATION
PROV .                        : PROVINCE
CNTY .                        : COUNTY
STAT .                        : STATE
CTRY .                        : COUNTRY
SRVC .                        : SERVICE COMPANY
DATE .                        : DATE
UWI  .                        : UNIQUE WELL ID
API  .                        : API NUMBER
SLAT .WGS84 2.496511236493099 : SURFACE LATITUDE
SLON .WGS84 7.203273054830007 : SURFACE LONGITUDE
DATUM.F                3193.0 : DEPTH DATUM ELEV
~Curve Information -----------------------------------------
DEPT.F     : 
GRD .GAPI  : GAMMA RAY
NPHI.DEC   : NEUTRON POROSITY LIMESTONE
PE  .B/E   : PHOTOELECTRIC FACTOR
CALD.IN    : CALIPER FDC LOG
DPHI.DEC   : DENSITY POROSITY LIMESTONE
DRHO.G/C3  : DENSITY CORRECTION
RHOB.G/C3  : BULK DENSITY
LLD .OHMM  : LATEROLOG LOG DEEP
LLS .OHMM  : LATEROLO LOG SHALLOW
MSFL.OHMM  : MICRO SPHERICALLY FOCUSED
DTCO.US/F  : COMPRESSIONAL-WAVE INTERVAL TRANSIT TIME ACOUSTIC SLOWNESS
DTSM.US/F  : SHEAR-WAVE INTERVAL TRANSIT TIME DELTA-T
~Params ----------------------------------------------------
~Other -----------------------------------------------------
~ASCII -----------------------------------------------------
# ...
 4276.00000   55.88950    0.06490    3.01140    9.66400    0.01620    0.01300    2.68560   30.85580   27.12760   23.26080   69.90470  107.03960
 4276.50000   53.79560    0.06040    3.00620    9.72490    0.00930    0.01470    2.69640   31.80590   28.40640   26.93800   70.45840  107.95610
 4277.00000   51.43920    0.05820    2.99160    9.78960    0.00930    0.01430    2.69750   32.09570   28.87850   34.29870   72.49500  110.21950
 4277.50000   50.63800    0.06760    2.97700    9.84830    0.01650    0.01390    2.68810   29.68390   27.15770   37.77490   75.90270  112.85940
 4278.00000   52.06190    0.07570    2.93190    9.88680    0.02780    0.01240    2.66650   26.25100   24.43080   29.97560   78.57680  114.70490
 4278.50000   54.15080    0.08410    2.89220    9.92520    0.03600    0.01020    2.64870   23.10730   20.45850   22.86280   80.16210  115.57930
 4279.00000   56.58530    0.09130    2.84710    9.95650    0.04180    0.00810    2.64060   20.54450   18.38040   17.72710   80.61640  115.75770
 4279.50000   58.32400    0.09660    2.81150    9.98660    0.04510    0.00750    2.63690   18.34900   16.99900   14.37750   79.93030  115.51350
 4280.00000   59.23010    0.10240    2.84400   10.01670    0.04590    0.00490    2.63460   18.00650   17.08440   13.33480   78.89870  115.49320
 4280.50000   59.60690    0.10530    2.92180   10.04690    0.04740    0.00230    2.63250   18.00720   17.65220   13.63270   78.84080  115.49700
 4281.00000   59.38040    0.11440    2.90980   10.07700    0.05460   -0.00070    2.62160   17.45780   18.01530   15.33340   79.56310  116.67680
 4281.50000   59.60060    0.12510    2.89290   10.11330    0.06200   -0.00090    2.60620   16.36850   17.25640   16.76560   81.90280  119.55550
 4282.00000   63.96400    0.13940    2.87600   10.15640    0.06940   -0.00120    2.59360   15.43350   16.20910   18.51870   84.86910  122.09270
 4282.50000   70.16930    0.15360    2.87700   10.19750    0.07260   -0.00140    2.59270   14.69920   14.92260   19.26540   87.55160  121.85690
 4283.00000   73.98530    0.16060    2.88180   10.22880    0.06150   -0.00160    2.61400   13.56180   13.63620   15.71230   87.90160  119.62170
 4283.50000   72.44210    0.13430    2.89900   10.25640    0.03110   -0.00190    2.67520   13.24620   13.01840   12.62360   84.17000  114.72720
 4284.00000   63.02130    0.10020    3.09880   10.26670   -0.01170    0.00230    2.73480   15.28530   14.11230   10.82240   78.76960  110.09940
 4284.50000   49.28630    0.06910    3.55140   10.27020   -0.05160    0.00800    2.79710   20.45730   16.11270   11.88120   74.66380  107.26020
 4285.00000   37.24820    0.04470    4.24290   10.27380   -0.08050    0.01380    2.85000   29.15110   22.67680   17.14910   71.13070  104.76200
 4285.50000   29.24010    0.02660    4.98980   10.27740   -0.09470    0.01400    2.88110   40.80730   32.76630   26.57020   68.52530  103.28810
 4286.00000   23.69130    0.02060    5.31460   10.28100   -0.10890    0.02170    2.91000   55.64080   47.13410   44.81150   67.04620  102.31780
 4286.50000   19.02910    0.01460    5.59340   10.28450   -0.12930    0.01820    2.93180   75.86630   65.20910   76.94690   65.72230  101.34430
 4287.00000   15.21760    0.01050    5.75060   10.28420   -0.14080    0.01460    2.95120  103.44370   87.27270  109.10190   64.68100  100.94280
 4287.50000   12.62910    0.00990    5.80020   10.28390   -0.14700    0.01140    2.96130  141.04570  115.04610  155.79760   64.57970  101.56290
 4288.00000   11.48110    0.01090    5.61500   10.27630   -0.14460    0.00890    2.96380  181.75180  150.33470  233.62380   64.96860  102.52190
 4288.50000   11.58950    0.01250    5.35360   10.26700   -0.13810    0.00780    2.95850  193.03040  174.00620  351.70140   65.51270  103.77150
 4289.00000   12.66660    0.01540    5.07760   10.25780   -0.13140    0.00900    2.95090  193.03040  175.23430  490.67450   66.34580  105.30520
 4289.50000   14.99620    0.01910    4.87460   10.25020   -0.12460    0.01130    2.93660  167.10640  142.85730  436.18440   67.32030  106.45700
 4290.00000   17.00680    0.02220    4.94350   10.24270   -0.11920    0.01520    2.92700  141.36060  116.46230  213.04840   68.25850  107.00350
 4290.50000   18.89500    0.02400    5.05300   10.23420   -0.11660    0.00960    2.91910  115.78140   99.57420  117.62150   69.17660  107.13430
 4291.00000   19.22640    0.02720    5.12490   10.22420   -0.11420    0.00350    2.91090   94.83080   88.70720   73.27020   70.06540  107.69090
 4291.50000   19.04000    0.03290    5.11910   10.21270   -0.10270    0.00280    2.90020   90.00430   83.74320   65.45950   71.06820  108.36800
 4292.00000   20.36350    0.04190    5.08210   10.19960   -0.09380    0.00270    2.88160   85.64910   81.18460   92.36470   72.50010  109.59660
 4292.50000   22.33510    0.05100    5.03410   10.18640   -0.07720    0.00260    2.85260   75.55050   80.45760  117.55640   73.05060  110.21820
 4293.00000   25.58000    0.05780    4.99330   10.17330   -0.06590    0.00260    2.83030   64.63740   72.04960   94.22910   73.58340  110.31220
 4293.50000   28.34350    0.05590    5.00700   10.15000   -0.06420    0.00420    2.81940   55.82890   63.39170   72.56960   74.29200  110.17120
 4294.00000   29.56920    0.04380    5.19020   10.11870   -0.07070    0.00590    2.82600   52.10650   56.63390   63.84870   74.30850  108.81580
 4294.50000   27.65810    0.03410    5.11290   10.09030   -0.09480    0.00790    2.85290   53.73890   59.97060   49.84160   72.26550  107.07940
 4295.00000   22.96160    0.02670    4.93090   10.06590   -0.12140    0.00790    2.90460   62.13620   65.64910   41.86480   69.53560  105.50880
 4295.50000   18.80180    0.02340    4.83190   10.03990   -0.13380    0.00790    2.94600   70.10370   79.07980   53.10920   67.63500  104.64120
 4296.00000   16.64340    0.02160    4.75150   10.00540   -0.10970    0.00600    2.93100   77.04810   89.04800   98.10950   67.15090  104.49560
 4296.50000   17.22600    0.01990    4.64660    9.97080   -0.08830    0.00120    2.88610   81.17920   91.14890  132.32110   67.13820  104.14660
 4297.00000   18.68770    0.01590    4.57730    9.96600   -0.07580   -0.00110    2.84300   81.81260   89.51510   80.76760   66.08350  102.67410
 4297.50000   18.21290    0.00990    4.62300    9.93740   -0.08390   -0.00020    2.85080   83.65690   89.88300   57.59260   63.70290  100.72060
 4298.00000   15.54540    0.00340    4.93540    9.90880   -0.10230    0.00460    2.86850  124.54970  114.08620   44.26320   61.19820   98.51890
 4298.50000   12.26270    0.00110    5.35900    9.87700   -0.13280    0.00940    2.92390  196.21600  156.62340   53.92900   59.30770   97.33270
 4299.00000    9.20940    0.00030    5.72330    9.84160   -0.13880    0.01070    2.94380  285.93250  226.53420  168.18340   58.23110   96.90700
 4299.50000    7.99030    0.00110    5.37850    9.80500   -0.14060    0.01110    2.95350  416.23380  336.74270 1325.90410   58.03140   97.22260
 4300.00000    7.88640    0.00180    4.98130    9.76530   -0.14210    0.01190    2.95670  642.28120  521.77590 1892.88060   58.74240   97.80540
 4300.50000    8.21150    0.00180    4.73810    9.72540   -0.14570    0.01560    2.96040  591.27800  623.30160 2013.50050   59.70930   98.43210
 4301.00000    9.41940    0.00180    4.63200    9.68890   -0.14890    0.01960    2.96570  453.13400  565.50210 2014.73230   60.77010   99.05890
 4301.50000   10.62720    0.00200    4.54640    9.66040   -0.14750    0.02060    2.96900  352.01890  425.66470 2012.00440   61.61880   99.61560
 4302.00000   11.37940    0.00260    4.48020    9.63430   -0.14220    0.01760    2.96080  280.32210  330.72200 1577.64750   62.37980   99.79270
 4302.50000   11.63920    0.00300    4.42210    9.59660   -0.13840    0.01470    2.95380  233.76450  258.93960  772.76460   62.50700   99.79730
 4303.00000   11.23690    0.00180    4.52090    9.54560   -0.14190    0.01290    2.95070  220.55880  247.78410  430.98170   61.47260   99.40350
 4303.50000   10.62840    0.00060    4.75860    9.50950   -0.14790    0.01330    2.96120  253.56300  286.38790  327.96370   60.21980   98.67380
