~Version ---------------------------------------------------
VERS.   2.0 : CWLS log ASCII Standard -VERSION 2.0
WRAP.    NO : One line per depth step
DLM . SPACE : Column Data Section Delimiter
~Well ------------------------------------------------------
STRT .F                  20.0 : START DEPTH
STOP .F                4951.0 : STOP DEPTH
STEP .F                   0.5 : STEP
NULL .               -9999.25 : NULL VALUE
COMP .                        : COMPANY
WELL .                        : WELL
FLD  .                        : FIELD
LOC  .                        : LOCATION
PROV .                        : PROVINCE
CNTY .                        : COUNTY
STAT .                        : STATE
CTRY .                        : COUNTRY
SRVC .                        : SERVICE COMPANY
DATE .                        : DATE
UWI  .                        : UNIQUE WELL ID
API  .                        : API NUMBER
SLAT .WGS84 2.496511236493099 : SURFACE LATITUDE
SLON .WGS84 7.203273054830007 : SURFACE LONGITUDE
DATUM.F                3193.0 : DEPTH DATUM ELEV
~Curve Information -----------------------------------------
DEPT.F     : 
GRD .GAPI  : GAMMA RAY
NPHI.DEC   : NEUTRON POROSITY LIMESTONE
PE  .B/E   : PHOTOELECTRIC FACTOR
CALD.IN    : CALIPER FDC LOG
DPHI.DEC   : DENSITY POROSITY LIMESTONE
DRHO.G/C3  : DENSITY CORRECTION
RHOB.G/C3  : BULK DENSITY
LLD .OHMM  : LATEROLOG LOG DEEP
LLS .OHMM  : LATEROLO LOG SHALLOW
MSFL.OHMM  : MICRO SPHERICALLY FOCUSED
DTCO.US/F  : COMPRESSIONAL-WAVE INTERVAL TRANSIT TIME ACOUSTIC SLOWNESS
DTSM.US/F  : SHEAR-WAVE INTERVAL TRANSIT TIME DELTA-T
~Params ----------------------------------------------------
~Other -----------------------------------------------------
~ASCII -----------------------------------------------------
# ...
 4668.00000    9.85810    0.06340    3.31030    8.33680   -0.06200    0.03960    2.81640 1167.01500 1032.29980 1933.39760   53.45620   91.18490
 4668.50000   10.09150    0.06470    3.32800    8.32770   -0.05740    0.04280    2.80760  991.67330  892.76960 1501.14320   54.50000   91.40640
 4669.00000   11.11750    0.06820    3.31770    8.33610   -0.04950    0.04350    2.79910  789.77550  770.66920 1106.50820   55.24020   91.39360
 4669.50000   12.14360    0.07210    3.27920    8.34450   -0.04710    0.04430    2.79600  620.13180  664.15970  807.00380   55.57350   91.19480
 4670.00000   13.08990    0.07430    3.21740    8.34500   -0.05030    0.04500    2.80390  540.62760  590.26450  511.88710   55.10150   90.80950
 4670.50000   13.64350    0.07400    3.16000    8.34090   -0.05840    0.04550    2.81500  536.97700  549.56900  335.86220   53.73980   90.36300
 4671.00000   12.75680    0.07220    3.18730    8.33670   -0.06160    0.04610    2.81820  579.09480  554.24730  326.45600   52.85820   90.24640
 4671.50000   11.57220    0.07030    3.28240    8.32970   -0.06220    0.04620    2.82050  625.94090  587.85050  402.71060   52.67370   90.32170
 4672.00000   10.25270    0.06880    3.35220    8.31200   -0.06300    0.04750    2.82240  679.53300  652.91700  471.45370   53.05930   90.33880
 4672.50000    9.08450    0.06460    3.42010    8.30390   -0.06480    0.05000    2.82790  741.55990  725.18510  561.38820   53.04410   90.25540
 4673.00000    8.60690    0.06030    3.35100    8.29730   -0.07220    0.05420    2.83900  809.24820  807.48430  682.75440   52.46520   90.15040
 4673.50000    7.99180    0.05660    3.21960    8.28770   -0.07940    0.05590    2.84890  866.23060  899.22450  739.22690   51.38950   89.81610
 4674.00000    7.48400    0.05600    3.23730    8.29160   -0.08000    0.05740    2.84820  875.67320  967.54520  850.65990   50.79370   89.54610
 4674.50000    7.66160    0.05720    3.26000    8.29900   -0.07390    0.05880    2.83780  870.99720  962.42780  938.37330   50.98980   89.75870
 4675.00000    9.44070    0.05840    3.41860    8.29540   -0.06360    0.05410    2.81900  781.21320  844.48300  961.26770   51.39180   90.29480
 4675.50000   11.22400    0.05960    3.57060    8.28110   -0.05450    0.04950    2.80270  534.12980  646.17680  836.85710   51.82950   90.80260
 4676.00000   12.50800    0.06230    3.58340    8.29110   -0.04960    0.04820    2.79690  419.13350  492.19590  426.71430   52.94690   91.92510
 4676.50000   13.28820    0.06800    3.55380    8.30170   -0.04850    0.04820    2.79590  354.43990  423.59030  266.98830   54.14340   92.95670
 4677.00000   13.64910    0.07170    3.48230    8.31560   -0.04940    0.04820    2.79730  298.65640  376.32140  190.11200   55.35020   93.03860
 4677.50000   13.48950    0.07190    3.49190    8.32960   -0.05010    0.04810    2.79990  286.41060  344.48640  206.03220   56.34090   92.98060
 4678.00000   13.44440    0.07040    3.50440    8.31310   -0.05350    0.04950    2.80700  285.37800  340.09220  272.58750   56.95610   92.71870
 4678.50000   13.11890    0.06610    3.45790    8.32080   -0.05850    0.05090    2.81800  284.60340  340.36300  336.92760   56.45840   91.76250
 4679.00000   12.72800    0.06140    3.26830    8.32860   -0.06570    0.05140    2.83050  282.44420  341.99800  500.92160   55.42240   91.00370
 4679.50000   12.25460    0.05660    3.09530    8.33020   -0.07170    0.05140    2.84030  282.37850  354.69280  653.99600   54.12690   90.58400
 4680.00000   11.94320    0.05540    3.06130    8.32860   -0.07490    0.05050    2.84050  284.57180  368.34480  429.50760   53.31790   90.20120
 4680.50000   11.65570    0.05690    3.10490    8.32740   -0.07120    0.04970    2.83320  306.26300  383.54390  343.24710   52.96840   90.10580
 4681.00000   11.05630    0.06100    3.25940    8.32700   -0.05950    0.04630    2.80980  337.98640  400.50520  342.63670   52.82660   90.32750
 4681.50000   10.43340    0.06980    3.45540    8.32730   -0.04860    0.04160    2.78950  372.99580  435.39130  372.17190   52.92990   90.66220
 4682.00000    9.96370    0.07870    3.60940    8.33400   -0.03990    0.03840    2.77880  407.17400  487.08250  419.18250   53.34900   90.91200
 4682.50000    9.36610    0.08750    3.74580    8.32820   -0.03720    0.03800    2.77500  444.41240  544.83220  545.77340   53.56430   91.07730
 4683.00000    9.21160    0.09220    3.65930    8.32390   -0.03820    0.03760    2.77930  485.05610  577.58360  863.85520   53.76820   91.29350
 4683.50000    9.23440    0.09390    3.47490    8.32430   -0.04070    0.03880    2.78220  507.53280  586.07400 1108.91140   53.97210   91.37280
 4684.00000    9.36720    0.09410    3.20940    8.32560   -0.04030    0.04050    2.77950  504.24380  594.10380  930.24110   53.92360   91.35240
 4684.50000    9.54170    0.09290    3.00950    8.32350   -0.03730    0.04160    2.77430  501.18400  601.72030  720.92820   53.71730   91.27770
 4685.00000    9.72560    0.09170    2.98740    8.30980   -0.03450    0.04180    2.77070  553.68770  613.82450  720.17860   53.24160   91.25050
 4685.50000    9.90950    0.08930    3.06160    8.29750   -0.03390    0.04230    2.77090  612.05020  661.71510  824.61720   53.23100   91.26330
 4686.00000   10.02870    0.08470    3.25560    8.30090   -0.03510    0.04490    2.77350  685.89920  742.41620  947.71580   53.53810   91.27610
 4686.50000    9.89580    0.08310    3.45420    8.30430   -0.03660    0.04760    2.77560  763.38070  832.95890 1195.32060   53.95250   91.50050
 4687.00000    9.73750    0.08200    3.59300    8.30370   -0.03690    0.05100    2.77490  782.76170  855.24450 1671.25600   54.10700   91.97650
 4687.50000    9.55760    0.08310    3.48220    8.31070   -0.03540    0.05480    2.77090  767.21530  828.38680 1991.14890   54.35790   92.49980
 4688.00000    9.37770    0.08500    3.32590    8.31860   -0.03530    0.05850    2.77650  609.31850  717.25180 2011.54160   54.56020   92.94230
 4688.50000    9.19770    0.08610    3.10290    8.32190   -0.04100    0.06240    2.78650  464.79540  578.35140 1066.05430   54.68610   93.38480
 4689.00000    8.96890    0.08800    3.03570    8.31970   -0.04480    0.06620    2.78720  424.24300  491.43800  481.77590   55.08500   93.73130
 4689.50000    8.57860    0.09160    3.03280    8.32490   -0.04120    0.06750    2.78280  429.66930  494.41650  285.30720   55.35920   93.96610
 4690.00000    8.18830    0.09500    3.03000    8.32890   -0.03800    0.06610    2.77710  501.91470  579.39020  320.44820   55.61390   94.15530
 4690.50000    7.79800    0.09770    3.03010    8.32590   -0.03650    0.06220    2.77480  639.08440  731.70100  549.93590   55.86870   94.29360
 4691.00000    7.40770    0.10020    3.03670    8.32150   -0.04030    0.05930    2.78040  813.74190  924.05130  860.98320   55.97260   94.29380
 4691.50000    7.17790    0.10090    3.03560    8.32530   -0.04720    0.05850    2.79410 1030.80090 1166.96690  745.58400   55.98730   94.29410
 4692.00000    7.54890    0.09900    3.06040    8.32900   -0.04750    0.05790    2.79430 1274.55300 1353.47030  862.81390   56.06450   94.41050
 4692.50000    8.03340    0.09530    3.13410    8.33270   -0.04540    0.05530    2.78990 1362.49010 1507.78690 1252.83650   56.22370   94.63310
 4693.00000    8.50620    0.09100    3.23040    8.33640   -0.04700    0.04920    2.79340 1414.69290 1527.23400 1614.40530   56.85320   94.82250
 4693.50000    8.50620    0.08590    3.42610    8.31950   -0.05310    0.04300    2.80470 1514.52480 1530.74270 1591.96450   57.55990   94.77780
 4694.00000    8.30450    0.08120    3.53700    8.32010   -0.05910    0.04130    2.81690 1483.41360 1522.65890 1544.88760   58.10310   94.57130
 4694.50000    8.07940    0.08120    3.59680    8.32550   -0.06250    0.04130    2.82080 1318.94120 1463.79220 1410.69510   58.42410   94.36480
 4695.00000    7.85420    0.08120    3.60330    8.33760   -0.05990    0.04130    2.81450 1185.08000 1330.58530 1158.35790   58.67090   93.97320
 4695.50000    7.63380    0.08610    3.49990    8.32870   -0.04600    0.04080    2.79310 1006.63990 1128.95020  988.42690   58.60420   93.63930
