~Version ---------------------------------------------------
VERS.   2.0 : CWLS log ASCII Standard -VERSION 2.0
WRAP.    NO : One line per depth step
DLM . SPACE : Column Data Section Delimiter
~Well ------------------------------------------------------
STRT .F                  20.0 : START DEPTH
STOP .F                4951.0 : STOP DEPTH
STEP .F                   0.5 : STEP
NULL .               -9999.25 : NULL VALUE
COMP .                        : COMPANY
WELL .                        : WELL
FLD  .                        : FIELD
LOC  .                        : LOCATION
PROV .                        : PROVINCE
CNTY .                        : COUNTY
STAT .                        : STATE
CTRY .                        : COUNTRY
SRVC .                        : SERVICE COMPANY
DATE .                        : DATE
UWI  .                        : UNIQUE WELL ID
API  .                        : API NUMBER
SLAT .WGS84 2.496511236493099 : SURFACE LATITUDE
SLON .WGS84 7.203273054830007 : SURFACE LONGITUDE
DATUM.F                3193.0 : DEPTH DATUM ELEV
~Curve Information -----------------------------------------
DEPT.F     : 
GRD .GAPI  : GAMMA RAY
NPHI.DEC   : NEUTRON POROSITY LIMESTONE
PE  .B/E   : PHOTOELECTRIC FACTOR
CALD.IN    : CALIPER FDC LOG
DPHI.DEC   : DENSITY POROSITY LIMESTONE
DRHO.G/C3  : DENSITY CORRECTION
RHOB.G/C3  : BULK DENSITY
LLD .OHMM  : LATEROLOG LOG DEEP
LLS .OHMM  : LATEROLO LOG SHALLOW
MSFL.OHMM  : MICRO SPHERICALLY FOCUSED
DTCO.US/F  : COMPRESSIONAL-WAVE INTERVAL TRANSIT TIME ACOUSTIC SLOWNESS
DTSM.US/F  : SHEAR-WAVE INTERVAL TRANSIT TIME DELTA-T
~Params ----------------------------------------------------
~Other -----------------------------------------------------
~ASCII -----------------------------------------------------
# ...
 4920.00000   12.58590    0.19400    3.03410    8.35070    0.05300    0.03050    2.62320   21.76390   22.25090   10.79710   61.68610  100.65210
 4920.50000   12.57300    0.19160    3.13390    8.34020    0.05370    0.03120    2.62400   19.47320   20.65240   10.04720   62.11020  101.11860
 4921.00000   12.48620    0.18530    3.15080    8.32580    0.04350    0.03570    2.63680   18.44680   19.83720    7.72780   61.76770  100.27460
 4921.50000   13.17470    0.17410    3.11660    8.31610    0.02610    0.04450    2.66530   19.77560   19.89290    6.20450   60.59310   98.94560
 4922.00000   13.73290    0.16240    2.99150    8.30840    0.01520    0.05320    2.68660   22.91330   22.09620    5.93320   58.66960   97.91520
 4922.50000   14.10260    0.15690    2.85780    8.29930    0.01100    0.05510    2.69460   26.04850   24.53260    7.49640   57.66080   98.37710
 4923.00000   14.24360    0.15690    2.71270    8.28810    0.00960    0.05510    2.69650   27.82830   26.28630    9.44740   58.08440   99.03760
 4923.50000   14.13370    0.16160    2.67050    8.28190    0.00720    0.05460    2.70260   29.34480   28.16530    7.21330   59.30750   98.94530
 4924.00000   13.32090    0.16610    2.74060    8.29980    0.00390    0.05150    2.70710   30.36630   29.80880    5.80300   59.56530   97.85290
 4924.50000   13.07340    0.16470    2.93330    8.31980    0.00190    0.04810    2.70800   31.24090   31.19740    6.18950   59.82310   96.13900
 4925.00000   12.78770    0.16070    3.06910    8.33960    0.00500    0.04480    2.70490   32.14070   32.65080    9.55680   59.97710   95.69750
 4925.50000   13.09240    0.15960    3.03700    8.31810    0.00350    0.04360    2.70920   32.80700   34.17180   16.21890   59.96510   96.18140
 4926.00000   12.95610    0.16350    2.99670    8.27550   -0.00170    0.04450    2.71460   32.67220   34.93460   17.97630   59.94000   96.35270
 4926.50000   12.76780    0.16730    2.99810    8.25520   -0.00240    0.04540    2.71470   31.16450   33.89430    9.60040   59.66260   95.70060
 4927.00000   12.64370    0.17400    3.03440    8.23880    0.00310    0.04380    2.70730   30.83940   32.75970    6.80170   59.17360   94.23330
 4927.50000   -9999.25    0.17760    3.09140    8.23590    0.01050    0.04060    2.69420   33.04220   32.11990    7.62440   58.44150   92.54310
 4928.00000   -9999.25    0.18080    3.12090    8.24100    0.01640    0.03750    2.68390   36.61710   33.59700   12.40250   58.08810   91.80770
 4928.50000   -9999.25    0.17910    3.05690    8.27490    0.02110    0.03510    2.67630   39.55370   38.60150   20.40070   58.28030   91.29560
 4929.00000   -9999.25    0.16440    2.96020    8.29850    0.02310    0.03410    2.67310   42.35370   44.35150   25.80620   58.29250   91.52940
 4929.50000   -9999.25    0.14800    2.90460    8.31280    0.02210    0.03310    2.67530   45.35180   47.96430   24.54700   58.30460   91.69170
 4930.00000   -9999.25    0.14030    2.91760    8.33710    0.01910    0.03480    2.68310   48.65160   51.70360   22.87860   58.28060   91.68610
 4930.50000   -9999.25    0.14140    2.93790    8.33710    0.01280    0.03700    2.69260   52.30760   55.73450   23.43720   58.22950   91.65540
 4931.00000   -9999.25    0.14610    2.94730    8.31970    0.00160    0.03920    2.71130   56.56440   60.05380   28.09440   58.17830   92.01820
 4931.50000   -9999.25    0.14990    2.88010    8.28410   -0.00480    0.04030    2.71870   -9999.25   -9999.25   53.33160   -9999.25   -9999.25
 4932.00000   -9999.25    0.15020    2.79570    8.26230   -0.00430    0.04110    2.71400   -9999.25   -9999.25  131.75320   -9999.25   -9999.25
 4932.50000   -9999.25   -9999.25    2.76100    8.28240    0.00720    0.04180    2.69970   -9999.25   -9999.25  211.28290   -9999.25   -9999.25
 4933.00000   -9999.25   -9999.25    2.83220    8.27780    0.01940    0.04490    2.68030   -9999.25   -9999.25  146.77460   -9999.25   -9999.25
 4933.50000   -9999.25   -9999.25    2.91180    8.23350    0.02700    0.04950    2.66550   -9999.25   -9999.25  119.71180   -9999.25   -9999.25
 4934.00000   -9999.25   -9999.25    2.99140    8.22110    0.03260    0.05420    2.65280   -9999.25   -9999.25   90.10760   -9999.25   -9999.25
 4934.50000   -9999.25   -9999.25    3.00740    8.22050    0.03750    0.05720    2.65180   -9999.25   -9999.25   49.31170   -9999.25   -9999.25
 4935.00000   -9999.25   -9999.25    3.00340    8.22710    0.03680    0.05620    2.65300   -9999.25   -9999.25   28.17520   -9999.25   -9999.25
 4935.50000   -9999.25   -9999.25    2.99940    8.23440    0.03110    0.05550    2.66090   -9999.25   -9999.25   19.75580   -9999.25   -9999.25
 4936.00000   -9999.25   -9999.25    2.99540    8.21690    0.02070    0.05560    2.67760   -9999.25   -9999.25   19.73030   -9999.25   -9999.25
 4936.50000   -9999.25   -9999.25    2.99140    8.20110    0.01140    0.05630    2.69360   -9999.25   -9999.25   23.31770   -9999.25   -9999.25
 4937.00000   -9999.25   -9999.25    2.96770    8.21130    0.00860    0.05710    2.69790   -9999.25   -9999.25   23.54550   -9999.25   -9999.25
 4937.50000   -9999.25   -9999.25    2.92390    8.22130    0.01190    0.05770    2.69280   -9999.25   -9999.25   22.57390   -9999.25   -9999.25
 4938.00000   -9999.25   -9999.25    2.87690    8.22530    0.02230    0.05450    2.67420   -9999.25   -9999.25   26.69370   -9999.25   -9999.25
 4938.50000   -9999.25   -9999.25    2.82850    8.22940    0.03500    0.05150    2.64560   -9999.25   -9999.25   22.58010   -9999.25   -9999.25
 4939.00000   -9999.25   -9999.25    2.81850    8.22230    0.04940    0.05110    2.62920   -9999.25   -9999.25   12.82920   -9999.25   -9999.25
 4939.50000   -9999.25   -9999.25    2.81230    8.19210    0.06380    0.04990    2.59520   -9999.25   -9999.25    7.80700   -9999.25   -9999.25
 4940.00000   -9999.25   -9999.25    2.80610    8.19790    0.06910    0.04870    2.59500   -9999.25   -9999.25    5.45030   -9999.25   -9999.25
 4940.50000   -9999.25   -9999.25    2.79990    8.22090    0.06470    0.04950    2.60600   -9999.25   -9999.25    3.76630   -9999.25   -9999.25
 4941.00000   -9999.25   -9999.25    2.81730    8.25820    0.04970    0.05240    2.61880   -9999.25   -9999.25    3.22750   -9999.25   -9999.25
 4941.50000   -9999.25   -9999.25    2.86690    8.27740    0.03530    0.05530    2.65620   -9999.25   -9999.25    3.12530   -9999.25   -9999.25
 4942.00000   -9999.25   -9999.25    3.03350    8.24470    0.02710    0.05840    2.66660   -9999.25   -9999.25    3.51560   -9999.25   -9999.25
 4942.50000   -9999.25   -9999.25    3.12290    8.21480    0.02990    0.05660    2.66210   -9999.25   -9999.25    4.55040   -9999.25   -9999.25
 4943.00000   -9999.25   -9999.25    3.16930    8.19790    0.04160    0.05350    2.65020   -9999.25   -9999.25    6.45570   -9999.25   -9999.25
 4943.50000   -9999.25   -9999.25    3.05920    8.20950    0.05420    0.04970    2.62180   -9999.25   -9999.25    8.21170   -9999.25   -9999.25
 4944.00000   -9999.25   -9999.25    2.93950    8.24380    0.06460    0.04470    2.60450   -9999.25   -9999.25    7.37090   -9999.25   -9999.25
 4944.50000   -9999.25   -9999.25    2.85280    8.29950    0.07250    0.03990    2.59180   -9999.25   -9999.25    5.08780   -9999.25   -9999.25
 4945.00000   -9999.25   -9999.25    2.80940    8.33580    0.07820    0.04300    2.58130   -9999.25   -9999.25    3.68170   -9999.25   -9999.25
 4945.50000   -9999.25   -9999.25    2.77610    8.34150    0.08190    0.04620    2.57450   -9999.25   -9999.25    3.34290   -9999.25   -9999.25
 4946.00000   -9999.25   -9999.25    2.76170    8.30050    0.08480    0.05270    2.56850   -9999.25   -9999.25    4.05090   -9999.25   -9999.25
 4946.50000   -9999.25   -9999.25    2.76550    8.21160    0.08770    0.05920    2.56400   -9999.25   -9999.25    5.34080   -9999.25   -9999.25
 4947.00000   -9999.25   -9999.25    2.79580    8.20730    0.08310    0.06570    2.56640   -9999.25   -9999.25    6.05310   -9999.25   -9999.25
 4947.50000   -9999.25   -9999.25    2.92060    8.18240    0.06940    0.07220    2.58010   -9999.25   -9999.25   -9999.25   -9999.25   -9999.25
