~Version ---------------------------------------------------
VERS.   2.0 : CWLS log ASCII Standard -VERSION 2.0
WRAP.    NO : One line per depth step
DLM . SPACE : Column Data Section Delimiter
~Well ------------------------------------------------------
STRT .F                  20.0 : START DEPTH
STOP .F                4951.0 : STOP DEPTH
STEP .F                   0.5 : STEP
NULL .               -9999.25 : NULL VALUE
COMP .                        : COMPANY
WELL .                        : WELL
FLD  .                        : FIELD
LOC  .                        : LOCATION
PROV .                        : PROVINCE
CNTY .                        : COUNTY
STAT .                        : STATE
CTRY .                        : COUNTRY
SRVC .                        : SERVICE COMPANY
DATE .                        : DATE
UWI  .                        : UNIQUE WELL ID
API  .                        : API NUMBER
SLAT .WGS84 2.496511236493099 : SURFACE LATITUDE
SLON .WGS84 7.203273054830007 : SURFACE LONGITUDE
DATUM.F                3193.0 : DEPTH DATUM ELEV
~Curve Information -----------------------------------------
DEPT.F     : 
GRD .GAPI  : GAMMA RAY
NPHI.DEC   : NEUTRON POROSITY LIMESTONE
PE  .B/E   : PHOTOELECTRIC FACTOR
CALD.IN    : CALIPER FDC LOG
DPHI.DEC   : DENSITY POROSITY LIMESTONE
DRHO.G/C3  : DENSITY CORRECTION
RHOB.G/C3  : BULK DENSITY
LLD .OHMM  : LATEROLOG LOG DEEP
LLS .OHMM  : LATEROLO LOG SHALLOW
MSFL.OHMM  : MICRO SPHERICALLY FOCUSED
DTCO.US/F  : COMPRESSIONAL-WAVE INTERVAL TRANSIT TIME ACOUSTIC SLOWNESS
DTSM.US/F  : SHEAR-WAVE INTERVAL TRANSIT TIME DELTA-T
~Params ----------------------------------------------------
~Other -----------------------------------------------------
~ASCII -----------------------------------------------------
# ...
 3772.00000    2.64740   -0.00530    4.75410    9.82640    0.07410    0.05360    2.58590  850.74900 1279.38310    2.50630   75.01980  107.42740
 3772.50000    2.50430   -0.00520    4.89160    9.78470    0.06330    0.03360    2.60110 1934.48050   -9999.25    3.14700   74.14970  106.16270
 3773.00000    2.44480   -0.00500    4.84600    9.77050    0.03480    0.03110    2.65030 3223.34110   -9999.25    3.89290   71.28750  104.50670
 3773.50000    2.50060   -0.00480    4.80340    9.76680    0.01610    0.02840    2.69420 6999.37350   -9999.25    3.46930   68.84620  103.49380
 3774.00000    2.60200   -0.00410    4.94210    9.77520    0.00320    0.01980    2.70800 8938.78420   -9999.25    7.48870   65.55750  103.12570
 3774.50000    2.99110   -0.00310    5.13440    9.78430   -0.00230    0.01130    2.71490 10959.71390   -9999.25   41.24100   63.02420  103.14210
 3775.00000    3.61440   -0.00220    5.39000    9.79340   -0.01340    0.00780    2.73490 11586.55570   -9999.25 1853.21780   61.01360  103.71650
 3775.50000    4.17090   -0.00140    5.61980    9.80250   -0.02760    0.01120    2.76390 9818.86130   -9999.25 1971.92080   59.45540  104.54600
 3776.00000    4.41680   -0.00130    5.67450    9.81160   -0.04070    0.01540    2.78220 7352.16940   -9999.25 1975.13750   60.03260  106.80310
 3776.50000    4.42490   -0.00160    5.72590    9.81990   -0.04710    0.01700    2.79120 5505.15580   -9999.25 1978.35940   61.54680  108.81470
 3777.00000    4.56810   -0.00330    5.77130    9.81400   -0.03300    0.01200    2.77510 3987.14260   -9999.25 1981.58540   66.04070  110.99770
 3777.50000    4.89410   -0.00580    5.42020    9.80810    0.06960    0.00520    2.63550 2474.13600   -9999.25 1968.85840   71.93690  114.88260
 3778.00000    5.22020   -0.00840    4.77490    9.84390    0.26290   -0.00500    2.42200 1490.67830 1450.41130 1610.08690   81.12270  121.06060
 3778.50000    5.79990   -0.00830    4.39150    9.91520    0.31130   -0.00450    2.19780  830.16590  680.16970   45.90530   90.04590  128.05300
 3779.00000    6.73090   -0.00660    4.24310   10.37200    0.37440    0.01550    2.09330  462.32340  331.36280   16.71480   98.00980  137.52170
 3779.50000   10.15970    0.00340    4.18300   10.89830    0.36570    0.03260    2.07350  232.71240  152.45610    8.92400  104.71090  150.67410
 3780.00000   16.50370    0.05230    3.99510   10.89840    0.29070    0.04500    2.15030  105.49930   71.10710    6.80560  115.51570  158.49960
 3780.50000   25.96890    0.15570    3.69360   10.73190    0.22690    0.06530    2.32800   31.20110   38.82870    5.81210  124.24430  162.09770
 3781.00000   37.01640    0.19020    3.29490   10.54170    0.22210    0.07570    2.33510   16.59760   22.29840    5.03120  128.07320  159.60980
 3781.50000   45.84410    0.19170    3.02220   10.53740    0.22480    0.07870    2.32940   10.91780   15.19410    3.10430  128.84330  153.07500
 3782.00000   50.67230    0.18850    2.91510   10.58750    0.21200    0.08190    2.32480    8.38560   10.88350    2.13150  125.11420  145.74920
 3782.50000   50.39510    0.14890    2.80800   10.59810    0.17770    0.08840    2.33830    8.12790   10.24360    1.48790  118.25660  131.39510
 3783.00000   44.70230    0.09090    2.88620   10.39930    0.11040    0.10830    2.48560   10.24530   12.26100    1.10010  107.60820  122.44190
 3783.50000   34.29530    0.04220    3.14700    9.91660    0.03020    0.13130    2.60000   13.15980   16.00730    0.90370   90.51240  113.61540
 3784.00000   23.32340    0.02140    4.05160    9.77320   -0.00110    0.13050    2.71930   17.63350   20.89830    0.84790   77.55350  111.04260
 3784.50000   14.17650    0.01720    4.80920    9.76200    0.01390    0.09090    2.69140   26.38770   26.70250    1.82400   72.87170  113.84190
 3785.00000    9.01580    0.02350    4.78940    9.75400    0.01150    0.07360    2.68020   31.64620   30.48690   15.80150   70.96270  118.62210
 3785.50000    9.02130    0.03370    4.67080    9.75290   -0.02420    0.07870    2.75390   33.36220   31.64520  162.60980   69.84200  121.76060
 3786.00000   10.22690    0.03690    4.70220    9.74770   -0.08990    0.10210    2.87980   30.72440   28.43950   53.53480   69.43060  124.95250
 3786.50000   10.52360    0.03150    4.87090    9.75380   -0.10460    0.12730    2.87840   31.66310   25.68790   31.40570   70.37490  129.99620
 3787.00000   10.73740    0.02480    5.00730    9.77410   -0.00920    0.13350    2.77120   34.67990   26.05790   26.77660   74.74540  138.76180
 3787.50000   12.15050    0.02410    4.79180    9.82610    0.12260    0.10600    2.51410   40.78940   27.75430   25.31840   83.52670  147.12640
 3788.00000   16.54770    0.03680    4.54600    9.97660    0.18630    0.10180    2.35480   46.68220   27.68420   18.49620   94.88300  154.84200
 3788.50000   22.41070    0.06620    3.43320   10.14580    0.23250    0.10640    2.30870   45.90350   26.57030    8.09570  103.81520  157.53960
 3789.00000   29.40390    0.10510    3.34760   10.29850    0.23720    0.12330    2.31850   38.06660   23.49950    4.65500  112.86130  157.91910
 3789.50000   35.92420    0.15700    3.32840   10.65200    0.22650    0.13730    2.31990   30.39580   20.17020    3.92250  120.08610  157.98950
 3790.00000   41.28040    0.19410    3.27040   10.86250    0.22490    0.14340    2.29980   24.27080   17.31260    5.10060  125.87870  157.45500
 3790.50000   45.77990    0.23120    3.17220   11.04610    0.24520    0.12250    2.23200   19.67870   14.87430    5.86060  129.08700  156.72640
 3791.00000   48.82100    0.23840    2.96790   11.32140    0.28710    0.10180    2.17010   16.28400   13.51070    3.79700  130.30590  155.20340
 3791.50000   50.89420    0.24150    2.75020   11.55990    0.39730    0.09400    2.02800   13.47490   12.27220    2.57280  128.60550  153.24100
 3792.00000   50.95700    0.23240    2.48830   11.81000    0.42220    0.08450    1.98380   12.12140   11.14720    1.80560  122.58980  150.06580
 3792.50000   49.16150    0.20830    2.29420   12.16400    0.43220    0.08210    1.96560   11.10190   10.43540    1.20910  115.94230  143.08020
 3793.00000   45.41460    0.14800    2.23620   12.58780    0.39720    0.07980    1.99400   10.84410   10.33050    0.96320  108.58300  137.00150
 3793.50000   40.00090    0.04980    2.31960   12.44030    0.36120    0.09940    2.04800   12.44710   10.85680    0.88160   99.09030  130.76420
 3794.00000   34.13010    0.01750    2.72810   11.65080    0.34380    0.06960    2.12630   14.97260   12.54500    0.79680   91.18280  128.43260
 3794.50000   27.82630    0.00490    3.15860   11.45510    0.35060    0.04840    2.11350   20.39280   14.77050    0.78190   88.67750  126.53550
 3795.00000   23.21080   -0.00080    3.64490   11.55170    0.36110    0.02970    2.09000   28.43280   18.29540    1.44330   88.83850  124.65920
 3795.50000   20.22310   -0.00280    3.88270   11.63200    0.36160    0.02660    2.09540   43.13860   22.66150    6.01880   90.71330  123.32100
 3796.00000   18.37840   -0.00070    3.97470   11.57260    0.35590    0.02620    2.10380   54.48270   27.24480   24.23120   94.84020  123.06550
 3796.50000   17.47880    0.00180    3.93790   11.48460    0.35190    0.02680    2.11000   65.40190   32.08660   22.18010   97.62780  124.55360
 3797.00000   17.32800    0.00620    3.89870   11.43710    0.34840    0.02890    2.11570   62.58270   34.71030   30.78010  101.27020  126.39650
 3797.50000   18.16020    0.01390    3.83370   11.61150    0.33490    0.03140    2.13430   52.88550   34.33940   18.99740  104.38390  127.47250
 3798.00000   18.88660    0.03090    3.83300   11.58870    0.31140    0.03460    2.20430   38.87860   31.50100   10.68990  104.61520  127.17380
 3798.50000   18.72250    0.03100    3.84280   10.90280    0.23390    0.03870    2.35890   39.38310   32.72610    4.59120   97.15860  123.92300
 3799.00000   16.47360    0.02660    3.84830   10.30890    0.14710    0.04270    2.50150   43.91890   38.02630    3.19610   85.59980  113.93580
 3799.50000   13.22770    0.02200    4.19970   10.27160    0.05830    0.04480    2.62930   50.41230   50.29750    2.93630   75.78620  107.08760
