~Version ---------------------------------------------------
VERS.   2.0 : CWLS log ASCII Standard -VERSION 2.0
WRAP.    NO : One line per depth step
DLM . SPACE : Column Data Section Delimiter
~Well ------------------------------------------------------
STRT .F                3893.0 : START DEPTH
STOP .F                4939.0 : STOP DEPTH
STEP .F                   0.5 : STEP
NULL .               -9999.25 : NULL VALUE
COMP .                        : COMPANY
WELL .                        : WELL
FLD  .                        : FIELD
LOC  .                        : LOCATION
PROV .                        : PROVINCE
CNTY .                        : COUNTY
STAT .                        : STATE
CTRY .                        : COUNTRY
SRVC .                        : SERVICE COMPANY
DATE .                        : DATE
UWI  .                        : UNIQUE WELL ID
API  .                        : API NUMBER
SLAT .WGS84 3.865781920935099 : SURFACE LATITUDE
SLON .WGS84 7.249412180818993 : SURFACE LONGITUDE
DATUM.F               3706.29 : DEPTH DATUM ELEV
~Curve Information -----------------------------------------
DEPT   .F     : 1 MEASURED DEPTH
NPHI_LS.DEC   : NEUTRON POROSITY LIMESTONE
GRR    .GAPI  : GAMMA RAY FROM RESISTIVITY LOG
LLD    .OHMM  : LATEROLOG DEEP RESISTIVITY
LLS    .OHMM  : LATEROLOG SHALLOW RESISTIVITY
MSFL   .OHMM  : MICRO SPHERICALLY FOCUSED RESISTIVITY
CALSR  .IN    : MICRO RESISTIVITY CALIPER FROM RESISTIVITY
DTL    .US/F  : DELTA-T LONG SPACING
DT     .US/F  : DELTA-T (INTERVAL TRANSIT TIME)
DTCO   .US/F  : DELTA-T COMPRESSIONAL
DTSM   .US/F  : DELTA-T SHEAR
~Params ----------------------------------------------------
~Other -----------------------------------------------------
~ASCII -----------------------------------------------------
# ...
 4025.00000    0.00790    8.78330  355.09470  345.23180  173.86890    9.67660   56.11230   56.25950   56.21090  115.26160
 4025.50000    0.01200    9.01390  325.91860  311.23760  635.89410    9.66440   56.07720   56.24280   56.20680  114.31850
 4026.00000    0.01480   10.75160  293.82250  257.96880 1897.24580    9.70240   56.04380   56.22600   56.20280  113.41920
 4026.50000    0.01880   14.90810  159.05160  138.66750 1885.44450    9.79300   56.02660   56.20930   56.19880  112.43440
 4027.00000    0.02450   22.56380  113.92480   99.62900  128.69680    9.96730   56.00940   56.19250   56.19480  110.95280
 4027.50000    0.03200   27.78360   82.19050   78.12300    6.28170   10.07240   55.99210   56.17580   56.19080  111.25230
 4028.00000    0.03660   30.38840   75.99300   74.39220   23.67860   10.17330   55.99960   56.18480   56.18680  113.79970
 4028.50000    0.03770   29.21640   81.48270   73.85970  100.74860   10.27420   56.03450   56.21970   56.18680  115.21570
 4029.00000    0.03680   27.03750  100.96960   91.91100   20.54720   10.33260   56.06940   56.25460   56.19630  115.33410
 4029.50000    0.03450   23.75900  125.35590  112.60980    7.20380   10.41790   56.10430   56.28950   56.20580  115.45250
 4030.00000    0.02600   18.58400  195.87060  157.37240    6.37310   10.48060   56.12960   56.31360   56.60680  115.66150
 4030.50000    0.01400   13.55260  704.27740  527.96160   45.47370   10.53310   56.13810   56.32190   57.17490  115.98700
 4031.00000    0.00690   10.30240 1727.15720  817.91700 1272.79580   10.58040   56.15470   56.33980   57.16210  116.31260
 4031.50000   -0.00050    8.88420 7420.01810 1344.61800 1653.58650   10.61360   56.19280   56.37660   57.07720  116.20700
 4032.00000   -0.00320    8.34390 14566.29690 1859.66380 1936.88730   10.58990   56.18200   56.36580   58.12260  116.95540
 4032.50000   -0.00440    7.81610 12537.27540 1767.68570 1905.26290   10.58490   56.15360   56.33830   60.34200  122.37630
 4033.00000   -0.00550    7.06560 7505.93160 1637.46260 1741.55420   10.60990   56.14320   56.32690   64.09510  126.34640
 4033.50000   -0.00550    6.62550 5250.14110 1467.20980 1611.69200   10.61940   56.16030   56.34450   66.21400  128.39750
 4034.00000   -0.00420    6.77120 4207.57420 1372.07310 1495.18770   10.57310   56.18310   56.36730   67.27950  131.86550
 4034.50000   -0.00220    7.54410 1960.99680 1191.50550 1599.86450   10.37910   56.20580   56.39010   68.14790  133.37370
 4035.00000    0.00440    8.33520  864.49380  669.47760  314.39360    9.96270   56.22860   56.41280   68.88150  131.95950
 4035.50000    0.01300    8.63940  461.80130  357.70790   27.99150    9.73010   56.25140   56.43560   68.15620  129.56100
 4036.00000    0.02310    8.31150  246.68840  224.51840  138.54830    9.65860   56.27410   56.45830   65.65510  127.23430
 4036.50000    0.02700    8.07640  238.43570  207.86600  135.76510    9.60610   56.21980   56.41080   62.12610  116.23850
 4037.00000    0.02320    8.39720  318.92520  281.50420  126.31630    9.56960   56.13050   56.32170   58.17760  111.47340
 4037.50000    0.01790    8.80350  432.33590  381.60460  353.52100    9.55030   55.99330   56.23260   56.00550  106.93440
 4038.00000    0.01200    9.83730  910.67610  570.79820 1051.47410    9.53980   55.82960   56.14350   55.63680  104.39290
 4038.50000    0.00970   10.95320 1042.20150  780.27110 1464.63850    9.53290   55.64020   56.05450   54.84950  102.29670
 4039.00000    0.00950   12.83000  933.21440  712.65690 1231.26310    9.52600   55.42790   55.96540   53.98340  102.01010
 4039.50000    0.01050   16.98770  653.11560  557.38190 1097.87550    9.52420   55.21560   55.87590   53.18620  102.01190
 4040.00000    0.01300   21.88700  455.13170  395.55080 1461.41550    9.52660   55.19550   55.77230   53.20740  102.23530
 4040.50000    0.01790   25.11210  250.55280  185.84760  463.64170    9.52610   55.43440   55.72920   53.85580  102.70090
 4041.00000    0.02670   25.72660  124.68340   94.92710 1386.37820    9.52390   55.71860   55.78100   55.35000  103.90440
 4041.50000    0.03700   24.08430   63.69300   49.06230  320.10640    9.53520   56.06520   56.23080   57.47340  105.02520
 4042.00000    0.04670   20.07460   49.62570   48.30220   31.37500    9.55440   56.64480   57.07110   59.48940  106.21150
 4042.50000    0.04470   16.05770   59.53440   53.73330   26.13840    9.55400   57.92290   57.37460   59.46620  107.08430
 4043.00000    0.03290   14.49290  106.30700   76.19960   82.50730    9.54480   58.04730   56.58940   58.41310  106.88340
 4043.50000    0.02070   14.00500  241.79250  173.35940  185.46750    9.53700   58.03510   56.04760   56.26100  105.79210
 4044.00000    0.01470   14.62270  445.21840  367.04250  417.01850    9.52670   57.54910   55.19210   54.68040  102.30860
 4044.50000    0.01310   15.34250  584.31990  431.45890  909.98440    9.52390   56.61480   54.87470   52.80700  102.18190
 4045.00000    0.01260   17.15680  558.65260  440.48860  895.59310    9.52590   55.68040   55.24500   51.41890  102.13890
 4045.50000    0.01330   20.69360  454.87820  421.00530  491.50520    9.52630   55.31600   55.18150   50.68920  101.86190
 4046.00000    0.01550   26.07560  371.29800  304.90910  325.63530    9.52110   55.41550   55.07790   51.33800   99.96460
 4046.50000    0.02500   31.44790  228.81020  187.90410  218.47510    9.52000   55.86490   55.70050   52.79730  106.19950
 4047.00000    0.03520   36.82020  136.60310  108.53310  122.03640    9.52410   56.08600   55.75910   55.92630  110.74050
 4047.50000    0.06190   42.76950   77.94820   61.77580   26.26570    9.56760   57.13060   55.23100   59.99030  118.32330
 4048.00000    0.10620   44.07990   44.47860   40.98740    5.88230    9.61120   59.94550   55.09060   64.52040  124.55030
 4048.50000    0.15510   39.59450   45.34050   42.79170    2.86620    9.63820   63.82760   56.12400   68.28160  131.86780
 4049.00000    0.14250   27.73520   66.87790   55.23690   23.16910    9.62230   63.95140   57.26890   69.35260  127.41810
 4049.50000    0.12000   15.20870  105.64910   87.26830   36.52270    9.61930   62.44500   58.24790   67.18170  121.49880
 4050.00000    0.05800    9.63450  493.83550  255.59280 1961.34130    9.61800   59.67270   57.58610   63.24720  114.85210
 4050.50000    0.01860    7.08560 2727.71580 1479.12980 1953.56130    9.61650   56.49520   54.82870   59.46770  108.20540
 4051.00000    0.00910    7.15960 5664.09380 1830.22240 1948.06840    9.61120   55.79630   53.49650   55.10460  104.33830
 4051.50000    0.00470    7.47120 5873.06880 1765.64710 1953.35110    9.59880   57.73710   54.21110   52.54780  101.63960
 4052.00000    0.00370    8.00670 1735.28700 1095.69520 1958.64920    9.60820   60.73520   54.98190   50.79590   99.26150
 4052.50000    0.00410    9.19580  530.84410  321.37340 1963.96070    9.61840   62.10240   54.67510   50.01370   99.31280
 4053.00000    0.00610   12.25580  163.83470  115.16210 1800.87130    9.62100   60.39030   53.97850   49.77030   99.95480
 4053.50000    0.01140   18.29030   73.04930   60.05630  226.30140    9.63040   58.17230   53.61650   50.04520  101.14590
 4054.00000    0.02110   23.61300   39.07600   37.27600   48.58940    9.63980   56.41900   54.24190   50.32000  102.46210
 4054.50000    0.04580   28.93640   20.89520   23.13670   25.72730    9.65240   56.12870   55.48790   51.74070  106.55010
 4055.00000    0.07830   33.02150   15.00170   18.04290   13.62220    9.67490   56.69040   56.39340   53.64250  111.53470
 4055.50000    0.10710   36.67640   11.20840   14.75570    7.33990    9.70350   58.22710   56.34090   56.98020  115.20390
 4056.00000    0.13400   40.20400    9.07910   12.83100    7.33890    9.72860   59.97500   56.13450   59.95880  119.57860
 4056.50000    0.15120   40.24940    8.88930   12.49990    5.42250    9.73860   60.73190   55.75310   62.94390  124.17200
 4057.00000    0.13940   37.68810    9.07850   12.92000    2.30220    9.72800   59.79770   55.33310   64.36690  125.95780
 4057.50000    0.11300   34.53790    9.99930   13.35430   10.97510    9.71740   58.37530   55.25930   66.60490  129.04880
