~Version ---------------------------------------------------
VERS.   2.0 : CWLS log ASCII Standard -VERSION 2.0
WRAP.    NO : One line per depth step
DLM . SPACE : Column Data Section Delimiter
~Well ------------------------------------------------------
STRT .F                3893.0 : START DEPTH
STOP .F                4939.0 : STOP DEPTH
STEP .F                   0.5 : STEP
NULL .               -9999.25 : NULL VALUE
COMP .                        : COMPANY
WELL .                        : WELL
FLD  .                        : FIELD
LOC  .                        : LOCATION
PROV .                        : PROVINCE
CNTY .                        : COUNTY
STAT .                        : STATE
CTRY .                        : COUNTRY
SRVC .                        : SERVICE COMPANY
DATE .                        : DATE
UWI  .                        : UNIQUE WELL ID
API  .                        : API NUMBER
SLAT .WGS84 3.865781920935099 : SURFACE LATITUDE
SLON .WGS84 7.249412180818993 : SURFACE LONGITUDE
DATUM.F               3706.29 : DEPTH DATUM ELEV
~Curve Information -----------------------------------------
DEPT   .F     : 1 MEASURED DEPTH
NPHI_LS.DEC   : NEUTRON POROSITY LIMESTONE
GRR    .GAPI  : GAMMA RAY FROM RESISTIVITY LOG
LLD    .OHMM  : LATEROLOG DEEP RESISTIVITY
LLS    .OHMM  : LATEROLOG SHALLOW RESISTIVITY
MSFL   .OHMM  : MICRO SPHERICALLY FOCUSED RESISTIVITY
CALSR  .IN    : MICRO RESISTIVITY CALIPER FROM RESISTIVITY
DTL    .US/F  : DELTA-T LONG SPACING
DT     .US/F  : DELTA-T (INTERVAL TRANSIT TIME)
DTCO   .US/F  : DELTA-T COMPRESSIONAL
DTSM   .US/F  : DELTA-T SHEAR
~Params ----------------------------------------------------
~Other -----------------------------------------------------
~ASCII -----------------------------------------------------
# ...
 4619.00000    0.12820   43.92890   29.35090   25.61190   15.29940    9.42610   56.35720   56.38620   55.66380  107.11920
 4619.50000    0.11960   41.82550   31.73250   29.05240   15.82830    9.42860   56.24840   56.38320   55.12310  107.39620
 4620.00000    0.11430   40.52570   33.65310   30.16440   26.12630    9.45260   56.13910   56.31360   54.62050  107.94710
 4620.50000    0.12050   42.13100   33.26470   30.26350   22.73810    9.48010   56.03100   56.25480   54.18160  107.73920
 4621.00000    0.13520   45.53530   28.82220   26.85090   18.07110    9.48420   55.94560   56.29200   54.36940  107.39090
 4621.50000    0.14490   52.12790   23.60820   21.60140   17.11710    9.48530   55.95380   56.33230   55.12540  106.99870
 4622.00000    0.15450   57.72310   18.99390   17.39920   17.90630    9.48330   56.04520   56.32140   55.91090  104.28460
 4622.50000    0.16320   57.03590   18.17860   15.29370   13.45410    9.48140   56.13060   56.30420   56.32650  101.16890
 4623.00000    0.16380   46.50290   19.94590   16.89250    6.29920    9.47940   56.10160   56.28710   56.49050   97.57700
 4623.50000    0.13990   33.40780   38.16620   29.41620   39.83390    9.48050   56.07260   56.27000   56.25030   94.09150
 4624.00000    0.10310   20.82900  128.17890   56.32780  925.70000    9.48350   56.04360   56.25290   56.09120   90.48320
 4624.50000    0.03230   11.46900 1172.49850  975.61150 1264.28580    9.48640   56.01460   56.23570   56.05460   88.76430
 4625.00000    0.01480   12.31760 2901.08150 1471.98510 1457.47840    9.47570   55.98560   56.22570   56.00340   92.23530
 4625.50000    0.01140   14.07760 3385.78780 1658.96300 1011.73300    9.46770   55.95660   56.22420   55.71050   97.95730
 4626.00000    0.01150   15.05330 2543.33670 1018.90550  367.74580    9.45410   55.92760   56.22260   54.62200  102.35880
 4626.50000    0.01310   15.37950  671.31700  497.73770  121.39730    9.44000   55.89860   56.22110   54.06060  100.92630
 4627.00000    0.01570   15.82030  308.24030  225.38060   66.60630    9.45030   55.86960   56.21960   54.15650   98.12910
 4627.50000    0.02310   16.71400  167.00450  112.15690   35.00250    9.46690   55.87460   56.21810   54.20820   98.30160
 4628.00000    0.03910   17.27140  134.53250  105.15360   27.82720    9.46810   55.89850   56.21660   54.11610   98.58900
 4628.50000    0.06100   17.28270  137.33910  108.75330   33.95180    9.46300   55.92250   56.21510   54.09560   99.79780
 4629.00000    0.06940   16.79390  146.32930  127.08870  190.70810    9.46200   55.94650   56.21470   54.15600  101.00150
 4629.50000    0.07170   16.76400  139.58120  126.16600  219.20070    9.46090   55.97050   56.21870   54.17880  101.75020
 4630.00000    0.07830   19.25150  111.36070   99.35660   67.90280    9.45990   55.99440   56.22270   54.22320  100.72110
 4630.50000    0.08930   24.40740   79.21120   84.64120   48.97710    9.45880   56.01730   56.22670   54.34410   99.34690
 4631.00000    0.10030   33.36150   52.56100   70.73840   40.40930    9.46370   56.03020   56.23070   54.93350   99.67190
 4631.50000    0.11140   40.13810   37.21720   48.42470   37.45790    9.46950   56.04300   56.23470   55.56120  102.20940
 4632.00000    0.12270   47.67030   27.90040   36.46960   21.68060    9.48640   56.05590   56.23870   55.29700  105.36520
 4632.50000    0.12660   49.01250   27.73930   35.16330   10.45400    9.49850   56.06880   56.24270   55.06220  109.12050
 4633.00000    0.11720   41.53000   30.19550   38.85470    7.47650    9.51670   56.08160   56.24670   55.06220  111.69580
 4633.50000    0.08410   28.48240   61.74850   60.95650   82.31730    9.53540   56.09450   56.25080   55.06220  112.77580
 4634.00000    0.04920   19.39770  115.43590   95.63060   69.74390    9.53520   56.10740   56.25480   55.05840  112.15420
 4634.50000    0.02450   12.19780  186.32700  153.19780   52.78950    9.53370   56.12020   56.25880   54.98930  109.36230
 4635.00000    0.01820    8.86320  301.74780  248.15280   57.40070    9.51800   56.13310   56.26280   54.74980  106.28060
 4635.50000    0.01320    6.87820  466.43290  390.93040   45.87050    9.49880   56.12270   56.23080   54.28270  103.88310
 4636.00000    0.00840    6.11600 4815.38770  603.86400   36.67490    9.47270   56.10680   56.22980   54.22540  100.02320
 4636.50000    0.00410    5.50400 15279.63670 2021.53260   45.69300    9.45610   56.09090   56.22630   54.10550   98.40560
 4637.00000    0.00330    5.35070 33063.26560 2013.82670   57.33820    9.44260   56.11390   56.24010   53.74740   97.57160
 4637.50000    0.00460    5.00440 36881.26950 2006.15000   84.74970    9.41680   56.24440   56.22750   53.26790   96.98440
 4638.00000    0.00540    4.94900 38399.68750 1998.50370   97.03120    9.38030   56.37500   56.19170   51.32630   96.38140
 4638.50000    0.00560    6.04670 37939.45310 1990.88550   93.04390    9.34090   56.42220   56.15600   49.20860   96.45070
 4639.00000    0.00540    8.23250 36057.95700 1983.29630  103.59920    9.30150   56.42220   56.12020   49.20570   96.46900
 4639.50000    0.00590   10.47690 32336.40430 1975.73720  454.11520    9.24330   56.40140   56.08730   49.20290   95.18670
 4640.00000    0.00730   13.01590 10779.65040 1600.10780 1196.96800    9.23050   56.36530   56.05510   49.27240   94.51830
 4640.50000    0.00940   15.87600 4256.68700 1108.35080 1196.70980    9.22730   56.32930   56.06980   49.44130   93.92280
 4641.00000    0.01230   17.61920 1669.82170 1047.60570 1198.33560    9.25330   56.29330   56.13540   49.91210   92.94990
 4641.50000    0.01970   17.76700 1338.58230  996.78920  647.72710    9.27940   56.22360   56.20100   50.38290   92.40690
 4642.00000    0.02580   17.01390 1274.03810  981.35420  179.44700    9.31360   56.13160   56.28640   50.47460   92.39190
 4642.50000    0.03390   16.07700 1300.10490 1148.56070  121.23570    9.35010   55.98370   56.27000   49.57130   92.44990
 4643.00000    0.03740   15.09300 1662.97510 1488.05870  756.54530    9.38020   55.39560   56.17840   49.29640   91.84290
 4643.50000    0.04010   13.63900 2529.64990 1895.55310  920.19950    9.40650   53.42070   56.19480   50.03520   91.23590
 4644.00000    0.04090   13.67060 2248.99780 1634.24500 1122.04240    9.41920   51.13050   56.18820   50.72770   90.97870
 4644.50000    0.04170   14.96510 1244.10690  977.83070 1650.38240    9.41640   51.24250   56.13060   49.88740   91.34520
 4645.00000    0.04550   20.50570  424.99460  254.88070  987.12660    9.37860   51.68930   56.01100   50.49340   92.54740
 4645.50000    0.05860   25.34240  127.67080   83.20920  319.08680    9.31900   52.13600   55.84600   51.35220   92.64610
 4646.00000    0.07290   26.40070   82.60380   80.43820  531.97630    9.30710   52.58270   55.62300   49.89310   93.44150
 4646.50000    0.07210   23.46090  149.75990   91.91690  103.18070    9.30070   53.02950   55.40000   50.69390   94.84920
 4647.00000    0.05190   17.87700  588.28880  354.75700  513.16020    9.30070   53.17770   55.00870   52.34220   96.34170
 4647.50000    0.03150   12.48480 1383.65920  968.59220  773.17710    9.30070   52.47730   54.43660   51.86320   98.25940
 4648.00000    0.01510    9.82940 3849.28080 1838.91300 1606.65490    9.30060   49.94770   53.65570   51.66370  100.23850
 4648.50000    0.00960   10.69510 6957.10300 1970.42850 1721.88390    9.30060   47.74030   52.72200   51.66300  100.21300
 4649.00000    0.00940   16.33650 10240.87010 2010.72020 1844.70670    9.30060   46.99240   52.20880   51.71900   99.25540
 4649.50000    0.01160   25.32710 12912.87500 2008.77060 1965.36930    9.29900   47.01030   51.41700   51.98730   98.29790
 4650.00000    0.01840   34.99050 12328.65430 2006.82300 1993.63280    9.28880   47.43150   50.56850   51.36510   97.34040
 4650.50000    0.02550   40.12060 7058.74070 2004.87610 1986.18590    9.28930   47.85870   50.30560   49.68420   96.16290
 4651.00000    0.03060   39.14510 5104.42720 2002.93230 1978.76670    9.30340   48.09840   50.21180   49.80880   95.96590
 4651.50000    0.03190   33.16780 3924.34500 2000.98910 1839.85010    9.27960   47.30480   49.49790   49.78550   95.64350
