~Version ---------------------------------------------------
VERS.   2.0 : CWLS log ASCII Standard -VERSION 2.0
WRAP.    NO : One line per depth step
DLM . SPACE : Column Data Section Delimiter
~Well ------------------------------------------------------
STRT .F                3893.0 : START DEPTH
STOP .F                4939.0 : STOP DEPTH
STEP .F                   0.5 : STEP
NULL .               -9999.25 : NULL VALUE
COMP .                        : COMPANY
WELL .                        : WELL
FLD  .                        : FIELD
LOC  .                        : LOCATION
PROV .                        : PROVINCE
CNTY .                        : COUNTY
STAT .                        : STATE
CTRY .                        : COUNTRY
SRVC .                        : SERVICE COMPANY
DATE .                        : DATE
UWI  .                        : UNIQUE WELL ID
API  .                        : API NUMBER
SLAT .WGS84 3.865781920935099 : SURFACE LATITUDE
SLON .WGS84 7.249412180818993 : SURFACE LONGITUDE
DATUM.F               3706.29 : DEPTH DATUM ELEV
~Curve Information -----------------------------------------
DEPT   .F     : 1 MEASURED DEPTH
NPHI_LS.DEC   : NEUTRON POROSITY LIMESTONE
GRR    .GAPI  : GAMMA RAY FROM RESISTIVITY LOG
LLD    .OHMM  : LATEROLOG DEEP RESISTIVITY
LLS    .OHMM  : LATEROLOG SHALLOW RESISTIVITY
MSFL   .OHMM  : MICRO SPHERICALLY FOCUSED RESISTIVITY
CALSR  .IN    : MICRO RESISTIVITY CALIPER FROM RESISTIVITY
DTL    .US/F  : DELTA-T LONG SPACING
DT     .US/F  : DELTA-T (INTERVAL TRANSIT TIME)
DTCO   .US/F  : DELTA-T COMPRESSIONAL
DTSM   .US/F  : DELTA-T SHEAR
~Params ----------------------------------------------------
~Other -----------------------------------------------------
~ASCII -----------------------------------------------------
# ...
 4883.00000    0.09080   23.94980   23.94060   20.83200    9.83870    8.77810   53.74980   53.45340   53.01420  101.12730
 4883.50000    0.06690   24.36400   30.70450   27.70160   12.19210    8.78410   53.17000   52.95240   52.72420  100.82530
 4884.00000    0.05010   27.32880   34.47520   33.55860   14.29570    8.76570   53.04780   52.62200   52.47360   99.28070
 4884.50000    0.04750   32.07390   34.58820   33.77850   17.16130    8.75510   53.04780   52.69490   52.60690   98.03190
 4885.00000    0.05700   36.45850   32.93220   30.68610   29.39980    8.75760   53.01000   52.78660   53.16590   97.89790
 4885.50000    0.06540   36.44610   29.28350   26.35030   14.04630    8.76560   52.94600   52.80870   53.13310   97.59280
 4886.00000    0.06610   32.66960   27.33120   22.47050    8.15680    8.77740   52.84460   52.68270   53.29470   97.24510
 4886.50000    0.06450   27.38870   28.34040   23.88510    9.19660    8.79110   52.50060   52.47730   53.45620   96.94560
 4887.00000    0.06470   22.10770   30.31680   26.41860   14.22170    8.80470   51.88490   52.27200   54.92500   96.72650
 4887.50000    0.07130   16.82680   32.92100   30.59720   16.92490    8.38870   51.37920   52.14240   54.13930   96.46580
 4888.00000    0.08510   14.55260   34.88340   33.18260   13.24730    7.89130   51.25850   52.32120   53.90140   97.40920
 4888.50000    0.09650   13.56070   33.16210   30.75520   10.30570    7.39870   51.67850   52.84430   54.05280   98.05110
 4889.00000    0.09920   13.25020   26.76900   24.24230   12.10640    7.33400   52.75020   53.41300   54.04540   98.14080
 4889.50000    0.10050   13.65830   21.10030   19.01770   18.55000    7.33400   53.79870   54.04820   54.03790   98.25310
 4890.00000    0.10040   14.21650   16.04850   14.22430    4.16240    7.37800   54.24500   54.34880   54.00680   98.94200
 4890.50000    0.10020   14.59500   13.22340   12.06780    3.16410    7.40700   54.31050   54.36670   54.37980   99.88820
 4891.00000    0.10050   13.94670   12.68790   10.98120    3.59240    7.42180   54.16580   54.36670   55.26360  100.82880
 4891.50000    0.10230   13.03000   12.17400   10.78510    5.77940    7.43130   54.02170   54.37310   55.43090  101.47670
 4892.00000    0.10270   12.71200   11.56750   10.59250    8.19170    7.44080   54.02170   54.48220   55.69640  101.50020
 4892.50000    0.10080   12.31230   10.93040   10.38260    4.65440    7.45020   54.06430   54.62750   55.15860  101.25120
 4893.00000    0.10060   11.82010   10.17420    9.70960    3.87540    7.45750   54.20890   54.87870   55.21550  101.26120
 4893.50000    0.10330   10.86500    9.17120    8.75220    5.12660    7.52690   54.54350   55.32610   55.70910  101.65610
 4894.00000    0.10690   10.77720    8.26710    7.88920    3.45550    7.69900   54.84890   55.76010   55.75220  102.88270
 4894.50000    0.11840   10.73590    7.45210    7.11130    3.47620    7.86290   55.14500   55.86700   55.53080  103.45090
 4895.00000    0.11950   10.93640    7.03350    6.89680    3.52110    8.00890   55.44120   55.97340   55.50560  102.12870
 4895.50000    0.11540   11.39160    7.07920    6.91590    2.54110    8.16880   55.62260   56.13680   54.42540  101.26530
 4896.00000    0.11620   13.00890    7.58080    7.29000    1.84960    8.25080   55.54530   56.12470   54.09040  101.05010
 4896.50000    0.12330   14.84190    8.53710    7.93200    2.71220    8.33000   55.11580   55.75530   54.01910  100.95990
 4897.00000    0.12710   15.11340   10.48420    9.61710    1.46850    8.41590   54.50140   55.02080   53.79380  100.73260
 4897.50000    0.12660   14.38440   13.14880   11.81020    0.88560    8.56320   53.88690   54.27250   53.31880   99.47860
 4898.00000    0.12430   13.23210   16.90290   14.50490    1.24020    8.55620   53.27250   53.75510   54.21130   98.07130
 4898.50000    0.11980   13.55980   19.46200   16.61940    1.53850    8.54920   53.06650   53.43740   55.03350   97.02620
 4899.00000    0.11230   14.62750   19.19890   16.23230    1.84530    8.49630   52.96170   53.46640   54.94750   96.99360
 4899.50000    0.10640   18.81500   18.18830   15.43360    1.98370    8.43140   52.94060   53.57760   54.86140   97.11370
 4900.00000    0.10410   23.31290   17.23090   14.70990    3.24310    8.37490   53.07160   53.66850   54.26740   97.19290
 4900.50000    0.10660   25.28300   16.32390   14.08860    4.49960    8.31840   53.39900   53.72160   53.50410   97.22240
 4901.00000    0.11240   23.33970   15.89390   13.58680    3.66250    8.26180   53.73940   53.90900   53.99190   97.88450
 4901.50000    0.12160   19.61100   15.72550   13.37250    2.12700    8.16880   54.07970   54.37220   54.19780   98.24300
 4902.00000    0.12530   16.32610   16.08110   13.59500    3.46300    8.10750   54.42000   54.84290   54.49080   99.04780
 4902.50000    0.12510   15.74290   16.93540   14.17200    2.17690    8.14440   54.55760   54.99480   54.23900   99.88320
 4903.00000    0.12360   15.87950   18.27310   15.35190    5.18430    8.22510   54.46270   54.67890   54.22220  100.08420
 4903.50000    0.12210   15.90490   19.71640   16.20550    7.35330    8.33970   53.88310   54.04030   54.13350  100.08420
 4904.00000    0.12160   16.31420   20.19270   16.17290    4.45110    8.30110   53.20050   53.57620   53.86390  100.08420
 4904.50000    0.12170   16.53250   19.53710   16.14050    6.64180    8.19330   52.55140   53.11210   52.51920  100.08420
 4905.00000    0.12220   16.70260   19.02580   16.06590    9.67000    8.07040   52.25840   52.64790   52.22230  100.08420
 4905.50000    0.12270   16.87280   19.17100   16.14480    6.99070    8.23650   51.96550   52.31140   52.20960  100.08420
 4906.00000    0.12130   17.78710   19.51250   16.69570    3.36210    8.48360   51.63710   51.96430   52.27420  100.08420
 4906.50000    0.11330   -9999.25   20.76840   17.26540    4.03350    8.68060   51.15470   51.62440   52.23080   99.69600
 4907.00000    0.10360   -9999.25   22.10510   18.61520    8.16170    8.77490   50.67230   51.28460   52.17810   99.27110
 4907.50000    0.09510   -9999.25   22.63510   19.21300   10.58980    8.82010   50.46970   50.98330   52.64030   99.11510
 4908.00000    0.08740   -9999.25   22.31690   19.10290   10.67720    8.78770   50.54250   50.95690   52.41190   97.97060
 4908.50000    0.08590   -9999.25   21.85750   18.83730   13.18200    8.76110   51.00290   51.33700   52.12940   97.91110
 4909.00000    0.08890   -9999.25   21.40760   18.53960   10.20650    8.79420   51.46330   51.84630   52.04240   97.66960
 4909.50000    0.09380   -9999.25   20.96690   17.96860   13.10170    8.76860   51.99600   52.41330   52.09050   98.56410
 4910.00000    0.09840   -9999.25   18.77970   16.96240   11.93100    8.71520   52.62360   52.98180   52.58440   99.88040
 4910.50000    0.09810   -9999.25   16.53030   15.25980    6.32800    8.66890   53.16670   53.32210   53.15960  100.51080
 4911.00000    0.09480   -9999.25   14.57290   13.10690    5.34500    8.62250   53.31860   53.54450   53.38510   99.53690
 4911.50000    0.09310   -9999.25   14.27770   12.73800    5.79910    8.62470   53.47060   53.58880   53.94290   99.48460
 4912.00000    0.09360   -9999.25   14.35330   12.77850    3.96830    8.62230   53.54690   53.65850   54.08860  100.89840
 4912.50000    0.09790   -9999.25   14.42920   12.92710    3.16540    8.53850   53.61000   53.77130   54.17990  102.15510
 4913.00000    0.10220   -9999.25   14.50550   13.10420    7.20060    8.34470   53.66840   53.90260   54.23260  101.32020
 4913.50000    0.10560   -9999.25   14.58230   13.30830    4.27220    7.92150   53.72680   54.00870   54.24360   98.62280
 4914.00000    0.11130   -9999.25   14.65940   13.70280    3.53140    7.30860   53.78520   54.03070   54.37330   98.31800
 4914.50000    0.11850   -9999.25   14.52550   14.22890    5.19010    6.49270   53.96690   54.11300   54.88060  101.80400
 4915.00000    0.12970   -9999.25   14.54850   14.25520    7.48590    6.95480   54.19080   54.37210   55.40460  102.93090
 4915.50000    0.14080   -9999.25   14.10130   13.65350    7.21250    7.60000   -9999.25   -9999.25   -9999.25   -9999.25
