~Version ---------------------------------------------------
VERS.   2.0 : CWLS log ASCII Standard -VERSION 2.0
WRAP.    NO : One line per depth step
DLM . SPACE : Column Data Section Delimiter
~Well ------------------------------------------------------
STRT .F                3893.0 : START DEPTH
STOP .F                4939.0 : STOP DEPTH
STEP .F                   0.5 : STEP
NULL .               -9999.25 : NULL VALUE
COMP .                        : COMPANY
WELL .                        : WELL
FLD  .                        : FIELD
LOC  .                        : LOCATION
PROV .                        : PROVINCE
CNTY .                        : COUNTY
STAT .                        : STATE
CTRY .                        : COUNTRY
SRVC .                        : SERVICE COMPANY
DATE .                        : DATE
UWI  .                        : UNIQUE WELL ID
API  .                        : API NUMBER
SLAT .WGS84 3.865781920935099 : SURFACE LATITUDE
SLON .WGS84 7.249412180818993 : SURFACE LONGITUDE
DATUM.F               3706.29 : DEPTH DATUM ELEV
~Curve Information -----------------------------------------
DEPT   .F     : 1 MEASURED DEPTH
NPHI_LS.DEC   : NEUTRON POROSITY LIMESTONE
GRR    .GAPI  : GAMMA RAY FROM RESISTIVITY LOG
LLD    .OHMM  : LATEROLOG DEEP RESISTIVITY
LLS    .OHMM  : LATEROLOG SHALLOW RESISTIVITY
MSFL   .OHMM  : MICRO SPHERICALLY FOCUSED RESISTIVITY
CALSR  .IN    : MICRO RESISTIVITY CALIPER FROM RESISTIVITY
DTL    .US/F  : DELTA-T LONG SPACING
DT     .US/F  : DELTA-T (INTERVAL TRANSIT TIME)
DTCO   .US/F  : DELTA-T COMPRESSIONAL
DTSM   .US/F  : DELTA-T SHEAR
~Params ----------------------------------------------------
~Other -----------------------------------------------------
~ASCII -----------------------------------------------------
# ...
 4685.00000    0.08480   23.58260  299.30930  275.41690  300.48630    8.93530   49.18850   46.93890   49.76630   90.99570
 4685.50000    0.08500   26.73620  302.93170  271.41040  223.29850    8.93100   49.22910   46.89330   49.44700   90.84150
 4686.00000    0.07700   27.26010  356.05120  287.01860  321.75700    8.92910   49.44150   46.82870   49.26770   91.11790
 4686.50000    0.06550   25.08900  469.00700  337.17340  453.82280    8.92770   49.34430   46.67670   48.92090   91.70330
 4687.00000    0.05230   22.69420  567.30590  404.76550  703.01920    8.92620   48.78290   46.16420   48.29100   92.28880
 4687.50000    0.03950   21.62230  612.23000  525.17180  581.29220    8.90890   47.81310   45.22110   47.92710   95.12270
 4688.00000    0.02850   21.31680  667.60140  640.83750  913.30110    8.89090   46.93680   44.39910   47.62180   94.66040
 4688.50000    0.01880   21.03550  745.23660  708.98330 1190.29270    8.87850   46.79960   43.88070   47.61070   94.19920
 4689.00000    0.01440   20.74480  808.68510  778.51210 1156.54960    8.86190   47.10310   43.91110   47.21270   94.87580
 4689.50000    0.01310   20.71760  790.03000  781.19050 1659.59520    8.83000   47.51690   45.24020   47.08130   94.95950
 4690.00000    0.01410   21.28720  766.68650  693.11610 1005.42490    8.80420   47.93070   46.30140   47.79540   95.43980
 4690.50000    0.01830   21.57800  712.91710  568.47060  631.51590    8.80440   47.98870   46.64190   47.63880   97.17270
 4691.00000    0.02240   21.96870  607.86320  460.52460  524.91870    8.83540   47.58950   46.67050   47.25910   97.82060
 4691.50000    0.02510   22.52740  518.28960  395.40950 1162.79610    8.85080   47.08100   46.48420   46.78630   97.94440
 4692.00000    0.02570   23.06820  441.91550  349.50060  624.26280    8.83280   46.57260   46.04360   46.42620   97.64040
 4692.50000    0.02600   23.26900  400.81760  312.22880  388.32190    8.81480   46.45390   45.63230   46.22420   97.61250
 4693.00000    0.02670   22.74840  374.28580  295.05320  357.07910    8.79620   46.39480   45.55050   46.25720   97.17890
 4693.50000    0.02840   22.18490  360.22540  293.49510  401.63980    8.78910   46.33970   45.61440   46.29030   98.14160
 4694.00000    0.03140   21.03730  365.97450  299.49130  457.81450    8.78890   46.27060   45.94310   46.60230   97.20800
 4694.50000    0.03450   19.90240  378.89910  311.12060  410.66840    8.79580   46.18620   46.80870   46.72090   95.17880
 4695.00000    0.03500   19.50590  400.61080  328.45070  924.63440    8.80270   46.08780   47.26780   46.90930   93.54920
 4695.50000    0.03280   19.38740  423.56680  346.84650 1085.13990    8.81090   45.94000   47.10230   47.25820   92.87300
 4696.00000    0.03140   18.90820  441.90510  366.27260  704.76550    8.78940   45.79220   46.51860   47.84370   92.62360
 4696.50000    0.03120   18.76020  445.75800  374.47180  806.60660    8.78810   45.73500   46.13740   48.19850   92.11260
 4697.00000    0.03230   19.31800  413.03500  369.20730 1014.30400    8.78660   45.78350   46.12600   48.20730   92.60900
 4697.50000    0.03250   21.56930  341.86810  308.05760  998.33360    8.78710   46.02500   46.52560   48.21610   93.19730
 4698.00000    0.03090   24.84820  271.66110  248.11950  531.27650    8.78790   46.76490   46.98060   48.59910   94.17050
 4698.50000    0.02870   28.24380  228.52460  199.91700  519.19060    8.78500   47.42630   47.70730   49.14250   95.15190
 4699.00000    0.02760   28.54640  203.54700  176.30290  206.40790    8.78220   47.95840   48.69630   49.68580   94.78360
 4699.50000    0.02780   27.54270  199.80830  174.24570   47.29690    8.77940   48.47680   49.32670   50.09250   95.77510
 4700.00000    0.03020   25.41100  210.37420  186.18300  166.25030    8.77660   48.48610   48.67000   50.06390   96.49660
 4700.50000    0.03310   23.29940  232.44820  205.64270  185.94540    8.77370   47.95480   47.69640   49.60630   96.90210
 4701.00000    0.03270   21.92790  256.83830  227.96290  156.30590    8.77090   47.38270   46.72290   49.14880   96.77140
 4701.50000    0.02980   19.85540  283.78760  259.27500  207.65610    8.76810   46.88640   46.31510   48.69100   95.52710
 4702.00000    0.02540   18.11300  338.74190  298.54130  386.13790    8.76760   46.80770   46.28940   48.27770   93.37510
 4702.50000    0.02220   16.94480  399.41550  343.75420 1246.28140    8.77210   46.89850   46.60990   48.20330   91.21190
 4703.00000    0.02130   16.70590  403.78720  365.59840  828.77020    8.77490   47.10040   46.97900   48.41780   90.45750
 4703.50000    0.02210   16.80870  365.23870  341.55540 1398.18550    8.77510   47.53820   47.33320   49.91470   89.80420
 4704.00000    0.02590   17.70410  307.50000  284.70530  785.61980    8.79820   47.97600   47.68740   48.83370   88.82070
 4704.50000    0.03190   18.49930  253.39170  218.18220  330.09040    8.82230   48.41380   48.06640   48.52240   87.52240
 4705.00000    0.03990   18.97620  175.90990  151.46540  453.80490    8.85320   48.85160   48.45990   49.33600   87.18500
 4705.50000    0.04650   18.65890  122.12040  117.44240  104.87800    8.85500   48.93990   48.85340   49.91820   87.26400
 4706.00000    0.05100   18.24960  120.08280  117.09840   62.78250    8.83000   48.93560   48.79870   49.30460   87.51690
 4706.50000    0.05320   17.34380  139.67270  129.09990  122.81620    8.83400   48.79410   48.59750   48.09200   87.77390
 4707.00000    0.05270   16.87090  178.12160  160.06500   77.25480    8.81500   48.44800   48.18540   47.55870   87.79500
 4707.50000    0.04970   17.47130  230.68660  207.28390   94.37400    8.77420   48.10180   47.76010   47.99800   87.31780
 4708.00000    0.04580   20.29560  276.54830  259.77110  162.23880    8.71920   47.76150   47.45330   48.04840   87.10280
 4708.50000    0.04440   23.95930  293.82700  287.73790  117.67090    8.64400   47.73460   47.47140   48.05430   87.10160
 4709.00000    0.04620   28.04490  301.04360  294.80500  238.53650    8.56880   47.87060   47.65050   48.05680   87.10040
 4709.50000    0.04590   27.70970  298.99400  293.08970  284.97060    8.49360   48.43850   47.78160   48.08420   87.09920
 4710.00000    0.03470   25.13560  303.77480  292.46620  225.23280    8.41830   49.18790   48.63820   48.46120   89.52410
 4710.50000    0.02120   20.56470  389.62220  345.63000   70.29770    8.39270   49.93720   49.73520   49.03390   92.54710
 4711.00000    0.01160   14.88410  679.86660  464.26830    5.09810    8.40390   50.33520   50.53260   49.39610   93.87390
 4711.50000    0.00650   12.36490 1334.95260 1097.40780    3.90810    8.42930   50.32320   50.49260   49.12060   94.62480
 4712.00000    0.00730   12.57830 3545.54170 1715.50850   15.05580    8.48400   49.61830   49.83430   48.92210   94.58450
 4712.50000    0.01030   17.29820 3316.72170 1768.06230   42.57330    8.56100   48.40730   48.78460   48.24100   93.63920
 4713.00000    0.01470   21.57230 2318.70920 1337.50400  100.18460    8.65950   47.19630   47.64890   47.77310   91.75830
 4713.50000    0.01920   26.36380 1077.02810  891.13410  151.59330    8.68090   46.80140   46.80240   47.35030   89.36430
 4714.00000    0.02460   27.67500  710.99180  615.91630   71.71250    8.71540   46.95310   46.86930   47.19180   89.43150
 4714.50000    0.03000   27.28460  501.37500  434.32230   44.44410    8.73700   47.22200   47.54280   47.09400   91.10130
 4715.00000    0.03860   26.40680  379.79070  353.71120   57.30510    8.74410   47.62010   47.88120   47.25520   89.12390
 4715.50000    0.04680   25.38820  320.94730  291.95650  177.57920    8.75110   47.91080   48.05950   48.11220   88.80370
 4716.00000    0.04590   23.98610  271.22090  236.15190  302.18460    8.75810   47.99000   48.11790   49.67240   88.39520
 4716.50000    0.04170   21.72640  229.19880  206.37610  253.88220    8.75840   48.03510   48.23150   48.96640   88.34560
 4717.00000    0.03790   19.84650  208.84220  201.94230  296.62340    8.75490   48.03270   48.21450   48.30740   88.65500
 4717.50000    0.03650   19.34230  219.23060  209.31510  185.96730    8.75370   47.54520   47.98990   47.94030   88.03830
