~Version ---------------------------------------------------
VERS.   2.0 : CWLS log ASCII Standard -VERSION 2.0
WRAP.    NO : One line per depth step
DLM . SPACE : Column Data Section Delimiter
~Well ------------------------------------------------------
STRT .F                3893.0 : START DEPTH
STOP .F                4939.0 : STOP DEPTH
STEP .F                   0.5 : STEP
NULL .               -9999.25 : NULL VALUE
COMP .                        : COMPANY
WELL .                        : WELL
FLD  .                        : FIELD
LOC  .                        : LOCATION
PROV .                        : PROVINCE
CNTY .                        : COUNTY
STAT .                        : STATE
CTRY .                        : COUNTRY
SRVC .                        : SERVICE COMPANY
DATE .                        : DATE
UWI  .                        : UNIQUE WELL ID
API  .                        : API NUMBER
SLAT .WGS84 3.865781920935099 : SURFACE LATITUDE
SLON .WGS84 7.249412180818993 : SURFACE LONGITUDE
DATUM.F               3706.29 : DEPTH DATUM ELEV
~Curve Information -----------------------------------------
DEPT   .F     : 1 MEASURED DEPTH
NPHI_LS.DEC   : NEUTRON POROSITY LIMESTONE
GRR    .GAPI  : GAMMA RAY FROM RESISTIVITY LOG
LLD    .OHMM  : LATEROLOG DEEP RESISTIVITY
LLS    .OHMM  : LATEROLOG SHALLOW RESISTIVITY
MSFL   .OHMM  : MICRO SPHERICALLY FOCUSED RESISTIVITY
CALSR  .IN    : MICRO RESISTIVITY CALIPER FROM RESISTIVITY
DTL    .US/F  : DELTA-T LONG SPACING
DT     .US/F  : DELTA-T (INTERVAL TRANSIT TIME)
DTCO   .US/F  : DELTA-T COMPRESSIONAL
DTSM   .US/F  : DELTA-T SHEAR
~Params ----------------------------------------------------
~Other -----------------------------------------------------
~ASCII -----------------------------------------------------
# ...
 4817.00000    0.11750   14.69690   99.47880   92.31620   37.98190    8.92400   52.62100   52.53820   52.57400   98.85760
 4817.50000    0.11930   14.92140   91.82310   85.13290   18.03880    8.87760   52.78190   52.84100   52.36680   99.43810
 4818.00000    0.12220   16.35830   91.15770   80.00650    8.33390    8.83910   52.81790   53.16950   53.21330  100.18710
 4818.50000    0.12200   18.01390   91.69970   82.34930   13.93570    8.82380   52.87250   53.41380   53.54760  100.25640
 4819.00000    0.11810   18.54440   98.54600   87.70310   19.90800    8.80310   52.98510   53.68360   53.17170   98.11770
 4819.50000    0.11400   18.15290  109.12800   95.10210   12.90910    8.74130   53.34420   54.37710   52.98320   97.52670
 4820.00000    0.11050   17.24850  120.78200  103.25950   25.41820    8.72320   53.84640   55.29290   52.54650   98.01420
 4820.50000    0.10860   16.29620  133.16050  111.33830   57.07600    8.70510   54.21150   55.59410   52.34440   99.51910
 4821.00000    0.10960   15.77390  138.98050  116.07440   12.46990    8.84200   54.46150   55.60830   52.87080  100.56900
 4821.50000    0.11310   15.72060  139.96840  118.52580    6.83910    8.85660   54.70100   55.55230   53.12040  100.62060
 4822.00000    0.12070   15.62730  138.47690  119.35090   16.97090    8.81730   54.90800   55.54170   53.61660  101.33530
 4822.50000    0.12850   15.42440  135.70920  119.30230   53.09940    8.81100   54.96650   55.50990   54.58520  101.93990
 4823.00000    0.13480   15.02370  123.80020  115.81560   91.69670    8.81760   54.79700   55.28490   54.47480  102.15790
 4823.50000    0.13630   14.49570  116.12170  105.25470   25.33250    8.78650   54.46550   55.08900   54.25250  102.86090
 4824.00000    0.12970   14.03690  108.98860   95.65690   14.58100    8.75750   54.13410   55.08840   55.53920  103.42850
 4824.50000    0.12160   13.81430  102.29380   88.84080   11.64800    8.73390   53.81490   55.08780   59.00490  104.65050
 4825.00000    0.11550   13.63400   99.30600   88.30610   11.42570    8.79640   53.66170   54.77380   58.87250  104.78030
 4825.50000    0.11120   13.24710  101.53010   87.98740   14.60310    8.84420   53.50850   54.28350   56.19450  101.85890
 4826.00000    0.10940   12.86750  106.23510   93.87870   95.02020    8.88400   53.35530   53.81940   53.90040   99.16020
 4826.50000    0.10750   12.61750  111.15820   98.15470  189.16980    8.91260   52.98230   53.37000   52.77460   97.85650
 4827.00000    0.10290   13.19480  117.22560  102.79050  110.93980    8.92330   52.44050   52.85830   51.82520   97.20110
 4827.50000    0.09400   15.34460  121.30770  106.47160   24.15210    8.88800   51.91260   52.32900   51.01510   96.65980
 4828.00000    0.08860   17.83520  120.08750  103.39770   91.32800    8.85030   51.39220   51.79980   50.54240   97.48110
 4828.50000    0.08260   22.09690  117.50210   99.28770  216.94850    8.83400   50.87180   51.24350   50.58780   98.23690
 4829.00000    0.08080   26.19270  112.33100   98.80300   85.29770    8.82500   50.68140   50.95500   50.63320   96.87090
 4829.50000    0.07900   29.72030   91.65230   82.44530  368.64990    8.85700   50.70200   50.83590   50.67860   96.40800
 4830.00000    0.07700   31.62150   78.72770   71.19500  118.81640    8.84480   50.79490   51.00700   50.72400   97.02980
 4830.50000    0.07580   32.76210   70.43960   61.81770   61.78480    8.83260   51.00750   51.26790   50.80790   96.39280
 4831.00000    0.07690   32.23560   64.39310   55.88380   36.44780    8.82730   51.58800   51.96020   51.47630   95.50410
 4831.50000    0.08480   31.46100   58.58430   52.94870   25.56780    8.84570   52.29160   52.79790   52.60480   96.80210
 4832.00000    0.09710   31.62570   52.50240   48.98210   21.74410    8.86400   52.99530   53.47010   53.60120   98.13530
 4832.50000    0.10720   32.52930   47.05190   45.11980   23.23320    8.88140   53.69900   54.18330   53.89740  100.00110
 4833.00000    0.11810   34.69750   42.07030   39.35230   13.39870    8.88980   54.40260   54.91130   54.00540  101.93280
 4833.50000    0.12510   35.46840   35.97760   33.65380   24.35900    8.89510   54.85440   55.26370   54.01840  103.28470
 4834.00000    0.12920   35.08400   30.76730   28.78040   24.60150    8.89480   55.07640   55.40970   54.02300  103.71450
 4834.50000    0.12810   33.53330   27.84790   26.96180   19.78440    8.89460   55.02500   55.38310   54.04770  103.76220
 4835.00000    0.11910   31.82710   31.30940   29.71500    9.98170    8.89850   54.80660   55.14950   54.29180  103.30780
 4835.50000    0.10330   29.26200   38.07530   34.81370   10.79050    8.87500   54.47600   55.15690   54.53600  101.97470
 4836.00000    0.09620   27.99820   47.07490   42.92070   22.49390    8.89930   54.09980   55.13770   54.39090  100.87140
 4836.50000    0.09840   26.75540   57.88490   50.78640   35.03680    8.90550   53.94880   55.08910   54.08360  100.12880
 4837.00000    0.10420   26.93450   58.77820   51.90360   32.76460    8.91200   53.88920   55.07970   54.11020  101.03060
 4837.50000    0.11240   29.82560   54.72900   50.71030   26.82450    8.92040   54.45170   55.33010   54.34860  102.10240
 4838.00000    0.11920   30.16590   52.40570   49.15640   20.99140    8.91530   54.95720   55.79610   55.13820  102.73380
 4838.50000    0.12250   28.88400   50.18520   47.48180   31.13040    8.89610   55.43610   56.06920   56.50240  103.29390
 4839.00000    0.12350   25.94840   52.39760   45.90500   27.45180    8.71640   55.62780   55.96960   56.83590  103.82500
 4839.50000    0.12380   21.89110   58.05980   49.95010   61.20690    8.53070   55.38030   55.68600   56.92040  104.46620
 4840.00000    0.11760   19.51670   65.19830   57.48420   68.58270    8.49720   54.83870   55.16260   56.21080  104.00870
 4840.50000    0.10730   19.37040   74.24160   64.05980   33.83360    8.63270   54.27880   54.61470   55.04690  102.99790
 4841.00000    0.09090   21.22450   83.44460   68.31960   72.06030    8.75320   53.52840   53.96250   54.00340  100.75050
 4841.50000    0.07530   23.35740   93.77050   76.73640   46.70360    8.79300   52.77800   53.09470   53.05570   98.85690
 4842.00000    0.06780   24.71010  102.77300   86.21490   19.48430    8.83020   52.26840   52.22700   52.56100   97.37210
 4842.50000    0.06360   24.98330  107.30330   90.57320   18.83590    8.83090   52.16880   51.97750   51.88600   95.74880
 4843.00000    0.06770   23.66420  107.70580   90.07740   42.66160    8.81140   52.10660   52.01070   51.71060   96.26090
 4843.50000    0.07290   22.21740  107.47420   89.58440   34.58560    8.80720   52.07890   51.89010   51.02010   97.00720
 4844.00000    0.07480   18.91370  106.15040   87.73410   19.31930    8.83150   51.94560   51.69450   50.06970   97.02390
 4844.50000    0.07530   17.54890  102.33120   85.60580   21.69320    8.86820   51.66570   51.46200   50.81510   95.80210
 4845.00000    0.07490   17.48610  100.62390   86.29980   18.06130    8.87420   51.31670   51.01370   51.36560   95.49540
 4845.50000    0.07490   18.28520  103.42430   91.15110   21.19520    8.89120   50.94960   50.70640   51.29440   95.61780
 4846.00000    0.07540   20.14120  107.30870   94.92750   32.87060    8.90710   50.73470   50.60330   50.98780   94.98500
 4846.50000    0.07450   22.55200  104.27450   91.53870   21.59900    8.89530   50.75890   50.72880   50.68120   94.11300
 4847.00000    0.07120   26.40950   88.50620   82.86380   31.74370    8.87980   51.43010   51.11680   51.17120   95.79750
 4847.50000    0.06380   32.77980   71.81920   66.29890   66.08120    8.86440   52.10140   51.91860   52.27780   96.75480
 4848.00000    0.04960   39.81970   59.05310   55.94220   29.57060    8.84900   52.96050   52.67200   52.68430   97.00010
 4848.50000    0.03610   40.01770   51.38480   46.66640   20.15400    8.85870   53.90510   53.46740   52.96830   99.82140
 4849.00000    0.02760   38.95560   44.75820   40.94920   36.45140    8.87280   54.84970   54.66500   53.64320  102.83420
 4849.50000    0.02440   33.57570   42.57780   38.85630   27.45090    8.88700   55.33880   55.67470   54.30560  102.86700
