~Version ---------------------------------------------------
VERS.   2.0 : CWLS log ASCII Standard -VERSION 2.0
WRAP.    NO : One line per depth step
DLM . SPACE : Column Data Section Delimiter
~Well ------------------------------------------------------
STRT .F                3893.0 : START DEPTH
STOP .F                4939.0 : STOP DEPTH
STEP .F                   0.5 : STEP
NULL .               -9999.25 : NULL VALUE
COMP .                        : COMPANY
WELL .                        : WELL
FLD  .                        : FIELD
LOC  .                        : LOCATION
PROV .                        : PROVINCE
CNTY .                        : COUNTY
STAT .                        : STATE
CTRY .                        : COUNTRY
SRVC .                        : SERVICE COMPANY
DATE .                        : DATE
UWI  .                        : UNIQUE WELL ID
API  .                        : API NUMBER
SLAT .WGS84 3.865781920935099 : SURFACE LATITUDE
SLON .WGS84 7.249412180818993 : SURFACE LONGITUDE
DATUM.F               3706.29 : DEPTH DATUM ELEV
~Curve Information -----------------------------------------
DEPT   .F     : 1 MEASURED DEPTH
NPHI_LS.DEC   : NEUTRON POROSITY LIMESTONE
GRR    .GAPI  : GAMMA RAY FROM RESISTIVITY LOG
LLD    .OHMM  : LATEROLOG DEEP RESISTIVITY
LLS    .OHMM  : LATEROLOG SHALLOW RESISTIVITY
MSFL   .OHMM  : MICRO SPHERICALLY FOCUSED RESISTIVITY
CALSR  .IN    : MICRO RESISTIVITY CALIPER FROM RESISTIVITY
DTL    .US/F  : DELTA-T LONG SPACING
DT     .US/F  : DELTA-T (INTERVAL TRANSIT TIME)
DTCO   .US/F  : DELTA-T COMPRESSIONAL
DTSM   .US/F  : DELTA-T SHEAR
~Params ----------------------------------------------------
~Other -----------------------------------------------------
~ASCII -----------------------------------------------------
# ...
 4157.00000    0.01490   16.09800   99.19890   80.05090  645.67580    9.00450   56.49290   53.18520   52.87180  103.80000
 4157.50000    0.02050   17.78880   58.32680   47.13130 1323.54770    8.90730   57.24140   54.78020   54.84230  106.01070
 4158.00000    0.03070   17.90560   40.86240   40.01320   49.53950    8.83230   57.10310   55.80040   55.25990  107.39800
 4158.50000    0.03360   14.17490   56.18700   47.11430   15.03170    8.79990   55.71500   55.64370   55.65990  108.90150
 4159.00000    0.02530   11.04510  101.03050   73.05750  294.37110    8.79580   54.20400   55.12640   54.71110  108.52150
 4159.50000    0.01570   10.62700  113.59170   82.42240 1930.65050    8.79290   53.63450   54.65400   52.97270  105.11870
 4160.00000    0.01170   13.43810   71.76380   52.38870 1592.60350    8.78240   53.78630   54.71020   50.60470  101.21540
 4160.50000    0.01890   17.80860   32.96340   22.73320  123.59310    8.77190   54.53260   55.03180   49.83370  102.14200
 4161.00000    0.03940   22.82500   13.35770    9.88200   15.07670    8.76830   55.30140   55.35350   52.29630  104.53100
 4161.50000    0.07540   27.82670    6.88830    4.81750    4.64880    8.76430   56.07020   55.67490   54.46250  107.97200
 4162.00000    0.12530   30.31700    5.80690    4.72280    2.92340    8.75910   56.52220   55.84720   56.54830  112.46500
 4162.50000    0.16880   29.78870    6.20280    5.29550    2.98460    8.75250   56.39510   56.09300   58.29110  113.70050
 4163.00000    0.18360   27.99420    7.17610    6.04680    6.60190    8.74590   56.12610   55.96430   59.06950  112.73010
 4163.50000    0.16950   27.68190    8.27980    6.40540    7.92480    8.73930   55.86670   55.75300   58.62850  112.10790
 4164.00000    0.14450   28.98710    8.96990    6.74460    7.36790    8.73470   55.81210   55.55300   58.27020  113.32840
 4164.50000    0.14150   31.80480    8.60280    6.97450    6.61280    8.73700   55.84620   55.49740   58.93480  115.05610
 4165.00000    0.14920   33.73320    8.90150    6.96300    4.85630    8.73970   55.88080   55.54410   59.86720  115.29980
 4165.50000    0.15810   34.16810    9.35860    8.10640    4.46310    8.74250   55.98120   55.78040   60.13370  114.00040
 4166.00000    0.15980   34.04280   10.70020    9.65480    8.16760    8.74520   56.10730   56.18040   60.63710  113.84500
 4166.50000    0.15100   33.77040   12.26300   10.13400   11.08530    8.80200   56.23340   56.38440   60.90650  113.71060
 4167.00000    0.14080   31.88320   15.01230   11.12890    7.57340    8.84820   56.18830   56.32650   60.32970  112.82040
 4167.50000    0.12780   28.52860   20.42820   12.87930    5.20320    8.87530   55.81620   55.97540   57.83720  109.47300
 4168.00000    0.09780   23.56620   45.74060   31.62670    9.30240    8.90230   55.53730   55.48660   55.58170  106.11190
 4168.50000    0.06140   19.30570   95.45580   77.11530 1508.86830    8.92930   55.25840   54.93080   54.64270  102.91090
 4169.00000    0.03040   17.38780  135.75820  101.74520 1772.24870    8.96630   54.97950   54.37500   53.08760   99.25700
 4169.50000    0.01460   19.01810  121.71970   94.19270 1201.03060    9.00830   54.88210   54.17440   52.21720   99.09590
 4170.00000    0.01870   24.47000   69.10300   55.59620   56.11910    9.04530   54.90410   54.57830   52.15220  102.65120
 4170.50000    0.03080   29.58630   39.72750   31.65170   25.24320    9.08100   55.32560   55.21550   52.91330  106.90600
 4171.00000    0.05460   30.24860   19.90840   19.48940    7.02690    9.10250   55.99250   55.85270   55.23280  109.81550
 4171.50000    0.07280   27.49590   21.89040   20.52270    6.41250    9.12400   56.59300   56.42120   57.78770  110.48800
 4172.00000    0.07470   22.78720   26.58200   24.52210  121.31670    9.13210   56.78150   56.68790   59.91170  108.08620
 4172.50000    0.06050   20.47720   33.87970   30.17030   58.51290    9.13020   56.96990   56.82820   60.03760  104.64890
 4173.00000    0.04980   19.71030   41.66840   39.54850   17.27790    9.13320   57.04220   56.61070   58.00810  106.18640
 4173.50000    0.04930   19.17120   54.63620   46.81950   14.10650    9.14690   57.04720   56.17700   55.99220  106.73420
 4174.00000    0.04760   16.44660  124.75630   81.64410   40.21250    9.16550   56.52560   55.58610   55.85910  104.74060
 4174.50000    0.03540   13.18030  399.22420  231.78010  317.24970    9.18610   55.16850   54.43890   55.02970  102.74700
 4175.00000    0.02200   10.81240 1823.81260  716.68380 1484.85990    9.18190   53.81140   53.03640   53.82480  100.38790
 4175.50000    0.01450   10.04820 3248.40110 1669.76110 1888.07130    9.16810   52.45430   51.65500   53.21970   98.96680
 4176.00000    0.01150   10.37780 6343.49800 1835.80930 1930.81690    9.15580   52.64560   51.02340   52.69640   97.93780
 4176.50000    0.01030   10.56690 8045.50540 1895.70400 1956.47840    9.14470   56.69550   50.85580   52.09540   97.87920
 4177.00000    0.01100   10.08090 10165.74510 1945.40410 1954.84550    9.13940   60.94320   50.74880   51.98310  100.21610
 4177.50000    0.01210    8.93270 14128.97750 1946.46480 1953.21390    9.14150   65.83650   42.71610   51.73420  104.54550
 4178.00000    0.01220    7.33740 21637.16210 1947.52620 1951.58360    9.14210   64.76440   39.91300   50.92910  106.89210
 4178.50000    0.01120    6.44990 21577.71090 1948.58810 1949.95470    9.14270   63.07580   41.23730   50.46720  106.11970
 4179.00000    0.00920    6.60760 13642.70800 1949.65060 1950.95690    9.14330   63.36390   46.17210   50.32740  101.80650
 4179.50000    0.00850    7.47070 3816.42040 1105.12400 1956.59880    9.14390   64.36480   49.95350   50.18770   96.37970
 4180.00000    0.00910    9.99700  289.98600  133.92610 1962.25680    9.15460   66.02460   52.54530   50.41980   86.83770
 4180.50000    0.01560   16.57200   92.15870   49.63820 1204.64260    9.17260   68.50370   54.96020   52.96630   81.77240
 4181.00000    0.02910   33.37270   15.89260   11.98460   95.40940    9.22750   72.26250   55.15790   58.30360   85.31120
 4181.50000    0.06010   50.61720    8.25730    6.34340   16.22960    9.29650   75.38850   52.92280   66.65740  100.18870
 4182.00000    0.15920   65.94640    3.91730    4.72780    2.34040    9.29450   82.05440   52.79190   74.90330  114.41510
 4182.50000    0.23160   69.26040    3.92040    4.88840    1.59360    9.26960   86.85300   54.57930   82.69490  126.49400
 4183.00000    0.27820   61.56490    5.15250    6.23580    3.01040    9.22630   89.19990   55.99440   85.68860  132.55850
 4183.50000    0.27790   47.69750    8.45090    9.19250    5.30160    9.20700   83.95790   58.26380   86.10600  135.98290
 4184.00000    0.18650   33.88430   22.92990   21.04470    9.18180    9.18940   75.31460   60.06400   78.19520  128.01870
 4184.50000    0.13180   20.15570   45.41080   46.04540  128.19390    9.15530   69.58260   58.27330   67.87740  113.38370
 4185.00000    0.05120   14.43790   73.57770   64.58070 1548.89330    9.14420   70.12500   55.19710   60.60070  106.75370
 4185.50000    0.02430   11.27580   98.48440   87.19970   67.16050    9.14440   71.91760   53.64540   56.48910  105.64400
 4186.00000    0.02160    9.44660  160.59430  130.90460   60.93690    9.14460   73.71010   55.54240   54.56300  104.93020
 4186.50000    0.01960    7.64540  251.31700  207.35640  179.00050    9.13090   74.01930   58.48660   53.15070  104.68330
 4187.00000    0.01410    7.47960  291.04920  221.87280  487.48350    9.09830   73.40810   57.19360   52.40750  103.64810
 4187.50000    0.00940    8.67840  210.44630  165.65540 1188.00990    9.06200   72.44700   54.76660   51.00480  102.08410
 4188.00000    0.00980   10.98270  110.83750   75.39020 1848.36320    9.03400   69.52100   53.01370   50.15370  100.60050
 4188.50000    0.01840   17.69500   43.95670   33.02870  648.39740    9.01480   57.46940   53.14860   50.16240  101.58960
 4189.00000    0.03520   22.61400   21.77670   16.63100   27.62240    9.01360   55.29080   54.11710   50.93970  103.52650
 4189.50000    0.06670   25.36380   14.56580   12.10830   13.70060    9.01240   55.31070   54.01970   53.49840  105.26400
