~Version ---------------------------------------------------
VERS.   2.0 : CWLS log ASCII Standard -VERSION 2.0
WRAP.    NO : One line per depth step
DLM . SPACE : Column Data Section Delimiter
~Well ------------------------------------------------------
STRT .F                3893.0 : START DEPTH
STOP .F                4939.0 : STOP DEPTH
STEP .F                   0.5 : STEP
NULL .               -9999.25 : NULL VALUE
COMP .                        : COMPANY
WELL .                        : WELL
FLD  .                        : FIELD
LOC  .                        : LOCATION
PROV .                        : PROVINCE
CNTY .                        : COUNTY
STAT .                        : STATE
CTRY .                        : COUNTRY
SRVC .                        : SERVICE COMPANY
DATE .                        : DATE
UWI  .                        : UNIQUE WELL ID
API  .                        : API NUMBER
SLAT .WGS84 3.865781920935099 : SURFACE LATITUDE
SLON .WGS84 7.249412180818993 : SURFACE LONGITUDE
DATUM.F               3706.29 : DEPTH DATUM ELEV
~Curve Information -----------------------------------------
DEPT   .F     : 1 MEASURED DEPTH
NPHI_LS.DEC   : NEUTRON POROSITY LIMESTONE
GRR    .GAPI  : GAMMA RAY FROM RESISTIVITY LOG
LLD    .OHMM  : LATEROLOG DEEP RESISTIVITY
LLS    .OHMM  : LATEROLOG SHALLOW RESISTIVITY
MSFL   .OHMM  : MICRO SPHERICALLY FOCUSED RESISTIVITY
CALSR  .IN    : MICRO RESISTIVITY CALIPER FROM RESISTIVITY
DTL    .US/F  : DELTA-T LONG SPACING
DT     .US/F  : DELTA-T (INTERVAL TRANSIT TIME)
DTCO   .US/F  : DELTA-T COMPRESSIONAL
DTSM   .US/F  : DELTA-T SHEAR
~Params ----------------------------------------------------
~Other -----------------------------------------------------
~ASCII -----------------------------------------------------
# ...
 3959.00000    0.01110   12.65070  134.37130  110.12680 2035.81690    9.35180   54.25800   51.90910   55.06380  106.74540
 3959.50000    0.01070   13.56280  132.53220  108.93330 1643.74210    9.40100   51.65800   51.83590   55.09130  106.98470
 3960.00000    0.01390   11.56430  124.84850  101.11590   20.91320    9.42740   50.57680   52.55540   54.74090  109.25090
 3960.50000    0.01500    9.57930  141.11530  103.19070   23.17860    9.45550   50.57010   53.28240   54.20280  108.31650
 3961.00000    0.01210    8.10490  374.81960  249.96710  602.74380    9.46280   51.10590   53.35060   53.99750  106.07490
 3961.50000    0.00790    8.70640  785.62450  685.51640 2053.05150    9.46860   51.68560   52.69950   53.45340  104.25460
 3962.00000    0.00700   10.64010 1087.83780  769.15010 2035.35530    9.45540   52.24070   52.67200   51.91810  100.81860
 3962.50000    0.00850   12.55910  705.11490  614.17200 1899.55430    9.44080   52.75860   53.77300   50.38290   98.13200
 3963.00000    0.01380   13.76670  502.05800  415.21910 1201.92100    9.43730   53.27650   54.81470   49.76220   97.70860
 3963.50000    0.02060   13.85760  298.85420  239.11560  168.09840    9.43780   53.68970   55.03550   51.52590   98.35150
 3964.00000    0.02620   13.90400  200.12020  154.34520  143.18320    9.46230   53.57300   55.08970   52.13290  100.35980
 3964.50000    0.02860   15.82880  183.89300  149.50560   51.29970    9.48920   52.44480   55.08970   50.69430   99.87190
 3965.00000    0.02820   19.69470  157.42540  141.42400   96.81220    9.51600   52.17620   55.08970   51.30460   98.30800
 3965.50000    0.02900   24.60310  100.26940   76.83500  535.86680    9.53040   53.52020   55.18950   53.39190   97.13000
 3966.00000    0.04250   26.39610   46.30450   32.70760  113.48260    9.56760   55.42520   55.71450   55.32690   96.51460
 3966.50000    0.06390   23.70080   26.91390   25.36940   26.48730    9.58140   56.31330   56.27760   57.12020   94.89220
 3967.00000    0.06930   18.43560   30.55360   25.28650    7.91280    9.57330   56.41690   56.48590   57.04040   91.76270
 3967.50000    0.05300   13.21440  138.30360   78.72090   21.13910    9.56530   56.28180   56.48760   56.97070   87.54600
 3968.00000    0.02820    9.64700  381.60030  233.94600 1944.41430    9.56310   55.92970   56.09960   55.86800   84.61770
 3968.50000    0.01210    7.35120 1414.19210  869.71140 2065.04710    9.55560   55.50640   55.76300   54.10320   81.59000
 3969.00000    0.00610    6.44200 20006.22270 1957.42700 2058.10030    9.54810   55.14790   55.45600   52.12920   78.59220
 3969.50000    0.00510    6.30860 33025.13670 1963.98220 2051.17700    9.54060   55.06880   55.32320   51.76060   76.95330
 3970.00000    0.00510    6.70080 34065.72660 1960.11210 2044.27690    9.55410   55.08720   55.33760   52.83700   79.18650
 3970.50000    0.00530    7.23760 30891.20120 1956.62880 2037.40000    9.57710   55.13620   55.41500   54.12310   81.90200
 3971.00000    0.00530    7.87460 16514.17580 1626.17700 2030.54630    9.59270   55.26560   55.48770   55.11430   83.41700
 3971.50000    0.00540    9.36940 4755.63130  795.89110 2023.71560    9.60890   55.39390   55.54120   55.33160   84.15770
 3972.00000    0.00750   12.92260  769.29460  216.04790 2016.90690    9.62520   55.52170   55.65360   55.54620   85.01900
 3972.50000    0.01300   18.42170   70.02050   58.77520 2010.12190    9.64140   55.78820   55.69350   56.69460   85.89240
 3973.00000    0.02200   28.83820   46.85420   25.69120 2003.36000    9.65500   56.11860   55.66980   57.01190   86.66790
 3973.50000    0.03580   37.98000   31.67790   18.98420  773.96100    9.66700   56.32720   55.63410   57.08700   87.11320
 3974.00000    0.05340   48.19060   28.60490   16.60270   15.90590    9.67910   56.15050   55.59840   57.10960   87.07570
 3974.50000    0.06120   50.43640   29.91360   17.10850   14.13690    9.69120   55.71490   55.58560   57.11840   87.03820
 3975.00000    0.06300   51.05550   31.91300   18.85720   12.69370    9.71690   55.54590   55.62670   57.12710   87.72080
 3975.50000    0.06360   51.45980   33.34650   18.88440   19.90570    9.76730   55.55870   55.66430   57.13580   87.73010
 3976.00000    0.06510   51.46740   31.29930   17.73760   33.37420    9.77370   55.68560   55.70180   57.14460   87.73940
 3976.50000    0.07440   50.98810   27.31380   16.02220   32.91040    9.78350   55.86980   55.73940   57.15330   88.05380
 3977.00000    0.08760   50.02910   25.71630   14.84290   15.26700    9.79340   55.91420   55.78220   57.16200   88.73760
 3977.50000    0.09320   49.31500   24.46980   14.74770   12.11550    9.87580   55.97600   55.84430   57.17080   87.49520
 3978.00000    0.09080   47.54460   24.38730   14.84110   11.94220    9.89060   56.03780   55.90650   57.17950   87.45900
 3978.50000    0.08920   47.41580   23.70390   14.83210   12.80480    9.88180   56.09970   55.96860   57.18830   87.72580
 3979.00000    0.09340   48.94010   21.21060   14.65760   14.55120    9.89650   56.16150   56.03080   57.19700   88.86920
 3979.50000    0.10150   51.46220   18.47670   12.42600   14.58740    9.88700   56.22330   56.09300   57.20570   88.14180
 3980.00000    0.12580   52.27110   15.06440   10.13910   10.32190    9.87000   56.28510   56.15510   56.68850   87.01680
 3980.50000    0.14820   52.86930   13.93600   10.44820    8.97070    9.86470   56.34690   56.21730   56.16800   85.47920
 3981.00000    0.16060   53.82290   14.09360   10.70840    9.95010    9.86470   56.40870   56.27940   56.08240   84.79360
 3981.50000    0.15480   56.64950   15.02600   10.78880    5.19290    9.86470   56.43300   56.34160   56.36830   85.45840
 3982.00000    0.13530   56.78410   17.54480   11.97060    7.96430    9.86110   56.45470   56.40370   56.96100   86.27890
 3982.50000    0.11170   55.74820   19.56050   13.24240   14.37750    9.84680   56.47640   56.39520   57.22040   86.53010
 3983.00000    0.10330   54.72020   19.48960   13.99700   13.73720    9.82880   56.49810   56.18930   57.22140   86.04920
 3983.50000    0.10740   54.52640   18.65190   13.35670   13.30870    9.80060   56.51970   54.36720   57.22240   85.20470
 3984.00000    0.11820   54.23780   17.56560   12.43940    8.52870    9.76570   56.54140   49.93810   57.12200   84.88660
 3984.50000    0.12730   53.13360   17.59240   11.92400    9.17570    9.74860   56.56310   49.11100   56.76520   87.46250
 3985.00000    0.12680   52.34070   17.62600   12.04360   10.59160    9.74670   56.54250   51.34880   56.17590   90.48940
 3985.50000    0.11920   52.44070   17.29550   12.12120   10.24280    9.74600   56.49710   54.07330   56.04700   91.45360
 3986.00000    0.11830   52.76930   14.73000   11.47610   12.04730    9.74710   56.36110   56.40640   56.33250   91.20950
 3986.50000    0.13670   52.84390   12.42850   10.71610    6.52500    9.74220   56.20240   56.35190   56.61330   89.65370
 3987.00000    0.16470   50.51530   11.13860   10.39510    4.99660    9.73230   56.06040   56.05510   56.15120   88.16730
 3987.50000    0.18870   46.40320   11.89380   10.66760    5.08670    9.73050   56.09890   55.77740   55.82160   86.49640
 3988.00000    0.17550   39.73720   16.48070   14.24010    6.49130    9.70930   57.89610   55.65380   55.92090   84.96600
 3988.50000    0.14150   31.48340   29.18870   21.73890   12.52190    9.67230   61.24540   55.59020   56.05790   86.57350
 3989.00000    0.10000   22.48210   72.24950   49.30560   57.98420    9.65200   63.07870   55.63680   56.58310   91.66190
 3989.50000    0.06160   15.64800  138.82710  119.26610  605.48690    9.61460   61.94950   55.65340   57.60030  102.70060
 3990.00000    0.03500   11.20230  200.51120  172.22250  550.17750    9.60640   58.71300   55.69290   61.54260  111.69410
 3990.50000    0.02150    8.48180  828.01440  376.92310  139.85510    9.59340   55.89240   55.72070   60.59710  113.51260
 3991.00000    0.01870    6.56110 1252.29750 1016.77710 1160.36020    9.58990   55.71100   55.74940   57.64260  110.88410
 3991.50000    0.01400    5.27690 1961.40920 1389.54170 1668.98300    9.61400   55.74910   55.83540   55.60610  110.18300
