~Version ---------------------------------------------------
VERS.   2.0 : CWLS log ASCII Standard -VERSION 2.0
WRAP.    NO : One line per depth step
DLM . SPACE : Column Data Section Delimiter
~Well ------------------------------------------------------
STRT .F                3893.0 : START DEPTH
STOP .F                4939.0 : STOP DEPTH
STEP .F                   0.5 : STEP
NULL .               -9999.25 : NULL VALUE
COMP .                        : COMPANY
WELL .                        : WELL
FLD  .                        : FIELD
LOC  .                        : LOCATION
PROV .                        : PROVINCE
CNTY .                        : COUNTY
STAT .                        : STATE
CTRY .                        : COUNTRY
SRVC .                        : SERVICE COMPANY
DATE .                        : DATE
UWI  .                        : UNIQUE WELL ID
API  .                        : API NUMBER
SLAT .WGS84 3.865781920935099 : SURFACE LATITUDE
SLON .WGS84 7.249412180818993 : SURFACE LONGITUDE
DATUM.F               3706.29 : DEPTH DATUM ELEV
~Curve Information -----------------------------------------
DEPT   .F     : 1 MEASURED DEPTH
NPHI_LS.DEC   : NEUTRON POROSITY LIMESTONE
GRR    .GAPI  : GAMMA RAY FROM RESISTIVITY LOG
LLD    .OHMM  : LATEROLOG DEEP RESISTIVITY
LLS    .OHMM  : LATEROLOG SHALLOW RESISTIVITY
MSFL   .OHMM  : MICRO SPHERICALLY FOCUSED RESISTIVITY
CALSR  .IN    : MICRO RESISTIVITY CALIPER FROM RESISTIVITY
DTL    .US/F  : DELTA-T LONG SPACING
DT     .US/F  : DELTA-T (INTERVAL TRANSIT TIME)
DTCO   .US/F  : DELTA-T COMPRESSIONAL
DTSM   .US/F  : DELTA-T SHEAR
~Params ----------------------------------------------------
~Other -----------------------------------------------------
~ASCII -----------------------------------------------------
# ...
 4751.00000    0.02910   17.68720  692.39170  573.11390  123.77050    8.59150   46.14210   46.29320   46.14810   87.05950
 4751.50000    0.02700   19.72370  642.48220  555.85530  231.20410    8.70430   46.10380   46.21300   45.93780   86.32830
 4752.00000    0.02600   22.58950  489.41310  394.31390  193.62400    8.74410   46.22600   46.42740   45.76300   86.20710
 4752.50000    0.02820   25.45530  298.63510  259.07230   74.28140    8.78710   46.52880   46.74190   45.71210   86.81490
 4753.00000    0.03170   26.45930  215.94830  191.05650  109.31410    8.78740   46.70030   46.94480   45.65670   87.50220
 4753.50000    0.03480   25.70260  165.98340  150.34890   96.68480    8.80330   46.76170   46.97530   45.74230   87.12940
 4754.00000    0.03570   24.37690  130.61920  118.31460   79.73660    8.80070   46.78140   46.92940   45.73730   87.88260
 4754.50000    0.03550   23.07930  107.52150  101.94220   85.71980    8.78700   46.68210   46.87120   45.86510   87.11010
 4755.00000    0.03460   21.66330   95.08450   90.14650   83.29030    8.79090   46.58280   46.81300   45.71710   86.88780
 4755.50000    0.03530   19.56240   90.30440   88.58270   77.37830    8.79520   46.45120   46.75490   45.75420   86.85730
 4756.00000    0.03570   17.50980   89.15950   87.46120   80.54930    8.80040   46.44590   46.69670   45.82530   86.84190
 4756.50000    0.03550   17.13840   88.02910   86.35380  119.74800    8.80270   46.49140   46.75990   45.86390   86.84750
 4757.00000    0.03490   17.21120   85.46230   82.99700  122.64430    8.80210   46.54810   46.73100   45.99460   87.00220
 4757.50000    0.03540   17.45070   81.23730   79.67500   99.14190    8.80150   46.63940   46.98010   46.48860   87.74620
 4758.00000    0.03480   17.39860   95.19380   86.13830   74.20850    8.79980   46.72590   47.06980   46.88410   87.98850
 4758.50000    0.03300   16.19350  116.81690  103.94370   41.83200    8.79360   46.65020   46.88440   47.13870   87.99210
 4759.00000    0.02790   14.34740  205.39880  151.40820  173.23120    8.78750   46.33570   46.63120   46.76270   87.91370
 4759.50000    0.02370   13.18610  436.63070  322.15030  867.83560    8.78170   46.04320   46.34270   46.12260   87.64320
 4760.00000    0.02020   12.61010  866.13600  649.08580  583.70980    8.78450   45.75060   46.05420   46.47410   86.43160
 4760.50000    0.01680   11.84330  976.42270  823.81450  689.47970    8.78760   45.57130   45.87910   46.56200   86.11270
 4761.00000    0.01430   10.48310 1089.67860  997.03770 1311.19620    8.79590   45.86720   46.16590   45.92100   86.68760
 4761.50000    0.01280   10.17970 1109.47580  998.73650 1847.99890    8.82260   46.14480   46.45870   45.86240   86.65700
 4762.00000    0.01440   11.25740  924.48770  799.03390 1871.21140    8.84020   46.07580   46.38590   45.82870   86.18630
 4762.50000    0.01930   12.96080  658.35800  577.40000 1811.95630    8.82680   45.91980   46.12160   45.82510   86.25640
 4763.00000    0.02110   12.97560  475.70830  434.43030 1551.50510    8.80610   45.74650   45.97270   45.82510   87.00090
 4763.50000    0.02010   12.18730  470.63290  441.30970  749.83410    8.81070   45.74370   45.92350   45.82510   87.44120
 4764.00000    0.01580   10.10770  637.24580  548.24910 1877.10580    8.80340   45.85460   46.12920   45.82510   86.86890
 4764.50000    0.01390    9.49620  883.26090  796.87570 1723.90050    8.79730   46.11270   46.33940   45.83510   89.93190
 4765.00000    0.01390   10.25360  964.67060  884.37740 2005.68420    8.80730   46.38360   46.54950   45.86470   90.14270
 4765.50000    0.01730   13.61370  703.05750  594.16350 2005.68420    8.81520   46.55340   46.75480   46.10070   90.33050
 4766.00000    0.02130   16.91370  426.72560  341.86490  256.32130    8.81520   46.68430   46.99230   46.94520   90.39830
 4766.50000    0.02640   19.28870  245.48970  214.11710   46.98920    8.81490   47.03760   47.22990   47.64020   90.38410
 4767.00000    0.02840   21.98200  189.39490  173.91280  230.05510    8.81090   47.24270   47.46410   47.78820   90.21580
 4767.50000    0.03000   23.21290  167.91310  164.64870  203.72900    8.80690   47.27250   47.51030   47.81390   89.63670
 4768.00000    0.03340   24.55090  173.98810  168.98330  291.27490    8.80170   47.34690   47.47150   47.74580   89.12240
 4768.50000    0.03830   24.60430  184.16150  178.86430  173.95300    8.79570   47.50360   47.87870   47.56440   89.54980
 4769.00000    0.04030   24.34530  226.02750  207.57730  156.89750    8.79440   47.67560   48.34770   46.92160   90.14970
 4769.50000    0.03770   23.00760  278.39820  255.66590  148.53040    8.79300   47.71130   47.85570   46.18670   90.75250
 4770.00000    0.03130   20.17410  378.59100  324.64150   59.68970    8.79300   47.10880   46.82050   45.71050   91.35540
 4770.50000    0.02690   19.54180  478.59700  453.16780   21.30340    8.79680   46.34430   45.69740   45.27260   92.13520
 4771.00000    0.02590   19.58170  541.70970  512.94790   40.28130    8.82190   45.99230   44.57430   45.67460   92.83170
 4771.50000    0.02520   20.04990  602.67470  577.84900   84.23640    8.84430   45.85000   44.31750   45.80930   89.22360
 4772.00000    0.02440   22.81700  633.65370  622.02280  265.53110    8.83110   45.78840   44.83370   45.89450   84.44520
 4772.50000    0.02370   27.33950  609.07780  546.97380 1328.46220    8.82820   45.97710   45.40830   46.02470   79.84500
 4773.00000    0.02220   34.35160  412.08780  336.34220   68.76970    8.82530   46.29110   46.14890   46.82480   77.90790
 4773.50000    0.01960   36.88270  279.59210  263.94710  112.61860    8.82880   47.98690   47.23810   47.87130   78.36490
 4774.00000    0.01420   32.80790  286.83150  250.19730   56.34820    8.86130   50.14800   48.68520   49.55350   81.49140
 4774.50000    0.00710   22.14090  478.05510  344.36690   32.75160    8.88510   51.16340   50.82300   51.22550   88.94330
 4775.00000    0.00110   12.96490 1318.16020  898.41580  567.33800    8.90760   51.51660   50.98820   51.88940   94.71660
 4775.50000   -0.00090    8.96260 4560.96440 1980.96980  692.62850    8.93000   51.46590   50.25550   52.69560  100.21850
 4776.00000   -0.00100    8.83730 4469.00540 1977.42440  229.33910    8.95240   51.26050   50.06500   53.76800  102.08900
 4776.50000   -0.00090    9.24850 3965.43800 1973.88650  302.14530    8.96060   51.07850   50.44800   54.43710  103.40480
 4777.00000   -0.00070   10.99330 4002.08080 1970.35380  171.83620    8.96060   50.91680   51.02860   55.40660  104.30630
 4777.50000   -0.00060   12.70800 4329.15670 1966.82740  629.59710    8.96060   50.65640   50.87650   56.59340  105.90290
 4778.00000   -0.00050   15.16290 4450.56450 1963.30740  395.93820    8.92160   50.14960   50.40270   56.75670  105.38400
 4778.50000   -0.00030   17.52170 2945.82080 1959.79360  266.66940    8.88190   49.77840   49.93850   55.99930  104.73530
 4779.00000   -0.00020   16.67740 2121.53690 1501.37230 1115.24230    8.79320   49.68450   49.82030   56.03410  104.30700
 4779.50000   -0.00010   14.45740 1297.25310 1040.43630  267.76480    8.53640   49.71320   49.83860   56.58140  104.08240
 4780.00000    0.00020   13.25250 1010.98790  848.44490  309.85970    8.26520   50.01140   50.23280   56.19480  103.60570
 4780.50000    0.00310   14.13330  750.50870  661.15520  146.54570    8.11360   50.39200   50.51370   55.90330  103.23950
 4781.00000    0.00770   16.80980  547.79990  481.98330  130.43920    7.98210   50.37450   50.51250   56.46510  103.10940
 4781.50000    0.01660   19.71820  399.36330  338.45060  442.42670    7.97100   50.17900   50.28110   55.97140  102.88410
 4782.00000    0.02650   22.46770  229.89110  189.52680  274.98240    8.07130   50.02170   50.09980   55.87260  102.63220
 4782.50000    0.04120   23.01610  142.34560  117.36250   85.01710    8.27720   49.99510   50.06500   55.83580  102.34240
 4783.00000    0.04970   22.82840   88.13860   83.16440   65.67370    8.58260   49.99510   50.20860   55.65290  101.41320
 4783.50000    0.05500   21.60830   82.67070   75.85020   75.34470    8.65380   50.09450   50.33940   54.01090  100.37090
