~Version ---------------------------------------------------
VERS.   2.0 : CWLS log ASCII Standard -VERSION 2.0
WRAP.    NO : One line per depth step
DLM . SPACE : Column Data Section Delimiter
~Well ------------------------------------------------------
STRT .F                3893.0 : START DEPTH
STOP .F                4939.0 : STOP DEPTH
STEP .F                   0.5 : STEP
NULL .               -9999.25 : NULL VALUE
COMP .                        : COMPANY
WELL .                        : WELL
FLD  .                        : FIELD
LOC  .                        : LOCATION
PROV .                        : PROVINCE
CNTY .                        : COUNTY
STAT .                        : STATE
CTRY .                        : COUNTRY
SRVC .                        : SERVICE COMPANY
DATE .                        : DATE
UWI  .                        : UNIQUE WELL ID
API  .                        : API NUMBER
SLAT .WGS84 3.865781920935099 : SURFACE LATITUDE
SLON .WGS84 7.249412180818993 : SURFACE LONGITUDE
DATUM.F               3706.29 : DEPTH DATUM ELEV
~Curve Information -----------------------------------------
DEPT   .F     : 1 MEASURED DEPTH
NPHI_LS.DEC   : NEUTRON POROSITY LIMESTONE
GRR    .GAPI  : GAMMA RAY FROM RESISTIVITY LOG
LLD    .OHMM  : LATEROLOG DEEP RESISTIVITY
LLS    .OHMM  : LATEROLOG SHALLOW RESISTIVITY
MSFL   .OHMM  : MICRO SPHERICALLY FOCUSED RESISTIVITY
CALSR  .IN    : MICRO RESISTIVITY CALIPER FROM RESISTIVITY
DTL    .US/F  : DELTA-T LONG SPACING
DT     .US/F  : DELTA-T (INTERVAL TRANSIT TIME)
DTCO   .US/F  : DELTA-T COMPRESSIONAL
DTSM   .US/F  : DELTA-T SHEAR
~Params ----------------------------------------------------
~Other -----------------------------------------------------
~ASCII -----------------------------------------------------
# ...
 4091.00000    0.02660   13.26200   73.03410   63.82760   24.94300    9.87860   55.84140   56.32530   64.93740  118.01320
 4091.50000    0.01370   10.87060  113.19630   89.16310   63.14200    9.87790   55.64170   56.24000   61.94060  112.85780
 4092.00000    0.00390   10.10090  237.92560  167.25640  823.62730    9.87770   55.63900   56.08470   58.18130  109.15820
 4092.50000   -0.00060    9.98010  397.92030  352.54810 1922.35990    9.87800   55.67740   55.90320   56.22860  104.54910
 4093.00000   -0.00070   10.97160  323.81690  283.96370  509.51660    9.88800   55.71580   55.80350   55.08940  103.26160
 4093.50000    0.00190   14.69470  190.91000  116.82790 1652.21370    9.90640   55.76890   55.84710   54.06250   99.15940
 4094.00000    0.02610   20.71770   38.49660   15.34280 1882.56200    9.92360   55.82990   55.96120   54.63640  100.00000
 4094.50000    0.06700   28.31530    7.82250    6.09040  265.25150    9.94010   56.03850   56.14180   56.62800  109.00930
 4095.00000    0.13690   33.81390    4.64490    4.27020    2.65360    9.96120   56.24700   56.36890   59.89610  119.58620
 4095.50000    0.18750   33.31180    4.60400    3.95820    1.52230    9.96740   56.40010   56.59600   60.64400  125.04950
 4096.00000    0.19000   24.77340   11.10260    6.70010    2.74320    9.97590   56.42320   56.64680   57.95130  124.59820
 4096.50000    0.06350   15.09680   78.42630   23.86610  331.81110   10.00300   56.28850   56.57880   54.49820  118.79190
 4097.00000    0.02300    9.23140 1046.62390  448.62220 1956.28940   10.03020   55.78840   56.19620   52.85170  113.04900
 4097.50000    0.00120    7.03420 4175.63960 1185.85630 1997.15360   10.05740   55.09110   55.70620   52.42800  105.15530
 4098.00000   -0.00180    7.38840 3708.93240  979.20970 1991.59610   10.08450   54.40160   55.23710   51.32640  102.49790
 4098.50000   -0.00020    9.50110  607.86650  427.71790 1981.18080   10.09100   54.28350   55.11500   51.02620  100.65530
 4099.00000    0.00570   14.09900  255.06340  159.71210 1563.74580   10.10100   54.31620   54.99280   51.86120  101.75440
 4099.50000    0.01250   17.17930  117.96420  101.05300  103.97970   10.11830   54.54020   54.99490   53.21920  101.85130
 4100.00000    0.01940   18.61590   81.11310   79.07150   34.78070   10.13130   54.82730   55.09110   53.86260  105.21570
 4100.50000    0.01980   16.90180  110.37670   95.10140   38.88230   10.14380   54.94950   55.14720   54.12680  107.24250
 4101.00000    0.01610   12.56970  154.94530  132.58360   51.76440   10.15470   55.00380   55.10910   54.83540  107.01930
 4101.50000    0.01050   10.12320  294.92250  227.39530  638.75680   10.16620   54.94340   55.04080   55.26770  106.57200
 4102.00000    0.00670    8.61140  508.01810  424.63290 1727.36580   10.17810   54.72820   54.93810   55.05860  102.21740
 4102.50000    0.00540    9.46650  641.06730  602.65350  459.65770   10.18820   54.44870   54.88040   55.00710  101.17430
 4103.00000    0.00410    9.74540  776.33810  603.73430   37.47390   10.22160   54.35780   54.85990   54.77760  101.99820
 4103.50000    0.00230    9.43810  972.35730  743.79430  202.03560   10.26930   54.45960   55.03010   54.33610  102.43520
 4104.00000    0.00140    8.56640 1784.03670 1196.22450 1899.42080   10.32840   54.74710   55.21790   55.05320  103.75390
 4104.50000    0.00150    8.20550 3781.51270 1296.60880 1998.03530   10.35070   55.15220   55.42190   55.61900  105.51950
 4105.00000    0.00480    8.46520 2874.68650 1173.01350 1998.21630   10.35710   55.51230   55.62590   55.81200  105.84720
 4105.50000    0.00840   10.30860  527.07140  324.99600 1998.39730   10.38330   55.87230   55.82980   55.86960  105.92550
 4106.00000    0.01720   14.22760  144.63310   75.49620 1630.01490   10.39600   56.23240   56.03380   55.88770  108.94740
 4106.50000    0.03120   19.45720   49.48390   38.58740  239.43550   10.42450   56.59020   56.20100   55.89270  112.06980
 4107.00000    0.05280   22.14210   26.80620   29.50250   13.61140   10.43880   56.69360   56.27420   55.89760  114.81910
 4107.50000    0.07400   23.22230   20.48610   25.96920   12.37810   10.45330   56.69140   56.25450   55.90260  115.29820
 4108.00000    0.09110   24.69030   18.61380   24.36150   12.15710   10.46780   56.47240   56.18260   55.90760  114.74640
 4108.50000    0.10330   24.48370   18.37870   24.84360    8.81530   10.48230   56.32600   56.13820   55.91260  113.92320
 4109.00000    0.10610   24.04830   19.58080   28.06480   14.06250   10.50230   56.32930   56.20640   55.91750  112.97880
 4109.50000    0.09570   22.79280   26.59440   35.38370   15.92610   10.49750   56.40150   56.28370   55.92250  111.86920
 4110.00000    0.07700   20.21740   58.11600   47.85110   10.55580   10.40200   56.47000   56.36110   55.92750  109.33130
 4110.50000    0.03510   16.72660   93.93470   77.34180  181.41330   10.32030   56.48360   56.38650   55.93250  106.78110
 4111.00000    0.02030   14.25440  125.88260  114.60900 1655.78040   10.36750   56.49730   56.39090   55.93750  103.28670
 4111.50000    0.01560   12.18870  157.32450  143.62160  492.17560   10.47960   56.51100   56.39530   55.94240  101.03410
 4112.00000    0.01150   10.29250  255.90990  207.97810   32.81120   10.59180   56.52460   56.39970   55.94740   99.79500
 4112.50000    0.00800    8.02160  441.78770  347.06230 1977.02610   10.61910   56.53830   56.40410   55.95240   98.55920
 4113.00000    0.00370    6.48530  624.57170  401.86540 2000.78700   10.63880   56.57770   56.40850   55.95740   97.62710
 4113.50000    0.00070    7.49650  623.88970  402.44610 2000.96830   10.65860   56.62620   56.41290   55.96230   97.89120
 4114.00000   -0.00170    9.62660  500.53420  352.86560 1709.57620   10.69770   56.67470   56.46830   55.96730  101.93200
 4114.50000   -0.00360   10.04700  404.77800  311.77390   81.71150   10.73880   56.72320   56.54380   55.99000  109.39320
 4115.00000   -0.00470   10.31310  368.99510  294.51820  121.28940   10.76000   56.77170   56.61940   56.12080  115.81750
 4115.50000   -0.00390   10.82980  317.73680  258.31090 1782.20630   10.77420   56.81340   56.69500   56.74310  121.39760
 4116.00000    0.00290   12.67920  203.99980  173.55070 1360.00680   10.78850   56.78680   56.77060   56.81360  125.74210
 4116.50000    0.01800   14.66660  133.01060  105.00050  572.20280   10.80270   56.76020   56.83680   56.98220  126.83480
 4117.00000    0.02300   16.26740   74.31170   62.14900  130.03700   10.81700   56.73360   56.86280   56.37840  125.85870
 4117.50000    0.02230   16.26840   64.36900   56.96900   23.03990   10.83120   56.70690   56.84690   55.49330  123.55690
 4118.00000    0.00940   13.55420  156.61210  109.05540   50.13450   10.84080   56.68030   56.82070   55.61380  122.68330
 4118.50000    0.00060   10.49930  364.26650  260.12230 1888.52220   10.83920   56.65370   56.79160   55.88700  122.19780
 4119.00000   -0.00530    9.03330  759.34230  594.80650 1789.66440   10.83760   56.62710   56.76260   56.08770  121.80300
 4119.50000   -0.00600    9.01140 1092.41650  741.58230 1297.61490   10.81820   56.60050   56.73360   56.34880  121.45490
 4120.00000   -0.00190    9.54540  892.21100  498.81760  753.18240   10.78250   56.57380   56.70450   56.84590  121.75260
 4120.50000    0.00460   10.34990  345.24500  245.82900  344.27690   10.74160   56.54720   56.68040   56.98670  122.00800
 4121.00000    0.01070    9.61370  193.41980  188.32330  125.26870   10.69210   56.52060   56.65950   57.02640  121.56220
 4121.50000    0.01450    8.33290  205.67600  199.14520   81.52550   10.64260   56.49400   56.63860   57.05040  120.94300
 4122.00000    0.01630    8.62170  213.81270  209.78730  503.17220   10.59310   56.46740   56.61770   56.96340  120.31500
 4122.50000    0.02190   10.46010  208.65980  199.48200 1710.91130   10.56250   56.44080   56.59680   56.61400  119.68710
 4123.00000    0.03210   13.55520  145.09570  117.50350 2001.10230   10.54660   56.41410   56.57590   56.24890  118.07630
 4123.50000    0.04160   14.40820   99.51790   94.44170 1320.08350   10.53070   56.38750   56.54430   56.05650  116.34870
