~Version ---------------------------------------------------
VERS.   2.0 : CWLS log ASCII Standard -VERSION 2.0
WRAP.    NO : One line per depth step
DLM . SPACE : Column Data Section Delimiter
~Well ------------------------------------------------------
STRT .F                3893.0 : START DEPTH
STOP .F                4939.0 : STOP DEPTH
STEP .F                   0.5 : STEP
NULL .               -9999.25 : NULL VALUE
COMP .                        : COMPANY
WELL .                        : WELL
FLD  .                        : FIELD
LOC  .                        : LOCATION
PROV .                        : PROVINCE
CNTY .                        : COUNTY
STAT .                        : STATE
CTRY .                        : COUNTRY
SRVC .                        : SERVICE COMPANY
DATE .                        : DATE
UWI  .                        : UNIQUE WELL ID
API  .                        : API NUMBER
SLAT .WGS84 3.865781920935099 : SURFACE LATITUDE
SLON .WGS84 7.249412180818993 : SURFACE LONGITUDE
DATUM.F               3706.29 : DEPTH DATUM ELEV
~Curve Information -----------------------------------------
DEPT   .F     : 1 MEASURED DEPTH
NPHI_LS.DEC   : NEUTRON POROSITY LIMESTONE
GRR    .GAPI  : GAMMA RAY FROM RESISTIVITY LOG
LLD    .OHMM  : LATEROLOG DEEP RESISTIVITY
LLS    .OHMM  : LATEROLOG SHALLOW RESISTIVITY
MSFL   .OHMM  : MICRO SPHERICALLY FOCUSED RESISTIVITY
CALSR  .IN    : MICRO RESISTIVITY CALIPER FROM RESISTIVITY
DTL    .US/F  : DELTA-T LONG SPACING
DT     .US/F  : DELTA-T (INTERVAL TRANSIT TIME)
DTCO   .US/F  : DELTA-T COMPRESSIONAL
DTSM   .US/F  : DELTA-T SHEAR
~Params ----------------------------------------------------
~Other -----------------------------------------------------
~ASCII -----------------------------------------------------
# ...
 4355.00000    0.14820   18.82330   17.20290   14.99740    9.43630    9.07520   52.99570   51.66520   52.83700   99.00980
 4355.50000    0.14440   19.32700   18.53590   15.48330   10.13590    9.08710   53.33750   52.06050   53.52440   99.13840
 4356.00000    0.14060   20.48410   21.09790   17.42650   19.23080    9.09890   53.33570   52.07020   53.20860   99.29530
 4356.50000    0.13850   20.10510   25.40120   20.91780   23.26330    9.11070   53.24420   51.96850   52.91980   99.45480
 4357.00000    0.13300   18.96120   31.22280   23.90370   24.59170    9.11690   52.98260   51.86670   52.90150   99.55430
 4357.50000    0.12390   17.88980   34.18340   24.75550   39.87200    9.12310   52.65310   51.84900   52.67380   98.00600
 4358.00000    0.11780   18.43290   34.04920   24.51460   40.22750    9.12930   52.29840   51.89970   52.05490   97.49750
 4358.50000    0.11840   20.49760   31.22520   22.65180   31.82240    9.13550   51.92410   52.04090   51.00600   96.86020
 4359.00000    0.12130   23.49240   24.88470   18.24750   17.88320    9.14160   51.64020   52.21580   50.22740   96.00720
 4359.50000    0.12600   25.21880   20.26250   14.69940   33.02100    9.14590   51.70920   52.47800   50.56970   96.43830
 4360.00000    0.13390   26.29850   15.66730   11.53910   21.27400    9.14720   52.15660   52.73190   51.36510  101.65830
 4360.50000    0.14210   26.74430   11.94840    9.24640   10.45440    9.14860   52.74470   52.98410   52.22940  101.26260
 4361.00000    0.15190   27.33480    9.02160    7.47130    8.00240    9.14990   53.34920   53.26000   53.38480  100.76790
 4361.50000    0.16070   28.39490    8.77840    7.10070    7.13410    9.15120   54.00060   53.72700   54.68810  101.75140
 4362.00000    0.15830   29.10420    8.89260    7.72790    5.98370    9.15260   54.79350   54.01900   55.27380  103.39730
 4362.50000    0.14580   28.97890    9.88030    8.37700    5.34250    9.15720   54.81980   53.97900   55.72170  103.90250
 4363.00000    0.13720   27.82620   11.49080    9.22680   11.79890    9.16350   54.50680   53.74490   54.75480  103.78680
 4363.50000    0.13900   26.35760   13.12850   10.34910   12.02060    9.17560   53.77770   53.32600   54.21920  102.17830
 4364.00000    0.14240   24.82920   13.30030   11.38370   10.97440    9.17850   53.04850   52.80780   53.80050   99.27950
 4364.50000    0.14090   23.33080   13.47440   11.41910   21.66610    9.18120   52.64730   52.30020   53.53380   96.38060
 4365.00000    0.13560   23.15080   13.49960   11.30670   14.07310    9.18290   52.40340   51.81730   53.41720   95.99930
 4365.50000    0.13440   23.11220   13.44790   11.19540   19.16510    9.18470   52.15950   51.43940   52.93480   96.58710
 4366.00000    0.13630   23.15770   13.39630   11.08520    9.41980    9.18640   51.91560   50.75300   52.30160   99.65940
 4366.50000    0.14380   23.27390   13.34500   11.00580    7.64930    9.19920   51.67170   49.70900   51.56840   99.74580
 4367.00000    0.15320   23.96670   13.45750   11.17530   21.88080    9.21780   51.42780   48.95890   51.02570   98.84050
 4367.50000    0.16160   24.47970   13.78010   11.54240   18.28280    9.23240   51.06090   48.69070   52.18390   97.23970
 4368.00000    0.16280   24.36420   14.62500   12.22500    9.18590    9.23300   50.68600   48.56520   52.00200   96.72860
 4368.50000    0.15560   23.43010   18.09800   12.83920   10.33750    9.22700   50.31110   48.37060   51.84220   96.50850
 4369.00000    0.14040   22.10490   24.43910   15.31890   22.95010    9.22850   49.94090   47.44590   51.46590   95.51930
 4369.50000    0.11750   22.02070   54.69390   43.47160   11.77120    9.22210   49.76970   46.79300   50.64310   94.17800
 4370.00000    0.09480   23.03520   94.72850   71.27180 1033.16050    9.21560   49.27400   46.16050   49.63360   93.17430
 4370.50000    0.07310   24.05600  103.85480   73.55710 1026.82080    9.20800   48.88400   45.72940   49.00470   92.91650
 4371.00000    0.07370   23.60430  101.63700   68.14460  208.20620    9.19350   48.86650   45.55410   48.73460   92.15920
 4371.50000    0.08380   22.57080   50.78250   55.71760   50.83870    9.19040   49.24290   45.69360   48.56530   89.98490
 4372.00000    0.10680   21.48220   26.59630   42.88880   41.69790    9.17130   49.78660   46.48450   49.12050   92.17580
 4372.50000    0.12880   20.70790   21.27960   28.20600   15.97810    9.17750   50.07450   47.81410   49.67570   93.40770
 4373.00000    0.14690   19.84710   20.12300   18.56270   30.99720    9.18370   50.36340   48.74200   50.23090   94.72740
 4373.50000    0.15410   19.05400   19.82920   11.48320   13.91190    9.16380   51.06140   49.19730   50.78610   96.52390
 4374.00000    0.15690   18.28850   20.62240    9.21670   19.34890    9.18170   52.28280   49.51540   51.34130   97.92840
 4374.50000    0.16170   17.99450   16.89320    7.67990   11.70800    9.17340   52.94700   50.39260   51.69580   99.27610
 4375.00000    0.17070   18.35370   11.00060    7.21790    5.45980    9.14870   52.98700   51.53320   51.93480   99.64690
 4375.50000    0.17470   18.49990   11.50140    6.94500    7.27920    9.14390   53.03960   52.32890   52.17380   99.67360
 4376.00000    0.16990   17.96010   11.83890    7.51250    7.81670    9.13940   53.16870   52.84260   52.16170   99.56730
 4376.50000    0.16030   17.43310   10.95260    7.70100   15.22790    9.13490   53.33550   53.32440   51.71490   99.36060
 4377.00000    0.15400   18.09050    9.59900    6.72430   17.17490    9.12400   53.50060   54.29440   51.95660  100.32970
 4377.50000    0.16730   20.40900    8.41270    5.63160    9.58350    9.11210   54.30230   55.48160   52.71850  102.06420
 4378.00000    0.19530   22.97750    5.98820    4.46650    4.33510    9.10020   56.05590   56.14930   54.63860  103.81600
 4378.50000    0.19550   24.86900    5.86670    4.02790    2.31940    9.08830   57.80950   56.34850   56.72030  106.02760
 4379.00000    0.19290   26.65180    5.97390    4.02240    2.21610    9.07640   59.05220   56.55390   58.06870  106.59240
 4379.50000    0.19290   27.12020    6.12990    4.46850    4.99880    9.06440   59.01860   56.97010   59.23620  106.74350
 4380.00000    0.19570   25.34300    7.17850    5.03090    4.34540    9.05250   57.84850   56.94500   58.50200  106.30270
 4380.50000    0.19270   23.08950    8.14740    5.64770    6.61970    9.04800   56.12150   56.26960   56.58570  105.35290
 4381.00000    0.18580   20.66120    9.02120    6.14100    7.02840    9.04620   55.07080   55.44850   54.97140  104.40320
 4381.50000    0.17890   19.72780    9.98880    6.72110    6.10030    9.04440   54.85240   55.59650   54.61600  102.66930
 4382.00000    0.17220   18.79480   12.46910    7.87240    5.75920    9.04250   54.59400   55.01620   53.39120  100.91970
 4382.50000    0.15890   17.80510   15.94960    9.22080   18.73420    9.04070   54.28050   53.65360   51.81890   99.17010
 4383.00000    0.14240   16.82580   24.14730   11.41140   21.98620    9.03890   52.92790   51.82850   50.61850   97.63620
 4383.50000    0.12330   16.79900   27.85910   16.25550   18.29580    9.03700   51.53100   50.41220   49.35070   95.40840
 4384.00000    0.10940   17.37930   31.61450   16.89630   17.69880    9.03520   50.00780   49.01990   47.99080   95.20870
 4384.50000    0.10720   18.09120   31.36860   16.45860   30.07770    9.03340   48.36730   49.77110   46.81880   95.40600
 4385.00000    0.11300   18.42420   25.45980   13.77900   31.15200    9.03160   48.31750   50.22810   48.08880   96.24470
 4385.50000    0.12150   19.34970   16.74450    9.94650   20.86730    9.02970   48.63360   51.17930   49.95810   98.02410
 4386.00000    0.14000   22.10630   11.28160    7.22540   13.55870    9.02790   50.51320   52.42110   51.92640   99.60050
 4386.50000    0.15690   25.53500    7.76850    5.58690    7.86980    9.02610   52.95420   53.02450   53.16190  101.17690
 4387.00000    0.17400   27.18580    7.36020    4.61760    4.24180    9.02440   54.55710   52.62430   54.21340  102.69250
 4387.50000    0.17930   26.97280    7.60980    4.65030    2.84450    9.02260   54.78520   53.43600   54.34610  102.62660
