~Version ---------------------------------------------------
VERS.   2.0 : CWLS log ASCII Standard -VERSION 2.0
WRAP.    NO : One line per depth step
DLM . SPACE : Column Data Section Delimiter
~Well ------------------------------------------------------
STRT .F                3893.0 : START DEPTH
STOP .F                4939.0 : STOP DEPTH
STEP .F                   0.5 : STEP
NULL .               -9999.25 : NULL VALUE
COMP .                        : COMPANY
WELL .                        : WELL
FLD  .                        : FIELD
LOC  .                        : LOCATION
PROV .                        : PROVINCE
CNTY .                        : COUNTY
STAT .                        : STATE
CTRY .                        : COUNTRY
SRVC .                        : SERVICE COMPANY
DATE .                        : DATE
UWI  .                        : UNIQUE WELL ID
API  .                        : API NUMBER
SLAT .WGS84 3.865781920935099 : SURFACE LATITUDE
SLON .WGS84 7.249412180818993 : SURFACE LONGITUDE
DATUM.F               3706.29 : DEPTH DATUM ELEV
~Curve Information -----------------------------------------
DEPT   .F     : 1 MEASURED DEPTH
NPHI_LS.DEC   : NEUTRON POROSITY LIMESTONE
GRR    .GAPI  : GAMMA RAY FROM RESISTIVITY LOG
LLD    .OHMM  : LATEROLOG DEEP RESISTIVITY
LLS    .OHMM  : LATEROLOG SHALLOW RESISTIVITY
MSFL   .OHMM  : MICRO SPHERICALLY FOCUSED RESISTIVITY
CALSR  .IN    : MICRO RESISTIVITY CALIPER FROM RESISTIVITY
DTL    .US/F  : DELTA-T LONG SPACING
DT     .US/F  : DELTA-T (INTERVAL TRANSIT TIME)
DTCO   .US/F  : DELTA-T COMPRESSIONAL
DTSM   .US/F  : DELTA-T SHEAR
~Params ----------------------------------------------------
~Other -----------------------------------------------------
~ASCII -----------------------------------------------------
# ...
 4553.00000    0.02580   14.07870 1371.20570 1079.25480  545.98320   10.48480   56.66700   56.16040   50.42030   97.47430
 4553.50000    0.02840   15.90200  759.15350  566.02020  674.94700   10.49010   55.45830   56.17010   51.98200   98.76250
 4554.00000    0.03110   17.80810  366.37850  273.13670  421.84720   10.46840   53.89350   56.10410   53.58240   99.94110
 4554.50000    0.03380   19.35410  176.81940  145.53520  221.51080   10.45090   53.54990   55.98000   55.48360  101.10310
 4555.00000    0.03600   20.68970  121.14690  106.81540  246.77320   10.43110   54.88390   55.93310   56.81390  104.48230
 4555.50000    0.03830   22.02320   88.98950   85.51030   46.05090   10.40210   56.14340   56.22660   58.00580  106.97980
 4556.00000    0.04050   22.32440   92.11590   87.25080   38.87780   10.36710   56.92520   57.10800   58.23100  110.44220
 4556.50000    0.04110   20.76820  128.58410  111.71790  233.62700   10.33030   57.08810   57.84690   57.81880  110.08850
 4557.00000    0.03900   18.32970  174.40100  155.75810  160.45900   10.29100   56.91580   57.52960   57.41190  109.53730
 4557.50000    0.03510   15.92130  230.28610  205.67670  119.90580   10.24490   56.74350   56.96590   56.79450  109.36770
 4558.00000    0.03040   14.52470  334.72930  282.36180  135.34700   10.20730   56.59100   57.65470   55.70250  109.19820
 4558.50000    0.02570   13.75170  506.62450  430.71550  321.94810   10.17210   56.26200   59.36490   54.20690  109.02860
 4559.00000    0.02140   12.93350  734.67070  632.49220  800.72240   10.15360   55.67910   59.10800   52.61900  108.55590
 4559.50000    0.01720   12.76360  799.86130  784.96360 1464.51000   10.14340   54.99350   57.62130   50.03650  105.39650
 4560.00000    0.01330   13.67760  655.00320  505.40770 1897.06260   10.13320   53.88620   56.26770   46.64350  102.55900
 4560.50000    0.01490   15.30890  343.49400  265.06810 1687.80070   10.12300   50.78380   56.12300   46.79730   99.22740
 4561.00000    0.02050   18.78740  180.13370  139.01870  153.89080   10.09910   49.18360   56.27110   47.88930   97.87720
 4561.50000    0.03560   21.42750   83.61670   57.23630  255.55070   10.07380   49.71000   56.34430   48.30150   98.15730
 4562.00000    0.06110   23.47130   40.94580   34.57560   35.82490   10.05160   52.11470   56.34380   49.54620   98.15620
 4562.50000    0.10320   23.16920   38.08580   32.62080   17.88200   10.02990   54.82500   56.29260   51.21750   97.78540
 4563.00000    0.12300   20.64360   42.62360   35.43770   14.10840   10.00830   55.05020   55.55950   52.84610   97.06110
 4563.50000    0.11300   17.54800   72.22340   53.86870   25.41170    9.98660   53.98430   54.69400   53.05840   96.00890
 4564.00000    0.08620   17.12170  233.36130  145.82910  793.19110    9.98910   52.52440   54.30190   52.89580   93.99420
 4564.50000    0.04980   18.42030  571.29790  471.38560 1094.48510    9.99270   51.37120   54.60100   52.41370   92.76880
 4565.00000    0.03680   21.86390  861.05980  724.64860 1214.59010   10.01400   50.42450   55.26010   51.92740   90.31570
 4565.50000    0.03430   26.54740  869.86320  770.79790 1040.09590   10.04160   50.05840   55.65390   50.84830   89.35240
 4566.00000    0.04000   31.84060  647.11150  514.94540  738.61960   10.06930   50.43880   55.60190   49.88390   91.40700
 4566.50000    0.05100   37.33640  366.88700  291.77840  284.65840   10.09690   51.56180   55.54890   51.12290   96.52440
 4567.00000    0.06230   42.45850  208.01070  165.32750  125.46960   10.11880   54.67760   55.56840   52.77720  101.21580
 4567.50000    0.07360   42.37490  117.93400   93.67790   85.29520   10.13650   55.24720   55.62780   53.96000  103.44830
 4568.00000    0.07720   38.68050   83.76360   79.47270   33.89450   10.14700   55.53610   55.72890   54.10790  104.70510
 4568.50000    0.07170   30.57090   87.58350   84.42660   76.82150   10.13170   55.53610   55.68880   54.18380  105.14360
 4569.00000    0.05520   24.19650  101.52640   94.43280  148.82570   10.11640   55.53610   55.67510   54.23740  105.55240
 4569.50000    0.04110   19.85980  122.76340  112.31630  444.43310   10.10250   55.59050   55.70930   54.24110  104.86300
 4570.00000    0.03140   15.11740  173.27970  150.37250   40.42480   10.09280   55.71520   55.79990   54.24200  103.03000
 4570.50000    0.02460   11.41930  278.18580  228.54720  156.87540   10.09090   55.83990   55.94980   54.25420  100.60080
 4571.00000    0.01770    9.06290  714.71030  428.46570 1509.72840   10.08900   55.96460   56.13340   54.50200   99.63680
 4571.50000    0.01200    8.46330 7808.74900 1642.59830 1926.11740   10.08710   56.05070   56.16300   55.71500   99.42830
 4572.00000    0.00630    8.40140 13642.06350 1923.86760 2010.47290   10.08510   56.07540   56.21130   56.12900   98.22550
 4572.50000    0.00460    8.56350 7840.64360 1895.04220 2002.81790   10.08320   56.10000   56.26500   56.23400   97.62970
 4573.00000    0.00540    9.75040 2231.61840 1006.66810 1348.92400   10.08130   56.09500   56.28720   56.11400   98.79390
 4573.50000    0.00760   10.96430 1348.27590  521.44060  394.97910   10.07940   56.07310   56.30080   56.21140  100.32500
 4574.00000    0.01150   10.61580  464.93350  276.63560  261.36760   10.07750   56.05130   56.30780   56.24480  102.16190
 4574.50000    0.01490    9.29780  395.97470  329.08800   71.55800   10.01880   56.02950   56.29020   56.24840  102.58020
 4575.00000    0.01520    7.97970 1237.12390  817.70280 1150.96360    9.94950   56.00770   56.28340   56.24840  102.17800
 4575.50000    0.01360    7.09240 2226.31320 1156.90200 1952.83850    9.88060   55.98580   56.29200   56.24840  101.82920
 4576.00000    0.01200    7.45950 3215.50270 1652.29350 1962.29660    9.77310   55.96400   56.22580   56.24840   99.70940
 4576.50000    0.01170    7.95350 3873.00220 1923.39760 1971.80160    9.61570   55.94220   56.19440   56.22450   99.13750
 4577.00000    0.01240    9.10000 3310.98020 1802.40040 1981.35160    9.54940   55.92040   56.16600   56.19960   98.14860
 4577.50000    0.01410   10.24530 2525.04910 1302.91780 1990.94780    9.50660   55.89850   56.13820   55.92700   96.27590
 4578.00000    0.01740   12.14850 1213.32120  761.15580 2000.59160    9.45530   55.87670   56.11040   55.17930   95.98800
 4578.50000    0.02190   15.55650  478.64800  354.03760 2007.03020    9.41020   55.85490   56.02170   54.72080   96.04730
 4579.00000    0.03480   20.05330  239.23830  181.97370  964.68330    9.38500   55.83310   56.02860   54.83650   95.85140
 4579.50000    0.05310   24.22660  122.96420   93.53370  129.65190    9.36870   55.81120   56.10010   54.77260   96.28010
 4580.00000    0.07490   28.15840   77.12910   59.18710   50.84870    9.33780   55.84420   56.14980   54.44960   99.77460
 4580.50000    0.10140   28.77550   71.47960   60.42180   29.88130    9.29670   55.87790   56.19580   54.22750  102.14390
 4581.00000    0.11010   27.18410   75.52400   68.63500   31.33500    9.26520   55.91150   56.24180   54.22750  103.22460
 4581.50000    0.09630   24.80290   93.37660   82.86840  133.67210    9.21370   55.94520   56.28770   54.22750  104.24860
 4582.00000    0.06950   21.04480  112.24990  100.05350  129.80670    9.17410   55.96240   56.33370   54.23250  105.28860
 4582.50000    0.04290   17.58520  122.44390  107.54940   71.39240    9.18250   55.96080   56.37970   54.40980  106.33360
 4583.00000    0.03130   16.33890  105.43410   87.86130  118.39120    9.35560   55.95920   56.36080   54.83100  106.68240
 4583.50000    0.03140   17.69180   85.17930   70.62500  137.31810    9.53460   55.95760   56.34140   55.07720  106.39650
 4584.00000    0.04290   18.38640   71.15380   65.05920   35.42810    9.57660   55.95600   56.32200   54.94680  104.53960
 4584.50000    0.07220   17.03070   63.78440   58.65640   24.33820    9.60300   55.95440   56.30260   54.39420  102.69840
 4585.00000    0.09330   15.73580   62.58350   56.99520   31.08070    9.57800   55.95280   56.28310   54.24650  101.18460
 4585.50000    0.09770   16.75960   59.21580   55.39330  121.95560    9.55300   55.95120   56.26370   54.23870   99.90440
