~Version ---------------------------------------------------
VERS.   2.0 : CWLS log ASCII Standard -VERSION 2.0
WRAP.    NO : One line per depth step
DLM . SPACE : Column Data Section Delimiter
~Well ------------------------------------------------------
STRT .F                3893.0 : START DEPTH
STOP .F                4939.0 : STOP DEPTH
STEP .F                   0.5 : STEP
NULL .               -9999.25 : NULL VALUE
COMP .                        : COMPANY
WELL .                        : WELL
FLD  .                        : FIELD
LOC  .                        : LOCATION
PROV .                        : PROVINCE
CNTY .                        : COUNTY
STAT .                        : STATE
CTRY .                        : COUNTRY
SRVC .                        : SERVICE COMPANY
DATE .                        : DATE
UWI  .                        : UNIQUE WELL ID
API  .                        : API NUMBER
SLAT .WGS84 3.865781920935099 : SURFACE LATITUDE
SLON .WGS84 7.249412180818993 : SURFACE LONGITUDE
DATUM.F               3706.29 : DEPTH DATUM ELEV
~Curve Information -----------------------------------------
DEPT   .F     : 1 MEASURED DEPTH
NPHI_LS.DEC   : NEUTRON POROSITY LIMESTONE
GRR    .GAPI  : GAMMA RAY FROM RESISTIVITY LOG
LLD    .OHMM  : LATEROLOG DEEP RESISTIVITY
LLS    .OHMM  : LATEROLOG SHALLOW RESISTIVITY
MSFL   .OHMM  : MICRO SPHERICALLY FOCUSED RESISTIVITY
CALSR  .IN    : MICRO RESISTIVITY CALIPER FROM RESISTIVITY
DTL    .US/F  : DELTA-T LONG SPACING
DT     .US/F  : DELTA-T (INTERVAL TRANSIT TIME)
DTCO   .US/F  : DELTA-T COMPRESSIONAL
DTSM   .US/F  : DELTA-T SHEAR
~Params ----------------------------------------------------
~Other -----------------------------------------------------
~ASCII -----------------------------------------------------
# ...
 4421.00000    0.00950    6.44470 23079.83010 1797.37880   59.13020   11.69080   54.59600   50.94190   48.86540   95.61970
 4421.50000    0.00770    6.32660 24964.04880 1857.53040   57.46380   11.64870   53.99140   51.10850   48.89890   93.22710
 4422.00000    0.00790    6.70760 23519.88280 1849.60660   48.33560   11.60660   53.17100   51.32650   48.93240   95.88940
 4422.50000    0.00950    7.69060 18800.52340 1750.69810   39.65570   11.56590   52.09100   51.60190   48.96580   99.21400
 4423.00000    0.01080    9.12490 1965.02510 1058.41460   35.76380   11.53060   51.24990   51.78020   49.36200  102.00850
 4423.50000    0.01300   10.64230  704.29440  490.46340   32.12120   11.49750   51.85920   51.88330   50.82140  103.90810
 4424.00000    0.01970   14.12450  295.26240  205.60220   31.58060   11.46820   54.17450   53.08300   52.35680  106.56510
 4424.50000    0.03820   16.77790  123.78320   91.29890   18.87910   11.44180   56.57030   54.97350   53.89210  109.41970
 4425.00000    0.05910   19.05980   72.81640   56.87050   17.19680   11.41110   58.96610   56.20400   55.13650  112.11210
 4425.50000    0.07610   19.19990   80.29860   59.94410   16.46620   11.39340   59.67510   57.57670   56.54340  114.59310
 4426.00000    0.07370   16.97010  109.57810   84.95600   20.68840   11.33670   59.18100   58.44670   56.49390  112.10400
 4426.50000    0.04600   14.30950  280.95380  212.80640   40.74790   11.28000   56.85850   55.93470   55.64110  109.61480
 4427.00000    0.02630   12.57730  707.05770  523.06730   40.39080   11.24090   54.53610   53.35060   53.76400  105.80170
 4427.50000    0.01490   13.32640 1060.33730  936.16440   37.73540   11.18590   52.21360   50.96220   51.14800  100.93640
 4428.00000    0.01590   15.01910 1128.67630  941.24910   34.85200   11.05700   50.29850   49.63840   50.39010   98.66050
 4428.50000    0.01940   16.35900  898.68070  659.95530   32.55710   10.93590   49.34360   48.94290   49.63220   96.66740
 4429.00000    0.02050   16.61360  702.89420  607.87120   28.15680   10.86610   48.52440   48.37660   49.09920   96.18730
 4429.50000    0.01930   15.79990  734.91990  628.62940   24.46900   10.75930   48.36690   48.14890   48.71430   99.13120
 4430.00000    0.01750   13.30430 1056.55750  833.58050   25.05620   10.62850   48.61140   49.20370   48.41880  100.89330
 4430.50000    0.01650   11.14730 1215.59070 1000.54310   37.80190   10.55270   49.15440   50.49470   49.50220  101.93700
 4431.00000    0.01620   10.69850 1165.87130  953.35720   62.31660   10.51620   49.77260   50.08210   50.12490  102.65680
 4431.50000    0.01710   11.29740  791.75890  629.66830   90.96430   10.48020   50.45870   47.74710   50.95480  104.56480
 4432.00000    0.01920   11.84510  451.66150  359.16540  127.55770   10.44350   51.95550   47.95260   52.31750  105.58720
 4432.50000    0.02130   11.97680  257.65160  204.86940  188.05640   10.40680   53.69110   50.06200   53.92660  106.58600
 4433.00000    0.02200   10.49460  201.23320  195.57640  125.07470   10.38330   54.14050   51.31860   54.56080  107.60920
 4433.50000    0.01940    8.56220  231.42410  211.11800   76.26570   10.31220   53.85010   51.33150   54.10380  106.99920
 4434.00000    0.01400    7.24900  288.66880  263.32450  454.28850   10.23820   52.57980   50.92780   53.55840  106.23780
 4434.50000    0.00980    7.12170  305.60240  292.24570 1103.91800   10.21820   51.02950   50.25230   52.89830  103.36850
 4435.00000    0.00730    8.74860  362.40270  336.93020 1222.95020   10.14320   49.95400   49.45560   52.12760  102.40590
 4435.50000    0.00730   10.65250  380.02990  372.99910  570.71510   10.11560   50.13090   48.93400   50.91090  102.19610
 4436.00000    0.01070   12.05120  363.61820  279.52390  219.42000   10.08390   50.76170   49.17380   52.02450  103.90130
 4436.50000    0.01360   12.20650  175.59520  153.89940  194.90900    9.99430   51.37720   49.75510   52.94600  105.22150
 4437.00000    0.01450   11.02030  180.86940  158.03880   44.90000    9.86130   51.79190   49.95170   53.53090  106.48360
 4437.50000    0.01280    9.63490  386.85230  284.76660  574.31510    9.80180   51.75950   49.57200   53.72240  107.05570
 4438.00000    0.00980    9.92450  445.94600  423.78470  893.17160    9.74230   51.54640   49.24380   53.36450  106.75120
 4438.50000    0.00740   11.17040  441.12990  410.31190  976.42640    9.67900   51.33330   49.17520   53.05050  106.15600
 4439.00000    0.01020   13.87760  357.33830  324.01120  374.34310    9.62060   51.98070   49.58820   53.20810  105.21400
 4439.50000    0.01580   14.03790  304.04130  298.08110  109.53750    9.56660   53.14070   50.29140   53.59100  105.12180
 4440.00000    0.01680   11.73760  299.85120  294.11610  164.52690    9.53520   53.60510   50.89950   53.97150  104.93960
 4440.50000    0.01380   10.07670  292.58840  283.56580 1542.18460    9.50990   53.28520   50.70580   53.83490  104.43920
 4441.00000    0.01180   12.11240  192.22050  139.17500 1613.94710    9.43210   51.86470   49.95600   53.39700  103.68570
 4441.50000    0.01490   16.08380   87.24070   62.82240 1159.53630    9.37260   50.58840   48.69110   51.78230  101.81160
 4442.00000    0.03430   21.48520   43.60950   28.09770  446.67760    9.31310   49.71380   47.64890   50.56000   99.82620
 4442.50000    0.06820   26.25650   24.73880   15.01250   15.31920    9.28350   49.71410   48.26860   50.47140   98.51350
 4443.00000    0.09650   27.61160   17.96510   13.10370   12.72280    9.26500   50.27380   48.98380   50.91340   99.20730
 4443.50000    0.11360   27.61460   17.96310   13.40520   11.13030    9.22940   51.18970   49.54040   51.69960   99.98000
 4444.00000    0.11380   27.96960   20.53500   15.32310   14.36850    9.17840   51.53770   49.98950   52.42060  100.94190
 4444.50000    0.10940   30.07670   23.63940   17.58720   15.69010    9.12740   50.97770   50.15330   53.00810  100.87660
 4445.00000    0.10650   32.58680   25.68080   18.84580   18.65970    9.07640   50.58930   50.27110   52.18630   99.90820
 4445.50000    0.11020   34.21050   26.32780   19.44220   22.46370    9.04580   51.11330   50.89490   51.04780   99.18740
 4446.00000    0.11740   35.16720   25.59330   19.28980   17.16420    9.00000   52.30860   51.64580   51.48800   99.30760
 4446.50000    0.12270   35.96840   23.75630   17.82410   15.08010    8.95950   53.50380   53.14710   51.99570  100.42050
 4447.00000    0.12140   36.86270   20.73810   16.30300   15.62550    8.93910   54.20070   53.90730   52.87730  102.92840
 4447.50000    0.11640   38.82430   19.57490   15.03890   16.31660    8.94660   54.69180   54.61140   53.84740  102.92860
 4448.00000    0.11180   39.10750   19.86930   14.93000   13.18010    8.96100   54.82660   55.18320   54.47440  104.09080
 4448.50000    0.10750   36.32410   21.10590   15.83930    9.81920    8.97530   54.83970   55.30310   54.59170  107.03210
 4449.00000    0.10240   32.34450   24.21680   17.32030   12.68870    8.98960   54.35900   55.23160   53.95200  106.74480
 4449.50000    0.09920   29.37750   27.78620   19.93260   20.01320    9.00390   54.06330   54.96300   53.67230  105.05990
 4450.00000    0.09900   30.93900   29.58210   21.66710   23.20580    9.01830   54.76500   48.26650   52.54810  102.85350
 4450.50000    0.09920   37.22840   30.18540   21.88070   27.62690    9.02400   56.60430   46.19800   51.48800  102.43180
 4451.00000    0.10350   44.41310   22.82690   19.58070   27.10080    9.02680   57.52710   49.11760   51.23030  102.81810
 4451.50000    0.11390   52.33240   15.67030   13.45210   12.40540    9.02970   56.81500   54.68850   52.87360  105.84340
 4452.00000    0.13310   55.53460   11.86270   10.46940    7.81400    9.03260   56.25650   55.53420   55.29720  111.62180
 4452.50000    0.14160   55.05560   11.50600   10.17540    6.49790    9.03540   56.78040   55.00900   58.88450  116.44080
 4453.00000    0.13700   47.04280   12.30040   10.66630    9.60760    9.03830   57.59090   56.69800   63.23730  121.35770
 4453.50000    0.11490   37.83040   14.85010   13.43190   10.57500    9.04110   59.43030   58.77020   65.49390  124.83010
