~Version ---------------------------------------------------
VERS.   2.0 : CWLS log ASCII Standard -VERSION 2.0
WRAP.    NO : One line per depth step
DLM . SPACE : Column Data Section Delimiter
~Well ------------------------------------------------------
STRT .F                3893.0 : START DEPTH
STOP .F                4939.0 : STOP DEPTH
STEP .F                   0.5 : STEP
NULL .               -9999.25 : NULL VALUE
COMP .                        : COMPANY
WELL .                        : WELL
FLD  .                        : FIELD
LOC  .                        : LOCATION
PROV .                        : PROVINCE
CNTY .                        : COUNTY
STAT .                        : STATE
CTRY .                        : COUNTRY
SRVC .                        : SERVICE COMPANY
DATE .                        : DATE
UWI  .                        : UNIQUE WELL ID
API  .                        : API NUMBER
SLAT .WGS84 3.865781920935099 : SURFACE LATITUDE
SLON .WGS84 7.249412180818993 : SURFACE LONGITUDE
DATUM.F               3706.29 : DEPTH DATUM ELEV
~Curve Information -----------------------------------------
DEPT   .F     : 1 MEASURED DEPTH
NPHI_LS.DEC   : NEUTRON POROSITY LIMESTONE
GRR    .GAPI  : GAMMA RAY FROM RESISTIVITY LOG
LLD    .OHMM  : LATEROLOG DEEP RESISTIVITY
LLS    .OHMM  : LATEROLOG SHALLOW RESISTIVITY
MSFL   .OHMM  : MICRO SPHERICALLY FOCUSED RESISTIVITY
CALSR  .IN    : MICRO RESISTIVITY CALIPER FROM RESISTIVITY
DTL    .US/F  : DELTA-T LONG SPACING
DT     .US/F  : DELTA-T (INTERVAL TRANSIT TIME)
DTCO   .US/F  : DELTA-T COMPRESSIONAL
DTSM   .US/F  : DELTA-T SHEAR
~Params ----------------------------------------------------
~Other -----------------------------------------------------
~ASCII -----------------------------------------------------
 3893.00000   -9999.25   34.51220    7.08450    3.94650    8.60780   11.01870   -9999.25   -9999.25   -9999.25   -9999.25
 3893.50000   -9999.25   32.24510    9.05150    8.73540   11.71630   10.97560   -9999.25   -9999.25   -9999.25   -9999.25
 3894.00000   -9999.25   31.07030    9.84460    9.45980   10.10080   10.93090   -9999.25   -9999.25   -9999.25   -9999.25
 3894.50000   -9999.25   29.89040   11.07480   10.49250    6.53630   10.88620   -9999.25   -9999.25   -9999.25   -9999.25
 3895.00000   -9999.25   28.58400   12.77750   11.89420    8.86200   10.82460   -9999.25   -9999.25   -9999.25   -9999.25
 3895.50000   -9999.25   27.27880   14.55050   14.09980   13.28770   10.71830   -9999.25   -9999.25   -9999.25   -9999.25
 3896.00000   -9999.25   28.07230   14.51690   14.19310   16.60090   10.66960   56.11070   55.62980   54.71830   97.89470
 3896.50000   -9999.25   29.90640   13.83370   13.16320   16.06640   10.63760   56.07590   55.66590   55.25670   99.14250
 3897.00000   -9999.25   33.69590   11.97530   11.20520   14.09550   10.56460   56.04100   55.69640   55.70360  102.62440
 3897.50000   -9999.25   38.28340   10.41010    9.84180    9.80440   10.44310   56.00620   55.69640   56.08320  109.46070
 3898.00000    0.09600   39.75450   10.05470    9.75140    6.59100   10.29010   55.89350   55.63990   56.33380  117.31190
 3898.50000    0.08450   35.62610   12.55240   11.36420    5.00150   10.08450   55.71960   55.54220   56.65840  120.99160
 3899.00000    0.06640   29.51830   30.36890   23.41250   19.28990    9.86560   55.58430   55.45480   55.85320  119.69210
 3899.50000    0.03380   26.25140   54.52240   41.40270 1939.39100    9.75750   55.73120   55.57420   55.17330  115.26780
 3900.00000    0.01250   28.76930  122.28250   76.01750  478.20970    9.70420   55.88260   55.75270   54.97210  109.91690
 3900.50000    0.01130   31.94820  110.88350   82.88050   72.48090    9.65090   55.90600   55.77610   54.85970  106.35780
 3901.00000    0.01290   34.81630   88.84230   66.60400   57.66350    9.59760   55.91230   55.78280   54.85970  105.48470
 3901.50000    0.01750   34.37130   71.18240   52.19010   63.91740    9.55820   55.91230   55.78280   54.85970  107.29130
 3902.00000    0.02380   32.48680   41.92160   31.16670   61.67720    9.52040   55.91230   55.78280   54.85970  108.34000
 3902.50000    0.03330   30.43680   19.82520   17.21970   51.25750    9.48900   55.93870   55.80850   54.85970  109.09060
 3903.00000    0.05190   28.13880    9.57660    8.00150   53.95540    9.46300   56.08220   55.93590   54.85970  109.07750
 3903.50000    0.07390   24.49980    6.18590    5.20670    7.36190    9.44050   56.17120   56.04170   54.85970  109.69150
 3904.00000    0.09910   22.65200    4.75040    3.74360    4.49900    9.42770   56.17630   56.04660   55.12540  113.15290
 3904.50000    0.12260   23.36760    4.07330    3.28770    2.78970    9.42730   56.19470   56.06500   55.67520  115.59430
 3905.00000    0.12340   26.97550    4.06890    3.25790    2.39280    9.42690   56.21320   56.08350   55.83580  116.55420
 3905.50000    0.11450   28.99260    4.28240    3.36020    3.33050    9.42650   56.23170   56.10190   55.85150  116.46210
 3906.00000    0.10420   28.69980    4.51760    3.48810    4.50130    9.41650   56.25010   56.12040   55.68460  116.92890
 3906.50000    0.09760   28.29480    4.53010    3.55500    3.26680    9.39550   56.26860   56.13880   55.36180  116.25000
 3907.00000    0.09920   27.95060    4.45350    3.60320    2.97120    9.38380   56.28700   56.15730   54.92180  115.16330
 3907.50000    0.10210   28.07430    4.43530    3.60370    3.01240    9.36020   56.30550   56.17570   55.00880  116.76120
 3908.00000    0.10500   27.81080    4.55050    3.60420    3.19940    9.34650   56.32390   56.19420   55.45580  118.44070
 3908.50000    0.10810   27.19030    4.73340    3.65260    3.26190    9.34060   56.34240   56.21260   55.80610  119.33060
 3909.00000    0.11120   27.00740    4.92560    3.83920    3.27720    9.31330   56.32730   56.19750   55.86240  119.69650
 3909.50000    0.11490   26.55680    5.12550    3.94680    3.67990    9.28610   56.30550   56.17570   55.84990  120.33420
 3910.00000    0.11760   24.96910    5.24190    3.94070    4.31420    9.23510   56.33670   56.20260   55.85130  120.30500
 3910.50000    0.12020   23.08810    5.20990    3.96090    4.12070    9.20100   56.38520   56.25560   55.87060  119.59260
 3911.00000    0.12290   22.40520    4.96600    3.65250    3.44480    9.18160   56.39440   56.26480   55.96680  117.23170
 3911.50000    0.12450   22.33600    4.73350    3.37100    3.14620    9.14810   56.40350   56.27400   56.08270  116.96100
 3912.00000    0.12470   22.81660    4.75640    3.40530    3.32930    9.13280   56.41270   56.28310   55.63440  117.85650
 3912.50000    0.12450   23.09410    5.31970    3.52230    3.09500    9.11460   56.42190   56.29230   54.95350  118.38290
 3913.00000    0.12470   23.24250    6.39820    4.05220    2.92070    9.09010   56.43100   56.30150   54.89950  117.68140
 3913.50000    0.12530   23.85910    7.68140    5.20080    5.72690    9.08710   56.42190   56.29220   54.88810  116.90780
 3914.00000    0.12540   25.87470    8.65080    6.23900    3.81760    9.07560   56.36430   56.13350   54.92300  115.36050
 3914.50000    0.12420   32.44280    9.10540    6.18220   14.28480    9.06400   56.25640   55.83980   55.32490  113.91810
 3915.00000    0.11950   41.55260    8.54430    5.51470    6.40710    9.05540   56.14850   55.58450   55.48030  113.54810
 3915.50000    0.11800   49.69790    7.65710    4.91920    8.22070    9.05130   56.04070   55.62880   55.59040  116.03100
 3916.00000    0.13990   57.84540    5.78540    4.35310    6.13170    9.04900   55.98010   55.74640   58.32130  121.84350
 3916.50000    0.16610   60.36200    4.68720    3.75120    3.49650    9.04850   56.04770   55.81230   62.22420  127.22470
 3917.00000    0.19140   57.88450    4.42000    3.29590    3.16480    9.06060   56.30100   56.19870   64.02980  128.66820
 3917.50000    0.18930   50.44770    4.58200    3.39680    3.03650    9.07270   57.59180   57.19760   64.82550  127.95970
 3918.00000    0.16920   43.49110    5.18070    3.82240    3.20640    9.08480   58.92210   58.37270   63.66000  126.96760
 3918.50000    0.15070   37.55300    5.87420    4.39970    4.72620    9.09380   59.03050   58.68920   61.96390  126.05780
 3919.00000    0.13870   36.05640    6.65410    5.09550    8.08360    9.08730   58.97770   58.27400   60.58220  123.95300
 3919.50000    0.12790   36.17950    7.36460    5.57920    5.85030    9.08070   58.57330   57.76670   59.68760  121.97270
 3920.00000    0.11230   35.98260    8.04290    6.10870    5.92020    9.07420   57.99760   57.26510   59.16970  115.30450
 3920.50000    0.09140   35.12410   10.04560    7.09130    4.50370    9.07580   57.36810   56.76730   58.65190  107.41000
 3921.00000    0.07660   32.22960   12.40320    9.39050    6.71650    9.08700   56.73850   56.26950   57.16830  104.73980
 3921.50000    0.06690   30.02800   13.46690   12.91920   23.63260    9.09810   56.24410   55.96080   56.22310  106.41670
 3922.00000    0.06660   30.81810   14.32800   13.69550   19.41940    9.10920   56.10920   55.80770   55.98610  110.30650
 3922.50000    0.06950   31.82040   14.86590   12.62080   17.58360    9.12040   56.06390   55.69960   55.89170  113.98540
 3923.00000    0.07980   31.51920   16.22850   11.36880   16.83910    9.13150   56.02900   55.74410   55.65930  113.19470
 3923.50000    0.08510   29.52310   16.89180   11.41360    8.91890    9.13390   56.05540   55.76870   55.18610  107.95140
 3924.00000    0.07660   27.53060   17.27360   11.65300   18.89910    9.13480   56.08180   55.76870   54.83540  106.10620
 3924.50000    0.06880   25.83700   16.46140   10.43950   63.39550    9.13560   56.10820   55.85010   53.92760  104.52670
 3925.00000    0.08170   25.05680   12.37440    8.69590   58.21050    9.13650   56.18550   55.97920   55.52580  105.66980
 3925.50000    0.10530   25.64830    6.38960    5.13150   21.25550    9.15430   56.22250   56.03700   55.94400  107.65860
