~Version ---------------------------------------------------
VERS.   2.0 : CWLS log ASCII Standard -VERSION 2.0
WRAP.    NO : One line per depth step
DLM . SPACE : Column Data Section Delimiter
~Well ------------------------------------------------------
STRT .F                3893.0 : START DEPTH
STOP .F                4939.0 : STOP DEPTH
STEP .F                   0.5 : STEP
NULL .               -9999.25 : NULL VALUE
COMP .                        : COMPANY
WELL .                        : WELL
FLD  .                        : FIELD
LOC  .                        : LOCATION
PROV .                        : PROVINCE
CNTY .                        : COUNTY
STAT .                        : STATE
CTRY .                        : COUNTRY
SRVC .                        : SERVICE COMPANY
DATE .                        : DATE
UWI  .                        : UNIQUE WELL ID
API  .                        : API NUMBER
SLAT .WGS84 3.865781920935099 : SURFACE LATITUDE
SLON .WGS84 7.249412180818993 : SURFACE LONGITUDE
DATUM.F               3706.29 : DEPTH DATUM ELEV
~Curve Information -----------------------------------------
DEPT   .F     : 1 MEASURED DEPTH
NPHI_LS.DEC   : NEUTRON POROSITY LIMESTONE
GRR    .GAPI  : GAMMA RAY FROM RESISTIVITY LOG
LLD    .OHMM  : LATEROLOG DEEP RESISTIVITY
LLS    .OHMM  : LATEROLOG SHALLOW RESISTIVITY
MSFL   .OHMM  : MICRO SPHERICALLY FOCUSED RESISTIVITY
CALSR  .IN    : MICRO RESISTIVITY CALIPER FROM RESISTIVITY
DTL    .US/F  : DELTA-T LONG SPACING
DT     .US/F  : DELTA-T (INTERVAL TRANSIT TIME)
DTCO   .US/F  : DELTA-T COMPRESSIONAL
DTSM   .US/F  : DELTA-T SHEAR
~Params ----------------------------------------------------
~Other -----------------------------------------------------
~ASCII -----------------------------------------------------
# ...
 4223.00000    0.00190    5.93230 39249.52340 2017.17370 1986.83690    9.38280   55.90230   55.67050   59.34590  108.49380
 4223.50000    0.00310    6.74640 39464.93750 2018.72680 1986.83690    9.37960   55.87230   55.69030   57.25350  106.84630
 4224.00000    0.00310    7.32880 39681.49220 2020.28110 1986.83690    9.37780   55.82090   55.61890   56.10990  105.75420
 4224.50000    0.00300    7.53260 39899.23440 2021.83780 1986.83690    9.38460   55.75780   55.52460   54.33710  104.49930
 4225.00000    0.00210    7.04750 39508.85550 2023.39450 1986.83690    9.39280   55.70820   55.41300   53.23560  104.21900
 4225.50000    0.00200    6.65750 38157.85550 2024.95250 1986.83690    9.38850   55.69560   55.20940   52.48620  104.15280
 4226.00000    0.00210    6.22570 38164.81250 2026.51160 1947.19580    9.38170   55.68300   55.04560   52.34600  104.01690
 4226.50000    0.00220    5.85410 24846.35740 2028.07200  802.26640    9.38260   55.68150   55.23110   52.78430  103.65320
 4227.00000    0.00280    6.77930 8804.53030 2029.63350 1837.42460    9.38560   55.69020   55.47650   55.00000  103.58290
 4227.50000    0.00410    9.28070 1438.48580  912.46060 1837.42460    9.37950   55.71490   55.56360   56.65230  104.78490
 4228.00000    0.00880   11.92840  456.21740  269.78360  456.42860    9.37100   55.82180   55.58970   59.17780  107.56490
 4228.50000    0.01620   13.92550  152.83950  120.98250  154.73210    9.35950   56.06140   55.67980   59.90600  110.34480
 4229.00000    0.02430   14.49610   90.34810   86.93900   31.47490    9.33190   56.30110   55.78260   60.63500  113.34950
 4229.50000    0.03040   13.88160   95.61240   90.17310  317.32460    9.31890   56.39810   55.87180   61.15060  116.25700
 4230.00000    0.02670   12.05090  112.41530  103.08300 1685.96240    9.31170   56.41160   55.90730   61.07800  119.16650
 4230.50000    0.02170   10.79080  157.12450  127.17290   38.98370    9.30460   56.22430   55.68060   60.27820  110.54000
 4231.00000    0.01850    8.70250  301.83610  231.60450  128.33320    9.29750   55.96070   55.39210   58.94610  108.96550
 4231.50000    0.01520    7.46610  579.82710  445.04520 1096.94230    9.27440   55.48810   55.20100   57.01090  106.58740
 4232.00000    0.01040    8.67630 1103.09050  813.87770 2034.11990    9.23080   54.50030   55.28030   54.69020  102.36810
 4232.50000    0.00600   13.36080 1130.91530  895.06680 1984.25680    9.21170   52.57840   55.24440   53.14300   99.77320
 4233.00000    0.00590   18.80350  805.99520  690.06550 1770.53040    9.18910   50.90920   55.14230   52.93600   99.95350
 4233.50000    0.01060   24.99250  543.36590  390.30440  448.30750    9.16660   50.81510   54.93910   52.97040  100.32480
 4234.00000    0.02170   28.97990  235.18450  166.50400  262.97490    9.16310   50.99580   54.91510   53.47380  101.79910
 4234.50000    0.03670   28.12720  126.28510  107.98730  143.22620    9.16580   52.62080   55.06990   54.90870  104.39790
 4235.00000    0.05370   25.06160   78.29640   58.74000   54.50420    9.16210   54.24590   55.12620   56.46640  107.21500
 4235.50000    0.06490   20.27250   39.40590   48.09940   29.86870    9.14760   55.21670   55.10380   59.01490  109.15820
 4236.00000    0.06060   15.57390   44.11000   51.64760   18.47100    9.14520   55.39170   55.97930   59.68610  109.87440
 4236.50000    0.04540   10.87990   68.70590   73.46380   27.75670    9.14220   55.05650   56.56770   60.00980  109.24720
 4237.00000    0.02510    7.88420  214.78380  269.44180  188.07610    9.13490   53.22100   56.01280   58.54660  106.48020
 4237.50000    0.01140    6.08630  828.71340  863.16170  622.21720    9.13160   51.09380   54.84740   57.03500  103.91230
 4238.00000    0.00310    4.82090 1997.83460 1647.94980 1964.77700    9.12570   50.65140   53.78310   55.50880  102.10820
 4238.50000   -0.00050    4.78440 13373.27830 1968.07070 2020.83800    9.11400   51.98240   52.96100   53.92520  100.36110
 4239.00000   -0.00210    4.78340 26429.27730 1974.82190 2016.57580    9.09860   55.14550   51.84820   53.07960   98.41200
 4239.50000   -0.00290    4.86050 37148.76560 1971.14150 2012.32250    9.08730   56.78350   49.20580   52.41450   98.06950
 4240.00000   -0.00310    5.05890 37052.75390 1967.46790 2008.07820    9.07640   55.21010   47.86320   51.65000   97.46130
 4240.50000   -0.00320    5.47020 31062.00390 1963.80110 2003.84290    9.05420   52.87520   47.44280   50.61870   96.86440
 4241.00000   -0.00310    6.27850 21456.93950 1960.14110 1999.61650    9.04700   52.86790   47.19380   49.78710   98.02670
 4241.50000   -0.00260    9.46180 6444.90820 1956.48800 1995.39900    9.02210   53.47050   48.70090   49.23810   98.91350
 4242.00000   -0.00140   13.38110 1163.70870  574.32530 1991.19040    9.00970   54.10660   52.35020   49.84320   98.92790
 4242.50000    0.00170   21.75980  206.87460  101.99870 1971.18690    8.99920   56.87140   56.40010   51.08580  103.81350
 4243.00000    0.01650   29.77880   33.54310   21.17680  746.99630    8.98880   58.69850   57.66610   55.47420  110.68280
 4243.50000    0.04600   35.01650   14.73130   17.04200   24.85640    8.97830   63.12070   56.64050   60.84680  119.05060
 4244.00000    0.13380   34.82920   14.15460   17.78010    6.19130    8.94400   67.54290   56.81170   67.29460  127.04680
 4244.50000    0.13920   28.73600   23.23810   24.13680    8.00440    8.90210   68.42910   60.18630   70.29830  129.71250
 4245.00000    0.13000   19.34450   73.95580   47.78710   15.54400    8.86080   68.54860   61.97480   68.69890  126.28210
 4245.50000    0.07990   13.71500  288.04040  139.00750  543.52530    8.86930   68.47260   61.17970   65.67150  119.47070
 4246.00000    0.02130   10.26070  963.58290  783.67970 1461.94510    8.87730   66.50660   58.60120   60.19600  112.50700
 4246.50000    0.00620    9.35570 1268.32750  843.10080 1464.02200    8.88230   58.09490   54.72680   55.42880  105.54330
 4247.00000    0.00010    9.40390  863.21470  800.36460 1101.40940    8.87360   54.95210   52.41940   52.70300  103.13930
 4247.50000   -0.00020    9.46970  615.21470  498.94800  726.79960    8.86090   55.69780   51.85400   51.13320  101.74450
 4248.00000    0.00070    9.75320  324.99190  241.33550  385.83470    8.86580   55.92800   51.79680   50.08410  101.13670
 4248.50000    0.00280   11.31610  168.79630  140.52670  204.82730    8.87190   56.00550   52.64950   49.72890  100.89070
 4249.00000    0.00560   14.63570  108.15380   90.02740  102.10430    8.85820   55.94810   53.49420   49.93140  101.03990
 4249.50000    0.00860   18.62090   69.21480   59.74020   84.50370    8.84800   55.86720   54.04810   50.14120  101.61000
 4250.00000    0.01200   22.30460   57.22720   49.50910  126.39570    8.85860   55.78640   54.38340   49.63570  100.60190
 4250.50000    0.01640   24.25570   69.00440   50.90770  172.58910    8.87340   55.79120   54.78380   49.25300  100.78400
 4251.00000    0.02150   28.77720   47.17180   38.76210  121.31100    8.88820   57.26080   55.57950   51.85400  104.64540
 4251.50000    0.04490   33.25580   29.22770   24.01550   64.89090    8.91450   60.82000   56.39850   56.21420  108.56520
 4252.00000    0.09240   35.34010   18.10950   17.19630   10.48880    8.94090   64.54020   56.81510   60.84700  114.70660
 4252.50000    0.12490   30.74240   17.59440   17.22020    4.09350    8.96700   66.08330   57.12940   65.47990  120.74010
 4253.00000    0.11310   23.12020   24.63320   19.84340    7.15530    8.99310   64.83510   57.43650   65.87220  120.72020
 4253.50000    0.07870   15.67430   51.30300   35.76630    4.06550    8.99200   61.65370   58.59570   62.74340  117.20030
 4254.00000    0.04260   10.36510  244.74300  103.43060  246.33800    8.98460   59.76720   59.15390   59.05720  111.62870
 4254.50000    0.01320    8.46250  709.06850  542.05290  612.72090    8.97710   57.43640   57.15790   55.37090  107.25800
 4255.00000    0.00400    8.46890 1065.15760  919.91250  413.40410    8.96700   55.10550   54.91940   53.32980  101.69810
 4255.50000    0.00110    8.68060 1214.13810  849.78660  305.43820    8.95930   53.07660   54.07790   51.21700   99.19030
