~Version ---------------------------------------------------
VERS.   2.0 : CWLS log ASCII Standard -VERSION 2.0
WRAP.    NO : One line per depth step
DLM . SPACE : Column Data Section Delimiter
~Well ------------------------------------------------------
STRT .F                3893.0 : START DEPTH
STOP .F                4939.0 : STOP DEPTH
STEP .F                   0.5 : STEP
NULL .               -9999.25 : NULL VALUE
COMP .                        : COMPANY
WELL .                        : WELL
FLD  .                        : FIELD
LOC  .                        : LOCATION
PROV .                        : PROVINCE
CNTY .                        : COUNTY
STAT .                        : STATE
CTRY .                        : COUNTRY
SRVC .                        : SERVICE COMPANY
DATE .                        : DATE
UWI  .                        : UNIQUE WELL ID
API  .                        : API NUMBER
SLAT .WGS84 3.865781920935099 : SURFACE LATITUDE
SLON .WGS84 7.249412180818993 : SURFACE LONGITUDE
DATUM.F               3706.29 : DEPTH DATUM ELEV
~Curve Information -----------------------------------------
DEPT   .F     : 1 MEASURED DEPTH
NPHI_LS.DEC   : NEUTRON POROSITY LIMESTONE
GRR    .GAPI  : GAMMA RAY FROM RESISTIVITY LOG
LLD    .OHMM  : LATEROLOG DEEP RESISTIVITY
LLS    .OHMM  : LATEROLOG SHALLOW RESISTIVITY
MSFL   .OHMM  : MICRO SPHERICALLY FOCUSED RESISTIVITY
CALSR  .IN    : MICRO RESISTIVITY CALIPER FROM RESISTIVITY
DTL    .US/F  : DELTA-T LONG SPACING
DT     .US/F  : DELTA-T (INTERVAL TRANSIT TIME)
DTCO   .US/F  : DELTA-T COMPRESSIONAL
DTSM   .US/F  : DELTA-T SHEAR
~Params ----------------------------------------------------
~Other -----------------------------------------------------
~ASCII -----------------------------------------------------
# ...
 4289.00000    0.11150   55.40080    9.93730    9.73710    5.27740    9.58200   57.79760   57.61090   56.33110  106.04710
 4289.50000    0.12740   51.92180    9.88410    9.65180    5.40360    9.58240   57.86050   57.32580   57.13890  106.03790
 4290.00000    0.13550   47.58890    9.72030    7.79930    6.09660    9.58280   57.89990   56.46510   58.94600  106.46360
 4290.50000    0.14760   43.13870    9.69500    8.60600    6.36000    9.58580   59.72510   56.49350   60.45590  107.24280
 4291.00000    0.15510   41.31320    9.97300    9.38990    6.27150    9.59310   60.34370   56.70690   60.43350  106.99890
 4291.50000    0.14860   40.82650   10.35800   10.14690    4.22020    9.61010   60.47020   56.76560   59.97460  106.78440
 4292.00000    0.13180   40.82650   10.59070   10.37480   22.19050    9.64020   60.20570   56.56080   59.48100  106.32580
 4292.50000    0.11300   39.98500   11.23980   10.71260  162.63440    9.67030   60.14250   56.27890   58.86080  110.80390
 4293.00000    0.10020   35.31590   12.93170   12.17860    3.79960    9.70030   60.24300   56.34010   57.60510  113.23760
 4293.50000    0.07970   26.03010   19.83060   15.71910    3.88730    9.74440   60.32320   56.49390   56.49900  113.19690
 4294.00000    0.05290   17.16110   48.34810   27.74970 1429.91940    9.79790   60.39640   56.39430   55.24970  110.73830
 4294.50000    0.01800   12.66410   98.31540   77.59970 1965.94230    9.85130   60.36610   56.55830   53.37090  107.80090
 4295.00000    0.01230   14.19820  102.82350   81.04790  642.79550    9.90900   60.33570   57.24760   52.41020  104.01370
 4295.50000    0.01930   20.04670   68.28680   57.58820 1870.34050    9.97670   60.03600   58.13960   53.57910  103.32720
 4296.00000    0.04240   25.86560   42.68290   34.81180  212.84540   10.02110   59.88410   58.07280   58.44870  112.31570
 4296.50000    0.06550   28.21560   25.75880   21.04650    5.95230   10.06550   59.94260   57.92080   64.51750  125.47030
 4297.00000    0.09140   27.10640   20.39030   19.07270    9.72560   10.10990   61.12530   57.87920   67.03080  124.27550
 4297.50000    0.09460   23.81340   24.83490   22.90720   18.91680   10.14810   62.63230   58.15250   65.08770  120.95560
 4298.00000    0.07560   20.36160   43.54380   27.89970   36.79420   10.20090   62.35300   58.46720   63.35780  117.03710
 4298.50000    0.05400   15.10540   97.92940   47.83730   71.56670   10.20730   61.23710   57.65030   57.58870  113.28670
 4299.00000    0.03330   12.20320  301.22510  172.18610  198.06650   10.26360   60.31040   56.28840   54.85120  111.67780
 4299.50000    0.01640   10.18930  888.56070  530.22840  456.50470   10.34080   59.77450   55.75300   54.16650  110.89890
 4300.00000    0.00450    9.18090 1973.80200 1033.16780  530.16440   10.42480   56.10960   55.62650   54.69100  114.79440
 4300.50000   -0.00390    8.29990 2515.67650  720.46530  366.95300   10.50070   55.83260   55.56100   56.91980  122.71440
 4301.00000   -0.00410    8.60480 1499.22340  694.08830  443.29880   10.48300   55.78060   55.49540   59.74850  127.58300
 4301.50000   -0.00090   11.24760  497.46310  544.20930  474.70240   10.44840   55.74490   55.49840   64.92890  134.07580
 4302.00000    0.00970   15.39130  139.24640  324.41560  168.28340   10.40120   55.71710   55.51930   69.30270  141.34090
 4302.50000    0.03950   19.39770   62.48410   87.18540   54.01870   10.38800   55.60560   55.52010   71.74610  143.13840
 4303.00000    0.07540   23.32140   35.39750   45.40920   13.95560   10.38450   55.43720   55.23850   72.47720  140.60880
 4303.50000    0.10630   23.69190   36.00290   46.30970   13.61920   10.37620   55.28980   55.07020   72.30800  137.77290
 4304.00000    0.12880   22.83670   45.07460   54.84720   20.47470   10.37180   55.24790   55.06150   68.58520  133.50690
 4304.50000    0.09640   19.49930   84.36950   74.77930   77.70960   10.37090   55.29290   55.06710   65.04100  125.73210
 4305.00000    0.05710   16.94310   96.58400   93.78490   66.74850   10.37630   55.39830   55.23850   63.82380  123.34740
 4305.50000    0.02460   15.95950  100.29090   98.34500   30.39960   10.38470   55.56620   55.43560   63.60740  123.48150
 4306.00000    0.01690   15.16600  110.61940  103.06070   98.80320   10.38920   57.57780   55.57310   63.99340  123.64440
 4306.50000    0.01750   13.39870  132.87770  123.53310   97.37640   10.38690   62.04050   55.29810   64.52570  123.58180
 4307.00000    0.01950   10.51350  617.17570  350.41240  496.62080   10.38370   64.41030   55.06110   64.26340  122.06660
 4307.50000    0.01990    8.32890 1751.25560  930.17210 1134.03500   10.37080   62.78770   55.07020   62.27200  118.53150
 4308.00000    0.01980    7.76880 5133.74950 1485.86120 1740.78190   10.37010   58.95340   55.19510   59.38820  115.21860
 4308.50000    0.01940    7.69630 12013.99900 1990.23630 1802.40830   10.36990   55.64190   55.31160   56.67290  111.68850
 4309.00000    0.01870    7.33920 22682.15230 1993.93710 1409.50210   10.35060   55.34700   55.19940   53.96490  106.72050
 4309.50000    0.01770    6.86000 29219.57620 1997.64480 1532.34440   10.32930   54.85490   54.81630   52.45040  104.84820
 4310.00000    0.01630    6.83070 17402.11520 1956.52360 1871.23820   10.30340   54.81220   54.45590   50.99980  104.00320
 4310.50000    0.01490    7.20850 9891.21190 1776.04040 1676.49190   10.29080   56.36170   54.11940   49.83120  103.62050
 4311.00000    0.01430    7.79020 3495.25000 1453.76810 1289.63180   10.29100   61.45820   53.73770   49.01340  103.43560
 4311.50000    0.01460    7.60560 2551.00100 1195.05480  985.01050   10.29120   62.55030   53.13430   49.57380  104.59340
 4312.00000    0.01540    7.27260 2639.23050 1264.68010 1002.04160   10.29140   59.90910   52.89930   50.16430  107.26070
 4312.50000    0.01560    7.04250 3575.12570 1791.40140 1596.58130   10.29160   54.65120   52.75470   50.39650  106.30660
 4313.00000    0.01480    7.73220 5485.23630 1901.83110 1484.55000   10.29370   52.90640   52.89110   50.26480  105.42800
 4313.50000    0.01410    8.78250 5801.73190 1715.94180 1306.53360   10.30520   52.58130   53.16340   50.13310  106.01190
 4314.00000    0.01350    9.37120 3458.87940 1220.75880 1003.98970   10.31100   53.44600   53.73510   50.14360  104.25340
 4314.50000    0.01310    9.45450 1561.37660  910.47520  716.14940   10.31270   55.16150   54.64640   50.46870  102.99430
 4315.00000    0.01340    9.45840  763.01580  668.73190  662.89610   10.31530   59.49630   55.23660   50.79380  102.57790
 4315.50000    0.01500    9.46230  557.01570  488.26690  380.41380   10.31790   61.32850   57.09220   51.02490  102.56490
 4316.00000    0.02050   11.93460  350.62760  277.26740  183.69560   10.30500   62.12610   58.03080   51.57100  103.67130
 4316.50000    0.02930   15.66650  198.76820  157.37160  111.79200   10.29070   61.29370   57.48220   52.99090  105.38080
 4317.00000    0.04760   23.11430  112.68020   89.32110   60.34150   10.27640   58.64320   56.76440   54.79920  107.10770
 4317.50000    0.07840   34.25340   56.05290   55.30150   38.54520   10.26210   57.86290   56.41040   56.10630  109.70020
 4318.00000    0.11350   41.08780   24.56720   34.21540   10.32720   10.24780   57.98340   57.67170   57.50380  114.18330
 4318.50000    0.14250   42.53250   21.93340   31.17540   16.05450   10.21150   59.14840   60.81120   58.88280  116.57670
 4319.00000    0.15190   40.47000   21.45310   30.22420   22.72010   10.16380   61.45980   64.73900   60.43180  117.29270
 4319.50000    0.15280   34.67230   22.27460   31.95460   13.56950   10.11610   63.56550   65.22450   62.30500  118.82140
 4320.00000    0.14240   28.01020   24.25700   35.52430   13.05850   10.08590   64.44780   63.69640   63.24730  120.35430
 4320.50000    0.11250   21.08820   31.84300   42.99370   20.18710   10.05910   64.69670   62.38690   61.96720  117.83060
 4321.00000    0.08150   16.09560   59.19490   56.41100   62.73890   10.03230   65.69050   62.77280   59.71100  113.24390
 4321.50000    0.05230   10.79160  116.99390   83.57400  101.18030   10.00550   66.04370   64.38300   56.84960  110.00210
