~Version ---------------------------------------------------
VERS.   2.0 : CWLS log ASCII Standard -VERSION 2.0
WRAP.    NO : One line per depth step
DLM . SPACE : Column Data Section Delimiter
~Well ------------------------------------------------------
STRT .F                3893.0 : START DEPTH
STOP .F                4939.0 : STOP DEPTH
STEP .F                   0.5 : STEP
NULL .               -9999.25 : NULL VALUE
COMP .                        : COMPANY
WELL .                        : WELL
FLD  .                        : FIELD
LOC  .                        : LOCATION
PROV .                        : PROVINCE
CNTY .                        : COUNTY
STAT .                        : STATE
CTRY .                        : COUNTRY
SRVC .                        : SERVICE COMPANY
DATE .                        : DATE
UWI  .                        : UNIQUE WELL ID
API  .                        : API NUMBER
SLAT .WGS84 3.865781920935099 : SURFACE LATITUDE
SLON .WGS84 7.249412180818993 : SURFACE LONGITUDE
DATUM.F               3706.29 : DEPTH DATUM ELEV
~Curve Information -----------------------------------------
DEPT   .F     : 1 MEASURED DEPTH
NPHI_LS.DEC   : NEUTRON POROSITY LIMESTONE
GRR    .GAPI  : GAMMA RAY FROM RESISTIVITY LOG
LLD    .OHMM  : LATEROLOG DEEP RESISTIVITY
LLS    .OHMM  : LATEROLOG SHALLOW RESISTIVITY
MSFL   .OHMM  : MICRO SPHERICALLY FOCUSED RESISTIVITY
CALSR  .IN    : MICRO RESISTIVITY CALIPER FROM RESISTIVITY
DTL    .US/F  : DELTA-T LONG SPACING
DT     .US/F  : DELTA-T (INTERVAL TRANSIT TIME)
DTCO   .US/F  : DELTA-T COMPRESSIONAL
DTSM   .US/F  : DELTA-T SHEAR
~Params ----------------------------------------------------
~Other -----------------------------------------------------
~ASCII -----------------------------------------------------
# ...
 4487.00000    0.00180    6.64850 3065.42190 1271.51500 1957.39270    9.10860   48.94900   50.66630   50.11710  100.55950
 4487.50000    0.00010    8.62070 1647.50840  968.00700 1968.43260    9.08890   48.27210   49.52250   50.90060   99.35180
 4488.00000    0.00260   12.36920  367.77180  195.23340 1979.53480    9.08520   47.76300   48.78890   52.32180   98.14410
 4488.50000    0.01800   16.54030   44.21500   30.51510 1999.55830    9.05390   47.86850   49.23450   51.28070   96.78080
 4489.00000    0.04010   20.20510   23.67850   14.79230  504.56470    9.02270   49.40500   50.09260   50.25520   98.44030
 4489.50000    0.06950   20.41280   15.56240    9.73910    6.87770    8.99140   52.13870   50.84870   50.76430  100.41120
 4490.00000    0.10170   20.29630   11.42880    8.37220    7.88890    8.99350   53.96630   51.67470   51.71420  100.22440
 4490.50000    0.11900   20.13870   11.09530    8.35800    8.07540    9.00520   54.24500   52.67240   52.01550  100.03760
 4491.00000    0.12010   19.98070   11.29370    8.56100    8.65110    9.01690   54.29820   53.49830   52.28230   99.94100
 4491.50000    0.11900   19.91460   13.27450    9.60350    5.93880    9.02860   54.21720   53.96460   52.92330  100.29180
 4492.00000    0.10650   22.43180   16.92070   11.81950    5.09590    9.04210   53.73150   53.80750   52.64220  100.96300
 4492.50000    0.08840   26.37170   22.08360   15.09500   20.11780    9.05710   53.16440   53.69960   51.33420  101.13630
 4493.00000    0.06840   31.00480   29.41420   17.96520   39.02530    9.06020   52.75900   54.42100   51.00060  102.12480
 4493.50000    0.06110   36.70980   29.69630   17.13210    9.83500    9.05000   53.77930   54.97240   51.43340  106.05220
 4494.00000    0.06950   40.30440   25.72930   14.86860    4.59620    9.07550   55.63400   55.43820   53.72440  108.61360
 4494.50000    0.10120   39.15150   22.29230   12.37250    9.70460    9.15840   56.87550   55.52000   54.85090  111.00860
 4495.00000    0.11640   35.84750   19.77550   11.69880   10.12520    9.22920   56.05200   55.43260   55.22890  113.13750
 4495.50000    0.11500   35.15530   18.35100   11.06170   14.37570    9.29370   55.19290   55.27760   56.11600  111.13570
 4496.00000    0.10170   38.46460   17.02910    9.91740   14.04010    9.33290   55.02500   55.23800   57.20030  111.89290
 4496.50000    0.08870   44.61360   13.99470    8.44960   13.38390    9.29460   55.01430   55.19980   58.53180  113.24680
 4497.00000    0.08080   52.93270   11.43090    7.19900    7.34740    9.16630   55.19470   55.36570   60.08990  114.89170
 4497.50000    0.07930   57.58480    9.36900    6.16630    4.45970    9.12870   55.62880   55.43000   62.32150  117.40070
 4498.00000    0.08200   60.20430    7.70560    5.46220    5.07690    9.14350   55.85500   55.48420   64.45430  120.85460
 4498.50000    0.09310   62.76590    6.33760    4.80180    5.11550    9.15610   55.81950   55.60400   66.20590  123.50170
 4499.00000    0.11100   67.23510    5.55030    4.13290    3.90480    9.17710   55.78400   55.57380   68.48450  126.10310
 4499.50000    0.13940   69.37040    5.30260    4.03550    3.55020    9.20890   55.74690   55.54930   69.71850  128.63290
 4500.00000    0.14140   67.79750    5.83420    4.11230    2.30160    9.20050   55.94740   55.47030   70.06670  128.22290
 4500.50000    0.13780   66.56750    6.88350    5.00360    2.50330    9.11100   59.13860   55.35450   69.79970  127.51690
 4501.00000    0.11430   69.41880    8.28420    6.38430   10.24000    9.09120   63.45750   55.22060   69.02540  126.81090
 4501.50000    0.10080   73.43290   10.23340    7.48970   10.34570    9.08290   65.83230   55.15800   68.35470  126.10490
 4502.00000    0.10850   73.50720   11.94820    8.12180    7.37350    9.20690   63.92640   55.11660   67.63530  125.12130
 4502.50000    0.12410   60.95100   13.43890    9.04080    4.60500    9.47040   62.96540   55.07760   66.50590  123.97300
 4503.00000    0.11160   43.63450   19.41790   11.68990    7.29490    9.50140   63.41280   55.14750   65.71180  121.91860
 4503.50000    0.07730   30.95490   28.19020   20.23780   53.54370    9.50970   63.08220   56.83980   63.24190  117.85780
 4504.00000    0.04220   29.07370   35.08930   26.35510  147.16900    9.50420   60.21570   59.30280   61.40630  113.84900
 4504.50000    0.03230   30.93400   35.11690   26.34930   94.32120    9.49870   58.59750   59.66560   60.65910  112.21200
 4505.00000    0.04090   32.17920   33.87630   25.83340   27.72770    9.49320   59.85140   58.21800   59.91180  111.36400
 4505.50000    0.04840   29.69240   36.98260   25.66410   11.60020    9.48780   65.68960   56.80780   59.22560  108.87530
 4506.00000    0.03970   23.68840   58.94680   47.05300  181.67990    9.48230   70.45120   58.96160   58.39730  107.36700
 4506.50000    0.02790   17.60160  100.76860   72.82510  134.73280    9.47810   70.05710   61.35730   57.44180  105.77920
 4507.00000    0.02100   15.04200  131.49660   97.30620  141.74820    9.48830   67.39800   59.39370   55.85130  103.04620
 4507.50000    0.02040   15.79490  146.26200   94.60870  226.58880    9.49030   63.51250   55.92140   53.38610   98.84760
 4508.00000    0.02470   19.73150   89.17030   59.14480  145.08600    9.49020   60.72060   56.12310   52.36420   97.05550
 4508.50000    0.04140   23.66820   55.50880   37.04180  120.08920    9.48850   57.67120   57.72750   52.85020   96.12250
 4509.00000    0.06730   31.46480   37.01700   26.79050   43.58930    9.48620   54.71100   59.33190   53.99370   97.07040
 4509.50000    0.09380   37.39550   25.03670   19.38490   20.18660    9.48390   54.62110   59.89270   54.63370   99.29170
 4510.00000    0.12240   40.24540   21.55390   16.35870   14.47250    9.48160   54.77410   59.15000   55.49570  102.59870
 4510.50000    0.13820   38.67790   18.55560   13.80480   13.77530    9.47930   58.25050   58.63500   56.44460  104.54020
 4511.00000    0.14810   37.50200   16.94290   12.66460   11.82330    9.48090   60.17750   60.61330   58.94360  107.38830
 4511.50000    0.15590   36.82740   16.02210   12.64820    9.26130    9.48340   62.10450   62.54270   59.66040  110.09560
 4512.00000    0.15990   36.78560   16.48170   12.77540    7.93530    9.48710   62.99380   64.60180   60.13140  110.67140
 4512.50000    0.16050   37.13420   18.24140   13.71250   12.85740    9.49820   62.48440   63.36100   60.60240  109.89560
 4513.00000    0.16030   36.92420   20.55100   15.47300   14.09180    9.51410   60.97650   61.65660   61.66170  108.79850
 4513.50000    0.15990   35.33560   23.20730   17.56820   14.51740    9.51530   59.32810   61.65700   61.24770  107.35970
 4514.00000    0.15090   31.80130   26.63120   19.67580   18.58850    9.52640   57.67960   61.94700   58.89780  104.11790
 4514.50000    0.13440   28.46020   30.96650   22.03630   24.92960    9.53770   57.54050   61.35700   57.26980  102.56660
 4515.00000    0.11700   29.12410   35.00570   23.36380   22.81100    9.54960   58.38400   60.04190   56.97260  102.51110
 4515.50000    0.10830   30.20290   35.49580   23.56600   27.13700    9.55830   58.16820   58.01690   56.90700  101.58750
 4516.00000    0.10490   33.15330   34.21940   23.01530   30.02900    9.55810   56.18490   55.49820   56.87090  100.67560
 4516.50000    0.10830   35.15140   32.91250   22.01930   21.23860    9.55740   54.44010   53.59890   56.59530  100.77110
 4517.00000    0.11600   35.07690   32.56640   21.75820   17.10270    9.55670   54.23380   53.19040   56.14040  102.96850
 4517.50000    0.11930   34.27210   33.41720   22.56020   17.40270    9.55600   53.95440   52.88500   55.89560  100.70610
 4518.00000    0.11060   32.54540   35.26770   23.69440   20.21280    9.55530   53.02760   51.49770   55.25300   98.41270
 4518.50000    0.09690   30.95620   36.34310   24.89180   16.84630    9.55440   51.30220   49.94570   53.65930   97.37750
 4519.00000    0.08500   29.71460   34.95040   25.56570   25.43300    9.55320   50.70570   49.39330   52.49460   96.01630
 4519.50000    0.08040   29.68590   31.80370   23.50240   28.77770    9.55310   50.59730   49.06880   52.58730   95.46920
