~Version ---------------------------------------------------
VERS.   2.0 : CWLS log ASCII Standard -VERSION 2.0
WRAP.    NO : One line per depth step
DLM . SPACE : Column Data Section Delimiter
~Well ------------------------------------------------------
STRT .F                   28.0 : START DEPTH
STOP .F                 6649.0 : STOP DEPTH
STEP .F                    0.5 : STEP
NULL .                -9999.25 : NULL VALUE
COMP .                         : COMPANY
WELL .                         : WELL
FLD  .                         : FIELD
LOC  .                         : LOCATION
PROV .                         : PROVINCE
CNTY .                         : COUNTY
STAT .                         : STATE
CTRY .                         : COUNTRY
SRVC .                         : SERVICE COMPANY
DATE .                         : DATE
UWI  .                         : UNIQUE WELL ID
API  .                         : API NUMBER
SLAT .WGS84 2.4496475999999987 : SURFACE LATITUDE
SLON .WGS84  8.143142400000002 : SURFACE LONGITUDE
DATUM.F                    nan : DEPTH DATUM ELEV
~Curve Information -----------------------------------------
DEPT   .F     : 
AT30   .OHMM  : ARRAY INDUCTION TWO FOOT RESISTIVITY A30
AT60   .OHMM  : ARRAY INDUCTION TWO FOOT RESISTIVITY A60
AT90   .OHMM  : ARRAY INDUCTION TWO FOOT RESISTIVITY A90
CALR   .IN    : CALIPER FROM RESISTIVITY LOG
DPHZ_LS.DEC   : HGRD STANDARD RESOLUTION DENSITY POROSITY
DPHZ_SS.DEC   : HRGD STANDARD RESOLUTION DENSITY POROSITY
DTCO   .US/F  : DELTA-T COMPRESSIONAL
DTSM   .US/F  : DELTA-T SHEAR
HDRA   .G/C3  : HRDD SPINE AND RIBS DENSITY CORRECTION
PEFZ   .B/E   : HRDD STANDARD RESOLUTION FORMATION PHOTOELECTRIC FACTOR
RHOZ   .G/C3  : HRDD STANDARD RESOLUTION FORMATION DENSITY
RLA3   .OHMM  : APPARENT RESISTIVITY FROM COMPUTED FOCUSING MODE 3
RLA5   .OHMM  : APPARENT RESISTIVITY FROM COMPUTED FOCUSING MODE 5
RXOZ   .OHMM  : INVADED FORMATION RESISTIVITY FILTERED AT 18 INCHES
SGRR   .GAPI  : SPECTROSCOPY GAMMA RAY FROM RESISTIVITY LOG
TNPH_LS.DEC   : THERMAL NEUTRON POROSITY [LIMESTONE]
TNPH_SS.DEC   : THERMAL NEUTRON POROSITY [SANDSTONE]
~Params ----------------------------------------------------
~Other -----------------------------------------------------
~ASCII -----------------------------------------------------
# ...
 4804.50000   -9999.25   -9999.25   -9999.25   11.87750   -9999.25   -9999.25   67.36270  117.27260   -0.00270    4.79170   -9999.25   66.37580 2000.00000   59.20820   -6.30650   -0.05100   -9999.25
 4805.00000   -9999.25   -9999.25   -9999.25   11.85110   -9999.25   -9999.25   67.33990  117.30770   -0.00240    4.80620   -9999.25   65.40050 2000.00000   58.09800   -5.96840   -0.05080   -9999.25
 4805.50000   -9999.25   -9999.25   -9999.25   11.83830   -9999.25   -9999.25   67.38310  117.25480   -0.00210    4.83810   -9999.25   63.02860 2000.00000   56.98780   -5.73320   -0.05080   -9999.25
 4806.00000   -9999.25   -9999.25   -9999.25   11.86860   -9999.25   -9999.25   67.40390  117.20190   -0.00190    4.89130   -9999.25   60.65670 2000.00000   55.87760   -5.80040   -0.05110   -9999.25
 4806.50000   -9999.25   -9999.25   -9999.25   11.91330   -9999.25   -9999.25   67.33490  117.46650   -0.00160    4.89230   -9999.25   58.28480 2000.00000   54.21080   -5.88440   -0.05110   -9999.25
 4807.00000   -9999.25   -9999.25   -9999.25   11.88330   -9999.25   -9999.25   67.73170  117.46760   -0.00130    4.90550   -9999.25   57.52590 2000.00000   52.12720   -5.96840   -0.05140   -9999.25
 4807.50000   -9999.25   -9999.25   -9999.25   11.87380   -9999.25   -9999.25   68.85820  117.35320   -0.00100    4.90420   -9999.25   56.39480 2000.00000   50.87710   -6.05240   -0.05200   -9999.25
 4808.00000   -9999.25   -9999.25   -9999.25   11.86420   -9999.25   -9999.25   69.19210  117.06560   -0.00080    4.90280   -9999.25   55.33480 2000.00000   66.12400   -6.08600   -0.05270   -9999.25
 4808.50000   -9999.25   -9999.25   -9999.25   11.84250   -9999.25   -9999.25   69.27380  117.23540   -0.00050    4.90690   -9999.25   54.48680 2000.00000   81.11940   -6.32120   -0.05330   -9999.25
 4809.00000   -9999.25   -9999.25   -9999.25   11.84400   -9999.25   -9999.25   69.44080  117.55200   -0.00020    4.94770   -9999.25   54.75630 2000.00000   98.48300   -6.90930   -0.05350   -9999.25
 4809.50000   -9999.25   -9999.25   -9999.25   11.91100   -9999.25   -9999.25   69.59150  117.49090   -0.00060    5.02380   -9999.25   55.57290 2000.00000  115.15460   -6.90930   -0.05370   -9999.25
 4810.00000   -9999.25   -9999.25   -9999.25   12.01300   -9999.25   -9999.25   69.56050  117.42970   -0.00060    4.94950   -9999.25   56.96070 2000.00000  167.90230   -6.55650   -0.05370   -9999.25
 4810.50000   -9999.25   -9999.25   -9999.25   12.04520   -9999.25   -9999.25   69.52950  117.41590   -0.00170    4.88060   -9999.25   58.08830 2000.00000  187.32690   -6.43890   -0.05330   -9999.25
 4811.00000   -9999.25   -9999.25   -9999.25   11.97770   -9999.25   -9999.25   69.37120  117.59150   -0.00230    4.88700   -9999.25   59.53110 2000.00000  243.84570   -6.32120   -0.05320   -9999.25
 4811.50000   -9999.25   -9999.25   -9999.25   11.98640   -9999.25   -9999.25   69.28740  117.76710   -0.00300    4.90640   -9999.25   59.52120 2000.00000  246.03950   -6.20360   -0.05310   -9999.25
 4812.00000   -9999.25   -9999.25   -9999.25   12.05560   -9999.25   -9999.25   68.95820  117.77070   -0.00370    4.94080   -9999.25   59.51390 2000.00000  241.16470   -6.20360   -0.05300   -9999.25
 4812.50000   -9999.25   -9999.25   -9999.25   12.13860   -9999.25   -9999.25   67.88880  117.68180   -0.00430    4.95610   -9999.25   58.07330 2000.00000  224.24410   -6.20360   -0.05290   -9999.25
 4813.00000   -9999.25   -9999.25   -9999.25   12.15100   -9999.25   -9999.25   67.48360  117.87770   -0.00620    5.01150   -9999.25   56.35300 2000.00000  210.26260   -5.96840   -0.05270   -9999.25
 4813.50000   -9999.25   -9999.25   -9999.25   12.12340   -9999.25   -9999.25   67.68340  117.78980   -0.00440    5.01980   -9999.25   55.24530 2000.00000  209.62680   -5.85080   -0.05210   -9999.25
 4814.00000   -9999.25   -9999.25   -9999.25   12.02210   -9999.25   -9999.25   68.39920  117.73260   -0.00130    4.96560   -9999.25   54.38480 2000.00000  170.24640   -5.85080   -0.05150   -9999.25
 4814.50000   -9999.25   -9999.25   -9999.25   11.92660   -9999.25   -9999.25   68.09200  117.67540   -0.00180    4.90880   -9999.25   53.52510 2000.00000  137.77100   -8.20290   -0.05110   -9999.25
 4815.00000   -9999.25   -9999.25   -9999.25   11.89380   -9999.25   -9999.25   67.40690  117.61830    0.00060    4.83790   -9999.25   51.12570 2000.00000   95.58950   -8.20290   -0.05050   -9999.25
 4815.50000   -9999.25   -9999.25   -9999.25   11.91870   -9999.25   -9999.25   67.79090  117.56110    0.00140    4.79840   -9999.25   47.85330 2000.00000   74.80070   -8.08530   -0.05000   -9999.25
 4816.00000   -9999.25   -9999.25   -9999.25   12.00210   -9999.25   -9999.25   67.63390  117.57200    0.00210    4.75890   -9999.25   48.08360 2000.00000   61.28010   -5.29220   -0.05000   -9999.25
 4816.50000   -9999.25   -9999.25   -9999.25   12.11400   -9999.25   -9999.25   67.57650  117.59760    0.00290    4.71940   -9999.25   51.76910 2000.00000   38.77760   -4.32200   -0.05060   -9999.25
 4817.00000   -9999.25   -9999.25   -9999.25   12.20520   -9999.25   -9999.25   67.63250  117.68130    0.00230    4.71940   -9999.25   57.12060 2000.00000   22.81670   -5.06680   -0.05150   -9999.25
 4817.50000   -9999.25   -9999.25   -9999.25   12.14820   -9999.25   -9999.25   67.50220  117.76510    0.00560    4.72160   -9999.25   62.47210 2000.00000   19.95140   -5.99780   -0.05230   -9999.25
 4818.00000   -9999.25   -9999.25   -9999.25   11.93510   -9999.25   -9999.25   67.63670  117.35410    0.00590    4.75040   -9999.25   63.32200 2000.00000   45.83750   -6.55650   -0.05250   -9999.25
 4818.50000   -9999.25   -9999.25   -9999.25   11.80060   -9999.25   -9999.25   68.17090  117.53130    0.00470    4.77910   -9999.25   60.10020 2000.00000   71.33450   -6.55650   -0.05170   -9999.25
 4819.00000   -9999.25   -9999.25   -9999.25   11.79660   -9999.25   -9999.25   69.65930  117.69290    0.00320    4.79490   -9999.25   56.87840 2000.00000   63.69800   -5.96840   -0.05100   -9999.25
 4819.50000   -9999.25   -9999.25   -9999.25   11.80280   -9999.25   -9999.25   70.01030  117.99640    0.00260    4.80730   -9999.25   53.65660 2000.00000   56.83770   -5.38040   -0.05120   -9999.25
 4820.00000   -9999.25   -9999.25   -9999.25   11.80910   -9999.25   -9999.25   70.07280  118.00860    0.00200    4.81880   -9999.25   51.21280 2000.00000   64.69550   -5.14520   -0.05160   -9999.25
 4820.50000   -9999.25   -9999.25   -9999.25   11.81530   -9999.25   -9999.25   69.88460  117.82460    0.00130    4.83040   -9999.25   51.21800 2000.00000   95.47640   -5.13920   -0.05200   -9999.25
 4821.00000   -9999.25   -9999.25   -9999.25   11.88200   -9999.25   -9999.25   69.81990  117.75630    0.00070    4.83720   -9999.25   53.56110 2000.00000  118.74520   -5.13340   -0.05180   -9999.25
 4821.50000   -9999.25   -9999.25   -9999.25   11.92920   -9999.25   -9999.25   69.39350  117.78160    0.00030    4.84280   -9999.25   55.90420 2000.00000  137.08740   -5.36290   -0.05190   -9999.25
 4822.00000   -9999.25   -9999.25   -9999.25   11.98560   -9999.25   -9999.25   69.52440  117.77530   -0.00010    4.84840   -9999.25   58.24720 2000.00000  151.74360   -6.06380   -0.05230   -9999.25
 4822.50000   -9999.25   -9999.25   -9999.25   12.01780   -9999.25   -9999.25   68.93920  117.76910   -0.00050    4.85410   -9999.25   60.59030 2000.00000  159.58870   -6.52900   -0.05280   -9999.25
 4823.00000   -9999.25   -9999.25   -9999.25   11.94050   -9999.25   -9999.25   67.82330  117.70650   -0.00170    4.88540   -9999.25   62.93340 2000.00000  187.82940   -6.64080   -0.05270   -9999.25
 4823.50000   -9999.25   -9999.25   -9999.25   11.93180   -9999.25   -9999.25   67.58450  117.76300   -0.00290    4.91590   -9999.25   65.27750 2000.00000  206.48020   -6.39980   -0.05270   -9999.25
 4824.00000   -9999.25   -9999.25   -9999.25   11.88160   -9999.25   -9999.25   67.51770  117.85870   -0.00190    4.90990   -9999.25   62.71630 2000.00000  162.07430   -5.45380   -0.05230   -9999.25
 4824.50000   -9999.25   -9999.25   -9999.25   11.91470   -9999.25   -9999.25   67.52160  117.83650   -0.00160    4.89880   -9999.25   59.51230 2000.00000  120.66300   -4.56630   -0.05140   -9999.25
