~Version ---------------------------------------------------
VERS.   2.0 : CWLS log ASCII Standard -VERSION 2.0
WRAP.    NO : One line per depth step
DLM . SPACE : Column Data Section Delimiter
~Well ------------------------------------------------------
STRT .F                   28.0 : START DEPTH
STOP .F                 6649.0 : STOP DEPTH
STEP .F                    0.5 : STEP
NULL .                -9999.25 : NULL VALUE
COMP .                         : COMPANY
WELL .                         : WELL
FLD  .                         : FIELD
LOC  .                         : LOCATION
PROV .                         : PROVINCE
CNTY .                         : COUNTY
STAT .                         : STATE
CTRY .                         : COUNTRY
SRVC .                         : SERVICE COMPANY
DATE .                         : DATE
UWI  .                         : UNIQUE WELL ID
API  .                         : API NUMBER
SLAT .WGS84 2.4496475999999987 : SURFACE LATITUDE
SLON .WGS84  8.143142400000002 : SURFACE LONGITUDE
DATUM.F                    nan : DEPTH DATUM ELEV
~Curve Information -----------------------------------------
DEPT   .F     : 
AT30   .OHMM  : ARRAY INDUCTION TWO FOOT RESISTIVITY A30
AT60   .OHMM  : ARRAY INDUCTION TWO FOOT RESISTIVITY A60
AT90   .OHMM  : ARRAY INDUCTION TWO FOOT RESISTIVITY A90
CALR   .IN    : CALIPER FROM RESISTIVITY LOG
DPHZ_LS.DEC   : HGRD STANDARD RESOLUTION DENSITY POROSITY
DPHZ_SS.DEC   : HRGD STANDARD RESOLUTION DENSITY POROSITY
DTCO   .US/F  : DELTA-T COMPRESSIONAL
DTSM   .US/F  : DELTA-T SHEAR
HDRA   .G/C3  : HRDD SPINE AND RIBS DENSITY CORRECTION
PEFZ   .B/E   : HRDD STANDARD RESOLUTION FORMATION PHOTOELECTRIC FACTOR
RHOZ   .G/C3  : HRDD STANDARD RESOLUTION FORMATION DENSITY
RLA3   .OHMM  : APPARENT RESISTIVITY FROM COMPUTED FOCUSING MODE 3
RLA5   .OHMM  : APPARENT RESISTIVITY FROM COMPUTED FOCUSING MODE 5
RXOZ   .OHMM  : INVADED FORMATION RESISTIVITY FILTERED AT 18 INCHES
SGRR   .GAPI  : SPECTROSCOPY GAMMA RAY FROM RESISTIVITY LOG
TNPH_LS.DEC   : THERMAL NEUTRON POROSITY [LIMESTONE]
TNPH_SS.DEC   : THERMAL NEUTRON POROSITY [SANDSTONE]
~Params ----------------------------------------------------
~Other -----------------------------------------------------
~ASCII -----------------------------------------------------
# ...
 5891.00000   -9999.25   -9999.25   -9999.25    9.48980   -9999.25    0.20140   -9999.25   -9999.25   -9999.25    2.16560    2.30750    1.34910    1.44030    2.40970   47.61900   -9999.25    0.29480
 5891.50000   -9999.25   -9999.25   -9999.25    9.50190   -9999.25    0.19610   -9999.25   -9999.25   -9999.25    2.16670    2.32930    1.41290    1.45850    2.51680   49.18870   -9999.25    0.28550
 5892.00000   -9999.25   -9999.25   -9999.25    9.51810   -9999.25    0.19590   -9999.25   -9999.25   -9999.25    2.18950    2.33100    1.34650    1.44090    2.42120   48.91910   -9999.25    0.27910
 5892.50000   -9999.25   -9999.25   -9999.25    9.53110   -9999.25    0.20200   -9999.25   -9999.25   -9999.25    2.19880    2.32040    1.28860    1.40320    2.38200   46.19050   -9999.25    0.28050
 5893.00000   -9999.25   -9999.25   -9999.25    9.53140   -9999.25    0.20820   -9999.25   -9999.25   -9999.25    2.20110    2.30750    1.27000    1.38910    2.39890   43.51740   -9999.25    0.28310
 5893.50000   -9999.25   -9999.25   -9999.25    9.55530   -9999.25    0.21200   -9999.25   -9999.25   -9999.25    2.20350    2.29760    1.32950    1.37500    2.48310   41.23640   -9999.25    0.27370
 5894.00000   -9999.25   -9999.25   -9999.25    9.54060   -9999.25    0.21460   -9999.25   -9999.25   -9999.25    2.21580    2.29150    1.32150    1.36090    2.45560   39.38120   -9999.25    0.27360
 5894.50000   -9999.25   -9999.25   -9999.25    9.55900   -9999.25    0.21680   -9999.25   -9999.25   -9999.25    2.21770    2.29330    1.29990    1.34680    2.47910   38.35030   -9999.25    0.27550
 5895.00000   -9999.25   -9999.25   -9999.25    9.57730   -9999.25    0.21260   -9999.25   -9999.25   -9999.25    2.20380    2.29890    1.28980    1.33280    2.49440   38.15860   -9999.25    0.27820
 5895.50000   -9999.25   -9999.25   -9999.25    9.54770   -9999.25    0.20890   -9999.25   -9999.25   -9999.25    2.22570    2.30360    1.29000    1.31870    2.39070   38.34870   -9999.25    0.28310
 5896.00000   -9999.25   -9999.25   -9999.25    9.52060   -9999.25    0.20910   -9999.25   -9999.25   -9999.25    2.29880    2.29960    1.28230    1.29940    2.27330   38.74880   -9999.25    0.28910
 5896.50000   -9999.25   -9999.25   -9999.25    9.54550   -9999.25    0.21400   -9999.25   -9999.25   -9999.25    2.38370    2.29170    1.26690    1.29170    2.32550   39.08230   -9999.25    0.29680
 5897.00000   -9999.25   -9999.25   -9999.25    9.57030   -9999.25    0.21900   -9999.25   -9999.25   -9999.25    2.21280    2.28370    1.24010    1.29190    2.41310   39.41570   -9999.25    0.30230
 5897.50000   -9999.25   -9999.25   -9999.25    9.59890   -9999.25    0.22240   -9999.25   -9999.25   -9999.25    2.21140    2.27820    1.22890    1.29210    2.47080   42.08350   -9999.25    0.29570
 5898.00000   -9999.25   -9999.25   -9999.25    9.55490   -9999.25    0.22510   -9999.25   -9999.25   -9999.25    2.24500    2.28710    1.25200    1.35630    2.50980   43.68410   -9999.25    0.27530
 5898.50000   -9999.25   -9999.25   -9999.25    9.53530   -9999.25    0.21830   -9999.25   -9999.25   -9999.25    2.27510    2.30000    1.29560    1.39160    2.56480   44.49170   -9999.25    0.27420
 5899.00000   -9999.25   -9999.25   -9999.25    9.53370   -9999.25    0.20570   -9999.25   -9999.25   -9999.25    2.29070    2.31290    1.36530    1.42680    2.54780   46.17720   -9999.25    0.27560
 5899.50000   -9999.25   -9999.25   -9999.25    9.53200   -9999.25    0.19520   -9999.25   -9999.25   -9999.25    2.30990    2.34600    1.34060    1.42700    2.49440   47.86270   -9999.25    0.28220
 5900.00000   -9999.25   -9999.25   -9999.25    9.54560   -9999.25    0.19210   -9999.25   -9999.25   -9999.25    2.33000    2.34460    1.29110    1.37720    2.43000   49.54820   -9999.25    0.27750
 5900.50000   -9999.25   -9999.25   -9999.25    9.56940   -9999.25    0.18990   -9999.25   -9999.25   -9999.25    2.33690    2.33750    1.26880    1.35900    2.46060   50.22510   -9999.25    0.26950
 5901.00000   -9999.25   -9999.25   -9999.25    9.59310   -9999.25    0.18600   -9999.25   -9999.25   -9999.25    2.34060    2.33040    1.29270    1.63520    2.57730   49.37640   -9999.25    0.26390
 5901.50000   -9999.25   -9999.25   -9999.25    9.59250   -9999.25    0.19200   -9999.25   -9999.25   -9999.25    2.34430    2.32190    1.46250    1.53620    2.58450   48.44800   -9999.25    0.26030
 5902.00000   -9999.25   -9999.25   -9999.25    9.59690   -9999.25    0.19870   -9999.25   -9999.25   -9999.25    2.34790    2.31940    1.31730    1.42840    2.49460   47.70600   -9999.25    0.26430
 5902.50000   -9999.25   -9999.25   -9999.25    9.63290   -9999.25    0.20110   -9999.25   -9999.25   -9999.25    2.35160    2.35870    1.31750    1.37870    2.40790   47.71060   -9999.25    0.26740
 5903.00000   -9999.25   -9999.25   -9999.25    9.64930   -9999.25    0.16210   -9999.25   -9999.25   -9999.25    2.38150    2.42130    1.32590    1.39410    2.97600   53.46830   -9999.25    0.26120
 5903.50000   -9999.25   -9999.25   -9999.25    9.63100   -9999.25    0.12390   -9999.25   -9999.25   -9999.25    2.55650    2.50520    1.82530    2.55260    4.48360   62.39310   -9999.25    0.25980
 5904.00000   -9999.25   -9999.25   -9999.25    9.56810   -9999.25    0.07350   -9999.25   -9999.25   -9999.25    2.59060    2.52510    2.99070    4.00080    7.69880   76.00420   -9999.25    0.25490
 5904.50000   -9999.25   -9999.25   -9999.25    9.56640   -9999.25    0.08990   -9999.25   -9999.25   -9999.25    2.61780    2.48330    3.46560    4.49660    5.68440   73.27860   -9999.25    0.24860
 5905.00000   -9999.25   -9999.25   -9999.25    9.58010   -9999.25    0.12580   -9999.25   -9999.25   -9999.25    2.55240    2.43130    1.60350    1.77400    3.64500   66.30040   -9999.25    0.25610
 5905.50000   -9999.25   -9999.25   -9999.25    9.59390   -9999.25    0.16160   -9999.25   -9999.25   -9999.25    2.37540    2.38770    1.46460    1.54940    2.89550   59.32210   -9999.25    0.26160
 5906.00000   -9999.25   -9999.25   -9999.25    9.60760   -9999.25    0.18090   -9999.25   -9999.25   -9999.25    2.23650    2.36270    1.42040    1.49350    2.62450   52.34390   -9999.25    0.27010
 5906.50000   -9999.25   -9999.25   -9999.25    9.62130   -9999.25    0.18490   -9999.25   -9999.25   -9999.25    2.23940    2.33970    1.31690    1.37740    2.43390   48.19560   -9999.25    0.27850
 5907.00000   -9999.25   -9999.25   -9999.25    9.63500   -9999.25    0.18600   -9999.25   -9999.25   -9999.25    2.24410    2.34050    1.24850    1.28870    2.34900   46.95530   -9999.25    0.28700
 5907.50000   -9999.25   -9999.25   -9999.25    9.64870   -9999.25    0.18390   -9999.25   -9999.25   -9999.25    2.24880    2.34440    1.33130    1.41240    2.43900   47.49410   -9999.25    0.29330
 5908.00000   -9999.25   -9999.25   -9999.25    9.66240   -9999.25    0.18390   -9999.25   -9999.25   -9999.25    2.25360    2.34460    1.46030    1.53580    2.61660   49.29980   -9999.25    0.28090
 5908.50000   -9999.25   -9999.25   -9999.25    9.67610   -9999.25    0.18770   -9999.25   -9999.25   -9999.25    2.25830    2.33400    1.51200    1.56070    2.66350   50.97200   -9999.25    0.26060
 5909.00000   -9999.25   -9999.25   -9999.25    9.68980   -9999.25    0.19860   -9999.25   -9999.25   -9999.25    2.28490    2.32140    1.42540    1.50090    2.66790   50.97730   -9999.25    0.25270
 5909.50000   -9999.25   -9999.25   -9999.25    9.70350   -9999.25    0.20600   -9999.25   -9999.25   -9999.25    2.30920    2.31090    1.39620    1.44110    2.57190   48.80340   -9999.25    0.27140
 5910.00000   -9999.25   -9999.25   -9999.25    9.71200   -9999.25    0.19880   -9999.25   -9999.25   -9999.25    2.33460    2.32000    1.40500    1.44130    2.58290   46.58550   -9999.25    0.29000
 5910.50000   -9999.25   -9999.25   -9999.25    9.71690   -9999.25    0.18580   -9999.25   -9999.25   -9999.25    2.32820    2.34530    1.45500    1.53400    2.67160   47.49870   -9999.25    0.29710
 5911.00000   -9999.25   -9999.25   -9999.25    9.72180   -9999.25    0.17830   -9999.25   -9999.25   -9999.25    2.29640    2.35580    1.55800    1.61050    2.78510   49.44820   -9999.25    0.28970
