~Version ---------------------------------------------------
VERS.   2.0 : CWLS log ASCII Standard -VERSION 2.0
WRAP.    NO : One line per depth step
DLM . SPACE : Column Data Section Delimiter
~Well ------------------------------------------------------
STRT .F                   28.0 : START DEPTH
STOP .F                 6649.0 : STOP DEPTH
STEP .F                    0.5 : STEP
NULL .                -9999.25 : NULL VALUE
COMP .                         : COMPANY
WELL .                         : WELL
FLD  .                         : FIELD
LOC  .                         : LOCATION
PROV .                         : PROVINCE
CNTY .                         : COUNTY
STAT .                         : STATE
CTRY .                         : COUNTRY
SRVC .                         : SERVICE COMPANY
DATE .                         : DATE
UWI  .                         : UNIQUE WELL ID
API  .                         : API NUMBER
SLAT .WGS84 2.4496475999999987 : SURFACE LATITUDE
SLON .WGS84  8.143142400000002 : SURFACE LONGITUDE
DATUM.F                    nan : DEPTH DATUM ELEV
~Curve Information -----------------------------------------
DEPT   .F     : 
AT30   .OHMM  : ARRAY INDUCTION TWO FOOT RESISTIVITY A30
AT60   .OHMM  : ARRAY INDUCTION TWO FOOT RESISTIVITY A60
AT90   .OHMM  : ARRAY INDUCTION TWO FOOT RESISTIVITY A90
CALR   .IN    : CALIPER FROM RESISTIVITY LOG
DPHZ_LS.DEC   : HGRD STANDARD RESOLUTION DENSITY POROSITY
DPHZ_SS.DEC   : HRGD STANDARD RESOLUTION DENSITY POROSITY
DTCO   .US/F  : DELTA-T COMPRESSIONAL
DTSM   .US/F  : DELTA-T SHEAR
HDRA   .G/C3  : HRDD SPINE AND RIBS DENSITY CORRECTION
PEFZ   .B/E   : HRDD STANDARD RESOLUTION FORMATION PHOTOELECTRIC FACTOR
RHOZ   .G/C3  : HRDD STANDARD RESOLUTION FORMATION DENSITY
RLA3   .OHMM  : APPARENT RESISTIVITY FROM COMPUTED FOCUSING MODE 3
RLA5   .OHMM  : APPARENT RESISTIVITY FROM COMPUTED FOCUSING MODE 5
RXOZ   .OHMM  : INVADED FORMATION RESISTIVITY FILTERED AT 18 INCHES
SGRR   .GAPI  : SPECTROSCOPY GAMMA RAY FROM RESISTIVITY LOG
TNPH_LS.DEC   : THERMAL NEUTRON POROSITY [LIMESTONE]
TNPH_SS.DEC   : THERMAL NEUTRON POROSITY [SANDSTONE]
~Params ----------------------------------------------------
~Other -----------------------------------------------------
~ASCII -----------------------------------------------------
# ...
 3431.00000   -9999.25   -9999.25   -9999.25   12.78050    0.29990   -9999.25   70.66420  120.05520    0.00330    4.78260   -9999.25   45.09260 2000.00000  116.77440   -4.31460   -0.04810   -9999.25
 3431.50000   -9999.25   -9999.25   -9999.25   12.78880    0.29990   -9999.25   70.67790  120.08020    0.00150    4.80410   -9999.25   40.30930 2000.00000   92.50630   -4.31460   -0.04760   -9999.25
 3432.00000   -9999.25   -9999.25   -9999.25   12.79930    0.29980   -9999.25   70.50720  119.86800    0.00120    4.81660   -9999.25   37.43970 2000.00000   68.23820   -4.31460   -0.04730   -9999.25
 3432.50000   -9999.25   -9999.25   -9999.25   12.80970    0.29980   -9999.25   70.36850  119.61640    0.00070    4.82310   -9999.25   38.18670 2000.00000   70.19520   -4.54980   -0.04710   -9999.25
 3433.00000   -9999.25   -9999.25   -9999.25   12.82010    0.29980   -9999.25   70.21570  119.58140    0.00070    4.84420   -9999.25   36.43280 2000.00000   70.67450   -4.66740   -0.04730   -9999.25
 3433.50000   -9999.25   -9999.25   -9999.25   12.85550    0.29970   -9999.25   70.05930  119.15280    0.00070    4.87210   -9999.25   35.99520 2000.00000   65.28140   -5.02020   -0.04810   -9999.25
 3434.00000   -9999.25   -9999.25   -9999.25   12.86050    0.29970   -9999.25   70.06190  118.70330    0.00150    4.89940   -9999.25   37.22850 2000.00000   58.74360   -5.13790   -0.04830   -9999.25
 3434.50000   -9999.25   -9999.25   -9999.25   12.86560    0.29970   -9999.25   70.09930  118.71990    0.00250    4.88860   -9999.25   38.32370 2000.00000   59.57540   -5.13790   -0.04870   -9999.25
 3435.00000   -9999.25   -9999.25   -9999.25   12.86280    0.29970   -9999.25   70.04210  118.86100    0.00390    4.79190   -9999.25   38.95410 2000.00000   65.30000   -5.13790   -0.04900   -9999.25
 3435.50000   -9999.25   -9999.25   -9999.25   12.87320    0.29960   -9999.25   70.02680  119.00210    0.00440    4.71950   -9999.25   39.10980 2000.00000   64.67410   -5.13790   -0.04930   -9999.25
 3436.00000   -9999.25   -9999.25   -9999.25   12.89260    0.29960   -9999.25   70.01150  119.15370    0.00500    4.69030   -9999.25   38.76520 2000.00000   58.59240   -4.78500   -0.04930   -9999.25
 3436.50000   -9999.25   -9999.25   -9999.25   12.91200    0.29960   -9999.25   70.01500  119.27670    0.00550    4.72840   -9999.25   37.60040 2000.00000   63.88710   -4.43220   -0.04980   -9999.25
 3437.00000   -9999.25   -9999.25   -9999.25   12.92750    0.29950   -9999.25   70.03600  119.22300    0.00510    4.77180   -9999.25   36.18100 2000.00000   64.40660   -3.96180   -0.05010   -9999.25
 3437.50000   -9999.25   -9999.25   -9999.25   12.91280    0.29950   -9999.25   70.10750  119.16920    0.00460    4.80810   -9999.25   33.21490 2000.00000   58.24710   -3.72660   -0.05000   -9999.25
 3438.00000   -9999.25   -9999.25   -9999.25   12.97710    0.29950   -9999.25   70.20170  119.16210    0.00420    4.78830   -9999.25   32.69400 2000.00000   55.23680   -3.60900   -0.04920   -9999.25
 3438.50000   -9999.25   -9999.25   -9999.25   13.01570    0.29940   -9999.25   70.10390  119.28750    0.00390    4.75020   -9999.25   33.85570 2000.00000   56.83590   -3.60900   -0.04830   -9999.25
 3439.00000   -9999.25   -9999.25   -9999.25   13.01570    0.29940   -9999.25   70.05330  119.35130    0.00470    4.74030   -9999.25   35.13010 2000.00000   60.70000   -3.60900   -0.04800   -9999.25
 3439.50000   -9999.25   -9999.25   -9999.25   13.02810    0.29940   -9999.25   70.00870  119.48820    0.00550    4.74910   -9999.25   38.20510 2000.00000   64.56410   -3.37380   -0.04850   -9999.25
 3440.00000   -9999.25   -9999.25   -9999.25   13.04350    0.29940   -9999.25   69.92960  119.50740    0.00600    4.75790   -9999.25   37.67360 2000.00000   64.20180   -3.37380   -0.04830   -9999.25
 3440.50000   -9999.25   -9999.25   -9999.25   13.05900    0.29930   -9999.25   69.99080  119.42840    0.00560    4.76090   -9999.25   37.09130 2000.00000   61.27990   -3.72660   -0.04810   -9999.25
 3441.00000   -9999.25   -9999.25   -9999.25   13.07450    0.29930   -9999.25   69.85140  119.28390    0.00520    4.74090   -9999.25   41.02680 2000.00000   63.73490   -4.65060   -0.04790   -9999.25
 3441.50000   -9999.25   -9999.25   -9999.25   13.08990    0.29930   -9999.25   69.98510  119.13950    0.00480    4.71650   -9999.25   43.31530 2000.00000   68.64480   -6.07870   -0.04780   -9999.25
 3442.00000   -9999.25   -9999.25   -9999.25   13.10540    0.29920   -9999.25   69.91430  119.20920    0.00450    4.72600   -9999.25   36.54630 2000.00000   50.80230   -5.72590   -0.04770   -9999.25
 3442.50000   -9999.25   -9999.25   -9999.25   13.12080    0.29920   -9999.25   70.01690  119.33250    0.00410    4.76990   -9999.25   37.62930 2000.00000   49.56460   -3.36310   -0.04750   -9999.25
 3443.00000   -9999.25   -9999.25   -9999.25   13.13630    0.29920   -9999.25   69.98670  119.19920    0.00370    4.81380   -9999.25   40.33670 2000.00000   46.05800   -1.11800   -0.04660   -9999.25
 3443.50000   -9999.25   -9999.25   -9999.25   13.15170    0.29920   -9999.25   70.02590  119.17270    0.00330    4.79210   -9999.25   42.37720 2000.00000   42.77340   -0.08090   -0.04580   -9999.25
 3444.00000   -9999.25   -9999.25   -9999.25   13.24420    0.29910   -9999.25   70.06520  119.25590    0.00480    4.76330   -9999.25   41.18250 2000.00000   32.78070    0.15430   -0.04520   -9999.25
 3444.50000   -9999.25   -9999.25   -9999.25   13.24630    0.29910   -9999.25   70.02000  119.33900    0.00960    4.73460   -9999.25   39.19130 2000.00000   25.68280    0.27190   -0.04430   -9999.25
 3445.00000   -9999.25   -9999.25   -9999.25   13.20330    0.29910   -9999.25   70.09440  119.42220    0.01480    4.70580   -9999.25   38.01780 2000.00000   22.63050    0.38950   -0.04420   -9999.25
 3445.50000   -9999.25   -9999.25   -9999.25   13.17750    0.29900   -9999.25   70.07670  119.48970    0.02170    4.67700   -9999.25   38.62440 2000.00000   18.89590    0.38950   -0.04400   -9999.25
 3446.00000   -9999.25   -9999.25   -9999.25   13.19950    0.29900   -9999.25   70.03600  119.62190    0.02860    4.67870   -9999.25   40.14080 2000.00000   13.10570    0.38950   -0.04330   -9999.25
 3446.50000   -9999.25   -9999.25   -9999.25   13.23630    0.29900   -9999.25   70.05280  119.63630    0.03800    4.69950   -9999.25   41.65730 2000.00000    8.17500    1.09510   -0.04320   -9999.25
 3447.00000   -9999.25   -9999.25   -9999.25   13.29510    0.29900   -9999.25   70.10790  119.56140    0.04140    4.71290   -9999.25   43.17370 2000.00000    6.78490    1.90160   -0.04330   -9999.25
 3447.50000   -9999.25   -9999.25   -9999.25   13.35230    0.29890   -9999.25   70.23940  119.54390    0.03690    4.70620   -9999.25   44.30160 2000.00000    7.62270    3.58160   -0.04260   -9999.25
 3448.00000   -9999.25   -9999.25   -9999.25   13.39870    0.29890   -9999.25   70.48550  119.61870    0.02810    4.67630   -9999.25   43.92060 2000.00000   11.94850    4.03520   -0.04200   -9999.25
 3448.50000   -9999.25   -9999.25   -9999.25   13.44520    0.29890   -9999.25   70.73160  119.32380    0.01890    4.64640   -9999.25   42.96790 2000.00000   18.75010    3.28260   -0.04130   -9999.25
 3449.00000   -9999.25   -9999.25   -9999.25   13.49160    0.29880   -9999.25   70.65560  119.29330    0.01490    4.61130   -9999.25   42.37720 2000.00000   25.47970    1.69490   -0.04070   -9999.25
 3449.50000   -9999.25   -9999.25   -9999.25   13.48620    0.29880   -9999.25   70.86510  119.63340    0.00630    4.60440   -9999.25   49.81120 2000.00000   31.01610    0.62470   -0.04000   -9999.25
 3450.00000   -9999.25   -9999.25   -9999.25   13.37340    0.29880   -9999.25   70.81050  119.74940    0.01030    4.64070   -9999.25   57.24510 2000.00000   31.94810    0.62470   -0.03950   -9999.25
 3450.50000   -9999.25   -9999.25   -9999.25   13.25040    0.29870   -9999.25   70.80430  120.20130    0.01490    4.64380   -9999.25   63.50380 2000.00000   20.71650    1.55960   -0.03910   -9999.25
 3451.00000   -9999.25   -9999.25   -9999.25   13.13220    0.29870   -9999.25   70.91620  120.38780    0.02150    4.67730   -9999.25   64.44100 2000.00000   11.01900    2.37820   -0.03870   -9999.25
