~Version ---------------------------------------------------
VERS.   2.0 : CWLS log ASCII Standard -VERSION 2.0
WRAP.    NO : One line per depth step
DLM . SPACE : Column Data Section Delimiter
~Well ------------------------------------------------------
STRT .F                   28.0 : START DEPTH
STOP .F                 6649.0 : STOP DEPTH
STEP .F                    0.5 : STEP
NULL .                -9999.25 : NULL VALUE
COMP .                         : COMPANY
WELL .                         : WELL
FLD  .                         : FIELD
LOC  .                         : LOCATION
PROV .                         : PROVINCE
CNTY .                         : COUNTY
STAT .                         : STATE
CTRY .                         : COUNTRY
SRVC .                         : SERVICE COMPANY
DATE .                         : DATE
UWI  .                         : UNIQUE WELL ID
API  .                         : API NUMBER
SLAT .WGS84 2.4496475999999987 : SURFACE LATITUDE
SLON .WGS84  8.143142400000002 : SURFACE LONGITUDE
DATUM.F                    nan : DEPTH DATUM ELEV
~Curve Information -----------------------------------------
DEPT   .F     : 
AT30   .OHMM  : ARRAY INDUCTION TWO FOOT RESISTIVITY A30
AT60   .OHMM  : ARRAY INDUCTION TWO FOOT RESISTIVITY A60
AT90   .OHMM  : ARRAY INDUCTION TWO FOOT RESISTIVITY A90
CALR   .IN    : CALIPER FROM RESISTIVITY LOG
DPHZ_LS.DEC   : HGRD STANDARD RESOLUTION DENSITY POROSITY
DPHZ_SS.DEC   : HRGD STANDARD RESOLUTION DENSITY POROSITY
DTCO   .US/F  : DELTA-T COMPRESSIONAL
DTSM   .US/F  : DELTA-T SHEAR
HDRA   .G/C3  : HRDD SPINE AND RIBS DENSITY CORRECTION
PEFZ   .B/E   : HRDD STANDARD RESOLUTION FORMATION PHOTOELECTRIC FACTOR
RHOZ   .G/C3  : HRDD STANDARD RESOLUTION FORMATION DENSITY
RLA3   .OHMM  : APPARENT RESISTIVITY FROM COMPUTED FOCUSING MODE 3
RLA5   .OHMM  : APPARENT RESISTIVITY FROM COMPUTED FOCUSING MODE 5
RXOZ   .OHMM  : INVADED FORMATION RESISTIVITY FILTERED AT 18 INCHES
SGRR   .GAPI  : SPECTROSCOPY GAMMA RAY FROM RESISTIVITY LOG
TNPH_LS.DEC   : THERMAL NEUTRON POROSITY [LIMESTONE]
TNPH_SS.DEC   : THERMAL NEUTRON POROSITY [SANDSTONE]
~Params ----------------------------------------------------
~Other -----------------------------------------------------
~ASCII -----------------------------------------------------
# ...
 2057.50000   -9999.25   -9999.25   -9999.25   12.09040    0.29980   -9999.25   74.95050  132.69360    0.01330    4.39870   -9999.25   31.09450  204.41030    3.31430   -2.58290    0.00540   -9999.25
 2058.00000   -9999.25   -9999.25   -9999.25   12.06650    0.29970   -9999.25   75.51160  134.24060    0.01540    4.38990   -9999.25   31.67650   61.55900    0.93480    0.08400   -0.00110   -9999.25
 2058.50000   -9999.25   -9999.25   -9999.25   12.02270    0.29970   -9999.25   75.94830  134.07880    0.00350    4.43740   -9999.25   42.08980  359.97190   17.78230   -0.48220   -0.01510   -9999.25
 2059.00000   -9999.25   -9999.25   -9999.25   11.99590    0.29970   -9999.25   75.99690  133.91710    0.00990    4.48490   -9999.25   45.56730  532.69000   47.52050   -1.72090   -0.02320   -9999.25
 2059.50000   -9999.25   -9999.25   -9999.25   11.96920    0.29970   -9999.25   75.65910  133.59460    0.01490    4.58850   -9999.25   47.16410 1249.19010   54.08170   -2.32930   -0.02780   -9999.25
 2060.00000   -9999.25   -9999.25   -9999.25   11.94240    0.29970   -9999.25   74.60530  132.58700    0.01490    4.50040   -9999.25   48.76090  821.95710   28.54250   -1.49210   -0.02750   -9999.25
 2060.50000   -9999.25   -9999.25   -9999.25   12.15990    0.29970   -9999.25   73.38600  130.27010    0.01300    4.58960   -9999.25   50.71530  380.88370   30.11560   -1.37450   -0.02740   -9999.25
 2061.00000   -9999.25   -9999.25   -9999.25   12.23370    0.29960   -9999.25   72.58850  128.49660    0.00340    4.67640   -9999.25   54.88750 1774.37430   70.67960   -1.37450   -0.02780   -9999.25
 2061.50000   -9999.25   -9999.25   -9999.25   12.27450    0.29960   -9999.25   71.96230  127.53810   -0.00190    4.74250   -9999.25   59.15580  695.31230  109.85440   -1.96260   -0.03250   -9999.25
 2062.00000   -9999.25   -9999.25   -9999.25   12.26780    0.29960   -9999.25   71.46800  125.49420    0.00250    4.79060   -9999.25   60.01970 1429.49040  107.73400   -2.78580   -0.03810   -9999.25
 2062.50000   -9999.25   -9999.25   -9999.25   12.25640    0.29960   -9999.25   71.56690  125.23620    0.00370    4.79260   -9999.25   55.24430 1997.23490  126.18960   -3.96180   -0.03980   -9999.25
 2063.00000   -9999.25   -9999.25   -9999.25   12.24500    0.29960   -9999.25   71.48860  125.60350    0.00490    4.80310   -9999.25   53.08030 2000.00000  126.84110   -4.90270   -0.04000   -9999.25
 2063.50000   -9999.25   -9999.25   -9999.25   12.25670    0.29960   -9999.25   71.38240  124.79910    0.00410    4.77150   -9999.25   53.88900 2000.00000  111.92230   -4.90270   -0.03750   -9999.25
 2064.00000   -9999.25   -9999.25   -9999.25   12.27420    0.29950   -9999.25   71.38310  124.04590    0.01040    4.71180   -9999.25   54.79300 2000.00000   12.42000   -4.66750   -0.03320   -9999.25
 2064.50000   -9999.25   -9999.25   -9999.25   12.28040    0.29950   -9999.25   71.63390  123.96960    0.01770    4.70090   -9999.25   55.69710 2000.00000    8.60490   -3.72660   -0.02890   -9999.25
 2065.00000   -9999.25   -9999.25   -9999.25   12.24180    0.29950   -9999.25   71.55840  122.43320    0.01890    4.65240   -9999.25   56.60110 2000.00000    8.55110   -3.25620   -0.02830   -9999.25
 2065.50000   -9999.25   -9999.25   -9999.25   12.20310    0.29950   -9999.25   71.43380  121.75740    0.01290    4.60390   -9999.25   57.50510 2000.00000   15.02430   -3.25620   -0.03070   -9999.25
 2066.00000   -9999.25   -9999.25   -9999.25   12.18960    0.29950   -9999.25   71.48100  121.08160    0.00380    4.57800   -9999.25   56.82390 2000.00000   21.49750   -3.37380   -0.03470   -9999.25
 2066.50000   -9999.25   -9999.25   -9999.25   12.16950    0.29950   -9999.25   71.44590  121.06790    0.00810    4.60760   -9999.25   55.20310 2000.00000   65.26100   -3.37380   -0.03870   -9999.25
 2067.00000   -9999.25   -9999.25   -9999.25   12.12350    0.29950   -9999.25   71.07960  120.46010    0.01130    4.66420   -9999.25   53.97050 2000.00000   72.24680   -3.25620   -0.04300   -9999.25
 2067.50000   -9999.25   -9999.25   -9999.25   12.10240    0.29940   -9999.25   70.59260  119.43340    0.00890    4.69290   -9999.25   56.43310 2000.00000   77.98300   -2.71720   -0.04390   -9999.25
 2068.00000   -9999.25   -9999.25   -9999.25   12.10100    0.29940   -9999.25   69.87690  118.92830    0.00640    4.69070   -9999.25   55.48520 2000.00000   75.11670   -2.37420   -0.04430   -9999.25
 2068.50000   -9999.25   -9999.25   -9999.25   12.09950    0.29940   -9999.25   69.40750  118.31520    0.00860    4.68540   -9999.25   48.93080 2000.00000   56.84340   -2.03120   -0.04160   -9999.25
 2069.00000   -9999.25   -9999.25   -9999.25   12.09810    0.29940   -9999.25   68.71170  117.89410    0.02660    4.70020   -9999.25   49.57770 2000.00000   38.57010   -1.49220   -0.03720   -9999.25
 2069.50000   -9999.25   -9999.25   -9999.25   12.05750    0.29940   -9999.25   68.23040  117.33790    0.06350    4.71710   -9999.25   50.17640 2000.00000   32.52460    5.13190   -0.03360   -9999.25
 2070.00000   -9999.25   -9999.25   -9999.25   11.98830    0.26920   -9999.25   67.61700  116.68930    0.05400    4.73400   -9999.25   50.06360 2000.00000   29.53610   10.87820   -0.01520   -9999.25
 2070.50000   -9999.25   -9999.25   -9999.25   11.86260    0.21890   -9999.25   67.31590  115.04510    0.04220    4.74080   -9999.25   49.45700 2000.00000   38.86750   40.95440    0.02400   -9999.25
 2071.00000   -9999.25   -9999.25   -9999.25   11.89190    0.16870   -9999.25   67.17460  115.25400    0.03890    4.73010   -9999.25   49.21800 2000.00000   61.08990   71.03050    0.06720   -9999.25
 2071.50000   -9999.25   -9999.25   -9999.25   11.88140    0.17290   -9999.25   66.97470  115.53020    0.03500    4.56920   -9999.25   47.35610 2000.00000   79.25910   89.31350    0.04730   -9999.25
 2072.00000   -9999.25   -9999.25   -9999.25   11.99540    0.24280   -9999.25   66.88340  115.51100    0.02570    4.56920   -9999.25   43.30060 2000.00000   66.73810   89.20100   -0.00420   -9999.25
 2072.50000   -9999.25   -9999.25   -9999.25   12.10940    0.29870   -9999.25   67.05170  115.42240    0.01640    4.62290   -9999.25   42.66810 2000.00000   53.68460   52.14810   -0.03760   -9999.25
 2073.00000   -9999.25   -9999.25   -9999.25   12.17360    0.29870   -9999.25   67.38200  115.41360    0.00710    4.67680   -9999.25   42.88370 2000.00000   62.94510   15.09510   -0.04400   -9999.25
 2073.50000   -9999.25   -9999.25   -9999.25   12.26510    0.29880   -9999.25   67.79530  115.66080    0.00190    4.74430   -9999.25   44.39430 2000.00000   76.59360    3.27340   -0.04940   -9999.25
 2074.00000   -9999.25   -9999.25   -9999.25   12.37590    0.29880   -9999.25   69.08490  116.36330    0.00310    4.74290   -9999.25   47.27890 2000.00000   75.95950   -2.31470   -0.04990   -9999.25
 2074.50000   -9999.25   -9999.25   -9999.25   12.38170    0.29880   -9999.25   70.95270  117.83740    0.00580    4.72990   -9999.25   50.98050 2000.00000   68.97160   -5.72590   -0.04960   -9999.25
 2075.00000   -9999.25   -9999.25   -9999.25   12.27090    0.29880   -9999.25   72.58540  120.66610    0.01030    4.71690   -9999.25   52.25820 2000.00000   61.31830   -6.31400   -0.04900   -9999.25
 2075.50000   -9999.25   -9999.25   -9999.25   12.22620    0.29880   -9999.25   73.19700  122.29680    0.01480    4.73010   -9999.25   47.94860 1857.35710   53.46180   -4.73470   -0.04410   -9999.25
 2076.00000   -9999.25   -9999.25   -9999.25   12.24500    0.29880   -9999.25   73.91290  123.80720    0.01840    4.72330   -9999.25   43.11980  728.35620   37.66080   -2.90340   -0.03660   -9999.25
 2076.50000   -9999.25   -9999.25   -9999.25   12.26380    0.29890   -9999.25   74.33240  126.15890    0.01840    4.68620   -9999.25   34.75120  201.84570   15.38580    0.50150   -0.02330   -9999.25
 2077.00000   -9999.25   -9999.25   -9999.25   12.24420    0.29890   -9999.25   74.79450  127.11980    0.01690    4.62140   -9999.25   33.87860  171.38090   13.66690    4.46370   -0.00850   -9999.25
 2077.50000   -9999.25   -9999.25   -9999.25   12.26970    0.29890   -9999.25   75.86050  129.63140    0.01500    4.55650   -9999.25   37.19900  248.24770   12.78980    8.42590    0.00620   -9999.25
