~Version ---------------------------------------------------
VERS.   2.0 : CWLS log ASCII Standard -VERSION 2.0
WRAP.    NO : One line per depth step
DLM . SPACE : Column Data Section Delimiter
~Well ------------------------------------------------------
STRT .F                   28.0 : START DEPTH
STOP .F                 6649.0 : STOP DEPTH
STEP .F                    0.5 : STEP
NULL .                -9999.25 : NULL VALUE
COMP .                         : COMPANY
WELL .                         : WELL
FLD  .                         : FIELD
LOC  .                         : LOCATION
PROV .                         : PROVINCE
CNTY .                         : COUNTY
STAT .                         : STATE
CTRY .                         : COUNTRY
SRVC .                         : SERVICE COMPANY
DATE .                         : DATE
UWI  .                         : UNIQUE WELL ID
API  .                         : API NUMBER
SLAT .WGS84 2.4496475999999987 : SURFACE LATITUDE
SLON .WGS84  8.143142400000002 : SURFACE LONGITUDE
DATUM.F                    nan : DEPTH DATUM ELEV
~Curve Information -----------------------------------------
DEPT   .F     : 
AT30   .OHMM  : ARRAY INDUCTION TWO FOOT RESISTIVITY A30
AT60   .OHMM  : ARRAY INDUCTION TWO FOOT RESISTIVITY A60
AT90   .OHMM  : ARRAY INDUCTION TWO FOOT RESISTIVITY A90
CALR   .IN    : CALIPER FROM RESISTIVITY LOG
DPHZ_LS.DEC   : HGRD STANDARD RESOLUTION DENSITY POROSITY
DPHZ_SS.DEC   : HRGD STANDARD RESOLUTION DENSITY POROSITY
DTCO   .US/F  : DELTA-T COMPRESSIONAL
DTSM   .US/F  : DELTA-T SHEAR
HDRA   .G/C3  : HRDD SPINE AND RIBS DENSITY CORRECTION
PEFZ   .B/E   : HRDD STANDARD RESOLUTION FORMATION PHOTOELECTRIC FACTOR
RHOZ   .G/C3  : HRDD STANDARD RESOLUTION FORMATION DENSITY
RLA3   .OHMM  : APPARENT RESISTIVITY FROM COMPUTED FOCUSING MODE 3
RLA5   .OHMM  : APPARENT RESISTIVITY FROM COMPUTED FOCUSING MODE 5
RXOZ   .OHMM  : INVADED FORMATION RESISTIVITY FILTERED AT 18 INCHES
SGRR   .GAPI  : SPECTROSCOPY GAMMA RAY FROM RESISTIVITY LOG
TNPH_LS.DEC   : THERMAL NEUTRON POROSITY [LIMESTONE]
TNPH_SS.DEC   : THERMAL NEUTRON POROSITY [SANDSTONE]
~Params ----------------------------------------------------
~Other -----------------------------------------------------
~ASCII -----------------------------------------------------
# ...
 6567.50000   -9999.25   -9999.25   -9999.25    8.99150   -9999.25    0.12010   -9999.25   -9999.25   -9999.25    2.56330    2.45220    2.03760    2.49860    3.99300   48.02580   -9999.25    0.21150
 6568.00000   -9999.25   -9999.25   -9999.25    8.98960   -9999.25    0.13270   -9999.25   -9999.25   -9999.25    2.51250    2.44060    2.08840    2.19230    3.23020   45.15800   -9999.25    0.22450
 6568.50000   -9999.25   -9999.25   -9999.25    8.98070   -9999.25    0.14280   -9999.25   -9999.25   -9999.25    2.42340    2.42920    2.10110    2.28240    2.68350   43.59360   -9999.25    0.23750
 6569.00000   -9999.25   -9999.25   -9999.25    8.93890   -9999.25    0.14730   -9999.25   -9999.25   -9999.25    2.35010    2.41430    2.11400    2.35890    2.81210   42.85040   -9999.25    0.24520
 6569.50000   -9999.25   -9999.25   -9999.25    8.93230   -9999.25    0.14760   -9999.25   -9999.25   -9999.25    2.32830    2.40540    2.22650    2.41900    3.00050   43.51740   -9999.25    0.23800
 6570.00000   -9999.25   -9999.25   -9999.25    8.93510   -9999.25    0.14700   -9999.25   -9999.25   -9999.25    2.35980    2.40540    2.37600    2.47930    3.15040   44.80360   -9999.25    0.23110
 6570.50000   -9999.25   -9999.25   -9999.25    8.93400   -9999.25    0.14610   -9999.25   -9999.25   -9999.25    2.37510    2.40840    2.48090    2.55090    3.27200   46.28040   -9999.25    0.23250
 6571.00000   -9999.25   -9999.25   -9999.25    8.94490   -9999.25    0.14170   -9999.25   -9999.25   -9999.25    2.39570    2.42240    2.49600    2.65280    3.22100   47.75720   -9999.25    0.23400
 6571.50000   -9999.25   -9999.25   -9999.25    8.99120   -9999.25    0.13200   -9999.25   -9999.25   -9999.25    2.40380    2.43850    2.49590    2.78670    3.39000   48.18600   -9999.25    0.22940
 6572.00000   -9999.25   -9999.25   -9999.25    8.94580   -9999.25    0.11910   -9999.25   -9999.25   -9999.25    2.40880    2.45470    2.58970    3.13250    3.56940   47.17450   -9999.25    0.22090
 6572.50000   -9999.25   -9999.25   -9999.25    8.91530   -9999.25    0.11640   -9999.25   -9999.25   -9999.25    2.41370    2.45750    2.72040    2.98620    3.64110   46.11850   -9999.25    0.21650
 6573.00000   -9999.25   -9999.25   -9999.25    8.93070   -9999.25    0.12060   -9999.25   -9999.25   -9999.25    2.39280    2.44790    2.58940    2.76900    3.48020   45.06250   -9999.25    0.21700
 6573.50000   -9999.25   -9999.25   -9999.25    8.93150   -9999.25    0.12770   -9999.25   -9999.25   -9999.25    2.35460    2.43650    2.52570    2.70880    3.32740   45.82950   -9999.25    0.21570
 6574.00000   -9999.25   -9999.25   -9999.25    8.93220   -9999.25    0.13110   -9999.25   -9999.25   -9999.25    2.31880    2.43340    2.44610    2.57820    3.27730   46.45190   -9999.25    0.22300
 6574.50000   -9999.25   -9999.25   -9999.25    8.97560   -9999.25    0.12900   -9999.25   -9999.25   -9999.25    2.28210    2.43990    2.36650    2.44750    3.17830   45.41150   -9999.25    0.23320
 6575.00000   -9999.25   -9999.25   -9999.25    8.98940   -9999.25    0.12570   -9999.25   -9999.25   -9999.25    2.28640    2.44960    2.30280    2.44740    3.14360   43.67750   -9999.25    0.22890
 6575.50000   -9999.25   -9999.25   -9999.25    8.92370   -9999.25    0.11840   -9999.25   -9999.25   -9999.25    2.31040    2.46580    2.57280    2.74170    3.22070   42.98390   -9999.25    0.22230
 6576.00000   -9999.25   -9999.25   -9999.25    8.92180   -9999.25    0.10610   -9999.25   -9999.25   -9999.25    2.34220    2.48360    3.21250    3.51540    3.83720   45.34320   -9999.25    0.21110
 6576.50000   -9999.25   -9999.25   -9999.25    8.91620   -9999.25    0.09540   -9999.25   -9999.25   -9999.25    2.38960    2.50140    3.85210    4.28910    4.47810   47.71910   -9999.25    0.19980
 6577.00000   -9999.25   -9999.25   -9999.25    8.90040   -9999.25    0.08770   -9999.25   -9999.25   -9999.25    2.40140    2.50520    3.90410    4.18500    4.45030   50.09510   -9999.25    0.20420
 6577.50000   -9999.25   -9999.25   -9999.25    8.90000   -9999.25    0.09240   -9999.25   -9999.25   -9999.25    2.40160    2.49900    3.63060    3.91080    4.02390   51.52060   -9999.25    0.20110
 6578.00000   -9999.25   -9999.25   -9999.25    8.93330   -9999.25    0.09570   -9999.25   -9999.25   -9999.25    2.40180    2.49160    3.47790    3.54020    3.81900   51.26280   -9999.25    0.19990
 6578.50000   -9999.25   -9999.25   -9999.25    8.90610   -9999.25    0.09740   -9999.25   -9999.25   -9999.25    2.39320    2.48420    3.42110    3.47920    3.71430   49.30640   -9999.25    0.20810
 6579.00000   -9999.25   -9999.25   -9999.25    8.89910   -9999.25    0.10200   -9999.25   -9999.25   -9999.25    2.40000    2.48210    3.33290    3.44990    3.59030   47.35010   -9999.25    0.21630
 6579.50000   -9999.25   -9999.25   -9999.25    8.91080   -9999.25    0.10070   -9999.25   -9999.25   -9999.25    2.43810    2.48490    3.24480    3.39010    3.52440   45.78500   -9999.25    0.22450
 6580.00000   -9999.25   -9999.25   -9999.25    8.93640   -9999.25    0.09620   -9999.25   -9999.25   -9999.25    2.46360    2.49380    3.21780    3.33820    3.52410   45.91960   -9999.25    0.23270
 6580.50000   -9999.25   -9999.25   -9999.25    8.99600   -9999.25    0.08980   -9999.25   -9999.25   -9999.25    2.44660    2.50040    3.25960    3.34840    3.61200   46.51160   -9999.25    0.23480
 6581.00000   -9999.25   -9999.25   -9999.25    9.00290   -9999.25    0.09680   -9999.25   -9999.25   -9999.25    2.40330    2.49480    3.30140    3.45310    3.79180   48.08710   -9999.25    0.23190
 6581.50000   -9999.25   -9999.25   -9999.25    9.00090   -9999.25    0.10080   -9999.25   -9999.25   -9999.25    2.38600    2.48840    3.43430    3.58310    4.01070   49.66260   -9999.25    0.20740
 6582.00000   -9999.25   -9999.25   -9999.25    8.98720   -9999.25    0.09980   -9999.25   -9999.25   -9999.25    2.41860    2.48940    3.56880    3.83020    4.32900   51.23810   -9999.25    0.20700
 6582.50000   -9999.25   -9999.25   -9999.25    8.97350   -9999.25    0.09690   -9999.25   -9999.25   -9999.25    2.48330    2.49350    3.81300    4.07780    4.69280   53.03950   -9999.25    0.20930
 6583.00000   -9999.25   -9999.25   -9999.25    8.95980   -9999.25    0.09550   -9999.25   -9999.25   -9999.25    2.52440    2.49560    4.05710    4.17950    4.79500   54.99170   -9999.25    0.22430
 6583.50000   -9999.25   -9999.25   -9999.25    8.94600   -9999.25    0.09530   -9999.25   -9999.25   -9999.25    2.55550    2.49890    4.33400    4.99560    4.88440   57.82740   -9999.25    0.22780
 6584.00000   -9999.25   -9999.25   -9999.25    8.93230   -9999.25    0.08920   -9999.25   -9999.25   -9999.25    2.58670    2.51040    4.70170    6.91190    5.22670   61.25210   -9999.25    0.22320
 6584.50000   -9999.25   -9999.25   -9999.25    8.91860   -9999.25    0.07420   -9999.25   -9999.25   -9999.25    2.61790    2.53480    5.91960    8.82820    7.66810   64.67690   -9999.25    0.21250
 6585.00000   -9999.25   -9999.25   -9999.25    8.90490   -9999.25    0.05470   -9999.25   -9999.25   -9999.25    2.66250    2.56600    8.59660   10.74450   10.10950   68.10160   -9999.25    0.20120
 6585.50000   -9999.25   -9999.25   -9999.25    8.89120   -9999.25    0.03150   -9999.25   -9999.25   -9999.25    2.71070    2.62410   11.27360   13.28190   12.17320   71.52640   -9999.25    0.19090
 6586.00000   -9999.25   -9999.25   -9999.25    8.87740   -9999.25    0.00540   -9999.25   -9999.25   -9999.25    2.78080    2.65720   13.02170   15.97460   15.89560   71.81550   -9999.25    0.18420
 6586.50000   -9999.25   -9999.25   -9999.25    8.87070   -9999.25   -0.01620   -9999.25   -9999.25   -9999.25    2.86620    2.68170   17.56480   18.66730   19.40630   70.09810   -9999.25    0.18000
 6587.00000   -9999.25   -9999.25   -9999.25    8.87360   -9999.25   -0.02700   -9999.25   -9999.25   -9999.25    2.92490    2.69330   17.24320   17.49170   19.28720   64.75020   -9999.25    0.17130
 6587.50000   -9999.25   -9999.25   -9999.25    8.87150   -9999.25   -0.02780   -9999.25   -9999.25   -9999.25    2.94450    2.68890   15.49000   16.31610   18.31700   59.40240   -9999.25    0.16800
