~Version ---------------------------------------------------
VERS.   2.0 : CWLS log ASCII Standard -VERSION 2.0
WRAP.    NO : One line per depth step
DLM . SPACE : Column Data Section Delimiter
~Well ------------------------------------------------------
STRT .F                   28.0 : START DEPTH
STOP .F                 6649.0 : STOP DEPTH
STEP .F                    0.5 : STEP
NULL .                -9999.25 : NULL VALUE
COMP .                         : COMPANY
WELL .                         : WELL
FLD  .                         : FIELD
LOC  .                         : LOCATION
PROV .                         : PROVINCE
CNTY .                         : COUNTY
STAT .                         : STATE
CTRY .                         : COUNTRY
SRVC .                         : SERVICE COMPANY
DATE .                         : DATE
UWI  .                         : UNIQUE WELL ID
API  .                         : API NUMBER
SLAT .WGS84 2.4496475999999987 : SURFACE LATITUDE
SLON .WGS84  8.143142400000002 : SURFACE LONGITUDE
DATUM.F                    nan : DEPTH DATUM ELEV
~Curve Information -----------------------------------------
DEPT   .F     : 
AT30   .OHMM  : ARRAY INDUCTION TWO FOOT RESISTIVITY A30
AT60   .OHMM  : ARRAY INDUCTION TWO FOOT RESISTIVITY A60
AT90   .OHMM  : ARRAY INDUCTION TWO FOOT RESISTIVITY A90
CALR   .IN    : CALIPER FROM RESISTIVITY LOG
DPHZ_LS.DEC   : HGRD STANDARD RESOLUTION DENSITY POROSITY
DPHZ_SS.DEC   : HRGD STANDARD RESOLUTION DENSITY POROSITY
DTCO   .US/F  : DELTA-T COMPRESSIONAL
DTSM   .US/F  : DELTA-T SHEAR
HDRA   .G/C3  : HRDD SPINE AND RIBS DENSITY CORRECTION
PEFZ   .B/E   : HRDD STANDARD RESOLUTION FORMATION PHOTOELECTRIC FACTOR
RHOZ   .G/C3  : HRDD STANDARD RESOLUTION FORMATION DENSITY
RLA3   .OHMM  : APPARENT RESISTIVITY FROM COMPUTED FOCUSING MODE 3
RLA5   .OHMM  : APPARENT RESISTIVITY FROM COMPUTED FOCUSING MODE 5
RXOZ   .OHMM  : INVADED FORMATION RESISTIVITY FILTERED AT 18 INCHES
SGRR   .GAPI  : SPECTROSCOPY GAMMA RAY FROM RESISTIVITY LOG
TNPH_LS.DEC   : THERMAL NEUTRON POROSITY [LIMESTONE]
TNPH_SS.DEC   : THERMAL NEUTRON POROSITY [SANDSTONE]
~Params ----------------------------------------------------
~Other -----------------------------------------------------
~ASCII -----------------------------------------------------
# ...
 2406.00000   -9999.25   -9999.25   -9999.25   13.87280    0.30010   -9999.25   76.93140  132.22140    0.00410    4.60960   -9999.25   45.35710  306.65300  127.62970    3.72810   -0.04030   -9999.25
 2406.50000   -9999.25   -9999.25   -9999.25   14.02920    0.30010   -9999.25   77.59260  138.39720    0.00810    4.50160   -9999.25   27.89540  193.06970  108.06170    5.96670   -0.02520   -9999.25
 2407.00000   -9999.25   -9999.25   -9999.25   14.00060    0.30010   -9999.25   78.26470  144.19450    0.01750    4.34130   -9999.25    3.13670   53.47660   66.96690   17.67140    0.01680   -9999.25
 2407.50000   -9999.25   -9999.25   -9999.25   13.75970    0.30010   -9999.25   79.08930  145.35450    0.02310    4.14950   -9999.25    2.78150   18.93870   25.87220   25.22930    0.06770   -9999.25
 2408.00000   -9999.25   -9999.25   -9999.25   13.38550    0.30010   -9999.25   79.92240  145.27550    0.01560    4.08270   -9999.25    6.80650   35.94230   21.43600   24.12210    0.07220   -9999.25
 2408.50000   -9999.25   -9999.25   -9999.25   13.20090    0.30010   -9999.25   80.75540  144.95540    0.00310    4.23150   -9999.25   13.39950   52.94590   29.32210   20.34080    0.04330   -9999.25
 2409.00000   -9999.25   -9999.25   -9999.25   13.10230    0.30010   -9999.25   79.08180  144.79570    0.00210    4.33160   -9999.25   14.78880   54.40070   27.23820   16.55960    0.02280   -9999.25
 2409.50000   -9999.25   -9999.25   -9999.25   13.05470    0.30010   -9999.25   76.42290  144.04780    0.00400    4.40820   -9999.25   12.50790   51.81990   25.65470   12.77840    0.01500   -9999.25
 2410.00000   -9999.25   -9999.25   -9999.25   12.99160    0.30010   -9999.25   78.03230  143.29980    0.00590    4.48480   -9999.25   18.66330  127.25440   31.54870   11.31200    0.00720   -9999.25
 2410.50000   -9999.25   -9999.25   -9999.25   12.88010    0.30010   -9999.25   77.11330  142.69040    0.00780    4.56140   -9999.25   25.37040  204.97060   29.01540   11.43060   -0.00070   -9999.25
 2411.00000   -9999.25   -9999.25   -9999.25   12.79960    0.30010   -9999.25   73.77820  141.40590    0.01050    4.60180   -9999.25   26.64040  224.33660   30.75190   11.54930   -0.00220   -9999.25
 2411.50000   -9999.25   -9999.25   -9999.25   12.66780    0.30010   -9999.25   72.66430  139.33100    0.01660    4.64220   -9999.25   24.28510  313.80450   32.82710   11.31510   -0.00160   -9999.25
 2412.00000   -9999.25   -9999.25   -9999.25   12.82070    0.30010   -9999.25   70.24950  135.37870    0.02060    4.66770   -9999.25   21.92980  268.70080    9.06940    9.89180   -0.00930   -9999.25
 2412.50000   -9999.25   -9999.25   -9999.25   12.88730    0.30010   -9999.25   69.47310  131.42640    0.01970    4.68320   -9999.25   20.98890  345.17230   15.31060    8.40640   -0.02040   -9999.25
 2413.00000   -9999.25   -9999.25   -9999.25   12.87600    0.30010   -9999.25   67.93600  127.47410    0.01350    4.69870   -9999.25   22.06500  593.28380   45.60930    6.92100   -0.03140   -9999.25
 2413.50000   -9999.25   -9999.25   -9999.25   13.04810    0.30000   -9999.25   66.37050  123.52180    0.00800    4.72410   -9999.25   22.82820  856.74880   75.90790    5.31800   -0.03870   -9999.25
 2414.00000   -9999.25   -9999.25   -9999.25   13.23130    0.30000   -9999.25   65.48960  119.56950    0.00660    4.75630   -9999.25   22.71950  844.57820  102.53890    4.00350   -0.04500   -9999.25
 2414.50000   -9999.25   -9999.25   -9999.25   13.56730    0.30000   -9999.25   64.60870  119.38890    0.00500    4.74480   -9999.25   22.58310  772.91120   90.79560    2.18660   -0.04940   -9999.25
 2415.00000   -9999.25   -9999.25   -9999.25   13.71110    0.30000   -9999.25   66.37890  119.16810    0.00420    4.73780   -9999.25   22.44660  656.83890   83.79060    0.26270   -0.04970   -9999.25
 2415.50000   -9999.25   -9999.25   -9999.25   13.75930    0.30000   -9999.25   67.09560  118.92730    0.00330    4.73070   -9999.25   22.31020  604.12760   95.25280    0.02810   -0.04730   -9999.25
 2416.00000   -9999.25   -9999.25   -9999.25   14.01190    0.30000   -9999.25   66.82720  114.70970    0.00270    4.69120   -9999.25   20.33100  411.25910   79.91520    0.73420   -0.04350   -9999.25
 2416.50000   -9999.25   -9999.25   -9999.25   14.30850    0.30000   -9999.25   66.86530  109.01830    0.00270    4.60310   -9999.25   17.62240  220.15330   43.89420    2.24680   -0.03970   -9999.25
 2417.00000   -9999.25   -9999.25   -9999.25   13.94260    0.30000   -9999.25   62.22570  103.32700    0.00510    4.52220   -9999.25   15.93440  148.50760   29.34250    3.79300   -0.03620   -9999.25
 2417.50000   -9999.25   -9999.25   -9999.25   13.83670    0.30000   -9999.25   60.56260   97.63560    0.00750    4.45210   -9999.25   14.88240  140.56230   42.83510    7.15670   -0.03430   -9999.25
 2418.00000   -9999.25   -9999.25   -9999.25   13.80570    0.30000   -9999.25   67.41090   91.94430    0.00990    4.29100   -9999.25   14.61780  102.50010   25.03360   14.56420   -0.03230   -9999.25
 2418.50000   -9999.25   -9999.25   -9999.25   13.80630    0.30000   -9999.25   68.14850   86.25290    0.01050    4.13960   -9999.25   12.91920   56.26730    0.43700   21.97180    0.05820   -9999.25
 2419.00000   -9999.25   -9999.25   -9999.25   13.91180    0.30000   -9999.25   69.31260   93.07680    0.00920    3.67900   -9999.25   11.22070   20.66140    0.39270   32.34700    0.14870   -9999.25
 2419.50000   -9999.25   -9999.25   -9999.25   15.68250    0.30000   -9999.25   71.38740  121.43200    0.00820    3.18160   -9999.25   12.78300   16.54180    0.33740   43.90490    0.22410   -9999.25
 2420.00000   -9999.25   -9999.25   -9999.25   16.95180    0.28960   -9999.25   73.57650  126.73060    0.02550    2.78370   -9999.25   15.98710   20.48510    0.44300   48.70950    0.29950   -9999.25
 2420.50000   -9999.25   -9999.25   -9999.25   14.89370    0.30110   -9999.25   76.58400  132.02910    0.05040    2.78090   -9999.25   18.82600   26.19600    0.34980   43.54290    0.30040   -9999.25
 2421.00000   -9999.25   -9999.25   -9999.25   13.84630    0.30150   -9999.25   79.59150  137.98590    0.05900    2.83490   -9999.25   17.39930   25.42760    0.20000   37.23150    0.30100   -9999.25
 2421.50000   -9999.25   -9999.25   -9999.25   14.18440    0.30150   -9999.25   81.57210  144.85800    0.05570    3.08120   -9999.25   13.13530   21.59650    0.20000   30.92020    0.30100   -9999.25
 2422.00000   -9999.25   -9999.25   -9999.25   13.28760    0.30150   -9999.25   79.44460  144.77770    0.05240    3.36210   -9999.25   16.12280   17.76540    0.20090   26.91590    0.22230   -9999.25
 2422.50000   -9999.25   -9999.25   -9999.25   13.12590    0.30140   -9999.25   77.31720  142.00440    0.04260    3.64290   -9999.25   21.92300   24.12750    1.74420   21.53090    0.12470   -9999.25
 2423.00000   -9999.25   -9999.25   -9999.25   13.05770    0.30140   -9999.25   75.18970  137.51590    0.03280    3.92380   -9999.25   20.89780   38.54900    3.28230   16.14590    0.02710   -9999.25
 2423.50000   -9999.25   -9999.25   -9999.25   12.57410    0.30140   -9999.25   74.19430  134.77910    0.02300    4.20460   -9999.25   26.61250  474.19260    4.82030   10.76100    0.00710   -9999.25
 2424.00000   -9999.25   -9999.25   -9999.25   12.47000    0.30130   -9999.25   73.94380  134.66960    0.01320    4.48550   -9999.25   54.83740 1198.38280   26.56860    4.09110   -0.01280   -9999.25
 2424.50000   -9999.25   -9999.25   -9999.25   12.43500    0.30130   -9999.25   73.14260  134.58200    0.00340    4.54420   -9999.25   61.98630 1922.57300   51.22030   -1.27160   -0.01720   -9999.25
 2425.00000   -9999.25   -9999.25   -9999.25   12.46440    0.30130   -9999.25   71.71760  134.02010    0.01100    4.56960   -9999.25   48.51370 2000.00000   41.61790   -0.33080   -0.01620   -9999.25
 2425.50000   -9999.25   -9999.25   -9999.25   12.62320    0.30120   -9999.25   70.29260  133.61870    0.02880    4.56920   -9999.25   31.67490 2000.00000    1.77820    0.84520   -0.01440   -9999.25
 2426.00000   -9999.25   -9999.25   -9999.25   12.81720    0.30120   -9999.25   69.73060  131.31410    0.04650    4.56220   -9999.25   33.30230  885.49400    6.54900    1.66840   -0.01500   -9999.25
