~Version ---------------------------------------------------
VERS.   2.0 : CWLS log ASCII Standard -VERSION 2.0
WRAP.    NO : One line per depth step
DLM . SPACE : Column Data Section Delimiter
~Well ------------------------------------------------------
STRT .F                   28.0 : START DEPTH
STOP .F                 6649.0 : STOP DEPTH
STEP .F                    0.5 : STEP
NULL .                -9999.25 : NULL VALUE
COMP .                         : COMPANY
WELL .                         : WELL
FLD  .                         : FIELD
LOC  .                         : LOCATION
PROV .                         : PROVINCE
CNTY .                         : COUNTY
STAT .                         : STATE
CTRY .                         : COUNTRY
SRVC .                         : SERVICE COMPANY
DATE .                         : DATE
UWI  .                         : UNIQUE WELL ID
API  .                         : API NUMBER
SLAT .WGS84 2.4496475999999987 : SURFACE LATITUDE
SLON .WGS84  8.143142400000002 : SURFACE LONGITUDE
DATUM.F                    nan : DEPTH DATUM ELEV
~Curve Information -----------------------------------------
DEPT   .F     : 
AT30   .OHMM  : ARRAY INDUCTION TWO FOOT RESISTIVITY A30
AT60   .OHMM  : ARRAY INDUCTION TWO FOOT RESISTIVITY A60
AT90   .OHMM  : ARRAY INDUCTION TWO FOOT RESISTIVITY A90
CALR   .IN    : CALIPER FROM RESISTIVITY LOG
DPHZ_LS.DEC   : HGRD STANDARD RESOLUTION DENSITY POROSITY
DPHZ_SS.DEC   : HRGD STANDARD RESOLUTION DENSITY POROSITY
DTCO   .US/F  : DELTA-T COMPRESSIONAL
DTSM   .US/F  : DELTA-T SHEAR
HDRA   .G/C3  : HRDD SPINE AND RIBS DENSITY CORRECTION
PEFZ   .B/E   : HRDD STANDARD RESOLUTION FORMATION PHOTOELECTRIC FACTOR
RHOZ   .G/C3  : HRDD STANDARD RESOLUTION FORMATION DENSITY
RLA3   .OHMM  : APPARENT RESISTIVITY FROM COMPUTED FOCUSING MODE 3
RLA5   .OHMM  : APPARENT RESISTIVITY FROM COMPUTED FOCUSING MODE 5
RXOZ   .OHMM  : INVADED FORMATION RESISTIVITY FILTERED AT 18 INCHES
SGRR   .GAPI  : SPECTROSCOPY GAMMA RAY FROM RESISTIVITY LOG
TNPH_LS.DEC   : THERMAL NEUTRON POROSITY [LIMESTONE]
TNPH_SS.DEC   : THERMAL NEUTRON POROSITY [SANDSTONE]
~Params ----------------------------------------------------
~Other -----------------------------------------------------
~ASCII -----------------------------------------------------
# ...
 5132.50000   -9999.25   -9999.25   -9999.25   11.60260   -0.09950   -9999.25   50.28610   93.27050    0.00850    5.14840   -9999.25   76.83730 2000.00000  191.47710   -0.70430   -0.02060   -9999.25
 5133.00000   -9999.25   -9999.25   -9999.25   11.58850   -0.09950   -9999.25   50.38540   93.94470    0.00470    5.19120   -9999.25   79.06300 2000.00000  308.57790   -0.23960   -0.02160   -9999.25
 5133.50000   -9999.25   -9999.25   -9999.25   11.59470   -0.09950   -9999.25   50.43920   94.34740    0.00070    5.28760   -9999.25   78.93110 2000.00000  454.20290   -0.57610   -0.02230   -9999.25
 5134.00000   -9999.25   -9999.25   -9999.25   11.60250   -0.09950   -9999.25   50.48760   94.56920   -0.00210    5.36260   -9999.25   77.87220 2000.00000  492.86570   -2.23880   -0.02250   -9999.25
 5134.50000   -9999.25   -9999.25   -9999.25   11.55520   -0.09950   -9999.25   50.42300   94.66580   -0.00250    5.36190   -9999.25   76.92710 2000.00000  488.55510   -3.90140   -0.02270   -9999.25
 5135.00000   -9999.25   -9999.25   -9999.25   11.54360   -0.09950   -9999.25   50.33250   94.78630    0.00140    5.34760   -9999.25   76.09410 2000.00000  480.12750   -3.11740   -0.02170   -9999.25
 5135.50000   -9999.25   -9999.25   -9999.25   11.58000   -0.09950   -9999.25   50.28090   94.21710    0.00290    5.33330   -9999.25   74.73760 2000.00000  466.84260   -0.94160   -0.02010   -9999.25
 5136.00000   -9999.25   -9999.25   -9999.25   11.57640   -0.09950   -9999.25   50.20060   93.35530    0.00310    5.33020   -9999.25   74.71140 2000.00000  469.14910    1.23430   -0.01840   -9999.25
 5136.50000   -9999.25   -9999.25   -9999.25   11.57290   -0.09950   -9999.25   50.08550   93.32070    0.00440    5.34370   -9999.25   74.68520 2000.00000  469.14910    3.41010   -0.01780   -9999.25
 5137.00000   -9999.25   -9999.25   -9999.25   11.56930   -0.09950   -9999.25   50.01440   93.68250    0.00420    5.32760   -9999.25   74.65890 2000.00000  390.73120    3.84110   -0.01910   -9999.25
 5137.50000   -9999.25   -9999.25   -9999.25   11.56580   -0.09950   -9999.25   50.00700   94.43440    0.00400    5.29630   -9999.25   74.63270 2000.00000  329.53190    1.06830   -0.02020   -9999.25
 5138.00000   -9999.25   -9999.25   -9999.25   11.55100   -0.09950   -9999.25   50.00120   92.71000    0.00370    5.26500   -9999.25   74.60650 2000.00000  274.61840   -1.82220   -0.02000   -9999.25
 5138.50000   -9999.25   -9999.25   -9999.25   11.54730   -0.09950   -9999.25   49.99760   92.38170    0.00270    5.23350   -9999.25   74.58020 2000.00000  200.58710   -1.94550   -0.02010   -9999.25
 5139.00000   -9999.25   -9999.25   -9999.25   11.55990   -0.09950   -9999.25   49.98990   92.51670    0.00270    5.20150   -9999.25   74.42490 2000.00000  152.47860   -1.06920   -0.02000   -9999.25
 5139.50000   -9999.25   -9999.25   -9999.25   11.55170   -0.09950   -9999.25   49.96570   92.79470    0.00270    5.21770   -9999.25   74.61270 2000.00000  134.68860   -0.11930   -0.01970   -9999.25
 5140.00000   -9999.25   -9999.25   -9999.25   11.54360   -0.09950   -9999.25   49.78860   93.37440    0.00270    5.24590   -9999.25   74.79450 2000.00000  172.16650    0.83050   -0.01950   -9999.25
 5140.50000   -9999.25   -9999.25   -9999.25   11.53550   -0.09950   -9999.25   49.70680   94.07410    0.00270    5.27420   -9999.25   72.68420 2000.00000  218.53530    1.78030   -0.01780   -9999.25
 5141.00000   -9999.25   -9999.25   -9999.25   11.52980   -0.09950   -9999.25   49.67650   93.69130    0.00170    5.30240   -9999.25   73.55750 2000.00000  259.65660    3.50420   -0.01650   -9999.25
 5141.50000   -9999.25   -9999.25   -9999.25   11.54100   -0.09950   -9999.25   49.62810   92.86690    0.00250    5.34560   -9999.25   75.60940 2000.00000  294.92030    4.63770   -0.01680   -9999.25
 5142.00000   -9999.25   -9999.25   -9999.25   11.55540   -0.09950   -9999.25   49.53710   92.34180    0.00230    5.39350   -9999.25   75.79950 2000.00000  315.28860    4.52580   -0.01830   -9999.25
 5142.50000   -9999.25   -9999.25   -9999.25   11.55630   -0.09950   -9999.25   49.50280   92.92490    0.00120    5.39550   -9999.25   74.86730 2000.00000  360.45730    3.99610   -0.02000   -9999.25
 5143.00000   -9999.25   -9999.25   -9999.25   11.55710   -0.09950   -9999.25   49.50330   93.19950    0.00160    5.34220   -9999.25   74.49890 2000.00000  415.96610    3.46640   -0.02170   -9999.25
 5143.50000   -9999.25   -9999.25   -9999.25   11.55800   -0.09950   -9999.25   49.49600   93.42220    0.00230    5.28900   -9999.25   76.18960 2000.00000  413.79720    2.93670   -0.02200   -9999.25
 5144.00000   -9999.25   -9999.25   -9999.25   11.55880   -0.09950   -9999.25   49.43040   93.55680    0.00240    5.31680   -9999.25   78.65230 2000.00000  385.95080    2.40700   -0.02230   -9999.25
 5144.50000   -9999.25   -9999.25   -9999.25   11.53690   -0.09950   -9999.25   49.35070   93.21330    0.00030    5.36490   -9999.25   78.65230 2000.00000  377.79810    1.96260   -0.02200   -9999.25
 5145.00000   -9999.25   -9999.25   -9999.25   11.53690   -0.09950   -9999.25   49.29560   92.71690    0.00010    5.37990   -9999.25   78.65230 2000.00000  410.05040    1.73260   -0.02060   -9999.25
 5145.50000   -9999.25   -9999.25   -9999.25   11.58100   -0.09950   -9999.25   49.32520   92.46180   -0.00270    5.36970   -9999.25   78.65230 2000.00000  433.61790    2.42000   -0.01910   -9999.25
 5146.00000   -9999.25   -9999.25   -9999.25   11.57990   -0.09840   -9999.25   49.28330   92.83990   -0.00600    5.40080   -9999.25   78.65230 2000.00000  467.10390    3.32590   -0.01770   -9999.25
 5146.50000   -9999.25   -9999.25   -9999.25   11.57380   -0.09270   -9999.25   49.13970   93.67030    0.00120    5.44000   -9999.25   78.65230 2000.00000  471.46750    3.46640   -0.01710   -9999.25
 5147.00000   -9999.25   -9999.25   -9999.25   11.55980   -0.09210   -9999.25   49.02450   92.57710    0.00120    5.47120   -9999.25   78.65230 2000.00000  445.46110    3.60700   -0.01860   -9999.25
 5147.50000   -9999.25   -9999.25   -9999.25   11.55000   -0.09490   -9999.25   48.85710   92.32240   -0.00210    5.46260   -9999.25   78.65230 2000.00000  415.85110    3.63920   -0.02020   -9999.25
 5148.00000   -9999.25   -9999.25   -9999.25   11.54020   -0.09460   -9999.25   48.79420   92.75540   -0.00140    5.45390   -9999.25   76.35690 2000.00000  368.79310    4.66640   -0.01860   -9999.25
 5148.50000   -9999.25   -9999.25   -9999.25   11.54680   -0.09070   -9999.25   48.65010   91.05460   -0.00400    5.44530   -9999.25   74.06150 2000.00000  323.18520    5.80190   -0.01690   -9999.25
 5149.00000   -9999.25   -9999.25   -9999.25   11.55790   -0.08780   -9999.25   48.55990   92.47580   -0.00310    5.43670   -9999.25   71.97080 2000.00000  318.86610    6.94670   -0.01500   -9999.25
 5149.50000   -9999.25   -9999.25   -9999.25   11.54420   -0.08540   -9999.25   48.49670   92.14140    0.00040    5.43430   -9999.25   71.61680 2000.00000  285.64860    7.29640   -0.01450   -9999.25
 5150.00000   -9999.25   -9999.25   -9999.25   11.53580   -0.08700   -9999.25   48.44270   91.71220    0.00040    5.44120   -9999.25   71.72190 2000.00000  255.86180    7.43830   -0.01570   -9999.25
 5150.50000   -9999.25   -9999.25   -9999.25   11.53080   -0.08850   -9999.25   48.39950   91.50120    0.00030    5.44060   -9999.25   72.24770 2000.00000  259.40060    7.55060   -0.01590   -9999.25
 5151.00000   -9999.25   -9999.25   -9999.25   11.54470   -0.09060   -9999.25   48.39950   91.73350    0.00020    5.40750   -9999.25   72.77340 2000.00000  288.68740    7.33100   -0.01620   -9999.25
 5151.50000   -9999.25   -9999.25   -9999.25   11.54430   -0.08820   -9999.25   48.43170   92.27950    0.00010    5.37910   -9999.25   73.29920 2000.00000  206.64990    7.11140   -0.01720   -9999.25
 5152.00000   -9999.25   -9999.25   -9999.25   11.57630   -0.08130   -9999.25   48.50160   92.39010    0.00000    5.39460   -9999.25   75.93500 2000.00000  131.42160    6.94650   -0.01780   -9999.25
 5152.50000   -9999.25   -9999.25   -9999.25   11.59440   -0.07450   -9999.25   48.61670   91.81630   -0.00010    5.42670   -9999.25   76.27620 2000.00000  105.35740    6.94070   -0.01770   -9999.25
