~Version ---------------------------------------------------
VERS.   2.0 : CWLS log ASCII Standard -VERSION 2.0
WRAP.    NO : One line per depth step
DLM . SPACE : Column Data Section Delimiter
~Well ------------------------------------------------------
STRT .F                   28.0 : START DEPTH
STOP .F                 6649.0 : STOP DEPTH
STEP .F                    0.5 : STEP
NULL .                -9999.25 : NULL VALUE
COMP .                         : COMPANY
WELL .                         : WELL
FLD  .                         : FIELD
LOC  .                         : LOCATION
PROV .                         : PROVINCE
CNTY .                         : COUNTY
STAT .                         : STATE
CTRY .                         : COUNTRY
SRVC .                         : SERVICE COMPANY
DATE .                         : DATE
UWI  .                         : UNIQUE WELL ID
API  .                         : API NUMBER
SLAT .WGS84 2.4496475999999987 : SURFACE LATITUDE
SLON .WGS84  8.143142400000002 : SURFACE LONGITUDE
DATUM.F                    nan : DEPTH DATUM ELEV
~Curve Information -----------------------------------------
DEPT   .F     : 
AT30   .OHMM  : ARRAY INDUCTION TWO FOOT RESISTIVITY A30
AT60   .OHMM  : ARRAY INDUCTION TWO FOOT RESISTIVITY A60
AT90   .OHMM  : ARRAY INDUCTION TWO FOOT RESISTIVITY A90
CALR   .IN    : CALIPER FROM RESISTIVITY LOG
DPHZ_LS.DEC   : HGRD STANDARD RESOLUTION DENSITY POROSITY
DPHZ_SS.DEC   : HRGD STANDARD RESOLUTION DENSITY POROSITY
DTCO   .US/F  : DELTA-T COMPRESSIONAL
DTSM   .US/F  : DELTA-T SHEAR
HDRA   .G/C3  : HRDD SPINE AND RIBS DENSITY CORRECTION
PEFZ   .B/E   : HRDD STANDARD RESOLUTION FORMATION PHOTOELECTRIC FACTOR
RHOZ   .G/C3  : HRDD STANDARD RESOLUTION FORMATION DENSITY
RLA3   .OHMM  : APPARENT RESISTIVITY FROM COMPUTED FOCUSING MODE 3
RLA5   .OHMM  : APPARENT RESISTIVITY FROM COMPUTED FOCUSING MODE 5
RXOZ   .OHMM  : INVADED FORMATION RESISTIVITY FILTERED AT 18 INCHES
SGRR   .GAPI  : SPECTROSCOPY GAMMA RAY FROM RESISTIVITY LOG
TNPH_LS.DEC   : THERMAL NEUTRON POROSITY [LIMESTONE]
TNPH_SS.DEC   : THERMAL NEUTRON POROSITY [SANDSTONE]
~Params ----------------------------------------------------
~Other -----------------------------------------------------
~ASCII -----------------------------------------------------
# ...
 1729.50000   -9999.25   -9999.25   -9999.25   12.74430    0.29990   -9999.25   77.26480  136.66510    0.00370    3.77840   -9999.25   38.98270 2000.00000   15.32430   22.46510    0.09260   -9999.25
 1730.00000   -9999.25   -9999.25   -9999.25   12.81250    0.29810   -9999.25   77.16920  139.01030    0.00270    3.81290   -9999.25   34.80420 2000.00000   16.25890   22.69430    0.10160   -9999.25
 1730.50000   -9999.25   -9999.25   -9999.25   12.89500    0.30520   -9999.25   76.63750  139.79520    0.00170    3.84740   -9999.25   38.54540 2000.00000   19.79070   22.92350    0.09560   -9999.25
 1731.00000   -9999.25   -9999.25   -9999.25   12.87970    0.30030   -9999.25   75.97580  139.86800    0.00070    3.89090   -9999.25   42.18170 2000.00000   20.15130   23.20450    0.08820   -9999.25
 1731.50000   -9999.25   -9999.25   -9999.25   12.83220    0.30020   -9999.25   75.53200  138.52120   -0.00200    3.90800   -9999.25   38.41050 2000.00000   19.99790   22.96930    0.06960   -9999.25
 1732.00000   -9999.25   -9999.25   -9999.25   12.76860    0.30010   -9999.25   74.97040  137.13910   -0.00160    3.97700   -9999.25   38.79110    0.20000   34.38320   20.44930    0.04840   -9999.25
 1732.50000   -9999.25   -9999.25   -9999.25   12.70500    0.30000   -9999.25   73.78950  135.75710   -0.00220    4.06340   -9999.25   46.65270    0.95570   51.86720   15.91310    0.03490   -9999.25
 1733.00000   -9999.25   -9999.25   -9999.25   12.63350    0.29990   -9999.25   72.25250  134.37500   -0.00420    4.14980   -9999.25   48.13620    0.49700   59.44420   13.91390    0.02330   -9999.25
 1733.50000   -9999.25   -9999.25   -9999.25   12.61880    0.29980   -9999.25   71.71510  132.99290   -0.00360    4.18990   -9999.25   43.08490    0.21340   51.27250   12.97300    0.02340   -9999.25
 1734.00000   -9999.25   -9999.25   -9999.25   12.58940    0.29970   -9999.25   71.16490  131.52780   -0.00190    4.18490   -9999.25   38.03350    0.20000   34.22420   12.85550    0.02890   -9999.25
 1734.50000   -9999.25   -9999.25   -9999.25   12.58940    0.29960   -9999.25   71.82560  129.15950    0.00050    4.13760   -9999.25   37.66060    0.33030   38.27670   11.20900    0.02950   -9999.25
 1735.00000   -9999.25   -9999.25   -9999.25   12.58940    0.29950   -9999.25   72.27490  126.92970    0.00290    4.08500   -9999.25   44.31340    0.83410   37.65790   10.38580    0.03000   -9999.25
 1735.50000   -9999.25   -9999.25   -9999.25   12.62950    0.29780   -9999.25   71.98730  126.00050    0.00780    3.95700   -9999.25   38.28870    0.67040   30.46550   10.26820    0.03650   -9999.25
 1736.00000   -9999.25   -9999.25   -9999.25   12.65440    0.27990   -9999.25   71.57140  125.66600    0.00990    3.83390   -9999.25   31.03070    0.20000   23.27300   14.85470    0.04580   -9999.25
 1736.50000   -9999.25   -9999.25   -9999.25   12.67940    0.26990   -9999.25   71.20190  125.52120    0.00910    3.78780   -9999.25   30.16820 2000.00000   20.39610   20.14690    0.05520   -9999.25
 1737.00000   -9999.25   -9999.25   -9999.25   12.67930    0.28320   -9999.25   70.63670  125.45100    0.00820    3.77710   -9999.25   34.47970 2000.00000   27.57430   20.85250    0.05500   -9999.25
 1737.50000   -9999.25   -9999.25   -9999.25   12.64820    0.29620   -9999.25   70.38950  125.03530    0.00740    3.83010   -9999.25   37.29100    0.98880   39.36970   19.70580    0.04370   -9999.25
 1738.00000   -9999.25   -9999.25   -9999.25   12.63850    0.29990   -9999.25   69.84130  124.38940    0.00650    3.98800   -9999.25   36.74360    0.33670   49.04750   17.08920    0.03240   -9999.25
 1738.50000   -9999.25   -9999.25   -9999.25   12.60410    0.29990   -9999.25   69.24260  124.13750    0.00800    4.14590   -9999.25   32.90350    0.89020   48.23670   13.60310    0.02230   -9999.25
 1739.00000   -9999.25   -9999.25   -9999.25   12.60910    0.29980   -9999.25   68.94840  123.99510    0.00970    4.30370   -9999.25   29.06350    0.20000   43.36050   10.11700    0.01400   -9999.25
 1739.50000   -9999.25   -9999.25   -9999.25   12.59970    0.29960   -9999.25   68.76010  123.74550    0.00940    4.37760   -9999.25   34.80420    0.41590   48.08960    6.85770    0.00570   -9999.25
 1740.00000   -9999.25   -9999.25   -9999.25   12.62260    0.29780   -9999.25   68.61710  123.23780    0.00710    4.38830   -9999.25   33.50250    0.38500   49.04750    6.03450    0.00380   -9999.25
 1740.50000   -9999.25   -9999.25   -9999.25   12.64550    0.26610   -9999.25   68.74670  122.74830    0.00470    4.20920   -9999.25   26.26020 2000.00000   39.38620    8.62170    0.02270   -9999.25
 1741.00000   -9999.25   -9999.25   -9999.25   12.65920    0.14880   -9999.25   69.27820  122.26420    0.00580    3.98530   -9999.25   19.52770 2000.00000   27.30940   15.56030    0.04880   -9999.25
 1741.50000   -9999.25   -9999.25   -9999.25   12.71230    0.08920   -9999.25   70.07760  121.54850    0.00540    3.76140   -9999.25   12.66960 2000.00000   15.23270   22.22440    0.08600   -9999.25
 1742.00000   -9999.25   -9999.25   -9999.25   12.84530    0.08280   -9999.25   70.41550  121.75430    0.00500    3.62700   -9999.25   17.45480 2000.00000    8.40050   28.88860    0.12330   -9999.25
 1742.50000   -9999.25   -9999.25   -9999.25   12.89230    0.10640   -9999.25   71.38110  122.01200    0.00460    3.37230   -9999.25   23.23190 2000.00000    8.02820   35.55280    0.16050   -9999.25
 1743.00000   -9999.25   -9999.25   -9999.25   12.93390    0.12970   -9999.25   72.36780  121.16070    0.00410    3.26440   -9999.25   23.00390 2000.00000    8.08030   38.72800    0.19650   -9999.25
 1743.50000   -9999.25   -9999.25   -9999.25   12.96710    0.14170   -9999.25   72.51910  123.20820    0.00370    3.22670   -9999.25   22.23030 2000.00000    8.13290   40.25690    0.20460   -9999.25
 1744.00000   -9999.25   -9999.25   -9999.25   13.00610    0.15980   -9999.25   72.51540  124.86210    0.00580    3.34230   -9999.25   18.78390 2000.00000    6.11690   39.41010    0.18380   -9999.25
 1744.50000   -9999.25   -9999.25   -9999.25   13.04510    0.19620   -9999.25   72.46030  126.54020    0.00810    3.49810   -9999.25   16.69750 2000.00000    5.10200   35.55280    0.15010   -9999.25
 1745.00000   -9999.25   -9999.25   -9999.25   13.13330    0.23760   -9999.25   72.84090  129.66800    0.00560    3.58440   -9999.25   22.55850 2000.00000    5.26990   32.24680    0.11810   -9999.25
 1745.50000   -9999.25   -9999.25   -9999.25   13.41260    0.27470   -9999.25   73.47890  131.49390   -0.00320    3.81280   -9999.25   30.92090 2000.00000    9.23140   28.26140    0.09260   -9999.25
 1746.00000   -9999.25   -9999.25   -9999.25   13.02360    0.29220   -9999.25   73.57740  134.37270    0.00280    3.90600   -9999.25   22.61690 2000.00000   16.10130   24.27600    0.07100   -9999.25
 1746.50000   -9999.25   -9999.25   -9999.25   12.88040    0.29850   -9999.25   73.53680  136.23800    0.00030    4.00620   -9999.25   17.62770 2000.00000   29.00580   20.97000    0.05190   -9999.25
 1747.00000   -9999.25   -9999.25   -9999.25   12.89850    0.29950   -9999.25   73.49630  139.16350    0.00040    4.01400   -9999.25   17.19870 2000.00000   35.77680   20.85240    0.04030   -9999.25
 1747.50000   -9999.25   -9999.25   -9999.25   12.93130    0.29830   -9999.25   73.76490  142.28710    0.00050    3.97340   -9999.25   16.34240 2000.00000   22.92530   21.54120    0.05190   -9999.25
 1748.00000   -9999.25   -9999.25   -9999.25   13.37220    0.29590   -9999.25   74.83210  142.74600    0.00060    3.92180   -9999.25   15.47500 2000.00000   12.58190   22.38120    0.06650   -9999.25
 1748.50000   -9999.25   -9999.25   -9999.25   14.33690    0.29390   -9999.25   75.60550  141.69240    0.00060    3.86280   -9999.25   14.60770 2000.00000   12.64410   22.73410    0.07790   -9999.25
 1749.00000   -9999.25   -9999.25   -9999.25   13.12590    0.28680   -9999.25   75.18120  143.54050    0.00070    3.80390   -9999.25   13.70930 2000.00000   15.54170   22.26360    0.07490   -9999.25
 1749.50000   -9999.25   -9999.25   -9999.25   13.03040    0.27120   -9999.25   76.64230  143.10720    0.00080    3.74500   -9999.25   13.39680 2000.00000   15.34170   21.67560    0.07210   -9999.25
