~Version ---------------------------------------------------
VERS.   2.0 : CWLS log ASCII Standard -VERSION 2.0
WRAP.    NO : One line per depth step
DLM . SPACE : Column Data Section Delimiter
~Well ------------------------------------------------------
STRT .F                   28.0 : START DEPTH
STOP .F                 6649.0 : STOP DEPTH
STEP .F                    0.5 : STEP
NULL .                -9999.25 : NULL VALUE
COMP .                         : COMPANY
WELL .                         : WELL
FLD  .                         : FIELD
LOC  .                         : LOCATION
PROV .                         : PROVINCE
CNTY .                         : COUNTY
STAT .                         : STATE
CTRY .                         : COUNTRY
SRVC .                         : SERVICE COMPANY
DATE .                         : DATE
UWI  .                         : UNIQUE WELL ID
API  .                         : API NUMBER
SLAT .WGS84 2.4496475999999987 : SURFACE LATITUDE
SLON .WGS84  8.143142400000002 : SURFACE LONGITUDE
DATUM.F                    nan : DEPTH DATUM ELEV
~Curve Information -----------------------------------------
DEPT   .F     : 
AT30   .OHMM  : ARRAY INDUCTION TWO FOOT RESISTIVITY A30
AT60   .OHMM  : ARRAY INDUCTION TWO FOOT RESISTIVITY A60
AT90   .OHMM  : ARRAY INDUCTION TWO FOOT RESISTIVITY A90
CALR   .IN    : CALIPER FROM RESISTIVITY LOG
DPHZ_LS.DEC   : HGRD STANDARD RESOLUTION DENSITY POROSITY
DPHZ_SS.DEC   : HRGD STANDARD RESOLUTION DENSITY POROSITY
DTCO   .US/F  : DELTA-T COMPRESSIONAL
DTSM   .US/F  : DELTA-T SHEAR
HDRA   .G/C3  : HRDD SPINE AND RIBS DENSITY CORRECTION
PEFZ   .B/E   : HRDD STANDARD RESOLUTION FORMATION PHOTOELECTRIC FACTOR
RHOZ   .G/C3  : HRDD STANDARD RESOLUTION FORMATION DENSITY
RLA3   .OHMM  : APPARENT RESISTIVITY FROM COMPUTED FOCUSING MODE 3
RLA5   .OHMM  : APPARENT RESISTIVITY FROM COMPUTED FOCUSING MODE 5
RXOZ   .OHMM  : INVADED FORMATION RESISTIVITY FILTERED AT 18 INCHES
SGRR   .GAPI  : SPECTROSCOPY GAMMA RAY FROM RESISTIVITY LOG
TNPH_LS.DEC   : THERMAL NEUTRON POROSITY [LIMESTONE]
TNPH_SS.DEC   : THERMAL NEUTRON POROSITY [SANDSTONE]
~Params ----------------------------------------------------
~Other -----------------------------------------------------
~ASCII -----------------------------------------------------
# ...
 1381.00000   -9999.25   -9999.25   -9999.25   12.01300   -0.09950   -9999.25   52.40420   93.99120    0.00880    5.18220   -9999.25   65.43720 2000.00000  240.44220   -2.91810   -0.01780   -9999.25
 1381.50000   -9999.25   -9999.25   -9999.25   12.01340   -0.09950   -9999.25   52.40270   93.29570    0.01180    5.17160   -9999.25   65.94570 2000.00000  263.48890   -3.48470   -0.01590   -9999.25
 1382.00000   -9999.25   -9999.25   -9999.25   12.01380   -0.09950   -9999.25   52.40110   92.84810    0.00880    5.11470   -9999.25   67.23180 2000.00000  194.61260   -4.23310   -0.01820   -9999.25
 1382.50000   -9999.25   -9999.25   -9999.25   12.01420   -0.09950   -9999.25   52.36230   93.22890    0.00570    5.07550   -9999.25   68.03240 2000.00000  156.12690   -4.79980   -0.02020   -9999.25
 1383.00000   -9999.25   -9999.25   -9999.25   12.01460   -0.09940   -9999.25   52.40120   93.00940    0.00390    5.07570   -9999.25   70.72390 2000.00000  183.45090   -4.79980   -0.01980   -9999.25
 1383.50000   -9999.25   -9999.25   -9999.25   11.98770   -0.09940   -9999.25   52.42360   93.23250    0.00280    5.08370   -9999.25   70.99980 2000.00000  245.97590   -4.68210   -0.01880   -9999.25
 1384.00000   -9999.25   -9999.25   -9999.25   11.98440   -0.09940   -9999.25   52.42340   93.75070    0.00180    5.12260   -9999.25   70.56230 2000.00000  289.12320   -4.68210   -0.01780   -9999.25
 1384.50000   -9999.25   -9999.25   -9999.25   11.98110   -0.09940   -9999.25   52.42330   94.47270    0.00070    5.16150   -9999.25   70.97490 2000.00000  271.39560   -4.68210   -0.01680   -9999.25
 1385.00000   -9999.25   -9999.25   -9999.25   11.98650   -0.09940   -9999.25   52.42310   93.58200   -0.00180    5.20040   -9999.25   70.96380 2000.00000  241.88660   -4.68210   -0.01580   -9999.25
 1385.50000   -9999.25   -9999.25   -9999.25   12.01880   -0.09940   -9999.25   52.42300   93.26610   -0.00080    5.19150   -9999.25   70.95270 2000.00000  212.37760   -4.68210   -0.01490   -9999.25
 1386.00000   -9999.25   -9999.25   -9999.25   12.03900   -0.09930   -9999.25   52.42280   93.57240    0.00080    5.17170   -9999.25   71.28880 2000.00000  197.60920   -4.68210   -0.01510   -9999.25
 1386.50000   -9999.25   -9999.25   -9999.25   12.06030   -0.09930   -9999.25   52.42270   93.69970    0.00130    5.18360   -9999.25   70.97120 2000.00000  215.79400   -4.68210   -0.01560   -9999.25
 1387.00000   -9999.25   -9999.25   -9999.25   12.02130   -0.09930   -9999.25   52.42250   93.82700    0.00180    5.19550   -9999.25   72.34590 2000.00000  244.49800   -4.68210   -0.01610   -9999.25
 1387.50000   -9999.25   -9999.25   -9999.25   12.02810   -0.09930   -9999.25   52.51100   93.95430    0.00230    5.20740   -9999.25   73.34310 2000.00000  273.20190   -4.68210   -0.01660   -9999.25
 1388.00000   -9999.25   -9999.25   -9999.25   12.03500   -0.09930   -9999.25   52.67130   94.08160    0.00280    5.17440   -9999.25   74.34030 2000.00000  264.38110   -4.44690   -0.01530   -9999.25
 1388.50000   -9999.25   -9999.25   -9999.25   12.04180   -0.09920   -9999.25   52.72480   94.93060    0.00340    5.13160   -9999.25   74.92340 2000.00000  240.49340   -4.09410   -0.01380   -9999.25
 1389.00000   -9999.25   -9999.25   -9999.25   12.03270   -0.09920   -9999.25   52.92690   94.84260    0.00390    5.08600   -9999.25   75.38920 2000.00000  258.91700   -3.97650   -0.01270   -9999.25
 1389.50000   -9999.25   -9999.25   -9999.25   12.05150   -0.09920   -9999.25   53.30810   95.48240    0.00440    5.07880   -9999.25   75.85500 2000.00000  236.48120   -4.41750   -0.01410   -9999.25
 1390.00000   -9999.25   -9999.25   -9999.25   12.06300   -0.09920   -9999.25   54.03200   98.08860    0.00490    5.02190   -9999.25   76.32090 2000.00000  180.46470   -4.76050   -0.01570   -9999.25
 1390.50000   -9999.25   -9999.25   -9999.25   12.06520   -0.08200   -9999.25   54.52480   98.22690    0.01090    5.11740   -9999.25   76.78670 2000.00000  155.73680   -5.03500   -0.01340   -9999.25
 1391.00000   -9999.25   -9999.25   -9999.25   12.06520   -0.08310   -9999.25   54.92630   97.27150    0.01810    5.13710   -9999.25   76.87990 2000.00000  168.70670   -4.68210   -0.00970   -9999.25
 1391.50000   -9999.25   -9999.25   -9999.25   12.06530   -0.09030   -9999.25   55.23330   97.46160    0.02540    5.15300   -9999.25   75.08560 2000.00000  193.37560   -4.09410   -0.00580   -9999.25
 1392.00000   -9999.25   -9999.25   -9999.25   12.06530   -0.08820   -9999.25   55.56300   99.97490    0.02660    5.08500   -9999.25   70.59980  704.98280  204.26520   -3.31010   -0.00100   -9999.25
 1392.50000   -9999.25   -9999.25   -9999.25   12.07460   -0.07720   -9999.25   55.57880  100.13420    0.01780    5.03300   -9999.25   66.11400   94.98190   97.77050   -2.56530    0.01250   -9999.25
 1393.00000   -9999.25   -9999.25   -9999.25   12.09760   -0.07010   -9999.25   55.59450   99.75560    0.00910    4.97080   -9999.25   61.62820   59.45580   27.33550   -1.85970    0.02820   -9999.25
 1393.50000   -9999.25   -9999.25   -9999.25   12.10370   -0.08970   -9999.25   55.55620   99.92310    0.00460    4.95850   -9999.25   57.75420  238.98810   27.71560   -2.33010    0.03180   -9999.25
 1394.00000   -9999.25   -9999.25   -9999.25   12.11270   -0.09920   -9999.25   55.34360  100.78970    0.00330    4.99000   -9999.25   59.21250  422.71280  222.13050   -3.77750    0.01410   -9999.25
 1394.50000   -9999.25   -9999.25   -9999.25   12.17520   -0.09930   -9999.25   54.85710  100.19830    0.00290    5.01760   -9999.25   62.85810  623.20700  214.97400   -5.22490    0.00490   -9999.25
 1395.00000   -9999.25   -9999.25   -9999.25   12.23770   -0.09940   -9999.25   54.61150   99.66780    0.00250    5.08140   -9999.25   66.50380  768.53630  190.09650   -6.44620    0.00340   -9999.25
 1395.50000   -9999.25   -9999.25   -9999.25   12.24770   -0.09950   -9999.25   54.48270  100.02000    0.00210    5.08860   -9999.25   68.29790  768.53630  168.52360   -6.56380    0.00600   -9999.25
 1396.00000   -9999.25   -9999.25   -9999.25   12.27290   -0.09960   -9999.25   54.50290   98.86350    0.00170    4.99770   -9999.25   64.63610  521.18230  148.46440   -6.21100    0.00860   -9999.25
 1396.50000   -9999.25   -9999.25   -9999.25   12.32060   -0.09960   -9999.25   54.63100   98.87860    0.00300    4.94010   -9999.25   60.67380  373.60390  125.45880   -5.49150    0.00980   -9999.25
 1397.00000   -9999.25   -9999.25   -9999.25   12.32590   -0.09970   -9999.25   54.98210   98.76970    0.00640    4.94210   -9999.25   61.73520  420.02860  106.00420   -4.28090    0.01000   -9999.25
 1397.50000   -9999.25   -9999.25   -9999.25   12.34490   -0.09980   -9999.25   55.35700   98.53210    0.00770    4.94990   -9999.25   62.49610  325.05130  111.36290   -3.07030    0.00960   -9999.25
 1398.00000   -9999.25   -9999.25   -9999.25   12.36390   -0.09990   -9999.25   55.59690   98.69300    0.00610    5.00550   -9999.25   56.12310  230.07390   76.17510   -1.85970    0.01620   -9999.25
 1398.50000   -9999.25   -9999.25   -9999.25   12.37300   -0.10000   -9999.25   55.72860   99.45150    0.00450    5.03640   -9999.25   50.05730  135.09650   73.22850   -1.38920    0.02650   -9999.25
 1399.00000   -9999.25   -9999.25   -9999.25   12.36730   -0.10010   -9999.25   55.93170  100.41820    0.00300    4.89970   -9999.25   48.83830  135.93110   59.54180   -2.60450    0.03010   -9999.25
 1399.50000   -9999.25   -9999.25   -9999.25   12.36160   -0.10020   -9999.25   56.21600  100.91080    0.00140    4.86270   -9999.25   51.05490  156.63950   47.26720   -3.81970    0.03070   -9999.25
 1400.00000   -9999.25   -9999.25   -9999.25   12.33290   -0.10030   -9999.25   56.74180  101.69230   -0.00010    4.81180   -9999.25   51.05490  108.13330   42.56670   -5.03500    0.03370   -9999.25
 1400.50000   -9999.25   -9999.25   -9999.25   12.30430   -0.08360   -9999.25   57.21640  102.10600   -0.00060    4.79220   -9999.25   50.20040  111.62190   53.66360   -5.38780    0.03490   -9999.25
 1401.00000   -9999.25   -9999.25   -9999.25   12.27560   -0.07700   -9999.25   57.75170  102.14200    0.00140    4.73330   -9999.25   49.34590  179.53700   70.38710   -4.79980    0.03340   -9999.25
