~Version ---------------------------------------------------
VERS.   2.0 : CWLS log ASCII Standard -VERSION 2.0
WRAP.    NO : One line per depth step
DLM . SPACE : Column Data Section Delimiter
~Well ------------------------------------------------------
STRT .F                   28.0 : START DEPTH
STOP .F                 6649.0 : STOP DEPTH
STEP .F                    0.5 : STEP
NULL .                -9999.25 : NULL VALUE
COMP .                         : COMPANY
WELL .                         : WELL
FLD  .                         : FIELD
LOC  .                         : LOCATION
PROV .                         : PROVINCE
CNTY .                         : COUNTY
STAT .                         : STATE
CTRY .                         : COUNTRY
SRVC .                         : SERVICE COMPANY
DATE .                         : DATE
UWI  .                         : UNIQUE WELL ID
API  .                         : API NUMBER
SLAT .WGS84 2.4496475999999987 : SURFACE LATITUDE
SLON .WGS84  8.143142400000002 : SURFACE LONGITUDE
DATUM.F                    nan : DEPTH DATUM ELEV
~Curve Information -----------------------------------------
DEPT   .F     : 
AT30   .OHMM  : ARRAY INDUCTION TWO FOOT RESISTIVITY A30
AT60   .OHMM  : ARRAY INDUCTION TWO FOOT RESISTIVITY A60
AT90   .OHMM  : ARRAY INDUCTION TWO FOOT RESISTIVITY A90
CALR   .IN    : CALIPER FROM RESISTIVITY LOG
DPHZ_LS.DEC   : HGRD STANDARD RESOLUTION DENSITY POROSITY
DPHZ_SS.DEC   : HRGD STANDARD RESOLUTION DENSITY POROSITY
DTCO   .US/F  : DELTA-T COMPRESSIONAL
DTSM   .US/F  : DELTA-T SHEAR
HDRA   .G/C3  : HRDD SPINE AND RIBS DENSITY CORRECTION
PEFZ   .B/E   : HRDD STANDARD RESOLUTION FORMATION PHOTOELECTRIC FACTOR
RHOZ   .G/C3  : HRDD STANDARD RESOLUTION FORMATION DENSITY
RLA3   .OHMM  : APPARENT RESISTIVITY FROM COMPUTED FOCUSING MODE 3
RLA5   .OHMM  : APPARENT RESISTIVITY FROM COMPUTED FOCUSING MODE 5
RXOZ   .OHMM  : INVADED FORMATION RESISTIVITY FILTERED AT 18 INCHES
SGRR   .GAPI  : SPECTROSCOPY GAMMA RAY FROM RESISTIVITY LOG
TNPH_LS.DEC   : THERMAL NEUTRON POROSITY [LIMESTONE]
TNPH_SS.DEC   : THERMAL NEUTRON POROSITY [SANDSTONE]
~Params ----------------------------------------------------
~Other -----------------------------------------------------
~ASCII -----------------------------------------------------
# ...
 3779.50000   -9999.25   -9999.25   -9999.25   11.67140   -9999.25   -9999.25   54.07070   98.81460    0.00100    5.43910   -9999.25   47.67240  456.80830  125.68840   -0.94510   -0.01120   -9999.25
 3780.00000   -9999.25   -9999.25   -9999.25   11.67390   -9999.25   -9999.25   54.31330   99.61440    0.00100    5.49350   -9999.25   44.04910  375.08580  118.79560   -1.14670   -0.01090   -9999.25
 3780.50000   -9999.25   -9999.25   -9999.25   11.65970   -9999.25   -9999.25   54.18700   99.28740    0.00110    5.52220   -9999.25   41.29480  467.82550  111.90270   -1.14670   -0.01050   -9999.25
 3781.00000   -9999.25   -9999.25   -9999.25   11.61560   -9999.25   -9999.25   53.90480   98.96630    0.00110    5.55720   -9999.25   40.31910  504.98380  108.66130   -0.60070   -0.01090   -9999.25
 3781.50000   -9999.25   -9999.25   -9999.25   11.60090   -9999.25   -9999.25   53.87250   99.12110    0.00120    5.50640   -9999.25   40.72420  522.54110  112.49370   -0.05470   -0.01120   -9999.25
 3782.00000   -9999.25   -9999.25   -9999.25   11.58890   -9999.25   -9999.25   53.77690   99.64410    0.00120    5.42160   -9999.25   44.42640  724.90820  149.02050    0.49980   -0.01140   -9999.25
 3782.50000   -9999.25   -9999.25   -9999.25   11.59580   -9999.25   -9999.25   53.64780   99.87610    0.00130    5.34560   -9999.25   48.40660  808.98840  148.03070    1.08780   -0.01120   -9999.25
 3783.00000   -9999.25   -9999.25   -9999.25   11.60260   -9999.25   -9999.25   53.94750   99.66060    0.00130    5.28270   -9999.25   59.25890  685.38160  144.72170    1.67580   -0.01050   -9999.25
 3783.50000   -9999.25   -9999.25   -9999.25   11.60950   -9999.25   -9999.25   53.47230   99.31180    0.00140    5.20810   -9999.25   59.94500  744.99010  157.17990    2.02860   -0.01030   -9999.25
 3784.00000   -9999.25   -9999.25   -9999.25   11.61630   -9999.25   -9999.25   53.17560   98.81260    0.00140    5.11610   -9999.25   57.94940  770.67280  172.74340    1.55820   -0.00780   -9999.25
 3784.50000   -9999.25   -9999.25   -9999.25   11.62320   -9999.25   -9999.25   53.17200   98.65160    0.00150    5.09200   -9999.25   57.27400  447.83310   51.16060    0.97020   -0.00640   -9999.25
 3785.00000   -9999.25   -9999.25   -9999.25   11.63010   -9999.25   -9999.25   53.40410   97.72870    0.00150    5.14870   -9999.25   57.56390  124.99340   46.09790   -0.41390   -0.00340   -9999.25
 3785.50000   -9999.25   -9999.25   -9999.25   11.63690   -9999.25   -9999.25   53.39110   99.19090    0.00160    5.23030   -9999.25   59.17140  326.98580   45.23920   -2.40410   -0.00490   -9999.25
 3786.00000   -9999.25   -9999.25   -9999.25   11.64380   -9999.25   -9999.25   52.67430   96.74970    0.00160    5.29000   -9999.25   59.98550  665.15940  111.00130   -4.39440   -0.01380   -9999.25
 3786.50000   -9999.25   -9999.25   -9999.25   11.65060   -9999.25   -9999.25   52.54210   97.42710    0.00170    5.32640   -9999.25   60.79970 1211.47730  194.77360   -4.91000   -0.01630   -9999.25
 3787.00000   -9999.25   -9999.25   -9999.25   11.65750   -9999.25   -9999.25   52.48360   97.36870    0.00170    5.36330   -9999.25   61.61380 1896.55810  211.33250   -4.84470   -0.01730   -9999.25
 3787.50000   -9999.25   -9999.25   -9999.25   11.66440   -9999.25   -9999.25   52.58400   97.65970    0.00180    5.38430   -9999.25   62.42800 2000.00000  232.02670   -4.68130   -0.01670   -9999.25
 3788.00000   -9999.25   -9999.25   -9999.25   11.67120   -9999.25   -9999.25   52.55670   98.04360    0.00180    5.36020   -9999.25   63.24210 1754.61870  238.54030   -4.51800   -0.01590   -9999.25
 3788.50000   -9999.25   -9999.25   -9999.25   11.67810   -9999.25   -9999.25   52.39300   98.24570    0.00190    5.30250   -9999.25   64.05630 2000.00000  217.27560   -4.35470   -0.01510   -9999.25
 3789.00000   -9999.25   -9999.25   -9999.25   11.68490   -9999.25   -9999.25   52.42920   97.20310    0.00190    5.22040   -9999.25   64.87040 1976.06090  194.88250   -3.96920   -0.01400   -9999.25
 3789.50000   -9999.25   -9999.25   -9999.25   11.68910   -9999.25   -9999.25   52.69420   96.52840    0.00200    5.15180   -9999.25   65.20090 1195.12700  190.15880   -3.17260   -0.01400   -9999.25
 3790.00000   -9999.25   -9999.25   -9999.25   11.68910   -9999.25   -9999.25   52.71060   96.62330    0.00200    5.13080   -9999.25   65.20480 1673.22450  208.42880   -2.71750   -0.01360   -9999.25
 3790.50000   -9999.25   -9999.25   -9999.25   11.67580   -9999.25   -9999.25   52.62850   97.04460    0.00110    5.20350   -9999.25   65.23070 2000.00000  211.36430   -2.32920   -0.01230   -9999.25
 3791.00000   -9999.25   -9999.25   -9999.25   11.61040   -9999.25   -9999.25   52.62970   97.30000   -0.00010    5.27620   -9999.25   64.60820 2000.00000  202.32620   -1.98150   -0.01000   -9999.25
 3791.50000   -9999.25   -9999.25   -9999.25   11.54500   -9999.25   -9999.25   52.70980   97.46290   -0.00260    5.31850   -9999.25   62.68860 1597.38530  193.28810   -1.87010   -0.00790   -9999.25
 3792.00000   -9999.25   -9999.25   -9999.25   11.56140   -9999.25   -9999.25   52.88920   97.21820   -0.00380    5.35580   -9999.25   59.45080 1274.49960  176.71160   -1.89990   -0.00510   -9999.25
 3792.50000   -9999.25   -9999.25   -9999.25   11.57770   -9999.25   -9999.25   53.14680   96.97310   -0.00480    5.40830   -9999.25   56.21310  602.06300  150.62160   -1.96730   -0.00150   -9999.25
 3793.00000   -9999.25   -9999.25   -9999.25   11.57310   -9999.25   -9999.25   52.83090   96.57800   -0.00280    5.46740   -9999.25   53.62600  323.44960  129.12050   -2.03470   -0.00040   -9999.25
 3793.50000   -9999.25   -9999.25   -9999.25   11.56850   -9999.25   -9999.25   52.94560   96.84490   -0.00020    5.57220   -9999.25   57.67120  787.16200  143.59060   -2.10210   -0.00080   -9999.25
 3794.00000   -9999.25   -9999.25   -9999.25   11.57260   -9999.25   -9999.25   52.71010   96.27490   -0.00140    5.70630   -9999.25   60.40100 1200.92460  202.92010   -2.13130   -0.00160   -9999.25
 3794.50000   -9999.25   -9999.25   -9999.25   11.56410   -9999.25   -9999.25   52.32370   95.85070   -0.00360    5.75990   -9999.25   61.17040 1298.16810  218.04510   -2.09010   -0.00140   -9999.25
 3795.00000   -9999.25   -9999.25   -9999.25   11.54810   -9999.25   -9999.25   52.36100   95.45990    0.00070    5.71590   -9999.25   60.93920 1305.96450  193.75850   -1.90740   -0.00110   -9999.25
 3795.50000   -9999.25   -9999.25   -9999.25   11.57100   -9999.25   -9999.25   52.47890   96.20590    0.02840    5.69760   -9999.25   60.70800 1393.00520   89.04470   -1.79540   -0.00090   -9999.25
 3796.00000   -9999.25   -9999.25   -9999.25   11.59390   -9999.25   -9999.25   52.46400   97.63860    0.05240    5.74970   -9999.25   60.47680 1136.39980   57.87320   -2.03570   -0.00050   -9999.25
 3796.50000   -9999.25   -9999.25   -9999.25   11.61680   -9999.25   -9999.25   52.56350   96.54810    0.06310    5.81900   -9999.25   60.24550  879.79430   93.09360   -2.39360    0.00000   -9999.25
 3797.00000   -9999.25   -9999.25   -9999.25   11.63970   -9999.25   -9999.25   52.80120   95.80170    0.04910    5.88830   -9999.25   60.01430  880.29200  151.60260   -2.51690    0.00100   -9999.25
 3797.50000   -9999.25   -9999.25   -9999.25   11.66260   -9999.25   -9999.25   53.20850   95.13290    0.02840    5.91550   -9999.25   59.78310  783.48160  150.30820   -0.65940    0.00560   -9999.25
 3798.00000   -9999.25   -9999.25   -9999.25   11.68550   -9999.25   -9999.25   53.26950   94.75150    0.01470    5.89390   -9999.25   59.64980  483.76680  132.34020    1.37060    0.00970   -9999.25
 3798.50000   -9999.25   -9999.25   -9999.25   11.68530   -9999.25   -9999.25   53.56750   95.19010    0.00730    5.87220   -9999.25   60.25790  401.80080  124.56230    2.76700    0.01180   -9999.25
 3799.00000   -9999.25   -9999.25   -9999.25   11.66620   -9999.25   -9999.25   53.69880   96.00410    0.00210    5.81330   -9999.25   64.27280  656.36080  125.21680    2.99810    0.01240   -9999.25
 3799.50000   -9999.25   -9999.25   -9999.25   11.61900   -9999.25   -9999.25   53.78220   96.95220    0.00520    5.74510   -9999.25   64.17340  936.83570  146.34380    2.21070    0.00900   -9999.25
