~Version ---------------------------------------------------
VERS.   2.0 : CWLS log ASCII Standard -VERSION 2.0
WRAP.    NO : One line per depth step
DLM . SPACE : Column Data Section Delimiter
~Well ------------------------------------------------------
STRT .F                   28.0 : START DEPTH
STOP .F                 6649.0 : STOP DEPTH
STEP .F                    0.5 : STEP
NULL .                -9999.25 : NULL VALUE
COMP .                         : COMPANY
WELL .                         : WELL
FLD  .                         : FIELD
LOC  .                         : LOCATION
PROV .                         : PROVINCE
CNTY .                         : COUNTY
STAT .                         : STATE
CTRY .                         : COUNTRY
SRVC .                         : SERVICE COMPANY
DATE .                         : DATE
UWI  .                         : UNIQUE WELL ID
API  .                         : API NUMBER
SLAT .WGS84 2.4496475999999987 : SURFACE LATITUDE
SLON .WGS84  8.143142400000002 : SURFACE LONGITUDE
DATUM.F                    nan : DEPTH DATUM ELEV
~Curve Information -----------------------------------------
DEPT   .F     : 
AT30   .OHMM  : ARRAY INDUCTION TWO FOOT RESISTIVITY A30
AT60   .OHMM  : ARRAY INDUCTION TWO FOOT RESISTIVITY A60
AT90   .OHMM  : ARRAY INDUCTION TWO FOOT RESISTIVITY A90
CALR   .IN    : CALIPER FROM RESISTIVITY LOG
DPHZ_LS.DEC   : HGRD STANDARD RESOLUTION DENSITY POROSITY
DPHZ_SS.DEC   : HRGD STANDARD RESOLUTION DENSITY POROSITY
DTCO   .US/F  : DELTA-T COMPRESSIONAL
DTSM   .US/F  : DELTA-T SHEAR
HDRA   .G/C3  : HRDD SPINE AND RIBS DENSITY CORRECTION
PEFZ   .B/E   : HRDD STANDARD RESOLUTION FORMATION PHOTOELECTRIC FACTOR
RHOZ   .G/C3  : HRDD STANDARD RESOLUTION FORMATION DENSITY
RLA3   .OHMM  : APPARENT RESISTIVITY FROM COMPUTED FOCUSING MODE 3
RLA5   .OHMM  : APPARENT RESISTIVITY FROM COMPUTED FOCUSING MODE 5
RXOZ   .OHMM  : INVADED FORMATION RESISTIVITY FILTERED AT 18 INCHES
SGRR   .GAPI  : SPECTROSCOPY GAMMA RAY FROM RESISTIVITY LOG
TNPH_LS.DEC   : THERMAL NEUTRON POROSITY [LIMESTONE]
TNPH_SS.DEC   : THERMAL NEUTRON POROSITY [SANDSTONE]
~Params ----------------------------------------------------
~Other -----------------------------------------------------
~ASCII -----------------------------------------------------
# ...
 2754.50000   -9999.25   -9999.25   -9999.25   16.27790   -9999.25   -9999.25   75.37170  131.00070    0.02490    4.40410   -9999.25   18.70610 2000.00000    1.83790    6.63170   -0.01540   -9999.25
 2755.00000   -9999.25   -9999.25   -9999.25   16.19120   -9999.25   -9999.25   75.78990  130.68090    0.02240    4.41290   -9999.25   18.89160 2000.00000    1.78520    7.35280   -0.01400   -9999.25
 2755.50000   -9999.25   -9999.25   -9999.25   15.52490   -9999.25   -9999.25   75.48170  130.60180    0.01640    4.46310   -9999.25   21.70210 2000.00000   28.37040    7.36680   -0.01780   -9999.25
 2756.00000   -9999.25   -9999.25   -9999.25   14.99020   -9999.25   -9999.25   75.23220  130.28190    0.01040    4.56810   -9999.25   22.58840 2000.00000   72.55930    5.50070   -0.02170   -9999.25
 2756.50000   -9999.25   -9999.25   -9999.25   13.11020   -9999.25   -9999.25   75.08240  129.87840    0.00720    4.62050   -9999.25   19.32060 2000.00000   90.68100    3.55630   -0.02560   -9999.25
 2757.00000   -9999.25   -9999.25   -9999.25   12.88660   -9999.25   -9999.25   73.95920  129.00370    0.00560    4.61220   -9999.25   16.05280 2000.00000   76.45700    2.82390   -0.02690   -9999.25
 2757.50000   -9999.25   -9999.25   -9999.25   12.90040   -9999.25   -9999.25   72.25410  127.21660    0.00440    4.59750   -9999.25   16.13220 2000.00000   62.94170    2.72180   -0.02720   -9999.25
 2758.00000   -9999.25   -9999.25   -9999.25   12.92300   -9999.25   -9999.25   70.79510  125.62660    0.00390    4.58280   -9999.25   18.07630 2000.00000   48.16340    5.22090   -0.02870   -9999.25
 2758.50000   -9999.25   -9999.25   -9999.25   12.93220   -9999.25   -9999.25   69.70540  123.47530    0.00460    4.56800   -9999.25   21.87130 2000.00000   33.38510    9.41500   -0.03120   -9999.25
 2759.00000   -9999.25   -9999.25   -9999.25   12.93270   -9999.25   -9999.25   69.91310  122.26370    0.00630    4.55540   -9999.25   28.14080 2000.00000   27.47370   10.38110   -0.03220   -9999.25
 2759.50000   -9999.25   -9999.25   -9999.25   12.92410   -9999.25   -9999.25   69.42760  122.04210    0.00800    4.54340   -9999.25   33.65090 2000.00000   33.03880    8.17670   -0.03120   -9999.25
 2760.00000   -9999.25   -9999.25   -9999.25   12.90150   -9999.25   -9999.25   69.86590  122.62480    0.00970    4.52900   -9999.25   33.71420 2000.00000   37.49090    5.97230   -0.02720   -9999.25
 2760.50000   -9999.25   -9999.25   -9999.25   12.87900   -9999.25   -9999.25   70.71170  123.48250    0.01150    4.51320   -9999.25   31.52150 2000.00000   27.08010    5.39900   -0.01840   -9999.25
 2761.00000   -9999.25   -9999.25   -9999.25   12.85640   -9999.25   -9999.25   72.33420  123.98200    0.01140    4.49740   -9999.25   29.32880 2000.00000   23.72460    5.49340   -0.01590   -9999.25
 2761.50000   -9999.25   -9999.25   -9999.25   12.86110   -9999.25   -9999.25   72.26810  124.00120    0.00840    4.48400   -9999.25   30.22650 2000.00000   22.46550    5.35880   -0.01490   -9999.25
 2762.00000   -9999.25   -9999.25   -9999.25   12.75490   -9999.25   -9999.25   70.49640  124.00160    0.00540    4.49340   -9999.25   30.98620 1272.81560   35.87330    3.18320   -0.02190   -9999.25
 2762.50000   -9999.25   -9999.25   -9999.25   12.74970   -9999.25   -9999.25   72.70930  124.65950    0.00370    4.55340   -9999.25   29.74100 1984.45650   49.28110    1.21020   -0.02880   -9999.25
 2763.00000   -9999.25   -9999.25   -9999.25   12.75930   -9999.25   -9999.25   72.57300  124.82490    0.00270    4.61990   -9999.25   28.49570 2000.00000   70.28700   -0.76280   -0.03680   -9999.25
 2763.50000   -9999.25   -9999.25   -9999.25   12.76890   -9999.25   -9999.25   70.34390  124.12510    0.00230    4.65750   -9999.25   27.25050 2000.00000   82.33950   -2.73570   -0.03800   -9999.25
 2764.00000   -9999.25   -9999.25   -9999.25   12.84870   -9999.25   -9999.25   67.53610  122.88990    0.00230    4.72190   -9999.25   26.49530 2000.00000   68.48570   -2.75650   -0.03920   -9999.25
 2764.50000   -9999.25   -9999.25   -9999.25   12.94430   -9999.25   -9999.25   67.84030  121.87630    0.00390    4.70960   -9999.25   35.60560 2000.00000   47.39450   -1.60350   -0.03940   -9999.25
 2765.00000   -9999.25   -9999.25   -9999.25   12.97190   -9999.25   -9999.25   67.53420  120.31420    0.00610    4.67090   -9999.25   42.39740 2000.00000   43.18810    0.73380   -0.03950   -9999.25
 2765.50000   -9999.25   -9999.25   -9999.25   12.98350   -9999.25   -9999.25   66.85130  119.21020    0.00680    4.63800   -9999.25   46.71480 2000.00000   65.69870    3.78670   -0.03960   -9999.25
 2766.00000   -9999.25   -9999.25   -9999.25   13.05210   -9999.25   -9999.25   66.95710  119.16980    0.00720    4.59380   -9999.25   51.03220 2000.00000   68.09380    4.47330   -0.03770   -9999.25
 2766.50000   -9999.25   -9999.25   -9999.25   13.10480   -9999.25   -9999.25   69.38660  117.68430    0.01000    4.55830   -9999.25   53.05380 2000.00000   44.08960    4.89140   -0.03530   -9999.25
 2767.00000   -9999.25   -9999.25   -9999.25   13.03270   -9999.25   -9999.25   68.24390  117.98190    0.02060    4.55990   -9999.25   54.82230 2000.00000   18.23640    5.66910   -0.03490   -9999.25
 2767.50000   -9999.25   -9999.25   -9999.25   12.92620   -9999.25   -9999.25   68.19960  118.47130    0.03080    4.58100   -9999.25   54.83880 2000.00000    7.78110    6.44670   -0.03620   -9999.25
 2768.00000   -9999.25   -9999.25   -9999.25   12.81960   -9999.25   -9999.25   69.91170  118.51850    0.03930    4.61380   -9999.25   51.35950 2000.00000    6.16680    7.45070   -0.03560   -9999.25
 2768.50000   -9999.25   -9999.25   -9999.25   12.71300   -9999.25   -9999.25   68.95210  118.35100    0.04260    4.64910   -9999.25   47.88010 2000.00000    8.20260   14.47100   -0.02730   -9999.25
 2769.00000   -9999.25   -9999.25   -9999.25   12.60640   -9999.25   -9999.25   68.40560  118.43750    0.04310    4.63800   -9999.25   43.96640 2000.00000   10.63210   21.60490   -0.01660   -9999.25
 2769.50000   -9999.25   -9999.25   -9999.25   12.49990   -9999.25   -9999.25   69.97970  118.56560    0.03890    4.61110   -9999.25   41.19920 2000.00000   11.86730   39.88800   -0.00580   -9999.25
 2770.00000   -9999.25   -9999.25   -9999.25   12.41460   -9999.25   -9999.25   70.11770  118.70690    0.03590    4.58420   -9999.25   38.51200 2000.00000   15.83490   44.24090   -0.01620   -9999.25
 2770.50000   -9999.25   -9999.25   -9999.25   12.38450   -9999.25   -9999.25   69.19660  118.72990    0.03260    4.58730   -9999.25   37.76780    0.20670   24.93190   31.31760   -0.03320   -9999.25
 2771.00000   -9999.25   -9999.25   -9999.25   12.59720   -9999.25   -9999.25   68.47800  118.90830    0.01730    4.63540   -9999.25   38.79420    0.20070   30.54310   15.58340   -0.04360   -9999.25
 2771.50000   -9999.25   -9999.25   -9999.25   12.64170   -9999.25   -9999.25   69.65400  119.22000    0.01800    4.68360   -9999.25   40.87980    0.20070   24.02200   10.45080   -0.04510   -9999.25
 2772.00000   -9999.25   -9999.25   -9999.25   12.64750   -9999.25   -9999.25   69.95100  119.62350    0.01510    4.66520   -9999.25   42.96550 1525.58480   22.17600    5.06260   -0.04610   -9999.25
 2772.50000   -9999.25   -9999.25   -9999.25   12.63710   -9999.25   -9999.25   69.61210  120.67120    0.01230    4.63950   -9999.25   44.26640 1886.26980   31.06770    1.77440   -0.04540   -9999.25
 2773.00000   -9999.25   -9999.25   -9999.25   12.68280   -9999.25   -9999.25   73.22960  124.99710    0.00800    4.58460   -9999.25   44.49370  764.26620   39.95950    0.08020   -0.04040   -9999.25
 2773.50000   -9999.25   -9999.25   -9999.25   12.68400   -9999.25   -9999.25   74.33890  126.72690    0.00510    4.52980   -9999.25   43.85070  335.50200   48.85130   -1.06090   -0.03320   -9999.25
 2774.00000   -9999.25   -9999.25   -9999.25   12.67930   -9999.25   -9999.25   74.79260  128.44960   -0.00320    4.47490   -9999.25   28.22660  175.07470   21.01730   -0.69890   -0.00030   -9999.25
 2774.50000   -9999.25   -9999.25   -9999.25   12.68970   -9999.25   -9999.25   75.12330  130.17240   -0.00840    4.46490   -9999.25   22.65450   21.41010    9.48880    6.01660    0.01750   -9999.25
