~Version ---------------------------------------------------
VERS.   2.0 : CWLS log ASCII Standard -VERSION 2.0
WRAP.    NO : One line per depth step
DLM . SPACE : Column Data Section Delimiter
~Well ------------------------------------------------------
STRT .F                   28.0 : START DEPTH
STOP .F                 6649.0 : STOP DEPTH
STEP .F                    0.5 : STEP
NULL .                -9999.25 : NULL VALUE
COMP .                         : COMPANY
WELL .                         : WELL
FLD  .                         : FIELD
LOC  .                         : LOCATION
PROV .                         : PROVINCE
CNTY .                         : COUNTY
STAT .                         : STATE
CTRY .                         : COUNTRY
SRVC .                         : SERVICE COMPANY
DATE .                         : DATE
UWI  .                         : UNIQUE WELL ID
API  .                         : API NUMBER
SLAT .WGS84 2.4496475999999987 : SURFACE LATITUDE
SLON .WGS84  8.143142400000002 : SURFACE LONGITUDE
DATUM.F                    nan : DEPTH DATUM ELEV
~Curve Information -----------------------------------------
DEPT   .F     : 
AT30   .OHMM  : ARRAY INDUCTION TWO FOOT RESISTIVITY A30
AT60   .OHMM  : ARRAY INDUCTION TWO FOOT RESISTIVITY A60
AT90   .OHMM  : ARRAY INDUCTION TWO FOOT RESISTIVITY A90
CALR   .IN    : CALIPER FROM RESISTIVITY LOG
DPHZ_LS.DEC   : HGRD STANDARD RESOLUTION DENSITY POROSITY
DPHZ_SS.DEC   : HRGD STANDARD RESOLUTION DENSITY POROSITY
DTCO   .US/F  : DELTA-T COMPRESSIONAL
DTSM   .US/F  : DELTA-T SHEAR
HDRA   .G/C3  : HRDD SPINE AND RIBS DENSITY CORRECTION
PEFZ   .B/E   : HRDD STANDARD RESOLUTION FORMATION PHOTOELECTRIC FACTOR
RHOZ   .G/C3  : HRDD STANDARD RESOLUTION FORMATION DENSITY
RLA3   .OHMM  : APPARENT RESISTIVITY FROM COMPUTED FOCUSING MODE 3
RLA5   .OHMM  : APPARENT RESISTIVITY FROM COMPUTED FOCUSING MODE 5
RXOZ   .OHMM  : INVADED FORMATION RESISTIVITY FILTERED AT 18 INCHES
SGRR   .GAPI  : SPECTROSCOPY GAMMA RAY FROM RESISTIVITY LOG
TNPH_LS.DEC   : THERMAL NEUTRON POROSITY [LIMESTONE]
TNPH_SS.DEC   : THERMAL NEUTRON POROSITY [SANDSTONE]
~Params ----------------------------------------------------
~Other -----------------------------------------------------
~ASCII -----------------------------------------------------
# ...
 3082.50000   -9999.25   -9999.25   -9999.25   12.03320   -0.00020   -9999.25   58.09310   95.12260    0.01100    4.98460   -9999.25   61.28550 2000.00000  155.30710   -3.58100   -0.01420   -9999.25
 3083.00000   -9999.25   -9999.25   -9999.25   11.97780    0.00080   -9999.25   58.78250   94.73420    0.00570    4.98300   -9999.25   55.29890 2000.00000  153.80600   -4.15610   -0.01360   -9999.25
 3083.50000   -9999.25   -9999.25   -9999.25   11.92230   -0.00120   -9999.25   59.45230   94.38800    0.00340    4.98140   -9999.25   49.15300 2000.00000  146.56610   -4.87710   -0.01080   -9999.25
 3084.00000   -9999.25   -9999.25   -9999.25   11.90420   -0.01190   -9999.25   59.53370   94.04180    0.00040    4.97980   -9999.25   45.46810 2000.00000  140.08650   -5.59810   -0.00730   -9999.25
 3084.50000   -9999.25   -9999.25   -9999.25   11.90930   -0.03290   -9999.25   59.16110   93.69560    0.01180    4.97830   -9999.25   47.58690 2000.00000  149.71280   -6.02840   -0.00710   -9999.25
 3085.00000   -9999.25   -9999.25   -9999.25   11.91800   -0.06160   -9999.25   58.58860   93.62500    0.02930    4.97670   -9999.25   51.70720 2000.00000  194.28200   -6.02380   -0.00920   -9999.25
 3085.50000   -9999.25   -9999.25   -9999.25   11.95320   -0.08440   -9999.25   57.75410   94.14920    0.04000    5.06810   -9999.25   59.00840 2000.00000  238.85130   -5.31250   -0.01190   -9999.25
 3086.00000   -9999.25   -9999.25   -9999.25   11.96960   -0.08900   -9999.25   56.92760   94.80150    0.03770    5.06360   -9999.25   66.05300 2000.00000  230.60390   -4.71940   -0.01420   -9999.25
 3086.50000   -9999.25   -9999.25   -9999.25   11.98590   -0.08210   -9999.25   56.64660   92.77250    0.03150    5.06500   -9999.25   69.21700 2000.00000  216.82800   -4.71370   -0.01650   -9999.25
 3087.00000   -9999.25   -9999.25   -9999.25   12.00230   -0.07170   -9999.25   56.21040   92.32610    0.03760    5.06640   -9999.25   70.60710 2000.00000  203.05200   -4.70800   -0.01670   -9999.25
 3087.50000   -9999.25   -9999.25   -9999.25   12.01060   -0.05400   -9999.25   55.46930   93.14670    0.03840    5.06780   -9999.25   69.08370 2000.00000  165.74420   -4.70340   -0.01370   -9999.25
 3088.00000   -9999.25   -9999.25   -9999.25   12.02320   -0.02400   -9999.25   54.54900   93.62990    0.03010    5.01880   -9999.25   67.56000 2000.00000  129.43170   -4.58010   -0.01000   -9999.25
 3088.50000   -9999.25   -9999.25   -9999.25   12.05330   -0.00580   -9999.25   53.58270   92.97610    0.02020    4.96530   -9999.25   68.23890 2000.00000  119.79410   -4.33980   -0.00570   -9999.25
 3089.00000   -9999.25   -9999.25   -9999.25   12.05400    0.00120   -9999.25   52.66540   91.96140    0.01490    4.89320   -9999.25   70.65030 2000.00000  144.06270   -4.09830    0.00150   -9999.25
 3089.50000   -9999.25   -9999.25   -9999.25   12.04050   -0.03520   -9999.25   52.57670   88.99780    0.00920    4.82120   -9999.25   69.75460 2000.00000  174.39320   -3.97550    0.00860   -9999.25
 3090.00000   -9999.25   -9999.25   -9999.25   12.02340   -0.06240   -9999.25   51.54180   85.27650    0.00670    4.74920   -9999.25   65.24320 2000.00000  167.46620   -3.85280    0.01570   -9999.25
 3090.50000   -9999.25   -9999.25   -9999.25   12.01040   -0.08920   -9999.25   53.63590   81.55510    0.00670    4.67710   -9999.25   62.16930 1512.23560  115.28780   -3.96910    0.02070   -9999.25
 3091.00000   -9999.25   -9999.25   -9999.25   12.00490   -0.09750   -9999.25   57.18760   80.06500    0.00400    4.60510   -9999.25   57.98980  999.20540   78.45950   -4.08670    0.01960   -9999.25
 3091.50000   -9999.25   -9999.25   -9999.25   12.00240   -0.09860   -9999.25   61.08950   83.82900    0.00730    4.60680   -9999.25   47.87150  486.17530   68.74780   -4.08680    0.01490   -9999.25
 3092.00000   -9999.25   -9999.25   -9999.25   11.99360   -0.02830   -9999.25   64.72830  103.51410    0.00330    4.69970   -9999.25   37.75320  160.06580   67.89610   -3.49870    0.02910   -9999.25
 3092.50000   -9999.25   -9999.25   -9999.25   12.01240    0.08960   -9999.25   68.91940  129.54380   -0.00440    4.89180   -9999.25   27.63490  114.33730   65.25460   -0.91150    0.10140   -9999.25
 3093.00000   -9999.25   -9999.25   -9999.25   12.08590    0.20760   -9999.25   69.73280  134.97530   -0.03880    5.09460   -9999.25   17.51660   68.60890   29.51480    2.30900    0.17370   -9999.25
 3093.50000   -9999.25   -9999.25   -9999.25   13.36900    0.30200   -9999.25   69.68380  134.89360   -0.03900    4.99600   -9999.25    7.39820   22.88040    4.60610    5.74670    0.20990   -9999.25
 3094.00000   -9999.25   -9999.25   -9999.25   14.32040    0.27340   -9999.25   69.08070  134.08960   -0.03470    4.64430   -9999.25   18.34080    4.52970   25.92220    8.61440    0.10140   -9999.25
 3094.50000   -9999.25   -9999.25   -9999.25   13.18520    0.22530   -9999.25   61.94930  124.34900   -0.01240    4.76440   -9999.25   72.68970   64.68310   61.37320    8.49680    0.00510   -9999.25
 3095.00000   -9999.25   -9999.25   -9999.25   12.27700    0.17720   -9999.25   61.85210  112.27390    0.00280    4.94670   -9999.25   96.30260  142.54970   84.40630    5.70140   -0.02410   -9999.25
 3095.50000   -9999.25   -9999.25   -9999.25   12.27550    0.14130   -9999.25   61.44160  100.19870    0.02040    5.12900   -9999.25   91.13470  265.01720   88.53840    2.35430   -0.02260   -9999.25
 3096.00000   -9999.25   -9999.25   -9999.25   12.26820    0.07820   -9999.25   60.91870  100.39070    0.03450    5.20190   -9999.25   84.67880  387.48470  164.05310   -0.67630   -0.01790   -9999.25
 3096.50000   -9999.25   -9999.25   -9999.25   12.23290    0.01090   -9999.25   60.03370  100.95730    0.03450    5.13030   -9999.25   74.49620 1406.92860  159.79650   -2.53440   -0.01400   -9999.25
 3097.00000   -9999.25   -9999.25   -9999.25   12.20990   -0.00750   -9999.25   60.28060  101.52400    0.02210    5.06010   -9999.25   59.76650 2000.00000  158.43120   -3.14590   -0.01480   -9999.25
 3097.50000   -9999.25   -9999.25   -9999.25   12.18930   -0.00170   -9999.25   59.85610  102.49600    0.00640    5.01790   -9999.25   52.44260 2000.00000  181.75220   -3.73400   -0.01630   -9999.25
 3098.00000   -9999.25   -9999.25   -9999.25   12.19840    0.00690   -9999.25   58.73830  101.68580    0.00060    5.01610   -9999.25   59.01620 2000.00000  170.20650   -4.32200   -0.01630   -9999.25
 3098.50000   -9999.25   -9999.25   -9999.25   12.22040   -0.00430   -9999.25   57.97360  101.10710    0.00850    4.98610   -9999.25   66.11640 2000.00000  136.56300   -4.91000   -0.01480   -9999.25
 3099.00000   -9999.25   -9999.25   -9999.25   12.23410   -0.01830   -9999.25   56.79010  101.02170    0.01540    5.04800   -9999.25   74.18080 2000.00000  135.19930   -5.26280   -0.01270   -9999.25
 3099.50000   -9999.25   -9999.25   -9999.25   12.26450   -0.03410   -9999.25   55.90770  101.23370    0.01690    5.03670   -9999.25   78.94350 2000.00000  135.98070   -5.26280   -0.01030   -9999.25
 3100.00000   -9999.25   -9999.25   -9999.25   12.27490   -0.04300   -9999.25   56.16220   99.60660    0.01190    4.99930   -9999.25   77.19890 2000.00000  137.17780   -5.26280   -0.00780   -9999.25
 3100.50000   -9999.25   -9999.25   -9999.25   12.29600   -0.05440   -9999.25   56.53590   98.10860    0.00910    4.94020   -9999.25   74.30160 2000.00000  120.39140   -4.91640   -0.00400   -9999.25
 3101.00000   -9999.25   -9999.25   -9999.25   12.31710   -0.07480   -9999.25   56.29770   98.22540    0.02130    4.97590   -9999.25   70.47800 2000.00000   97.80450   -4.80440   -0.00180   -9999.25
 3101.50000   -9999.25   -9999.25   -9999.25   12.29570   -0.08860   -9999.25   55.99050   98.08960    0.03690    5.04510   -9999.25   63.62620 2000.00000   74.35970   -4.45670   -0.00510   -9999.25
 3102.00000   -9999.25   -9999.25   -9999.25   12.24440   -0.09430   -9999.25   55.60600   97.67980    0.04600    5.08120   -9999.25   56.07080 2000.00000   97.11370   -4.46180   -0.00930   -9999.25
 3102.50000   -9999.25   -9999.25   -9999.25   12.21070   -0.08700   -9999.25   55.95280   96.70170    0.04690    5.03070   -9999.25   46.27470 2000.00000  133.19880   -4.58510   -0.01350   -9999.25
