~Version ---------------------------------------------------
VERS.   2.0 : CWLS log ASCII Standard -VERSION 2.0
WRAP.    NO : One line per depth step
DLM . SPACE : Column Data Section Delimiter
~Well ------------------------------------------------------
STRT .F                   28.0 : START DEPTH
STOP .F                 6649.0 : STOP DEPTH
STEP .F                    0.5 : STEP
NULL .                -9999.25 : NULL VALUE
COMP .                         : COMPANY
WELL .                         : WELL
FLD  .                         : FIELD
LOC  .                         : LOCATION
PROV .                         : PROVINCE
CNTY .                         : COUNTY
STAT .                         : STATE
CTRY .                         : COUNTRY
SRVC .                         : SERVICE COMPANY
DATE .                         : DATE
UWI  .                         : UNIQUE WELL ID
API  .                         : API NUMBER
SLAT .WGS84 2.4496475999999987 : SURFACE LATITUDE
SLON .WGS84  8.143142400000002 : SURFACE LONGITUDE
DATUM.F                    nan : DEPTH DATUM ELEV
~Curve Information -----------------------------------------
DEPT   .F     : 
AT30   .OHMM  : ARRAY INDUCTION TWO FOOT RESISTIVITY A30
AT60   .OHMM  : ARRAY INDUCTION TWO FOOT RESISTIVITY A60
AT90   .OHMM  : ARRAY INDUCTION TWO FOOT RESISTIVITY A90
CALR   .IN    : CALIPER FROM RESISTIVITY LOG
DPHZ_LS.DEC   : HGRD STANDARD RESOLUTION DENSITY POROSITY
DPHZ_SS.DEC   : HRGD STANDARD RESOLUTION DENSITY POROSITY
DTCO   .US/F  : DELTA-T COMPRESSIONAL
DTSM   .US/F  : DELTA-T SHEAR
HDRA   .G/C3  : HRDD SPINE AND RIBS DENSITY CORRECTION
PEFZ   .B/E   : HRDD STANDARD RESOLUTION FORMATION PHOTOELECTRIC FACTOR
RHOZ   .G/C3  : HRDD STANDARD RESOLUTION FORMATION DENSITY
RLA3   .OHMM  : APPARENT RESISTIVITY FROM COMPUTED FOCUSING MODE 3
RLA5   .OHMM  : APPARENT RESISTIVITY FROM COMPUTED FOCUSING MODE 5
RXOZ   .OHMM  : INVADED FORMATION RESISTIVITY FILTERED AT 18 INCHES
SGRR   .GAPI  : SPECTROSCOPY GAMMA RAY FROM RESISTIVITY LOG
TNPH_LS.DEC   : THERMAL NEUTRON POROSITY [LIMESTONE]
TNPH_SS.DEC   : THERMAL NEUTRON POROSITY [SANDSTONE]
~Params ----------------------------------------------------
~Other -----------------------------------------------------
~ASCII -----------------------------------------------------
# ...
 5542.50000   -9999.25   -9999.25   -9999.25    9.15730   -9999.25    0.07400   -9999.25   -9999.25   -9999.25    2.78720    2.53610    6.16770    6.60050    7.18790   78.92390   -9999.25    0.20680
 5543.00000   -9999.25   -9999.25   -9999.25    9.16230   -9999.25    0.06670   -9999.25   -9999.25   -9999.25    2.76500    2.53950    6.64390    7.15130    8.73110   86.20880   -9999.25    0.20970
 5543.50000   -9999.25   -9999.25   -9999.25    9.16410   -9999.25    0.07210   -9999.25   -9999.25   -9999.25    2.72070    2.51460    7.51280    8.49860    9.96570   92.03680   -9999.25    0.21830
 5544.00000   -9999.25   -9999.25   -9999.25    9.19330   -9999.25    0.09150   -9999.25   -9999.25   -9999.25    2.64230    2.48430    5.19620    6.61970    8.82120   91.63660   -9999.25    0.23810
 5544.50000   -9999.25   -9999.25   -9999.25    9.22940   -9999.25    0.11530   -9999.25   -9999.25   -9999.25    2.53780    2.45410    2.87970    4.08640    6.36560   78.09790   -9999.25    0.24380
 5545.00000   -9999.25   -9999.25   -9999.25    9.27130   -9999.25    0.13130   -9999.25   -9999.25   -9999.25    2.45420    2.42780    2.32090    2.79590    3.91010   64.02560   -9999.25    0.24120
 5545.50000   -9999.25   -9999.25   -9999.25    9.27730   -9999.25    0.13650   -9999.25   -9999.25   -9999.25    2.40840    2.42460    2.35380    2.33400    3.64660   56.68930   -9999.25    0.23860
 5546.00000   -9999.25   -9999.25   -9999.25    9.29560   -9999.25    0.13200   -9999.25   -9999.25   -9999.25    2.40150    2.43080    2.38670    2.14920    3.60620   54.02160   -9999.25    0.23600
 5546.50000   -9999.25   -9999.25   -9999.25    9.31400   -9999.25    0.13190   -9999.25   -9999.25   -9999.25    2.40810    2.43570    2.50740    2.21650    3.68830   54.68850   -9999.25    0.23050
 5547.00000   -9999.25   -9999.25   -9999.25    9.30140   -9999.25    0.13560   -9999.25   -9999.25   -9999.25    2.45900    2.42660    2.60190    2.40890    3.81940   54.55510   -9999.25    0.22670
 5547.50000   -9999.25   -9999.25   -9999.25    9.29380   -9999.25    0.12360   -9999.25   -9999.25   -9999.25    2.51300    2.44120    2.61800    2.46910    3.81780   54.68850   -9999.25    0.23230
 5548.00000   -9999.25   -9999.25   -9999.25    9.35000   -9999.25    0.11480   -9999.25   -9999.25   -9999.25    2.55620    2.45970    2.63020    2.49200    3.59590   52.48760   -9999.25    0.23730
 5548.50000   -9999.25   -9999.25   -9999.25    9.61470   -9999.25    0.11560   -9999.25   -9999.25   -9999.25    2.54160    2.44500    2.65050    2.52290    3.73340   51.35380   -9999.25    0.24110
 5549.00000   -9999.25   -9999.25   -9999.25    9.30940   -9999.25    0.12900   -9999.25   -9999.25   -9999.25    2.49700    2.42080    2.68330    2.65020    4.14250   52.15420   -9999.25    0.23790
 5549.50000   -9999.25   -9999.25   -9999.25    9.17120   -9999.25    0.14260   -9999.25   -9999.25   -9999.25    2.47870    2.40950    2.76730    2.77760    4.83950   52.82110   -9999.25    0.23440
 5550.00000   -9999.25   -9999.25   -9999.25    9.13620   -9999.25    0.13040   -9999.25   -9999.25   -9999.25    2.49990    2.45520    3.18950    3.10800    5.55780   52.82110   -9999.25    0.21520
 5550.50000   -9999.25   -9999.25   -9999.25    9.10120   -9999.25    0.11190   -9999.25   -9999.25   -9999.25    2.55320    2.49190    3.71380    3.93120    6.27620   51.06050   -9999.25    0.20320
 5551.00000   -9999.25   -9999.25   -9999.25    9.10180   -9999.25    0.09610   -9999.25   -9999.25   -9999.25    2.56020    2.49980    4.10790    5.20010    7.10330   51.08720   -9999.25    0.18600
 5551.50000   -9999.25   -9999.25   -9999.25    9.10510   -9999.25    0.09060   -9999.25   -9999.25   -9999.25    2.54600    2.49200    3.68170    5.04240    6.65990   52.40200   -9999.25    0.18810
 5552.00000   -9999.25   -9999.25   -9999.25    9.10830   -9999.25    0.10060   -9999.25   -9999.25   -9999.25    2.55420    2.46600    3.25150    3.50110    5.72590   52.68780   -9999.25    0.19730
 5552.50000   -9999.25   -9999.25   -9999.25    9.11160   -9999.25    0.11070   -9999.25   -9999.25   -9999.25    2.56150    2.46980    3.24090    3.35400    5.20270   52.88790   -9999.25    0.20120
 5553.00000   -9999.25   -9999.25   -9999.25    9.12250   -9999.25    0.10540   -9999.25   -9999.25   -9999.25    2.56470    2.48650    3.21310    3.35480    4.76910   54.40980   -9999.25    0.18930
 5553.50000   -9999.25   -9999.25   -9999.25    9.14490   -9999.25    0.09480   -9999.25   -9999.25   -9999.25    2.56660    2.50330    3.41910    3.77260    4.64790   59.01770   -9999.25    0.18390
 5554.00000   -9999.25   -9999.25   -9999.25    9.16720   -9999.25    0.08230   -9999.25   -9999.25   -9999.25    2.60700    2.52260    3.84070    4.16460    4.72470   63.62560   -9999.25    0.18140
 5554.50000   -9999.25   -9999.25   -9999.25    9.18360   -9999.25    0.07190   -9999.25   -9999.25   -9999.25    2.64670    2.54150    4.26230    5.09790    5.67100   64.95950   -9999.25    0.17710
 5555.00000   -9999.25   -9999.25   -9999.25    9.16390   -9999.25    0.06230   -9999.25   -9999.25   -9999.25    2.68420    2.55070    4.80420    6.43870    6.69280   69.43040   -9999.25    0.17410
 5555.50000   -9999.25   -9999.25   -9999.25    9.14120   -9999.25    0.05770   -9999.25   -9999.25   -9999.25    2.77080    2.55640    6.66960    7.77940    7.85970   75.60570   -9999.25    0.17890
 5556.00000   -9999.25   -9999.25   -9999.25    9.15690   -9999.25    0.05410   -9999.25   -9999.25   -9999.25    2.91840    2.56110    8.26360    9.12020    9.60770   81.78100   -9999.25    0.19010
 5556.50000   -9999.25   -9999.25   -9999.25    9.19610   -9999.25    0.05210   -9999.25   -9999.25   -9999.25    2.94090    2.55750    8.24050    9.12220   10.30840   87.95630   -9999.25    0.20090
 5557.00000   -9999.25   -9999.25   -9999.25    9.23530   -9999.25    0.05810   -9999.25   -9999.25   -9999.25    2.97090    2.54670    8.24190    8.78230   10.50340   94.13150   -9999.25    0.21720
 5557.50000   -9999.25   -9999.25   -9999.25    9.30110   -9999.25    0.06590   -9999.25   -9999.25   -9999.25    2.96930    2.53600    8.47580    8.74080   11.45690  100.30680   -9999.25    0.23210
 5558.00000   -9999.25   -9999.25   -9999.25    9.29770   -9999.25    0.07280   -9999.25   -9999.25   -9999.25    2.93240    2.52520    8.53000    8.74300   11.88670  112.00480   -9999.25    0.23300
 5558.50000   -9999.25   -9999.25   -9999.25    9.22020   -9999.25    0.07710   -9999.25   -9999.25   -9999.25    2.86190    2.51580    7.75870    9.01880   11.67170  110.53750   -9999.25    0.22540
 5559.00000   -9999.25   -9999.25   -9999.25    9.17350   -9999.25    0.08150   -9999.25   -9999.25   -9999.25    2.73150    2.50140    6.45260    7.95440    9.50750   99.59980   -9999.25    0.21590
 5559.50000   -9999.25   -9999.25   -9999.25    9.15400   -9999.25    0.08930   -9999.25   -9999.25   -9999.25    2.60110    2.48920    4.75100    5.97490    7.67370   81.38830   -9999.25    0.21860
 5560.00000   -9999.25   -9999.25   -9999.25    9.13450   -9999.25    0.10260   -9999.25   -9999.25   -9999.25    2.52810    2.46660    3.04940    3.99550    5.84000   69.93920   -9999.25    0.21850
 5560.50000   -9999.25   -9999.25   -9999.25    9.11510   -9999.25    0.11750   -9999.25   -9999.25   -9999.25    2.46950    2.44930    3.03080    3.12560    5.46730   58.67530   -9999.25    0.21470
 5561.00000   -9999.25   -9999.25   -9999.25    9.12320   -9999.25    0.12970   -9999.25   -9999.25   -9999.25    2.41080    2.43570    3.02790    3.10640    5.37280   54.75520   -9999.25    0.21130
 5561.50000   -9999.25   -9999.25   -9999.25    9.12540   -9999.25    0.13500   -9999.25   -9999.25   -9999.25    2.39060    2.42670    3.02070    3.12560    5.23760   53.08790   -9999.25    0.20820
 5562.00000   -9999.25   -9999.25   -9999.25    9.14730   -9999.25    0.13630   -9999.25   -9999.25   -9999.25    2.41380    2.42080    3.01360    3.16440    5.08970   55.55090   -9999.25    0.20460
 5562.50000   -9999.25   -9999.25   -9999.25    9.16930   -9999.25    0.13800   -9999.25   -9999.25   -9999.25    2.45100    2.41490    3.01210    3.16440    5.34420   56.08810   -9999.25    0.19480
