~Version ---------------------------------------------------
VERS.   2.0 : CWLS log ASCII Standard -VERSION 2.0
WRAP.    NO : One line per depth step
DLM . SPACE : Column Data Section Delimiter
~Well ------------------------------------------------------
STRT .F                   28.0 : START DEPTH
STOP .F                 6649.0 : STOP DEPTH
STEP .F                    0.5 : STEP
NULL .                -9999.25 : NULL VALUE
COMP .                         : COMPANY
WELL .                         : WELL
FLD  .                         : FIELD
LOC  .                         : LOCATION
PROV .                         : PROVINCE
CNTY .                         : COUNTY
STAT .                         : STATE
CTRY .                         : COUNTRY
SRVC .                         : SERVICE COMPANY
DATE .                         : DATE
UWI  .                         : UNIQUE WELL ID
API  .                         : API NUMBER
SLAT .WGS84 2.4496475999999987 : SURFACE LATITUDE
SLON .WGS84  8.143142400000002 : SURFACE LONGITUDE
DATUM.F                    nan : DEPTH DATUM ELEV
~Curve Information -----------------------------------------
DEPT   .F     : 
AT30   .OHMM  : ARRAY INDUCTION TWO FOOT RESISTIVITY A30
AT60   .OHMM  : ARRAY INDUCTION TWO FOOT RESISTIVITY A60
AT90   .OHMM  : ARRAY INDUCTION TWO FOOT RESISTIVITY A90
CALR   .IN    : CALIPER FROM RESISTIVITY LOG
DPHZ_LS.DEC   : HGRD STANDARD RESOLUTION DENSITY POROSITY
DPHZ_SS.DEC   : HRGD STANDARD RESOLUTION DENSITY POROSITY
DTCO   .US/F  : DELTA-T COMPRESSIONAL
DTSM   .US/F  : DELTA-T SHEAR
HDRA   .G/C3  : HRDD SPINE AND RIBS DENSITY CORRECTION
PEFZ   .B/E   : HRDD STANDARD RESOLUTION FORMATION PHOTOELECTRIC FACTOR
RHOZ   .G/C3  : HRDD STANDARD RESOLUTION FORMATION DENSITY
RLA3   .OHMM  : APPARENT RESISTIVITY FROM COMPUTED FOCUSING MODE 3
RLA5   .OHMM  : APPARENT RESISTIVITY FROM COMPUTED FOCUSING MODE 5
RXOZ   .OHMM  : INVADED FORMATION RESISTIVITY FILTERED AT 18 INCHES
SGRR   .GAPI  : SPECTROSCOPY GAMMA RAY FROM RESISTIVITY LOG
TNPH_LS.DEC   : THERMAL NEUTRON POROSITY [LIMESTONE]
TNPH_SS.DEC   : THERMAL NEUTRON POROSITY [SANDSTONE]
~Params ----------------------------------------------------
~Other -----------------------------------------------------
~ASCII -----------------------------------------------------
# ...
 4456.00000   -9999.25   -9999.25   -9999.25   12.21580    0.29890   -9999.25   68.49010  116.52790    0.01420    4.79870   -9999.25   73.14740 2000.00000   26.81970   -5.15250   -0.04770   -9999.25
 4456.50000   -9999.25   -9999.25   -9999.25   12.18850    0.29900   -9999.25   68.59810  117.05240    0.01170    4.77980   -9999.25   69.55720 2000.00000   32.73820   -5.12490   -0.04880   -9999.25
 4457.00000   -9999.25   -9999.25   -9999.25   12.17160    0.29900   -9999.25   68.78660  116.73680    0.00920    4.76100   -9999.25   66.41050 2000.00000   37.84100   -4.98650   -0.04980   -9999.25
 4457.50000   -9999.25   -9999.25   -9999.25   12.19340    0.29910   -9999.25   68.50760  116.10010    0.00590    4.74220   -9999.25   67.06370 2000.00000   40.53370   -4.84820   -0.05040   -9999.25
 4458.00000   -9999.25   -9999.25   -9999.25   12.17060    0.29920   -9999.25   67.22390  116.35240    0.00790    4.74750   -9999.25   68.40760 2000.00000   45.66070   -4.70980   -0.05070   -9999.25
 4458.50000   -9999.25   -9999.25   -9999.25   12.13440    0.29920   -9999.25   65.45710  116.75040    0.00970    4.83560   -9999.25   69.75160 2000.00000   47.61520   -4.68210   -0.04940   -9999.25
 4459.00000   -9999.25   -9999.25   -9999.25   12.13920    0.29930   -9999.25   67.36970  116.97590    0.01310    4.98880   -9999.25   68.52750 2000.00000   42.41560   -5.18610   -0.04660   -9999.25
 4459.50000   -9999.25   -9999.25   -9999.25   12.15210    0.29940   -9999.25   66.40160  116.71900    0.01790    5.08950   -9999.25   64.61260 2000.00000   37.42400   -5.85820   -0.04380   -9999.25
 4460.00000   -9999.25   -9999.25   -9999.25   12.13300    0.29940   -9999.25   65.62440  116.27720    0.02680    5.08780   -9999.25   60.69770 2000.00000   30.78110   -4.68210   -0.03660   -9999.25
 4460.50000   -9999.25   -9999.25   -9999.25   12.09410    0.21010   -9999.25   65.86050  115.71250    0.03580    5.08160   -9999.25   56.78280 1057.93990   23.71990   -4.65600   -0.03060   -9999.25
 4461.00000   -9999.25   -9999.25   -9999.25   12.07410    0.16000   -9999.25   65.53580  115.14900    0.04480    5.04190   -9999.25   52.86790 1516.45610   18.00710   -5.17870   -0.03160   -9999.25
 4461.50000   -9999.25   -9999.25   -9999.25   12.08580    0.17730   -9999.25   65.48490  114.76850    0.03190    4.92780   -9999.25   54.16340 1791.30590   18.86310   -5.62290   -0.03450   -9999.25
 4462.00000   -9999.25   -9999.25   -9999.25   12.09750    0.19470   -9999.25   65.53300  114.38430    0.02680    4.87440   -9999.25   63.29840 1650.71590   29.17300   -5.62290   -0.03750   -9999.25
 4462.50000   -9999.25   -9999.25   -9999.25   12.10660    0.22340   -9999.25   65.73430  114.05400    0.01720    4.81110   -9999.25   72.43340 2000.00000   37.79000   -5.27010   -0.04050   -9999.25
 4463.00000   -9999.25   -9999.25   -9999.25   12.11970    0.25500   -9999.25   65.96340  113.89480    0.01720    4.79190   -9999.25   73.74050 2000.00000   34.08650   -4.44690   -0.04330   -9999.25
 4463.50000   -9999.25   -9999.25   -9999.25   12.23430    0.28650   -9999.25   66.31540  113.66790    0.01170    4.76950   -9999.25   76.76450 2000.00000   32.90950   -3.85890   -0.04590   -9999.25
 4464.00000   -9999.25   -9999.25   -9999.25   12.19340    0.29910   -9999.25   66.52280  113.71300    0.00880    4.74500   -9999.25   79.78850 2000.00000   30.63730   -3.62370   -0.04750   -9999.25
 4464.50000   -9999.25   -9999.25   -9999.25   12.14530    0.29910   -9999.25   67.44560  114.16180    0.00510    4.72060   -9999.25   82.81250 2000.00000   28.63200   -3.62370   -0.04940   -9999.25
 4465.00000   -9999.25   -9999.25   -9999.25   12.17350    0.29910   -9999.25   67.81730  114.61720    0.00470    4.69190   -9999.25   85.83650 2000.00000   32.34180   -3.97650   -0.05090   -9999.25
 4465.50000   -9999.25   -9999.25   -9999.25   12.23340    0.29910   -9999.25   67.93080  115.29270    0.00710    4.74820   -9999.25   89.33880 2000.00000   39.73700   -4.79970   -0.05050   -9999.25
 4466.00000   -9999.25   -9999.25   -9999.25   12.26480    0.29920   -9999.25   67.84820  116.06440    0.01270    4.80960   -9999.25   93.56570 2000.00000   35.62090   -5.27010   -0.05000   -9999.25
 4466.50000   -9999.25   -9999.25   -9999.25   12.28710    0.29920   -9999.25   67.95780  116.70650    0.01580    4.82420   -9999.25   97.79260 2000.00000   25.53460   -5.15250   -0.04910   -9999.25
 4467.00000   -9999.25   -9999.25   -9999.25   12.30940    0.29920   -9999.25   68.09840  117.07080    0.01580    4.78980   -9999.25  102.01940 2000.00000   19.75610   -4.79970   -0.04850   -9999.25
 4467.50000   -9999.25   -9999.25   -9999.25   12.34690    0.29920   -9999.25   67.88780  117.06340    0.01480    4.74320   -9999.25  101.68280 2000.00000   22.91100   -4.44690   -0.04880   -9999.25
 4468.00000   -9999.25   -9999.25   -9999.25   12.32750    0.29920   -9999.25   67.99740  117.30090    0.01010    4.72450   -9999.25   99.63120 2000.00000   30.91730   -4.44690   -0.04910   -9999.25
 4468.50000   -9999.25   -9999.25   -9999.25   12.23460    0.29920   -9999.25   67.97390  117.21700    0.00710    4.73350   -9999.25   97.98040 2000.00000   38.82060   -4.91730   -0.04950   -9999.25
 4469.00000   -9999.25   -9999.25   -9999.25   12.40170    0.29920   -9999.25   68.22370  117.47840    0.00770    4.74250   -9999.25  106.97090 2000.00000   44.75280   -5.15250   -0.05020   -9999.25
 4469.50000   -9999.25   -9999.25   -9999.25   12.67760    0.29920   -9999.25   68.47360  117.84780    0.01380    4.75140   -9999.25  118.10140 2000.00000   36.32600   -5.15250   -0.05010   -9999.25
 4470.00000   -9999.25   -9999.25   -9999.25   12.44200    0.29920   -9999.25   68.72340  118.08880    0.01710    4.76040   -9999.25  131.27730 2000.00000   24.74640   -5.15250   -0.05020   -9999.25
 4470.50000   -9999.25   -9999.25   -9999.25   12.44940    0.29920   -9999.25   68.80710  118.13730    0.02750    4.76940   -9999.25  140.06220 2000.00000   11.06480   -4.81340   -0.05030   -9999.25
 4471.00000   -9999.25   -9999.25   -9999.25   12.45370    0.29920   -9999.25   68.95840  118.23370    0.02690    4.77890   -9999.25  154.84980 2000.00000    8.45770   -4.58720   -0.05050   -9999.25
 4471.50000   -9999.25   -9999.25   -9999.25   12.34210    0.29920   -9999.25   69.20010  118.61320    0.02320    4.78910   -9999.25  157.09180 2000.00000   20.61040   -5.04530   -0.05060   -9999.25
 4472.00000   -9999.25   -9999.25   -9999.25   12.15550    0.29920   -9999.25   69.33460  118.99260    0.01940    4.83620   -9999.25  146.66050 2000.00000   44.07200   -6.11450   -0.05020   -9999.25
 4472.50000   -9999.25   -9999.25   -9999.25   12.09310    0.29920   -9999.25   69.37260  119.37470    0.01570    4.88330   -9999.25  142.20450 2000.00000   39.26530   -6.97210   -0.05060   -9999.25
 4473.00000   -9999.25   -9999.25   -9999.25   12.06880    0.29920   -9999.25   69.59790  119.70830    0.01420    4.89150   -9999.25  131.44130 2000.00000   34.70910   -6.90860   -0.05080   -9999.25
 4473.50000   -9999.25   -9999.25   -9999.25   12.06170    0.29920   -9999.25   69.50110  119.35780    0.01310    4.86770   -9999.25  119.68340 2000.00000   34.22260   -6.54570   -0.05140   -9999.25
 4474.00000   -9999.25   -9999.25   -9999.25   12.05320    0.29930   -9999.25   69.39250  119.17720    0.01020    4.82570   -9999.25  115.58360 2000.00000   39.19270   -6.18280   -0.05160   -9999.25
 4474.50000   -9999.25   -9999.25   -9999.25   12.03970    0.29930   -9999.25   69.39270  118.95890    0.00630    4.78780   -9999.25  111.29420 2000.00000   48.27970   -5.72140   -0.05190   -9999.25
 4475.00000   -9999.25   -9999.25   -9999.25   12.02610    0.29930   -9999.25   69.32620  118.65290    0.00470    4.78430   -9999.25  107.79290 2000.00000   61.18430   -5.49750   -0.05220   -9999.25
 4475.50000   -9999.25   -9999.25   -9999.25   12.02400    0.29930   -9999.25   69.15950  118.61380    0.00160    4.78090   -9999.25  110.54140 2000.00000   72.60340   -5.72920   -0.05260   -9999.25
 4476.00000   -9999.25   -9999.25   -9999.25   12.04220    0.29930   -9999.25   69.08170  118.71670    0.00160    4.76830   -9999.25  113.63710 2000.00000   71.02030   -6.25430   -0.05250   -9999.25
