~Version ---------------------------------------------------
VERS.   2.0 : CWLS log ASCII Standard -VERSION 2.0
WRAP.    NO : One line per depth step
DLM . SPACE : Column Data Section Delimiter
~Well ------------------------------------------------------
STRT .F                   28.0 : START DEPTH
STOP .F                 6649.0 : STOP DEPTH
STEP .F                    0.5 : STEP
NULL .                -9999.25 : NULL VALUE
COMP .                         : COMPANY
WELL .                         : WELL
FLD  .                         : FIELD
LOC  .                         : LOCATION
PROV .                         : PROVINCE
CNTY .                         : COUNTY
STAT .                         : STATE
CTRY .                         : COUNTRY
SRVC .                         : SERVICE COMPANY
DATE .                         : DATE
UWI  .                         : UNIQUE WELL ID
API  .                         : API NUMBER
SLAT .WGS84 2.4496475999999987 : SURFACE LATITUDE
SLON .WGS84  8.143142400000002 : SURFACE LONGITUDE
DATUM.F                    nan : DEPTH DATUM ELEV
~Curve Information -----------------------------------------
DEPT   .F     : 
AT30   .OHMM  : ARRAY INDUCTION TWO FOOT RESISTIVITY A30
AT60   .OHMM  : ARRAY INDUCTION TWO FOOT RESISTIVITY A60
AT90   .OHMM  : ARRAY INDUCTION TWO FOOT RESISTIVITY A90
CALR   .IN    : CALIPER FROM RESISTIVITY LOG
DPHZ_LS.DEC   : HGRD STANDARD RESOLUTION DENSITY POROSITY
DPHZ_SS.DEC   : HRGD STANDARD RESOLUTION DENSITY POROSITY
DTCO   .US/F  : DELTA-T COMPRESSIONAL
DTSM   .US/F  : DELTA-T SHEAR
HDRA   .G/C3  : HRDD SPINE AND RIBS DENSITY CORRECTION
PEFZ   .B/E   : HRDD STANDARD RESOLUTION FORMATION PHOTOELECTRIC FACTOR
RHOZ   .G/C3  : HRDD STANDARD RESOLUTION FORMATION DENSITY
RLA3   .OHMM  : APPARENT RESISTIVITY FROM COMPUTED FOCUSING MODE 3
RLA5   .OHMM  : APPARENT RESISTIVITY FROM COMPUTED FOCUSING MODE 5
RXOZ   .OHMM  : INVADED FORMATION RESISTIVITY FILTERED AT 18 INCHES
SGRR   .GAPI  : SPECTROSCOPY GAMMA RAY FROM RESISTIVITY LOG
TNPH_LS.DEC   : THERMAL NEUTRON POROSITY [LIMESTONE]
TNPH_SS.DEC   : THERMAL NEUTRON POROSITY [SANDSTONE]
~Params ----------------------------------------------------
~Other -----------------------------------------------------
~ASCII -----------------------------------------------------
# ...
 4107.50000   -9999.25   -9999.25   -9999.25   11.59750   -9999.25   -9999.25   49.87210   90.98670    0.00060    5.30130   -9999.25   68.40710 2000.00000  238.96150   -4.40380   -0.02800   -9999.25
 4108.00000   -9999.25   -9999.25   -9999.25   11.58520   -9999.25   -9999.25   49.87540   91.67330    0.00250    5.33150   -9999.25   68.52010 2000.00000  222.26130   -4.53610   -0.02810   -9999.25
 4108.50000   -9999.25   -9999.25   -9999.25   11.57280   -9999.25   -9999.25   50.13910   92.31300    0.00160    5.32390   -9999.25   68.38770 2000.00000  208.71840   -4.85820   -0.02740   -9999.25
 4109.00000   -9999.25   -9999.25   -9999.25   11.56050   -9999.25   -9999.25   49.92530   92.22550    0.00130    5.28380   -9999.25   70.01960 2000.00000  192.79100   -5.18030   -0.02740   -9999.25
 4109.50000   -9999.25   -9999.25   -9999.25   11.54820   -9999.25   -9999.25   50.30020   93.33670    0.00340    5.26980   -9999.25   70.86010 2000.00000  184.12130   -5.13140   -0.02730   -9999.25
 4110.00000   -9999.25   -9999.25   -9999.25   11.53580   -9999.25   -9999.25   49.98040   92.05230    0.00150    5.29580   -9999.25   71.14660 2000.00000  210.02650   -4.90150   -0.02710   -9999.25
 4110.50000   -9999.25   -9999.25   -9999.25   11.53080   -9999.25   -9999.25   49.96500   91.79850   -0.00160    5.32180   -9999.25   73.22580 2000.00000  241.78640   -4.43220   -0.02700   -9999.25
 4111.00000   -9999.25   -9999.25   -9999.25   11.53040   -9999.25   -9999.25   50.05040   91.59100   -0.00370    5.34790   -9999.25   73.52490 2000.00000  238.50790   -4.07940   -0.02690   -9999.25
 4111.50000   -9999.25   -9999.25   -9999.25   11.54100   -9999.25   -9999.25   50.44700   91.36440   -0.00370    5.32580   -9999.25   73.00030 2000.00000  234.45490   -3.84420   -0.02700   -9999.25
 4112.00000   -9999.25   -9999.25   -9999.25   11.54460   -9999.25   -9999.25   49.55760   91.94990    0.00050    5.26970   -9999.25   71.95590 2000.00000  261.89350   -4.54980   -0.02720   -9999.25
 4112.50000   -9999.25   -9999.25   -9999.25   11.55870   -9999.25   -9999.25   49.40570   92.42300    0.01080    5.21230   -9999.25   72.17330 2000.00000  243.79360   -5.84350   -0.02770   -9999.25
 4113.00000   -9999.25   -9999.25   -9999.25   11.57310   -9999.25   -9999.25   49.83920   92.82110    0.01400    5.19380   -9999.25   72.58360 2000.00000  236.80650   -6.07870   -0.02760   -9999.25
 4113.50000   -9999.25   -9999.25   -9999.25   11.57280   -9999.25   -9999.25   49.62530   93.23440    0.01000    5.22260   -9999.25   73.84060 2000.00000  259.58360   -5.96110   -0.02670   -9999.25
 4114.00000   -9999.25   -9999.25   -9999.25   11.57950   -9999.25   -9999.25   48.76670   93.07530    0.00520    5.22030   -9999.25   74.63120 2000.00000  317.65380   -5.13790   -0.02580   -9999.25
 4114.50000   -9999.25   -9999.25   -9999.25   11.58630   -9999.25   -9999.25   49.80680   93.44050    0.00330    5.23270   -9999.25   75.64530 2000.00000  345.23880   -4.43220   -0.02540   -9999.25
 4115.00000   -9999.25   -9999.25   -9999.25   11.59310   -9999.25   -9999.25   49.61360   94.17140    0.00400    5.23340   -9999.25   75.41220 2000.00000  345.20660   -4.19700   -0.02480   -9999.25
 4115.50000   -9999.25   -9999.25   -9999.25   11.59990   -9999.25   -9999.25   49.31750   94.23580    0.00200    5.22640   -9999.25   75.03800 2000.00000  342.12370   -3.96180   -0.02400   -9999.25
 4116.00000   -9999.25   -9999.25   -9999.25   11.60670   -9999.25   -9999.25   49.68050   93.05340    0.00580    5.21940   -9999.25   74.06880 2000.00000  303.85650   -3.72660   -0.02390   -9999.25
 4116.50000   -9999.25   -9999.25   -9999.25   11.61350   -9999.25   -9999.25   49.75000   92.72870    0.00990    5.21230   -9999.25   73.40600 2000.00000  271.17880   -3.60900   -0.02370   -9999.25
 4117.00000   -9999.25   -9999.25   -9999.25   11.61450   -9999.25   -9999.25   49.72720   93.39510    0.00900    5.19230   -9999.25   72.40480 2000.00000  251.98890   -3.60900   -0.02360   -9999.25
 4117.50000   -9999.25   -9999.25   -9999.25   11.61430   -9999.25   -9999.25   49.99510   93.44950    0.00710    5.22410   -9999.25   71.61600 2000.00000  262.71160   -4.07940   -0.02430   -9999.25
 4118.00000   -9999.25   -9999.25   -9999.25   11.60020   -9999.25   -9999.25   50.01460   93.28670    0.00620    5.27230   -9999.25   70.51730 2000.00000  282.44310   -5.37310   -0.02640   -9999.25
 4118.50000   -9999.25   -9999.25   -9999.25   11.58280   -9999.25   -9999.25   49.92710   93.01720    0.00560    5.31290   -9999.25   69.67800 2000.00000  267.93940   -6.19630   -0.02640   -9999.25
 4119.00000   -9999.25   -9999.25   -9999.25   11.56530   -9999.25   -9999.25   49.83890   92.52070    0.00500    5.27490   -9999.25   69.63160 2000.00000  221.95540   -6.43150   -0.02570   -9999.25
 4119.50000   -9999.25   -9999.25   -9999.25   11.54790   -9999.25   -9999.25   49.64420   93.54290    0.00580    5.23690   -9999.25   69.69360 2000.00000  203.56180   -6.43150   -0.02610   -9999.25
 4120.00000   -9999.25   -9999.25   -9999.25   11.51850   -9999.25   -9999.25   49.41490   93.36750    0.00470    5.21250   -9999.25   69.35680 2000.00000  238.12130   -6.19630   -0.02640   -9999.25
 4120.50000   -9999.25   -9999.25   -9999.25   11.51800   -9999.25   -9999.25   48.96150   93.55680    0.00360    5.22800   -9999.25   68.28190 2000.00000  305.74000   -5.37310   -0.02670   -9999.25
 4121.00000   -9999.25   -9999.25   -9999.25   11.53470   -9999.25   -9999.25   48.71360   93.29640    0.00340    5.23270   -9999.25   68.28980 2000.00000  305.12490   -3.96180   -0.02660   -9999.25
 4121.50000   -9999.25   -9999.25   -9999.25   11.54140   -9999.25   -9999.25   48.85920   93.32620    0.00240    5.25330   -9999.25   68.29770 2000.00000  211.78880   -3.49140   -0.02570   -9999.25
 4122.00000   -9999.25   -9999.25   -9999.25   11.57190   -9999.25   -9999.25   49.28120   93.92900    0.00940    5.23890   -9999.25   68.95640 2000.00000  166.68950   -5.09860   -0.02520   -9999.25
 4122.50000   -9999.25   -9999.25   -9999.25   11.60040   -9999.25   -9999.25   49.17950   94.12830    0.01490    5.21970   -9999.25   70.58800 2000.00000  138.44020   -5.84350   -0.02560   -9999.25
 4123.00000   -9999.25   -9999.25   -9999.25   11.64490   -9999.25   -9999.25   49.44280   93.15160    0.01890    5.20840   -9999.25   72.21960 2000.00000  120.30630   -5.84350   -0.02610   -9999.25
 4123.50000   -9999.25   -9999.25   -9999.25   11.61190   -9999.25   -9999.25   49.94900   93.55750    0.02050    5.21840   -9999.25   73.85110 2000.00000  126.35600   -5.84350   -0.02670   -9999.25
 4124.00000   -9999.25   -9999.25   -9999.25   11.65530   -9999.25   -9999.25   49.87800   94.24990    0.01070    5.22840   -9999.25   74.71960 2000.00000  168.74580   -5.60830   -0.02820   -9999.25
 4124.50000   -9999.25   -9999.25   -9999.25   11.69870   -9999.25   -9999.25   50.02720   94.11280    0.00230    5.27130   -9999.25   75.58800 2000.00000  261.38470   -5.37300   -0.02960   -9999.25
 4125.00000   -9999.25   -9999.25   -9999.25   11.70740   -9999.25   -9999.25   50.22080   94.02530    0.00030    5.35270   -9999.25   75.99270 2000.00000  340.36320   -5.25540   -0.03010   -9999.25
 4125.50000   -9999.25   -9999.25   -9999.25   11.69270   -9999.25   -9999.25   50.40170   94.27150   -0.00310    5.42090   -9999.25   75.62620 2000.00000  355.63720   -4.90260   -0.02890   -9999.25
 4126.00000   -9999.25   -9999.25   -9999.25   11.66160   -9999.25   -9999.25   50.06770   94.81570   -0.00450    5.41940   -9999.25   74.71500 2000.00000  370.57750   -4.54980   -0.02710   -9999.25
 4126.50000   -9999.25   -9999.25   -9999.25   11.63050   -9999.25   -9999.25   50.03800   95.64830   -0.00400    5.34980   -9999.25   73.63620 2000.00000  350.65140   -4.31460   -0.02580   -9999.25
 4127.00000   -9999.25   -9999.25   -9999.25   11.59920   -9999.25   -9999.25   50.00060   94.72010   -0.00410    5.30470   -9999.25   73.24880 2000.00000  311.83120   -3.60900   -0.02470   -9999.25
 4127.50000   -9999.25   -9999.25   -9999.25   11.57370   -9999.25   -9999.25   49.92090   93.88160   -0.00270    5.29640   -9999.25   73.17190 2000.00000  294.91680   -3.49140   -0.02380   -9999.25
