~Version ---------------------------------------------------
VERS.   2.0 : CWLS log ASCII Standard -VERSION 2.0
WRAP.    NO : One line per depth step
DLM . SPACE : Column Data Section Delimiter
~Well ------------------------------------------------------
STRT .F                   28.0 : START DEPTH
STOP .F                 6649.0 : STOP DEPTH
STEP .F                    0.5 : STEP
NULL .                -9999.25 : NULL VALUE
COMP .                         : COMPANY
WELL .                         : WELL
FLD  .                         : FIELD
LOC  .                         : LOCATION
PROV .                         : PROVINCE
CNTY .                         : COUNTY
STAT .                         : STATE
CTRY .                         : COUNTRY
SRVC .                         : SERVICE COMPANY
DATE .                         : DATE
UWI  .                         : UNIQUE WELL ID
API  .                         : API NUMBER
SLAT .WGS84 2.4496475999999987 : SURFACE LATITUDE
SLON .WGS84  8.143142400000002 : SURFACE LONGITUDE
DATUM.F                    nan : DEPTH DATUM ELEV
~Curve Information -----------------------------------------
DEPT   .F     : 
AT30   .OHMM  : ARRAY INDUCTION TWO FOOT RESISTIVITY A30
AT60   .OHMM  : ARRAY INDUCTION TWO FOOT RESISTIVITY A60
AT90   .OHMM  : ARRAY INDUCTION TWO FOOT RESISTIVITY A90
CALR   .IN    : CALIPER FROM RESISTIVITY LOG
DPHZ_LS.DEC   : HGRD STANDARD RESOLUTION DENSITY POROSITY
DPHZ_SS.DEC   : HRGD STANDARD RESOLUTION DENSITY POROSITY
DTCO   .US/F  : DELTA-T COMPRESSIONAL
DTSM   .US/F  : DELTA-T SHEAR
HDRA   .G/C3  : HRDD SPINE AND RIBS DENSITY CORRECTION
PEFZ   .B/E   : HRDD STANDARD RESOLUTION FORMATION PHOTOELECTRIC FACTOR
RHOZ   .G/C3  : HRDD STANDARD RESOLUTION FORMATION DENSITY
RLA3   .OHMM  : APPARENT RESISTIVITY FROM COMPUTED FOCUSING MODE 3
RLA5   .OHMM  : APPARENT RESISTIVITY FROM COMPUTED FOCUSING MODE 5
RXOZ   .OHMM  : INVADED FORMATION RESISTIVITY FILTERED AT 18 INCHES
SGRR   .GAPI  : SPECTROSCOPY GAMMA RAY FROM RESISTIVITY LOG
TNPH_LS.DEC   : THERMAL NEUTRON POROSITY [LIMESTONE]
TNPH_SS.DEC   : THERMAL NEUTRON POROSITY [SANDSTONE]
~Params ----------------------------------------------------
~Other -----------------------------------------------------
~ASCII -----------------------------------------------------
# ...
 6219.00000   -9999.25   -9999.25   -9999.25    9.07850   -9999.25    0.04870   -9999.25   -9999.25   -9999.25    2.77360    2.57020    9.41030    7.20180    8.34620   68.54800   -9999.25    0.14620
 6219.50000   -9999.25   -9999.25   -9999.25    9.08160   -9999.25    0.05300   -9999.25   -9999.25   -9999.25    2.75730    2.56150   12.03060    8.69840    9.53590   60.22030   -9999.25    0.14420
 6220.00000   -9999.25   -9999.25   -9999.25    9.06360   -9999.25    0.06320   -9999.25   -9999.25   -9999.25    2.73980    2.53530   12.25520    7.31380    9.08620   60.29090   -9999.25    0.15010
 6220.50000   -9999.25   -9999.25   -9999.25    9.06660   -9999.25    0.07650   -9999.25   -9999.25   -9999.25    2.69470    2.50920    5.17510    5.20900    6.83790   60.69100   -9999.25    0.16210
 6221.00000   -9999.25   -9999.25   -9999.25    9.06960   -9999.25    0.08690   -9999.25   -9999.25   -9999.25    2.62560    2.49890    3.89430    3.52510    4.58950   61.09120   -9999.25    0.17210
 6221.50000   -9999.25   -9999.25   -9999.25    9.07260   -9999.25    0.09000   -9999.25   -9999.25   -9999.25    2.58850    2.49800    3.63810    3.52510    3.69010   59.22380   -9999.25    0.18600
 6222.00000   -9999.25   -9999.25   -9999.25    9.07560   -9999.25    0.08210   -9999.25   -9999.25   -9999.25    2.59000    2.52160    3.66060    3.52510    3.78230   59.22380   -9999.25    0.18580
 6222.50000   -9999.25   -9999.25   -9999.25    9.07860   -9999.25    0.06760   -9999.25   -9999.25   -9999.25    2.63320    2.54530    3.99060    3.83170    4.69310   59.75730   -9999.25    0.17920
 6223.00000   -9999.25   -9999.25   -9999.25    9.08160   -9999.25    0.05010   -9999.25   -9999.25   -9999.25    2.73150    2.56890    6.48610    4.81430    8.17390   63.99900   -9999.25    0.16960
 6223.50000   -9999.25   -9999.25   -9999.25    9.08460   -9999.25    0.03790   -9999.25   -9999.25   -9999.25    2.82030    2.58470   10.99070    9.07010   13.46970   69.13440   -9999.25    0.16100
 6224.00000   -9999.25   -9999.25   -9999.25    9.08790   -9999.25    0.03450   -9999.25   -9999.25   -9999.25    2.90740    2.59530   13.69340   12.55200   15.23500   70.29490   -9999.25    0.15480
 6224.50000   -9999.25   -9999.25   -9999.25    9.12630   -9999.25    0.03370   -9999.25   -9999.25   -9999.25    2.95090    2.59660   13.60930   12.55200   13.46780   70.42830   -9999.25    0.15180
 6225.00000   -9999.25   -9999.25   -9999.25    9.15510   -9999.25    0.03170   -9999.25   -9999.25   -9999.25    2.94780    2.59530   12.95830   11.94790   13.71920   71.89550   -9999.25    0.15640
 6225.50000   -9999.25   -9999.25   -9999.25    9.15620   -9999.25    0.03400   -9999.25   -9999.25   -9999.25    2.90800    2.58740   13.03450   11.65690   15.90690   82.29970   -9999.25    0.16720
 6226.00000   -9999.25   -9999.25   -9999.25    9.16330   -9999.25    0.04450   -9999.25   -9999.25   -9999.25    2.86380    2.56410    9.67390    9.48630   13.90470   80.89920   -9999.25    0.17200
 6226.50000   -9999.25   -9999.25   -9999.25    9.16860   -9999.25    0.06060   -9999.25   -9999.25   -9999.25    2.77520    2.53050    6.31330    7.31580    8.64920   73.09600   -9999.25    0.17680
 6227.00000   -9999.25   -9999.25   -9999.25    9.17390   -9999.25    0.08110   -9999.25   -9999.25   -9999.25    2.69540    2.49680    4.24430    5.14520    5.79720   65.89310   -9999.25    0.18040
 6227.50000   -9999.25   -9999.25   -9999.25    9.17910   -9999.25    0.10700   -9999.25   -9999.25   -9999.25    2.58890    2.46320    3.50740    3.41990    4.54750   59.75730   -9999.25    0.19190
 6228.00000   -9999.25   -9999.25   -9999.25    9.18440   -9999.25    0.13150   -9999.25   -9999.25   -9999.25    2.46460    2.42420    2.77050    2.36270    4.04770   55.75570   -9999.25    0.21120
 6228.50000   -9999.25   -9999.25   -9999.25    9.18970   -9999.25    0.14990   -9999.25   -9999.25   -9999.25    2.47230    2.38520    2.18100    2.12530    2.91940   53.22140   -9999.25    0.23060
 6229.00000   -9999.25   -9999.25   -9999.25    9.19490   -9999.25    0.16240   -9999.25   -9999.25   -9999.25    2.48000    2.37830    2.16050    2.06160    2.80690   53.08800   -9999.25    0.24990
 6229.50000   -9999.25   -9999.25   -9999.25    9.20020   -9999.25    0.15990   -9999.25   -9999.25   -9999.25    2.48770    2.38760    2.10930    1.99790    2.76190   56.08920   -9999.25    0.25700
 6230.00000   -9999.25   -9999.25   -9999.25    9.19250   -9999.25    0.13760   -9999.25   -9999.25   -9999.25    2.53320    2.42760    2.08880    2.01020    2.76190   58.95700   -9999.25    0.24560
 6230.50000   -9999.25   -9999.25   -9999.25    9.18160   -9999.25    0.11000   -9999.25   -9999.25   -9999.25    2.57350    2.46770    2.15430    2.12650    2.77910   59.62940   -9999.25    0.23190
 6231.00000   -9999.25   -9999.25   -9999.25    9.20690   -9999.25    0.08590   -9999.25   -9999.25   -9999.25    2.63950    2.50770    3.81360    3.19150    4.93710   61.82560   -9999.25    0.21830
 6231.50000   -9999.25   -9999.25   -9999.25    9.23220   -9999.25    0.07260   -9999.25   -9999.25   -9999.25    2.69220    2.53180    5.43270    4.83550    7.09520   63.11300   -9999.25    0.20460
 6232.00000   -9999.25   -9999.25   -9999.25    9.23460   -9999.25    0.08690   -9999.25   -9999.25   -9999.25    2.69390    2.52680    5.11710    4.85060    7.05210   61.58490   -9999.25    0.19940
 6232.50000   -9999.25   -9999.25   -9999.25    9.23690   -9999.25    0.10710   -9999.25   -9999.25   -9999.25    2.66020    2.50210    3.20100    3.75430    5.11450   59.25580   -9999.25    0.21030
 6233.00000   -9999.25   -9999.25   -9999.25    9.23930   -9999.25    0.12400   -9999.25   -9999.25   -9999.25    2.56510    2.46630    2.03870    2.65800    3.17690   56.92670   -9999.25    0.22330
 6233.50000   -9999.25   -9999.25   -9999.25    9.24540   -9999.25    0.13280   -9999.25   -9999.25   -9999.25    2.47010    2.43200    1.96700    2.21960    2.98690   54.59760   -9999.25    0.22890
 6234.00000   -9999.25   -9999.25   -9999.25    9.23530   -9999.25    0.13200   -9999.25   -9999.25   -9999.25    2.45750    2.42180    1.97700    2.34050    3.01060   52.13310   -9999.25    0.22440
 6234.50000   -9999.25   -9999.25   -9999.25    9.25740   -9999.25    0.13620   -9999.25   -9999.25   -9999.25    2.48780    2.41410    2.22290    2.42000    3.08780   47.39750   -9999.25    0.21910
 6235.00000   -9999.25   -9999.25   -9999.25    9.27520   -9999.25    0.14770   -9999.25   -9999.25   -9999.25    2.53740    2.40350    2.01220    2.40530    2.82430   46.55770   -9999.25    0.22220
 6235.50000   -9999.25   -9999.25   -9999.25    9.28230   -9999.25    0.15760   -9999.25   -9999.25   -9999.25    2.55790    2.39300    1.88220    2.10410    2.68390   45.53990   -9999.25    0.22690
 6236.00000   -9999.25   -9999.25   -9999.25    9.29320   -9999.25    0.16050   -9999.25   -9999.25   -9999.25    2.53250    2.38660    1.92930    2.01440    2.69080   46.21200   -9999.25    0.23450
 6236.50000   -9999.25   -9999.25   -9999.25    9.30980   -9999.25    0.15930   -9999.25   -9999.25   -9999.25    2.50710    2.38480    1.91750    2.18420    2.73710   46.21660   -9999.25    0.22860
 6237.00000   -9999.25   -9999.25   -9999.25    9.31370   -9999.25    0.16070   -9999.25   -9999.25   -9999.25    2.49180    2.38190    1.83660    2.12670    2.75910   46.35520   -9999.25    0.22590
 6237.50000   -9999.25   -9999.25   -9999.25    9.32550   -9999.25    0.16250   -9999.25   -9999.25   -9999.25    2.48090    2.38390    1.78890    2.09430    2.68650   46.62720   -9999.25    0.23230
 6238.00000   -9999.25   -9999.25   -9999.25    9.33720   -9999.25    0.15970   -9999.25   -9999.25   -9999.25    2.47780    2.39370    1.77010    2.08790    2.65470   47.58410   -9999.25    0.22570
 6238.50000   -9999.25   -9999.25   -9999.25    9.34900   -9999.25    0.15280   -9999.25   -9999.25   -9999.25    2.47510    2.40350    1.82560    2.18020    2.82960   49.63470   -9999.25    0.22570
 6239.00000   -9999.25   -9999.25   -9999.25    9.35850   -9999.25    0.14350   -9999.25   -9999.25   -9999.25    2.47130    2.41340    1.95390    2.57540    3.01360   51.68530   -9999.25    0.23350
