~Version ---------------------------------------------------
VERS.   2.0 : CWLS log ASCII Standard -VERSION 2.0
WRAP.    NO : One line per depth step
DLM . SPACE : Column Data Section Delimiter
~Well ------------------------------------------------------
STRT .F                  176.0 : START DEPTH
STOP .F                 5312.0 : STOP DEPTH
STEP .F                    0.5 : STEP
NULL .                -9999.25 : NULL VALUE
COMP .                         : COMPANY
WELL .                         : WELL
FLD  .                         : FIELD
LOC  .                         : LOCATION
PROV .                         : PROVINCE
CNTY .                         : COUNTY
STAT .                         : STATE
CTRY .                         : COUNTRY
SRVC .                         : SERVICE COMPANY
DATE .                         : DATE
UWI  .                         : UNIQUE WELL ID
API  .                         : API NUMBER
SLAT .WGS84 3.0300680289002955 : SURFACE LATITUDE
SLON .WGS84  8.145633773402011 : SURFACE LONGITUDE
DATUM.F                4036.29 : DEPTH DATUM ELEV
~Curve Information -----------------------------------------
DEPT.F     : 
DTCO.US/F  : COMPRESSIONAL-WAVE INTERVAL TRANSIT TIME ACAUSTIC SLOWNESS
DTSM.US/F  : DTSM
DPHZ.DEC   : DENSITY POROSITY LIMESTONE
GRD .GAPI  : GAMMA RAY FROM DENSITY LOG
HDRA.G/C3  : DELTA RHO HIP TOOL
PEFZ.B/E   : HILT PHOTOELECTRIC FACTOR
TNPH.DEC   : THERMAL NEUTRON POROSITY lLIMESTONE
HCAL.IN    : CALIPER FROM DENSITY LOG
RHOZ.G/C3  : HILT BULK DENSITY
RLA3.OHMM  : HRLTB RESISTIVITY 3
RLA5.OHMM  : HRLTB RESISTIVITY 5
RXOZ.OHMM  : FLUSHED ZONE RESISTIVITY
SPR .MV    : SPONTANEOUS POTENTIAL FROM RES.
~Params ----------------------------------------------------
~Other -----------------------------------------------------
~ASCII -----------------------------------------------------
# ...
 4154.00000   -9999.25   -9999.25   -0.07270   63.82480   -0.00830    3.90960    0.04780   11.21320    2.84170  118.00200   94.12160   62.45160 -112.89590
 4154.50000   -9999.25   -9999.25   -0.06560   61.41520   -0.00680    3.85010    0.05260   11.22870    2.83360  138.31980  295.84720  592.95960 -112.89150
 4155.00000   -9999.25   -9999.25   -0.05870   61.11570   -0.00450    3.80540    0.05590   11.22900    2.81940  171.34350  310.48540  381.14610 -112.73660
 4155.50000   -9999.25   -9999.25   -0.05070   62.92940   -0.00150    3.71590    0.06320   11.22930    2.80530  133.64450  147.38240  191.07520 -112.73220
 4156.00000   -9999.25   -9999.25   -0.04200   67.75890    0.00070    3.52160    0.07250   11.22960    2.79270   52.26180   57.67070  121.13610 -112.57740
 4156.50000   -9999.25   -9999.25   -0.03600   74.09670   -0.00070    3.43210    0.08190   11.22980    2.78340   46.79840   50.09720   97.78910 -112.57290
 4157.00000   -9999.25   -9999.25   -0.03210   75.15540   -0.00220    3.43240    0.08580   11.24520    2.77640   51.19660   49.54930   82.28080 -112.56850
 4157.50000   -9999.25   -9999.25   -0.03060   73.19760   -0.00380    3.46260    0.08490   11.24550    2.76270   46.80480   43.16310   76.25800 -112.56400
 4158.00000   -9999.25   -9999.25   -0.03360   66.63950   -0.00520    3.52280    0.07380   11.24580    2.76000   79.65480   60.58980   95.76490 -112.70990
 4158.50000   -9999.25   -9999.25   -0.04150   60.81820   -0.00660    3.56800    0.06150   11.24610    2.76130  140.31960  193.46070  465.40750 -112.85580
 4159.00000   -9999.25   -9999.25   -0.04240   56.16350   -0.00810    3.59820    0.05550   11.26150    2.76600  187.53620  363.65070  613.41060 -113.00180
 4159.50000   -9999.25   -9999.25   -0.04690   51.33990   -0.00440    3.53860    0.05670   11.26170    2.77160  235.54040  565.09620  890.49880 -112.99730
 4160.00000   -9999.25   -9999.25   -0.04510   50.28630   -0.00810    3.50900    0.05760   11.26200    2.77700  137.47130  205.24190  549.17240 -113.14320
 4160.50000   -9999.25   -9999.25   -0.03910   51.94910   -0.00880    3.50930    0.05490   11.27740    2.77960   84.79040  144.36340  234.88950 -113.13880
 4161.00000   -9999.25   -9999.25   -0.02890   55.57200   -0.00580    3.50760    0.04740   11.27780    2.77910  101.69150  170.35980  197.63840 -113.13380
 4161.50000   -9999.25   -9999.25   -0.01330   59.64730   -0.00280    3.42010    0.03630   11.27810    2.75800  131.21820  229.19550  220.70790 -113.27960
 4162.00000   -9999.25   -9999.25    0.01270   63.27020   -0.00130    3.27070    0.03240   11.29340    2.73580  122.62610  255.94470  244.77450 -113.27530
 4162.50000   -9999.25   -9999.25    0.02440   67.49640   -0.00130    3.13630    0.03460   11.30880    2.70280   69.79020  112.61380  188.27520 -113.27080
 4163.00000   -9999.25   -9999.25    0.02800   71.11920   -0.00270    3.01680    0.04520   11.32410    2.67720   49.84340   54.95170  133.35800 -113.41650
 4163.50000   -9999.25   -9999.25    0.03010   74.14360   -0.00500    2.98710    0.05460   11.36960    2.66250   87.80550   65.74820   99.45050 -113.56210
 4164.00000   -9999.25   -9999.25    0.03850   75.81480   -0.00650    3.06230    0.05990   11.38500    2.65490   94.08690   92.83180   96.34930 -113.70800
 4164.50000   -9999.25   -9999.25    0.04510   75.06290   -0.00800    3.12250    0.05930   11.38530    2.65090   44.02820   47.54010   95.67850 -114.00430
 4165.00000   -9999.25   -9999.25    0.04440   71.13180   -0.00560    3.15270    0.05870   11.38560    2.64590   66.63010   57.27420   90.53090 -114.15020
 4165.50000   -9999.25   -9999.25    0.03370   68.72140   -0.00260    3.12310    0.05930   11.38590    2.64380   74.41770   76.52470   88.06040 -114.29610
 4166.00000   -9999.25   -9999.25    0.01990   69.47850   -0.00110    3.13830    0.06590   11.37110    2.65940   50.21010   90.30500  109.06790 -114.29170
 4166.50000   -9999.25   -9999.25    0.01600   71.59310   -0.00260    3.19850    0.07460   11.34130    2.67670   39.98260   45.61230  115.25580 -114.43760
 4167.00000   -9999.25   -9999.25    0.01270   72.50030   -0.00560    3.28860    0.07660   11.31140    2.68240   45.27650   41.12810  106.81750 -114.88430
 4167.50000   -9999.25   -9999.25    0.00310   67.67750   -0.00560    3.40870    0.07390   11.28160    2.69200   66.65290   49.20860   96.96920 -115.33090
 4168.00000   -9999.25   -9999.25   -0.01220   56.36820   -0.00400    3.66750    0.06730   11.23680    2.71630  116.19280  108.04740   92.38780 -115.92800
 4168.50000   -9999.25   -9999.25   -0.04820   40.08150   -0.00030    3.87740    0.05270   11.20690    2.75100  234.10350  238.88210  309.25920 -116.52500
 4169.00000   -9999.25   -9999.25   -0.07040   31.48720    0.00120    3.99350    0.04820   11.16210    2.78930  349.28050  472.94730  391.05890 -116.67060
 4169.50000   -9999.25   -9999.25   -0.08510   31.54790   -0.00020    3.97870    0.03980   11.14730    2.79330  382.84480  959.28120  448.93410 -116.96720
 4170.00000   -9999.25   -9999.25   -0.08040   35.83850   -0.00020    4.00900    0.03610   11.13250    2.82800  366.94770 1323.82630  966.02090 -117.26350
 4170.50000   -9999.25   -9999.25   -0.07400   37.68010    0.00050    4.09910    0.04130   11.11770    2.84200  218.64840  320.47850 1364.21240 -117.40940
 4171.00000   -9999.25   -9999.25   -0.07580   34.96880    0.00130    4.18930    0.04990   11.11810    2.83310   57.68430   60.33310   32.99050 -117.55480
 4171.50000   -9999.25   -9999.25   -0.08180   32.40770    0.00130    4.14460    0.05170   11.11840    2.83430  252.79530   90.93010   33.01800 -117.70080
 4172.00000   -9999.25   -9999.25   -0.08720   32.10820   -0.00020    4.01020    0.04960   11.13380    2.84230  212.36290 1406.76320   34.03780 -118.07220
 4172.50000   -9999.25   -9999.25   -0.09050   32.11190   -0.00240    3.98050    0.04000   11.13410    2.85230  190.49770 2057.84720  121.74800 -118.44370
 4173.00000   -9999.25   -9999.25   -0.08540   30.75740   -0.00310    3.99580    0.03250   11.13430    2.84940  344.44560 2431.59470  323.60600 -118.58910
 4173.50000   -9999.25   -9999.25   -0.08750   27.74380   -0.00380    4.02610    0.02740   11.13460    2.85060  536.70010 2871.97900  418.42370 -118.58460
 4174.00000   -9999.25   -9999.25   -0.09680   26.08750   -0.00230    3.95150    0.02530   11.13490    2.87420  599.42830 5467.77150  515.08490 -118.58020
 4174.50000   -9999.25   -9999.25   -0.10580   26.69390    0.00070    3.87700    0.02440   11.12020    2.88240  616.24520 9136.61820  548.06960 -118.87650
 4175.00000   -9999.25   -9999.25   -0.11180   25.79190    0.00220    3.87720    0.02380   11.12050    2.88980  612.04680 13500.11910  571.21190 -119.02240
 4175.50000   -9999.25   -9999.25   -0.10970   23.33090    0.00370    3.92250    0.02290   11.10570    2.89070  637.98830 20312.88280  583.93460 -119.16830
 4176.00000   -9999.25   -9999.25   -0.11040   21.85040    0.00450    3.92280    0.02140   11.09100    2.88840  655.89810 11536.62300  599.41820 -119.31420
 4176.50000   -9999.25   -9999.25   -0.11400   22.48320    0.00530    3.89320    0.01960   11.07620    2.88630  646.94740 6157.71390  587.09030 -119.46010
 4177.00000   -9999.25   -9999.25   -0.10710   28.36850    0.00450    3.87840    0.01840   11.04640    2.87770  591.45010 3980.89110  567.13020 -119.75640
 4177.50000   -9999.25   -9999.25   -0.10100   35.00800    0.00450    3.84890    0.01900   11.01650    2.86900  494.29560 1237.10880  567.09160 -120.05270
 4178.00000   -9999.25   -9999.25   -0.08820   38.02750    0.00370    3.80420    0.02180   10.98680    2.85820  311.25000  568.60280  547.81140 -120.49940
 4178.50000   -9999.25   -9999.25   -0.08010   38.48290    0.00230    3.77450    0.02760   10.98710    2.84570  415.99060  374.75530  466.59040 -120.64530
 4179.00000   -9999.25   -9999.25   -0.07920   40.44670    0.00160    3.74490    0.03360   10.97220    2.84160  296.61060  239.27690  337.18040 -120.94160
 4179.50000   -9999.25   -9999.25   -0.08110   43.46620    0.00010    3.71520    0.04230   10.97260    2.84050  177.96190  187.63530  231.75920 -121.38830
