~Version ---------------------------------------------------
VERS.   2.0 : CWLS log ASCII Standard -VERSION 2.0
WRAP.    NO : One line per depth step
DLM . SPACE : Column Data Section Delimiter
~Well ------------------------------------------------------
STRT .F                  176.0 : START DEPTH
STOP .F                 5312.0 : STOP DEPTH
STEP .F                    0.5 : STEP
NULL .                -9999.25 : NULL VALUE
COMP .                         : COMPANY
WELL .                         : WELL
FLD  .                         : FIELD
LOC  .                         : LOCATION
PROV .                         : PROVINCE
CNTY .                         : COUNTY
STAT .                         : STATE
CTRY .                         : COUNTRY
SRVC .                         : SERVICE COMPANY
DATE .                         : DATE
UWI  .                         : UNIQUE WELL ID
API  .                         : API NUMBER
SLAT .WGS84 3.0300680289002955 : SURFACE LATITUDE
SLON .WGS84  8.145633773402011 : SURFACE LONGITUDE
DATUM.F                4036.29 : DEPTH DATUM ELEV
~Curve Information -----------------------------------------
DEPT.F     : 
DTCO.US/F  : COMPRESSIONAL-WAVE INTERVAL TRANSIT TIME ACAUSTIC SLOWNESS
DTSM.US/F  : DTSM
DPHZ.DEC   : DENSITY POROSITY LIMESTONE
GRD .GAPI  : GAMMA RAY FROM DENSITY LOG
HDRA.G/C3  : DELTA RHO HIP TOOL
PEFZ.B/E   : HILT PHOTOELECTRIC FACTOR
TNPH.DEC   : THERMAL NEUTRON POROSITY lLIMESTONE
HCAL.IN    : CALIPER FROM DENSITY LOG
RHOZ.G/C3  : HILT BULK DENSITY
RLA3.OHMM  : HRLTB RESISTIVITY 3
RLA5.OHMM  : HRLTB RESISTIVITY 5
RXOZ.OHMM  : FLUSHED ZONE RESISTIVITY
SPR .MV    : SPONTANEOUS POTENTIAL FROM RES.
~Params ----------------------------------------------------
~Other -----------------------------------------------------
~ASCII -----------------------------------------------------
# ...
 4856.00000   48.85630   87.44740   -0.04140   41.66550   -0.00270    4.46470    0.05920    8.72950    2.79350  135.15860  168.76200  207.34980 -189.86760
 4856.50000   48.94550   87.44740   -0.03420   41.06520    0.00260    4.51020    0.06370    8.74490    2.78430  153.12340  185.89060  225.30820 -189.86160
 4857.00000   48.80950   87.29730   -0.02960   38.20240    0.00260    4.55510    0.06790    8.77530    2.77250  130.68880  130.81990  253.41480 -189.85570
 4857.50000   48.44860   86.99700   -0.04440   36.09380    0.00100    4.50660    0.06970    8.77560    2.76310  124.95120  138.26580  258.78500 -189.84970
 4858.00000   47.59250   86.54650   -0.05890   35.79440   -0.00120    4.33780    0.06730    8.73070    2.76300  105.57040  105.68540  214.86150 -189.84380
 4858.50000   46.64640   85.79580   -0.06240   37.60800   -0.00260    4.18180    0.06250    8.71590    2.77430  206.07970  228.79950  224.79820 -189.83780
 4859.00000   46.10100   85.18800   -0.05490   38.81770   -0.00030    4.09230    0.05770    8.73130    2.80130  234.95280  248.58340  268.09020 -189.83190
 4859.50000   45.69380   84.57600   -0.06600   38.21730    0.00570    4.01770    0.05170    8.80690    2.81030  236.61030  255.58590  281.44770 -189.82510
 4860.00000   45.56320   84.14410   -0.08970   35.65620    0.01020    3.97310    0.04510    8.94280    2.80500  287.02860  341.48700  346.26120 -189.81920
 4860.50000   45.47230   83.99400   -0.10080   33.54760    0.01320    3.94340    0.03920    8.97320    2.80660  394.19280  584.78470  417.27380 -189.81320
 4861.00000   45.69650   83.99400   -0.09930   32.64560    0.01170    3.88390    0.03620    8.92770    2.84400  373.09180  456.35230  429.03720 -189.58150
 4861.50000   46.10070   83.99400   -0.08540   32.04520    0.00570    3.88420    0.04090    8.86540    2.86960  314.06860  337.01760  379.03640 -189.49940
 4862.00000   46.63990   83.84380   -0.06630   30.98050    0.00350    4.00420    0.04270    8.77600    2.86750  266.21180  325.64850  353.88850 -189.34290
 4862.50000   47.35920   83.39340   -0.07050   29.29730    0.00280    4.25900    0.03880    8.71840    2.83930  248.50290  386.99950  245.55780 -189.18630
 4863.00000   48.61870   83.24320   -0.07590   27.34040    0.00430    4.49880    0.04120    8.68850    2.82520  360.64680  640.26820  304.21860 -189.02980
 4863.50000   48.84310   83.54350   -0.06780   26.92900    0.01180    4.67880    0.04810    8.68890    2.82980  327.51030  432.30680  187.74410 -188.87320
 4864.00000   48.79700   83.84380   -0.05290   28.29020    0.01480    4.66410    0.06010    8.61390    2.82140  190.00150  193.01070  160.24000 -188.71660
 4864.50000   48.48100   83.84380   -0.04090   31.00810    0.01490    4.35000    0.07330    8.53890    2.78040  159.94320  143.39160  167.05790 -188.71070
 4865.00000   48.07500   83.69370   -0.03640   34.17850    0.01260    4.00600    0.07930    8.53920    2.77590   93.43120  111.35880  160.32750 -188.25290
 4865.50000   47.75310   84.00050   -0.03520   37.49970    0.00960    3.78170    0.07980    8.56960    2.77220   80.84940   82.45760  120.02830 -187.94580
 4866.00000   47.34770   84.46290   -0.04450   39.61430    0.00580    3.79820    0.07830    8.60000    2.77490  117.20860  148.94080  121.72920 -187.63860
 4866.50000   47.17190   84.59460   -0.04000   40.06910    0.00290    3.95130    0.07840    8.63040    2.78120  160.13580  199.98410  136.09100 -187.48210
 4867.00000   46.90100   84.29430   -0.03520   35.24620    0.00530    4.13350    0.08150    8.61560    2.77440  156.92580  147.69640  123.48780 -187.32550
 4867.50000   46.49500   83.84380   -0.03910   31.93100    0.00590    4.30690    0.08640    8.60080    2.77780  122.34010  120.95740  117.69760 -187.31960
 4868.00000   46.13400   83.54350   -0.05060   29.97320    0.00220    4.33710    0.09390    8.61630    2.79900  125.77780  128.72630  127.96250 -187.31360
 4868.50000   46.04310   83.24320   -0.07340   30.88110    0.00000    4.09800    0.09420    8.63160    2.82620  304.01610  211.50710  168.57750 -187.45830
 4869.00000   46.04220   82.94290   -0.07390   34.35320    0.00220    3.93360    0.08880    8.64700    2.83070  351.42280  340.40860  344.74770 -187.45230
 4869.50000   46.08630   82.64260   -0.07720   38.57940    0.00600    3.88890    0.07710    8.67740    2.83000  531.53230  624.54290  439.90210 -187.44640
 4870.00000   46.08550   82.19220   -0.08140   41.44820    0.01050    3.99410    0.06160    8.69320    2.83780  561.72810  692.72560  534.03610 -187.28900
 4870.50000   45.99460   81.89190   -0.07570   41.30030    0.01500    4.17400    0.05140    8.70810    2.84050  259.57960  278.89490  353.11300 -187.13240
 4871.00000   45.85860   81.44140   -0.07630   39.49330    0.01720    4.29400    0.04960    8.67620    2.82480  212.57070  211.72340  193.80190 -186.82530
 4871.50000   45.63270   81.29130   -0.06500   39.04380    0.01280    4.26440    0.05170    8.61840    2.81500  209.68130  228.45030  180.93140 -186.66870
 4872.00000   45.49680   81.44140   -0.06410   38.59430    0.00830    3.99520    0.05260    8.60360    2.81250 1081.95300  823.69560  299.47390 -186.36090
 4872.50000   45.74170   81.44140   -0.06170   37.54150    0.00460    3.80090    0.05200    8.63410    2.80830 1151.32730 1123.47620  699.86900 -186.20430
 4873.00000   46.44000   81.59160   -0.05780   35.13120    0.00160    3.72630    0.05050    8.66450    2.80480  361.64180  434.01150  348.74950 -186.04780
 4873.50000   46.88930   81.89190   -0.05390   32.11230    0.00010    3.86140    0.05200    8.64970    2.80000  338.06340  328.20290  341.67530 -186.04180
 4874.00000   47.15840   82.19220   -0.04880   31.66810    0.00090    4.08620    0.06060    8.60490    2.79430  489.92930  437.19260  482.58570 -185.88530
 4874.50000   47.42760   82.64260   -0.04970   32.14270    0.00460    4.31110    0.08280    8.57500    2.79180  319.56830  199.27100  539.01820 -185.72870
 4875.00000   47.56200   83.39340   -0.05300   33.08180    0.00990    4.40120    0.09030    8.57530    2.80380  349.57870  179.73090  227.62480 -185.57220
 4875.50000   47.69620   83.84380   -0.05930   34.54360    0.01520    4.43140    0.09390    8.63590    2.81430  254.75040  203.92500  195.62320 -185.41560
 4876.00000   47.69500   83.69370   -0.06750   36.05490    0.01810    4.46330    0.09420    8.62110    2.82050  138.79140  146.43030  314.97830 -185.10850
 4876.50000   47.73940   83.84380   -0.06890   34.09710    0.01970    4.52670    0.09240    8.57620    2.81060  113.31640  119.62470  288.03660 -184.80130
 4877.00000   47.69330   84.29430   -0.04910   31.08350    0.01740    4.71680    0.09360    8.54630    2.76210  118.50490  125.30900  259.79000 -184.49410
 4877.50000   47.55740   84.59460   -0.01830   30.02990    0.01370    5.00160    0.09770    8.51660    2.72250  138.88100  135.62340  194.49040 -184.18700
 4878.00000   47.33140   84.89490   -0.00150   30.63690    0.00250    5.24140    0.10070    8.56210    2.71810   45.78050   78.14520   54.66450 -183.57810
 4878.50000   47.14730   84.28830   -0.01350   31.69570   -0.00650    5.25660    0.10070    8.60750    2.72160   39.88820   40.32420   40.36130 -182.96980
 4879.00000   46.86920   83.82700   -0.03060   32.15040   -0.00500    4.83780    0.09380    8.65340    2.73190  103.29690   94.16960  122.91470 -182.51200
 4879.50000   46.60840   83.39340   -0.05070   30.79670    0.00030    4.29910    0.08370    8.71470    2.78700  127.04770  108.86140  158.03460 -182.35550
 4880.00000   46.78780   83.09310   -0.06270   30.04550    0.00180    3.95510    0.07500    8.77610    2.80410  120.24690  105.19440  205.80900 -182.04830
 4880.50000   46.87690   82.79280   -0.05760   30.35020   -0.00040    3.88050    0.07080    8.83750    2.80470  120.32870  105.94370  201.39770 -182.04230
 4881.00000   46.92100   82.49250   -0.05820   31.25820   -0.00120    4.07550    0.07260    8.80490    2.80390   96.46810  100.97320  196.21110 -182.33760
 4881.50000   46.78490   82.34230   -0.05910   32.46780    0.00110    4.15060    0.07440    8.72990    2.80140  126.54490   90.44630  234.84130 -182.63280
