~Version ---------------------------------------------------
VERS.   2.0 : CWLS log ASCII Standard -VERSION 2.0
WRAP.    NO : One line per depth step
DLM . SPACE : Column Data Section Delimiter
~Well ------------------------------------------------------
STRT .F                  176.0 : START DEPTH
STOP .F                 5312.0 : STOP DEPTH
STEP .F                    0.5 : STEP
NULL .                -9999.25 : NULL VALUE
COMP .                         : COMPANY
WELL .                         : WELL
FLD  .                         : FIELD
LOC  .                         : LOCATION
PROV .                         : PROVINCE
CNTY .                         : COUNTY
STAT .                         : STATE
CTRY .                         : COUNTRY
SRVC .                         : SERVICE COMPANY
DATE .                         : DATE
UWI  .                         : UNIQUE WELL ID
API  .                         : API NUMBER
SLAT .WGS84 3.0300680289002955 : SURFACE LATITUDE
SLON .WGS84  8.145633773402011 : SURFACE LONGITUDE
DATUM.F                4036.29 : DEPTH DATUM ELEV
~Curve Information -----------------------------------------
DEPT.F     : 
DTCO.US/F  : COMPRESSIONAL-WAVE INTERVAL TRANSIT TIME ACAUSTIC SLOWNESS
DTSM.US/F  : DTSM
DPHZ.DEC   : DENSITY POROSITY LIMESTONE
GRD .GAPI  : GAMMA RAY FROM DENSITY LOG
HDRA.G/C3  : DELTA RHO HIP TOOL
PEFZ.B/E   : HILT PHOTOELECTRIC FACTOR
TNPH.DEC   : THERMAL NEUTRON POROSITY lLIMESTONE
HCAL.IN    : CALIPER FROM DENSITY LOG
RHOZ.G/C3  : HILT BULK DENSITY
RLA3.OHMM  : HRLTB RESISTIVITY 3
RLA5.OHMM  : HRLTB RESISTIVITY 5
RXOZ.OHMM  : FLUSHED ZONE RESISTIVITY
SPR .MV    : SPONTANEOUS POTENTIAL FROM RES.
~Params ----------------------------------------------------
~Other -----------------------------------------------------
~ASCII -----------------------------------------------------
# ...
 3608.00000   -9999.25   -9999.25   -0.12950   11.95760    0.02580    5.60720    0.00590   12.51210    2.93450   91.98110   67.19790   31.72820  -44.13820
 3608.50000   -9999.25   -9999.25   -0.13700   12.27070    0.02580    5.71210    0.00440   12.49790    2.94980   66.03450  122.47830   31.29090  -44.28420
 3609.00000   -9999.25   -9999.25   -0.14840   12.57960    0.02130    5.72710    0.00200   12.49830    2.96150   70.79670  382.35190  275.37020  -44.73090
 3609.50000   -9999.25   -9999.25   -0.16140   12.10390    0.01310    5.74210   -0.00250   12.49880    2.97470   88.03430  129.44360  338.72710  -45.02720
 3610.00000   -9999.25   -9999.25   -0.16490   10.58140    0.00180    5.72710   -0.00610   12.51450    2.97080   98.55610  398.57190  383.51840  -45.02270
 3610.50000   -9999.25   -9999.25   -0.15830   10.32590    0.00180    5.68220   -0.00580   12.51490    2.95400   94.55680  366.92800  723.80050  -45.01830
 3611.00000   -9999.25   -9999.25   -0.15200   12.00390    0.00410    5.63720   -0.00040   12.53050    2.93590   59.53780  212.33230  588.34830  -45.16420
 3611.50000   -9999.25   -9999.25   -0.13310   13.98410    0.00100    5.57720    0.00470   12.53090    2.91380   46.11570   87.28860  211.75170  -45.31010
 3612.00000   -9999.25   -9999.25   -0.12130   14.59860    0.00120    5.51720    0.01100   12.50100    2.90620   48.39920   74.56610  133.32080  -45.75680
 3612.50000   -9999.25   -9999.25   -0.11890   14.75780    0.00840    5.51720    0.01880   12.48630    2.90410   50.79580   61.04910  113.60670  -46.27810
 3613.00000   -9999.25   -9999.25   -0.12100   15.37230    0.01610    5.50220    0.02450   12.42640    2.90360   43.63760   32.14080  100.05270  -46.64960
 3613.50000   -9999.25   -9999.25   -0.11620   16.13860    0.01310    5.44230    0.02630   12.41170    2.90090   22.96150   27.80720   63.67410  -46.64510
 3614.00000   -9999.25   -9999.25   -0.11950   17.20830    0.00710    5.38230    0.02420   12.39690    2.90260   34.74640   76.14600  165.09230  -46.64070
 3614.50000   -9999.25   -9999.25   -0.12950   16.60880   -0.00120    5.39730    0.01430   12.38220    2.92260   85.42260  224.95120  213.13230  -46.78610
 3615.00000   -9999.25   -9999.25   -0.14690   15.25060   -0.00270    5.50220    0.01040   12.35250    2.94280   96.62540  249.49480  980.12440  -46.78160
 3615.50000   -9999.25   -9999.25   -0.14930   13.74070   -0.00050    5.53220    0.01160   12.32260    2.94550   86.43950  412.87370  871.51990  -46.62680
 3616.00000   -9999.25   -9999.25   -0.14510   12.98940    0.00110    5.48430    0.01640   12.32320    2.94430   58.31730  242.73640  132.32970  -46.47200
 3616.50000   -9999.25   -9999.25   -0.14390   13.30050    0.00480    5.34930    0.02030   12.35390    2.94390   71.73860  125.17680  128.71860  -46.31710
 3617.00000   -9999.25   -9999.25   -0.14570   12.85280    0.01460    5.35630    0.02600   12.38460    2.93950  107.81130  128.68800  134.80660  -46.31270
 3617.50000   -9999.25   -9999.25   -0.13070   13.03250    0.02810    5.50980    0.02960   12.41530    2.92010   97.20460   79.40300   41.19290  -46.30830
 3618.00000   -9999.25   -9999.25   -0.12790   14.75360    0.04460    5.66720    0.03240   12.44600    2.91600   38.80490   41.23080   12.13550  -46.15340
 3618.50000   -9999.25   -9999.25   -0.12640   15.75850    0.04760    5.68220    0.03450   12.47670    2.92220   52.94420  106.10560   12.90050  -46.29940
 3619.00000   -9999.25   -9999.25   -0.13490   14.77050    0.03180    5.59220    0.03570   12.37130    2.92980  186.01400  347.63480   15.36370  -46.14450
 3619.50000   -9999.25   -9999.25   -0.12130   13.34740    0.01680    5.42730    0.03540   12.20390    2.91090  187.79430   81.64680  138.81570  -45.98970
 3620.00000   -9999.25   -9999.25   -0.11590   12.89780    0.01530    5.15740    0.03300   12.11500    2.89990   91.98110  142.77920  261.98200  -45.83490
 3620.50000   -9999.25   -9999.25   -0.11850   11.99670    0.01830    5.11240    0.02610   12.11540    2.90360  105.34440  290.60860  328.84310  -45.52970
 3621.00000   -9999.25   -9999.25   -0.13040   10.63860    0.01310    5.26240    0.01770   12.13330    2.91660  102.01790  362.42470  785.18020  -45.22450
 3621.50000   -9999.25   -9999.25   -0.11980   10.03720    0.01230    5.50220    0.01500   12.19210    2.90980   69.78440  404.75030 1006.68440  -45.06910
 3622.00000   -9999.25   -9999.25   -0.08020   11.77320    0.02290    5.72710    0.02710   12.20760    2.88540   37.23020  150.49670  261.90810  -45.06470
 3622.50000   -9999.25   -9999.25   -0.03840   15.81980    0.03360    5.84710    0.05350   12.25350    2.80660   26.54410   36.43790    3.57320  -45.06020
 3623.00000   -9999.25   -9999.25    0.07220   23.11110    0.04030    5.86210    0.08350   12.26910    2.73620   37.74780   27.46270    3.30400  -45.05520
 3623.50000   -9999.25   -9999.25    0.10920   28.73320    0.04760    5.78710    0.19530   12.31490    2.60410   11.67200   10.59960    1.82870  -45.20110
 3624.00000   -9999.25   -9999.25    0.05510   29.96670    0.05660    5.71210    0.18960   12.33050    2.53750   10.37940   14.45940    1.37780  -45.19670
 3624.50000   -9999.25   -9999.25   -0.01860   27.53420    0.05210    5.62220    0.13250   12.13430    2.53510   34.50730   42.13070    1.44930  -45.19220
 3625.00000   -9999.25   -9999.25   -0.08710   22.68590    0.03860    5.57720    0.08100   11.87750    2.65510   73.74740   99.12050  298.49990  -45.18780
 3625.50000   -9999.25   -9999.25   -0.11170   18.19690    0.02280    5.59220    0.02820   11.78710    2.75820   91.77340  178.18640  587.16890  -45.03300
 3626.00000   -9999.25   -9999.25   -0.14180   14.14200    0.00930    5.65220    0.00490   11.72710    2.84040  117.93550  238.09290  583.08940  -44.87810
 3626.50000   -9999.25   -9999.25   -0.15590   11.57650    0.00410    5.68220   -0.00260   11.71230    2.90620  130.80440  365.21070  919.61680  -44.72330
 3627.00000   -9999.25   -9999.25   -0.16190   10.72810    0.00630    5.71210   -0.00230   11.66740    2.96260  134.46710  476.20970  737.26820  -44.56850
 3627.50000   -9999.25   -9999.25   -0.14900   12.10320    0.00860    5.80210    0.00040   11.65270    2.97020  113.93370  724.96260  427.28190  -44.56400
 3628.00000   -9999.25   -9999.25   -0.13970   13.47640    0.01010    5.89210    0.00610   11.63820    2.96830   39.89150  908.10680   80.91830  -44.55960
 3628.50000   -9999.25   -9999.25   -0.13700   13.78740    0.00710    5.87710    0.00970   11.59320    2.95810   34.74640   57.89760   77.62940  -44.70550
 3629.00000   -9999.25   -9999.25   -0.14900   12.73270    0.00030    5.84710    0.00940   11.57850    2.92750   80.11770  222.31400  429.21030  -44.85140
 3629.50000   -9999.25   -9999.25   -0.15830   11.22280   -0.00200    5.80210    0.00610   11.57900    2.92920   88.24860  357.88020 1470.01350  -44.84700
 3630.00000   -9999.25   -9999.25   -0.15320   11.30510    0.00330    5.56220    0.00460   11.59460    2.93350  138.82660  908.35170 1820.76050  -44.84250
 3630.50000   -9999.25   -9999.25   -0.13730   11.99590    0.00260    5.25840    0.00820   11.57990    2.95720  167.71360  394.22470  212.65830  -44.83760
 3631.00000   -9999.25   -9999.25   -0.10830   13.36910    0.00260    4.64170    0.01660   11.56520    2.96570  121.23800  206.12240  101.58120  -44.68280
 3631.50000   -9999.25   -9999.25   -0.08470   15.65280    0.00560    4.29680    0.03950   11.55050    2.94920  127.24130  217.83340  105.14390  -44.75340
 3632.00000   -9999.25   -9999.25   -0.06810   19.15040    0.01910    4.06100    0.05060   11.55100    2.92110  103.43630  179.09230   94.13930  -44.67330
 3632.50000   -9999.25   -9999.25   -0.07630   21.13060    0.02740    4.03300    0.05240   11.55140    2.84740   70.75480  203.33890   55.70010  -44.66880
 3633.00000   -9999.25   -9999.25   -0.09100   20.98640    0.02810    4.24290    0.05030   11.52170    2.81650   41.86680   51.95490   53.25480  -44.51400
 3633.50000   -9999.25   -9999.25   -0.11380   17.64470    0.02250    4.72260    0.02380   11.49180    2.81830   61.20500   80.68420   86.63650  -44.20880
