~Version ---------------------------------------------------
VERS.   2.0 : CWLS log ASCII Standard -VERSION 2.0
WRAP.    NO : One line per depth step
DLM . SPACE : Column Data Section Delimiter
~Well ------------------------------------------------------
STRT .F                  176.0 : START DEPTH
STOP .F                 5312.0 : STOP DEPTH
STEP .F                    0.5 : STEP
NULL .                -9999.25 : NULL VALUE
COMP .                         : COMPANY
WELL .                         : WELL
FLD  .                         : FIELD
LOC  .                         : LOCATION
PROV .                         : PROVINCE
CNTY .                         : COUNTY
STAT .                         : STATE
CTRY .                         : COUNTRY
SRVC .                         : SERVICE COMPANY
DATE .                         : DATE
UWI  .                         : UNIQUE WELL ID
API  .                         : API NUMBER
SLAT .WGS84 3.0300680289002955 : SURFACE LATITUDE
SLON .WGS84  8.145633773402011 : SURFACE LONGITUDE
DATUM.F                4036.29 : DEPTH DATUM ELEV
~Curve Information -----------------------------------------
DEPT.F     : 
DTCO.US/F  : COMPRESSIONAL-WAVE INTERVAL TRANSIT TIME ACAUSTIC SLOWNESS
DTSM.US/F  : DTSM
DPHZ.DEC   : DENSITY POROSITY LIMESTONE
GRD .GAPI  : GAMMA RAY FROM DENSITY LOG
HDRA.G/C3  : DELTA RHO HIP TOOL
PEFZ.B/E   : HILT PHOTOELECTRIC FACTOR
TNPH.DEC   : THERMAL NEUTRON POROSITY lLIMESTONE
HCAL.IN    : CALIPER FROM DENSITY LOG
RHOZ.G/C3  : HILT BULK DENSITY
RLA3.OHMM  : HRLTB RESISTIVITY 3
RLA5.OHMM  : HRLTB RESISTIVITY 5
RXOZ.OHMM  : FLUSHED ZONE RESISTIVITY
SPR .MV    : SPONTANEOUS POTENTIAL FROM RES.
~Params ----------------------------------------------------
~Other -----------------------------------------------------
~ASCII -----------------------------------------------------
# ...
 3478.00000   -9999.25   -9999.25   -0.13770   13.62530    0.01490    5.47890    0.04010   11.85840    2.91390   56.33850   84.44790   83.68920  -43.15790
 3478.50000   -9999.25   -9999.25   -0.14180   14.69690    0.01190    5.43370    0.03800   11.85910    2.93850   41.29260   52.82730  102.92850  -43.15790
 3479.00000   -9999.25   -9999.25   -0.12340   16.98060    0.00890    5.44850    0.04040   11.87480    2.93380   44.24430   52.36890  106.52740  -43.15790
 3479.50000   -9999.25   -9999.25   -0.11680   17.44330    0.00440    5.53840    0.04120   11.87540    2.91490   21.42960   48.60730   23.15690  -43.15790
 3480.00000   -9999.25   -9999.25   -0.11530   16.08510    0.00140    5.67310    0.03760   11.84580    2.89710   25.29180   43.25250   17.93370  -43.15790
 3480.50000   -9999.25   -9999.25   -0.11950   11.99550    0.00130    5.79290    0.02120   11.80100    2.89300   91.34820   70.82840   84.76590  -43.30830
 3481.00000   -9999.25   -9999.25   -0.13070    8.65560    0.00130    5.83780    0.00440   11.77130    2.90570  119.57540  149.55790  369.60190  -43.30830
 3481.50000   -9999.25   -9999.25   -0.13880    7.44870    0.00130    5.79260   -0.00310   11.74150    2.93230  137.28140  306.89890  429.23080  -43.15790
 3482.00000   -9999.25   -9999.25   -0.15050    7.48210   -0.00100    5.67250   -0.00640   11.74230    2.94400  147.12280  869.85040 1184.08120  -43.00750
 3482.50000   -9999.25   -9999.25   -0.15230    8.77840   -0.00170    5.61240   -0.00640   11.74290    2.95170  154.48410  900.40300 1268.46610  -42.85710
 3483.00000   -9999.25   -9999.25   -0.14870   11.73140    0.00070    5.50730   -0.00030   11.74350    2.95450  151.90120  737.16380  614.25090  -42.70680
 3483.50000   -9999.25   -9999.25   -0.13850   13.25640    0.00130    5.44720    0.00630   11.74410    2.95410  116.67720  192.00350  148.72140  -42.70680
 3484.00000   -9999.25   -9999.25   -0.13250   14.32610   -0.00100    5.40210    0.01170   11.75980    2.95110   55.78090   60.24950  115.48630  -42.55640
 3484.50000   -9999.25   -9999.25   -0.11950   14.63710    0.00430    5.37190    0.02890   11.74520    2.91260   63.35480   50.70580  118.69580  -42.40600
 3485.00000   -9999.25   -9999.25   -0.07960   15.09980    0.01700    5.41680    0.04000   11.74580    2.89710   73.74740   72.09170  134.75150  -42.25560
 3485.50000   -9999.25   -9999.25   -0.04860   17.68700    0.03730    5.43170    0.07390   11.76160    2.79960    8.91670   34.22190   62.77050  -42.10530
 3486.00000   -9999.25   -9999.25   -0.03750   20.42590    0.05230    5.38650    0.09810   11.80880    2.76880    7.29880    7.76470    2.66050  -41.95490
 3486.50000   -9999.25   -9999.25   -0.06990   21.79910    0.04930    5.41630    0.09660   11.82330    2.78240   82.36120   24.57620    2.55220  -41.80450
 3487.00000   -9999.25   -9999.25   -0.10720   20.13740    0.04030    5.49110    0.07720   11.79360    2.87010  129.01050   76.24100  176.97140  -41.65410
 3487.50000   -9999.25   -9999.25   -0.13550   17.41350    0.01630    5.53600    0.05110   11.76400    2.88780   35.22950   36.41920   35.16760  -41.65410
 3488.00000   -9999.25   -9999.25   -0.14420   12.56520    0.00870    5.49080    0.02830   11.79500    2.92040   80.11770   48.66170  443.44700  -41.65410
 3488.50000   -9999.25   -9999.25   -0.15620   10.14480    0.00800    5.50570    0.01900   11.84080    2.95120  144.07920  445.10320 1102.12570  -41.50380
 3489.00000   -9999.25   -9999.25   -0.16010    8.63480    0.00500    5.53550    0.00940   11.84150    2.96320  151.21350  958.51510  895.75050  -41.20300
 3489.50000   -9999.25   -9999.25   -0.15950    7.27660    0.00420    5.53540    0.00040   11.85730    2.96770  154.37830  457.27760 1164.23610  -40.90230
 3490.00000   -9999.25   -9999.25   -0.15500    7.73940    0.00500    5.44530   -0.00290   11.87300    2.96840   87.03840  163.90450  159.35350  -40.60150
 3490.50000   -9999.25   -9999.25   -0.15080    9.71960    0.00640    5.31020   -0.00170   11.88870    2.96280   76.86660   79.98190  135.93430  -40.60150
 3491.00000   -9999.25   -9999.25   -0.14750   10.18230    0.00420    5.17510    0.00430   11.91960    2.95490   82.36120  109.85950  150.72850  -40.60150
 3491.50000   -9999.25   -9999.25   -0.13010   10.34160    0.00340    5.19000    0.01600   11.92020    2.89480   59.12820   96.36600  144.58240  -40.60150
 3492.00000   -9999.25   -9999.25   -0.09100   10.65260    0.00500    5.21980    0.03430   11.92080    2.82890   22.49080   18.02390   27.37710  -40.60150
 3492.50000   -9999.25   -9999.25   -0.06930   11.87940    0.01020    5.26460    0.05700   11.90620    2.80730   16.03530   16.02960    3.15330  -40.60150
 3493.00000   -9999.25   -9999.25   -0.06030   13.41710    0.00790    5.35440    0.06270   11.87660    2.80110   87.03840   90.57360    3.13110  -40.60150
 3493.50000   -9999.25   -9999.25   -0.08980   13.86170    0.00420    5.47420    0.05470   11.87720    2.81540  116.31820  367.49900  409.76990  -40.45110
 3494.00000   -9999.25   -9999.25   -0.12220   12.76290   -0.00340    5.59400    0.03820   11.89290    2.91140  140.15460  864.58280  582.60550  -40.45110
 3494.50000   -9999.25   -9999.25   -0.15490   11.26860   -0.00640    5.60890    0.00920   11.92380    2.96950  135.39880  882.68630  607.07420  -40.30080
 3495.00000   -9999.25   -9999.25   -0.16250   12.06520   -0.00410    5.48870   -0.00200   11.96980    2.97090  103.43630  511.82410  274.38470  -40.00000
 3495.50000   -9999.25   -9999.25   -0.15890   14.04540    0.00410    5.30870    0.00820   12.01580    2.96610   87.03370  214.58960  131.95620  -39.62410
 3496.00000   -9999.25   -9999.25   -0.14180   18.60520    0.00790    5.18860    0.01870   12.04670    2.95350   86.43950  239.64230  141.55770  -39.09770
 3496.50000   -9999.25   -9999.25   -0.13730   21.34410    0.00110    5.12850    0.02080   12.04730    2.94230   95.21190  322.41650  244.91930  -38.49620
 3497.00000   -9999.25   -9999.25   -0.13130   23.02080   -0.00490    5.05340    0.02140   12.04790    2.93110   88.32310  144.83260  483.54620  -37.89470
 3497.50000   -9999.25   -9999.25   -0.12310   26.21500   -0.00420    4.90330    0.02620   12.03320    2.91820   56.69260   82.82940  425.72870  -37.29320
 3498.00000   -9999.25   -9999.25   -0.09310   30.77490   -0.00120    4.66330    0.03930   11.97340    2.87400   24.60280   28.62700  101.39910  -36.69170
 3498.50000   -9999.25   -9999.25   -0.06780   40.03880    0.00110    4.57320    0.05190   11.98910    2.84470   29.03680   39.86680   49.44250  -36.09020
 3499.00000   -9999.25   -9999.25   -0.05700   42.62600    0.00110    4.51300    0.06540   12.03510    2.82970   35.98500   51.18850   76.36900  -35.78950
 3499.50000   -9999.25   -9999.25   -0.05220   42.93510   -0.00120    4.40790    0.07410   12.06600    2.82260   20.99030   35.94980   67.43030  -35.33830
 3500.00000   -9999.25   -9999.25   -0.02910   42.48740   -0.00200    4.21290    0.08230   12.12710    2.79520   14.86260   19.32190   36.97400  -34.88720
 3500.50000   -9999.25   -9999.25   -0.00970   46.78110   -0.00200    4.04800    0.09580   12.23350    2.75950   16.02800   16.46790   28.44160  -34.13100
 3501.00000   -9999.25   -9999.25    0.00920   51.10020    0.00180    3.76310    0.10510   12.30960    2.72380   17.30310   17.00280   30.47460  -33.52460
 3501.50000   -9999.25   -9999.25    0.01370   50.77220    0.00180    3.74810    0.11070   12.32520    2.69200   21.73220   21.46270   34.50730  -32.76820
 3502.00000   -9999.25   -9999.25    0.01870   47.90760   -0.00120    3.85310    0.11180   12.34070    2.68640   24.80270   24.43340   36.46700  -32.31260
 3502.50000   -9999.25   -9999.25    0.00910   41.92100   -0.00120    3.98800    0.10910   12.35630    2.68530   17.91450   26.72700   35.47360  -32.45850
 3503.00000   -9999.25   -9999.25    0.00040   39.04540    0.00250    4.25790    0.10340   12.35680    2.69910   26.30420   24.26690   50.09920  -32.60450
 3503.50000   -9999.25   -9999.25    0.00340   37.68720    0.00100    4.46900    0.09770   12.40260    2.71120   29.25210   25.64480   54.05230  -32.75040
