~Version ---------------------------------------------------
VERS.   2.0 : CWLS log ASCII Standard -VERSION 2.0
WRAP.    NO : One line per depth step
DLM . SPACE : Column Data Section Delimiter
~Well ------------------------------------------------------
STRT .F                  176.0 : START DEPTH
STOP .F                 5312.0 : STOP DEPTH
STEP .F                    0.5 : STEP
NULL .                -9999.25 : NULL VALUE
COMP .                         : COMPANY
WELL .                         : WELL
FLD  .                         : FIELD
LOC  .                         : LOCATION
PROV .                         : PROVINCE
CNTY .                         : COUNTY
STAT .                         : STATE
CTRY .                         : COUNTRY
SRVC .                         : SERVICE COMPANY
DATE .                         : DATE
UWI  .                         : UNIQUE WELL ID
API  .                         : API NUMBER
SLAT .WGS84 3.0300680289002955 : SURFACE LATITUDE
SLON .WGS84  8.145633773402011 : SURFACE LONGITUDE
DATUM.F                4036.29 : DEPTH DATUM ELEV
~Curve Information -----------------------------------------
DEPT.F     : 
DTCO.US/F  : COMPRESSIONAL-WAVE INTERVAL TRANSIT TIME ACAUSTIC SLOWNESS
DTSM.US/F  : DTSM
DPHZ.DEC   : DENSITY POROSITY LIMESTONE
GRD .GAPI  : GAMMA RAY FROM DENSITY LOG
HDRA.G/C3  : DELTA RHO HIP TOOL
PEFZ.B/E   : HILT PHOTOELECTRIC FACTOR
TNPH.DEC   : THERMAL NEUTRON POROSITY lLIMESTONE
HCAL.IN    : CALIPER FROM DENSITY LOG
RHOZ.G/C3  : HILT BULK DENSITY
RLA3.OHMM  : HRLTB RESISTIVITY 3
RLA5.OHMM  : HRLTB RESISTIVITY 5
RXOZ.OHMM  : FLUSHED ZONE RESISTIVITY
SPR .MV    : SPONTANEOUS POTENTIAL FROM RES.
~Params ----------------------------------------------------
~Other -----------------------------------------------------
~ASCII -----------------------------------------------------
# ...
 4440.00000   45.85150   81.23140   -0.08830   24.94670   -0.00460    4.04790    0.04530    9.50910    2.82870  270.13430  274.76020  271.20820 -168.37380
 4440.50000   45.58090   80.78390   -0.10060   24.34890   -0.00310    3.95820    0.04290    9.50950    2.84390  622.17790  533.21340  451.99840 -168.51840
 4441.00000   45.53640   80.48650   -0.10360   22.84510   -0.00090    3.89830    0.03900    9.49470    2.85970 1125.79410 1563.45540  540.91430 -168.81370
 4441.50000   45.88160   80.33930   -0.11910   20.28540    0.00060    3.91340    0.03450    9.49520    2.86810 1901.35500 3408.21800  567.79460 -168.80770
 4442.00000   46.57160   80.79880   -0.12360   16.82080    0.00140    3.88350    0.03150    9.51060    2.88790 2306.50780 4750.93310  824.28610 -168.80170
 4442.50000   47.24680   81.26110   -0.12270   15.76920    0.00140    3.77880    0.03190    9.51100    2.89270 1941.61840 4914.13620 1086.46880 -168.94640
 4443.00000   47.74190   81.69970   -0.11250   18.18710    0.00070    3.64420    0.03570    9.51130    2.90910 1044.14820 1962.49650 1109.36050 -168.93970
 4443.50000   47.78690   82.00360   -0.09670   25.73780   -0.00080    3.53950    0.04200    9.51170    2.91070  373.86410  518.60440  813.49050 -169.00900
 4444.00000   47.47190   82.00650   -0.08440   33.24840   -0.00380    3.50960    0.05270    9.51210    2.89870  134.78590  148.30920  137.21700 -169.07840
 4444.50000   46.93170   81.85860   -0.08590   39.33000   -0.00450    3.49470    0.05990    9.51250    2.87640  157.96690  157.73900  146.03710 -169.07240
 4445.00000   46.07650   81.56130   -0.09130   42.94200   -0.00220    3.49480    0.06170    9.49780    2.85750  143.45290  140.33290  144.06540 -168.91510
 4445.50000   45.40140   80.96440   -0.09730   42.04150    0.00150    3.53970    0.05750    9.48310    2.85320  194.32110  164.49040  197.91390 -168.90910
 4446.00000   44.86120   80.36670   -0.10110   39.78350    0.00080    3.64560    0.04970    9.48340    2.85770  376.70760 1008.51890  300.04340 -168.75250
 4446.50000   44.59110   79.91920   -0.10540   32.24640   -0.00150    3.78350    0.04190    9.46880    2.86870 1475.29220 2817.80180 1084.15260 -168.74660
 4447.00000   44.63760   79.62110   -0.10260   28.48010   -0.00290    3.93140    0.03590    9.46910    2.87710  740.51900 1612.55330  909.17210 -168.74060
 4447.50000   44.87570   79.47400   -0.09970   26.37300   -0.00210    3.95920    0.03120    9.46950    2.87770  761.32770 1357.63290 1193.07690 -168.73460
 4448.00000   45.40140   79.32680   -0.09550   26.67910    0.00080    3.82460    0.02780    9.46990    2.87550 1506.73950 1801.58740  909.02910 -168.72870
 4448.50000   45.89650   80.53170   -0.08800   28.49350   -0.00230    3.76480    0.02570    9.47030    2.87340 1571.78200 2374.29370 1009.59840 -168.57210
 4449.00000   46.66170   82.03610   -0.09160   29.85540   -0.00360    3.80970    0.02400    9.47070    2.86830 1446.08130 2232.06540 1067.10620 -168.26490
 4449.50000   47.29180   82.94000   -0.09670   30.16150    0.00010    3.85470    0.02720    9.48610    2.85970  856.40260  476.61410 1003.06790 -168.10840
 4450.00000   47.78690   83.54350   -0.09580   29.71340    0.00390    3.85480    0.03400    9.48650    2.86070  258.11220  254.58360  257.72540 -167.80120
 4450.50000   47.74190   83.38970   -0.08690   28.51030    0.00620    3.81000    0.04310    9.50190    2.86420  192.64620  184.17480  180.06980 -167.79680
 4451.00000   47.38180   83.68470   -0.07890   29.26740    0.00470    3.75020    0.05420    9.51740    2.86710  190.65530  192.00520  198.37070 -167.64170
 4451.50000   46.75170   83.83030   -0.08200   30.77870    0.00170    3.69040    0.05870    9.51770    2.86320  160.58450  197.41400  132.97920 -167.48670
 4452.00000   46.21160   83.03900   -0.08470   33.19500   -0.00130    3.64550    0.05810    9.51810    2.84250   93.76540  102.58760  101.62410 -167.18100
 4452.50000   45.44640   81.41800   -0.08770   34.85710   -0.00350    3.73540    0.05450    9.51850    2.84510  162.80740  111.46580  172.90970 -167.17650
 4453.00000   44.77120   80.81300   -0.10010   35.46260   -0.00280    3.88520    0.04580    9.53390    2.84880  338.15870  253.24900  272.68030 -167.47330
 4453.50000   44.50110   80.35820   -0.10830   34.41060    0.00250    4.00500    0.03290    9.53430    2.85600 1572.39430 2409.38480  463.93210 -167.99550
 4454.00000   44.73770   80.20370   -0.11970   34.26200    0.00250    3.93020    0.02390    9.53470    2.87770 2267.97140 6744.41800 1145.65210 -168.44270
 4454.50000   45.26630   80.04910   -0.11490   34.86910    0.00100    3.82510    0.01880    9.53500    2.89950 1769.96090 6934.40920 1047.58790 -168.81480
 4455.00000   45.67140   79.89460   -0.09010   35.47540   -0.00190    3.76570    0.02160    9.55050    2.89950 1026.89320 1155.37900 1000.40030 -168.96040
 4455.50000   45.85150   79.89020   -0.08350   35.78000   -0.00190    3.75080    0.02550    9.55080    2.90020  477.83550  647.65840  634.47390 -168.80540
 4456.00000   45.76140   79.88580   -0.07600   35.78300    0.00180    3.73590    0.03130    9.56630    2.88820  284.98110  283.25860  374.81120 -168.65030
 4456.50000   45.26630   79.88140   -0.07950   35.48360    0.00110    3.72100    0.03910    9.58170    2.85640  185.89840  142.20030  140.31490 -168.49530
 4457.00000   44.68120   79.87690   -0.07650   35.03480   -0.00340    3.69120    0.04350    9.59710    2.83990  195.12920  172.72820  120.17420 -168.34020
 4457.50000   44.41110   79.72140   -0.07590   33.98200   -0.00410    3.66130    0.04400    9.59750    2.83500  449.45510  427.46140  324.62610 -168.63700
 4458.00000   44.23110   79.56680   -0.09330   31.87340   -0.00250    3.63140    0.03710    9.61300    2.83640 1163.98790 1117.31450  638.41830 -168.93370
 4458.50000   44.18600   78.96180   -0.09810   28.40730    0.00270    3.61650    0.02870    9.62850    2.83900 1899.37950 3561.15940  796.29580 -169.23050
 4459.00000   44.05100   78.20670   -0.10140   21.77380    0.00640    3.63160    0.02180    9.64390    2.84850 2007.48520 4925.24900 1007.01550 -169.22610
 4459.50000   44.00550   77.90200   -0.09990   13.48120    0.00790    3.66160    0.01820    9.65930    2.86550 1887.09920 5029.19820 1117.04050 -169.07100
 4460.00000   44.14100   78.04890   -0.08610   12.57920    0.00270    3.70660    0.01670    9.67470    2.87320 1674.09880 3467.12820  813.44880 -168.76540
 4460.50000   44.16680   78.34370   -0.08670   15.18430    0.00050    3.73660    0.01700    9.69020    2.87180 1786.56850 4120.39060  733.62720 -168.61030
 4461.00000   44.18600   78.48940   -0.08760   19.74490    0.00270    3.76660    0.01820    9.72070    2.85050 1702.74660 4763.55130  749.12310 -168.15410
 4461.50000   44.36610   78.79190   -0.08610   23.22320    0.00500    3.79660    0.02060    9.75120    2.85070 1275.16050 3393.42260  770.20260 -167.84790
 4462.00000   44.72620   79.10330   -0.08700   25.62320    0.00350    3.75180    0.02300    9.79670    2.85110  768.69760 1331.26680  228.75770 -167.54220
 4462.50000   45.22130   79.82650   -0.09070   25.41300   -0.00170    3.69200    0.02660    9.82720    2.85150  773.00590 1486.91980  233.58940 -167.38710
 4463.00000   45.71640   81.02330   -0.09720   20.13940   -0.00470    3.66210    0.03110    9.87280    2.85150 1096.24930 1783.46810  327.61090 -167.38210
 4463.50000   46.30160   82.52040   -0.09600   15.61750   -0.00690    3.72430    0.03550    9.91830    2.85140 1119.32910 2382.89580  928.71280 -167.67890
 4464.00000   46.97670   84.01750   -0.08660   14.11220   -0.00770    3.82900    0.04540    9.94880    2.86010  904.17820 2478.55710  798.09120 -167.97560
 4464.50000   48.10200   85.96510   -0.07690   13.51110   -0.00470    3.84200    0.06340    9.97930    2.86870  610.49740 1227.31910  553.78320 -167.97120
 4465.00000   49.36230   87.91270   -0.05230   14.41980   -0.00010    3.85700    0.07930   10.02480    2.86220  447.75630  732.02290  408.87750 -167.96680
 4465.50000   50.44260   90.31070   -0.03540   13.51780    0.00440    3.91700    0.09720   10.05530    2.84770  349.41850  393.71490  312.48420 -167.81170
