~Version ---------------------------------------------------
VERS.   2.0 : CWLS log ASCII Standard -VERSION 2.0
WRAP.    NO : One line per depth step
DLM . SPACE : Column Data Section Delimiter
~Well ------------------------------------------------------
STRT .F                  176.0 : START DEPTH
STOP .F                 5312.0 : STOP DEPTH
STEP .F                    0.5 : STEP
NULL .                -9999.25 : NULL VALUE
COMP .                         : COMPANY
WELL .                         : WELL
FLD  .                         : FIELD
LOC  .                         : LOCATION
PROV .                         : PROVINCE
CNTY .                         : COUNTY
STAT .                         : STATE
CTRY .                         : COUNTRY
SRVC .                         : SERVICE COMPANY
DATE .                         : DATE
UWI  .                         : UNIQUE WELL ID
API  .                         : API NUMBER
SLAT .WGS84 3.0300680289002955 : SURFACE LATITUDE
SLON .WGS84  8.145633773402011 : SURFACE LONGITUDE
DATUM.F                4036.29 : DEPTH DATUM ELEV
~Curve Information -----------------------------------------
DEPT.F     : 
DTCO.US/F  : COMPRESSIONAL-WAVE INTERVAL TRANSIT TIME ACAUSTIC SLOWNESS
DTSM.US/F  : DTSM
DPHZ.DEC   : DENSITY POROSITY LIMESTONE
GRD .GAPI  : GAMMA RAY FROM DENSITY LOG
HDRA.G/C3  : DELTA RHO HIP TOOL
PEFZ.B/E   : HILT PHOTOELECTRIC FACTOR
TNPH.DEC   : THERMAL NEUTRON POROSITY lLIMESTONE
HCAL.IN    : CALIPER FROM DENSITY LOG
RHOZ.G/C3  : HILT BULK DENSITY
RLA3.OHMM  : HRLTB RESISTIVITY 3
RLA5.OHMM  : HRLTB RESISTIVITY 5
RXOZ.OHMM  : FLUSHED ZONE RESISTIVITY
SPR .MV    : SPONTANEOUS POTENTIAL FROM RES.
~Params ----------------------------------------------------
~Other -----------------------------------------------------
~ASCII -----------------------------------------------------
# ...
 5142.00000   48.34720   86.19220   -0.01790   24.48870   -0.00560    5.81470    0.10060    8.40880    2.73250   89.95650   42.51540  106.21600 -115.23430
 5142.50000   48.61050   86.18620   -0.02090   25.72470   -0.00040    5.57520    0.09210    8.48460    2.73850   62.86620   65.22910  162.94700 -114.62300
 5143.00000   49.10470   86.33060   -0.02060   27.71850    0.00410    5.48550    0.08220    8.50020    2.74680  100.48090  106.38750  288.95090 -113.86110
 5143.50000   49.46390   86.47480   -0.02150   29.71580    0.00640    5.63530    0.07820    8.49930    2.74750   67.83910   68.45280  253.50340 -113.09910
 5144.00000   49.77810   86.61900   -0.02510   31.60290    0.00030    5.80000    0.08600    8.48610    2.74990   83.74160   86.55760  217.84860 -112.33720
 5144.50000   49.86750   86.76330   -0.02930   33.72050   -0.00570    5.96470    0.09280    8.47160    2.75280   66.01910   38.38480  227.11450 -111.42470
 5145.00000   49.91160   86.90750   -0.01880   34.63140   -0.00480    5.96540    0.09670    8.44200    2.75050   24.13330   19.40300   93.28400 -110.36160
 5145.50000   49.82050   86.90010   -0.02150   32.97820    0.00940    5.79810    0.09580    8.44260    2.74880   13.24990   13.56120   85.88530 -108.84670
 5146.00000   49.63950   86.89420   -0.04210   29.96760    0.02510    5.51110    0.08360    8.44310    2.74590   95.84720   79.77680  126.42110 -107.48230
 5146.50000   49.50360   87.03990   -0.06190   27.25860    0.03860    5.36360    0.07640    8.45870    2.74480  102.70100  104.41440  248.62290 -106.41920
 5147.00000   49.86280   87.18410   -0.07090   25.15290    0.04240    5.41120    0.07610    8.48940    2.78970   95.22090   98.83850  329.95450 -104.90430
 5147.50000   51.12220   88.22780   -0.04820   25.30970    0.02140    5.80050    0.08090    8.48990    2.81880   75.33720   77.13630  210.76970 -103.23880
 5148.00000   52.38170   89.72340   -0.02570   26.06980    0.00570    6.38440    0.08980    8.49040    2.78490   39.41360   43.06350  167.88820 -101.19560
 5148.50000   52.87590   92.11990   -0.01010   25.01990    0.00050    6.53420    0.10570    8.49090    2.75270   12.29510   12.27740   58.03440  -98.32530
 5149.00000   53.42160   94.21600    0.00400   23.51750    0.00420    6.41450    0.12160    8.49140    2.74380    6.38810    6.22390   27.55360  -96.58440
 5149.50000   54.33310   95.41130    0.01900   22.01520    0.00800    6.17510    0.13950    8.49200    2.73500    5.15980    5.35850   20.48460  -94.76720
 5150.00000   54.88380   96.31790    0.02760   21.41780   -0.00020    5.95060    0.16080    8.44730    2.68450    6.94140    7.16000   20.91730  -92.64990
 5150.50000   55.21300   96.90420    0.01460   20.97150   -0.01160    5.84590    0.16710    8.41670    2.66820    7.75220    8.10610   25.12760  -90.53250
 5151.00000   55.39190   97.35170    0.01050   20.98070   -0.01370    5.80110    0.17540    8.37300    2.68110    5.19390    5.54810   27.95940  -89.77060
 5151.50000   55.43620   97.49890    0.01170   21.13900   -0.00990    5.72630    0.18080    8.43390    2.69060    4.08440    4.63770   25.76450  -89.15930
 5152.00000   55.30010   97.34510    0.02160   21.59880   -0.00470    5.60660    0.18680    8.44950    2.68840    6.66500    5.10760   19.80530  -88.54740
 5152.50000   54.84910   96.89170    0.03030   22.21750   -0.00020    5.41130    0.18920    8.46510    2.67910    6.05280    6.28110   17.37440  -88.08670
 5153.00000   54.66820   96.28810    0.02730   22.97130    0.00510    5.19860    0.18050    8.46560    2.66580    5.65030    5.70320   17.49710  -87.77660
 5153.50000   54.48720   95.08400    0.02100   22.37700    0.00880    5.03320    0.16970    8.46610    2.66430    6.05480    5.95290   19.27400  -87.46650
 5154.00000   54.17130   92.97890    0.01350   21.47950    0.00960    4.87340    0.16400    8.48170    2.67330    6.22520    6.19510   22.74790  -87.45770
 5154.50000   53.54020   91.62460    0.01710   20.73270    0.00660    4.84350    0.16370    8.49730    2.68210    5.38710    6.15250   22.13170  -87.29820
 5155.00000   52.50410   90.09130    0.02250   19.83510    0.00510    5.08310    0.16250    8.49780    2.68100    5.27750    6.19510   22.29840  -87.28930
 5155.50000   51.46790   88.72410    0.02460   19.08840    0.00740    5.39750    0.15240    8.48320    2.67560    6.67290    6.59900   23.16570  -87.43100
 5156.00000   50.65690   87.86130    0.02190   17.58750    0.01190    5.51740    0.12780    8.48380    2.67270   43.52690   38.38820   39.52680  -87.57280
 5156.50000   49.84420   87.70820    0.00730   18.80150    0.01340    5.48750    0.10740    8.46920    2.67630  117.48130  120.08070  103.14070  -88.01570
 5157.00000   49.52980   87.70520    0.00380   21.82550    0.01110    5.57740    0.07930    8.45470    2.71090   14.95660   15.07560  177.90700  -88.15740
 5157.50000   49.81820   87.85240   -0.01650   24.69870    0.00500    5.86190    0.07660    8.45520    2.72630   12.24440   12.68890  140.72760  -88.44870
 5158.00000   50.51810   88.14980   -0.03450   26.21440   -0.00080    6.23620    0.07910    8.45570    2.74690   19.01210   16.48910  119.26910  -88.51510
 5158.50000   51.10230   88.74740   -0.05370   26.23130   -0.00380    6.43090    0.08680    8.45640    2.76820   42.96900   41.53320  157.19430  -88.58150
 5159.00000   51.55150   89.49520   -0.05790   22.87500   -0.00150    6.25130    0.09640    8.45690    2.79880   46.36020   44.80530  179.23570  -88.42090
 5159.50000   52.13580   90.09290   -0.04230   19.54440    0.00070    5.95200    0.11190    8.44220    2.80010   11.36210   18.53940  150.86100  -88.26140
 5160.00000   52.76510   91.29110   -0.02040   18.10100   -0.00370    5.75750    0.13020    8.41270    2.80000    5.70340   10.60670   45.42420  -87.95140
 5160.50000   53.21430   92.33920    0.00050   18.86260   -0.00450    5.89840    0.14040    8.38300    2.72870    6.77730   10.17690   40.92810  -87.79190
 5161.00000   53.43850   93.68760   -0.00400   19.47330    0.00080    6.05710    0.14840    8.35340    2.71650    5.74480    7.41130   49.70000  -87.33120
 5161.50000   53.57260   94.88890   -0.01030   19.17900    0.00080    5.99720    0.14990    8.39920    2.71160    4.97110    6.50140   56.69250  -86.87050
 5162.00000   53.57170   95.64740   -0.00910   18.43230   -0.00150    5.87760    0.14900    8.44490    2.72210    5.29020    5.74270   56.04380  -86.56040
 5162.50000   53.66090   96.10610    0.00900   17.68550   -0.00440    5.86260    0.14600    8.46050    2.70790    4.36250    5.39720   32.98110  -86.25040
 5163.00000   53.75000   96.52870    0.02000   16.63710   -0.00220    6.01240    0.14180    8.46100    2.68050    4.42380    5.03760   34.26170  -86.09090
 5163.50000   53.79410   96.67590    0.01100   16.19020   -0.00060    6.22210    0.13690    8.44650    2.68540    7.52330    8.86620   44.84580  -86.08200
 5164.00000   53.88330   96.82310   -0.00400   16.35030    0.00170    6.41680    0.13370    8.43190    2.70530    6.69240    7.49160   60.75970  -86.22370
 5164.50000   53.79240   96.81940   -0.00850   16.96100    0.00310    6.47670    0.13970    8.43250    2.71770    4.00240    4.16310   37.49180  -86.21380
 5165.00000   53.74640   96.36600    0.00140   17.72250    0.00390    6.19240    0.14420    8.44800    2.71800    3.26850    3.77120   19.33550  -86.50610
 5165.50000   53.69230   95.46220    0.01340   19.10730    0.00310    6.02780    0.13850    8.46360    2.69360    4.42710    4.32870   19.07250  -87.09850
 5166.00000   53.47440   94.70850    0.01610   21.90010   -0.00290    5.99520    0.12300    8.47930    2.68730    8.82380    8.39040   25.48730  -87.84270
 5166.50000   53.38350   94.25510   -0.00040   25.58970   -0.01780    6.32730    0.09990    8.46460    2.70130   21.62470   20.84460   47.42910  -88.58680
 5167.00000   53.20260   94.25210   -0.01000   26.19860   -0.03280    6.73160    0.09540    8.45010    2.72180   19.23560   18.79680   79.03630  -89.18030
 5167.50000   53.38170   94.69960   -0.01100   24.69950   -0.04470    6.66640    0.10290    8.43560    2.72620   22.85760   23.11560   94.57750  -89.77390
