~Version ---------------------------------------------------
VERS.   2.0 : CWLS log ASCII Standard -VERSION 2.0
WRAP.    NO : One line per depth step
DLM . SPACE : Column Data Section Delimiter
~Well ------------------------------------------------------
STRT .F                  176.0 : START DEPTH
STOP .F                 5312.0 : STOP DEPTH
STEP .F                    0.5 : STEP
NULL .                -9999.25 : NULL VALUE
COMP .                         : COMPANY
WELL .                         : WELL
FLD  .                         : FIELD
LOC  .                         : LOCATION
PROV .                         : PROVINCE
CNTY .                         : COUNTY
STAT .                         : STATE
CTRY .                         : COUNTRY
SRVC .                         : SERVICE COMPANY
DATE .                         : DATE
UWI  .                         : UNIQUE WELL ID
API  .                         : API NUMBER
SLAT .WGS84 3.0300680289002955 : SURFACE LATITUDE
SLON .WGS84  8.145633773402011 : SURFACE LONGITUDE
DATUM.F                4036.29 : DEPTH DATUM ELEV
~Curve Information -----------------------------------------
DEPT.F     : 
DTCO.US/F  : COMPRESSIONAL-WAVE INTERVAL TRANSIT TIME ACAUSTIC SLOWNESS
DTSM.US/F  : DTSM
DPHZ.DEC   : DENSITY POROSITY LIMESTONE
GRD .GAPI  : GAMMA RAY FROM DENSITY LOG
HDRA.G/C3  : DELTA RHO HIP TOOL
PEFZ.B/E   : HILT PHOTOELECTRIC FACTOR
TNPH.DEC   : THERMAL NEUTRON POROSITY lLIMESTONE
HCAL.IN    : CALIPER FROM DENSITY LOG
RHOZ.G/C3  : HILT BULK DENSITY
RLA3.OHMM  : HRLTB RESISTIVITY 3
RLA5.OHMM  : HRLTB RESISTIVITY 5
RXOZ.OHMM  : FLUSHED ZONE RESISTIVITY
SPR .MV    : SPONTANEOUS POTENTIAL FROM RES.
~Params ----------------------------------------------------
~Other -----------------------------------------------------
~ASCII -----------------------------------------------------
# ...
 3738.00000   -9999.25   -9999.25   -0.14690   14.49490    0.02980    5.69000    0.00930   11.71920    2.93920  103.60710  144.26050   18.67610  -60.86320
 3738.50000   -9999.25   -9999.25   -0.15200   13.43570    0.02580    5.28550    0.00480   11.79550    2.95220  138.45140  230.37390   24.09850  -61.53820
 3739.00000   -9999.25   -9999.25   -0.14810   12.37650    0.01620    5.04590    0.00030   11.82630    2.95100  218.35790  694.94390   62.29580  -61.83750
 3739.50000   -9999.25   -9999.25   -0.14300   12.22760    0.01250    4.98620   -0.00510   11.84210    2.94540  202.37460 1036.96000  389.86570  -61.98640
 3740.00000   -9999.25   -9999.25   -0.14450   12.53420    0.01020    5.01650   -0.00930   11.85790    2.94190  131.89230 1134.31960  141.12560  -61.83450
 3740.50000   -9999.25   -9999.25   -0.14510   13.44830    0.01020    5.13680   -0.01110   11.90390    2.93590  105.01210  163.23930  149.13980  -61.83310
 3741.00000   -9999.25   -9999.25   -0.13660   14.36120    0.01550    5.28700   -0.01080   11.96500    2.93040  130.24960  228.91310  209.18000  -61.98200
 3741.50000   -9999.25   -9999.25   -0.13370   13.71380    0.01170    5.49720   -0.01050   12.04120    2.93270  176.87700  593.17560  271.93390  -61.98050
 3742.00000   -9999.25   -9999.25   -0.14180   11.63640    0.00640    5.67740   -0.01140   12.13260    2.93490  175.44940 1002.13920  378.78370  -62.12940
 3742.50000   -9999.25   -9999.25   -0.13940   11.18340    0.00120    5.76760   -0.01350   12.20880    2.93610  131.84540  366.01750  182.20080  -62.72940
 3743.00000   -9999.25   -9999.25   -0.14240   11.64240   -0.00110    5.75300   -0.01380   12.26990    2.93710  105.70200  303.02330  174.80720  -62.87830
 3743.50000   -9999.25   -9999.25   -0.13820   12.55580   -0.00030    5.66330   -0.01250   12.36130    2.93330  114.82680  262.77250  188.60050  -62.87680
 3744.00000   -9999.25   -9999.25   -0.13550   13.77280    0.00190    5.55860   -0.00420   12.43760    2.92900   96.61490  216.70800  124.63290  -62.72480
 3744.50000   -9999.25   -9999.25   -0.12460   14.53450    0.00340    5.52890    0.00060   12.51380    2.92080   45.51750  117.28570   36.21600  -62.57300
 3745.00000   -9999.25   -9999.25   -0.11800   14.38570    0.00340    5.57420    0.00090   12.59000    2.90180   44.27460   39.98080   42.15680  -62.27050
 3745.50000   -9999.25   -9999.25   -0.11920   13.32650    0.00190    5.67950   -0.00090   12.68150    2.89880   50.13000  118.11370  171.47610  -62.26910
 3746.00000   -9999.25   -9999.25   -0.12760   11.28840    0.00190    5.79970   -0.00540   12.74370    2.91530  158.78730  631.56740 1074.98890  -62.11720
 3746.50000   -9999.25   -9999.25   -0.14030    8.36930    0.00260    5.84500   -0.01980   12.80360    2.94620  176.10180 1285.47420 1285.65940  -62.11570
 3747.00000   -9999.25   -9999.25   -0.15980    6.50740    0.00410    5.73930   -0.02520   12.81950    2.96390  187.37900 3354.09010  955.41140  -61.96390
 3747.50000   -9999.25   -9999.25   -0.16730    7.11740    0.00480    5.53940   -0.02730   12.88060    2.97530  191.29090 5325.32180  820.77360  -61.81200
 3748.00000   -9999.25   -9999.25   -0.17600    8.63780    0.00410    5.37520   -0.02760   12.92660    2.98250  170.09170 4183.17870  734.93240  -61.81050
 3748.50000   -9999.25   -9999.25   -0.17100   10.99580    0.00560    5.21100   -0.02520   12.98770    2.99030  153.34730 3424.93160  614.16690  -61.65870
 3749.00000   -9999.25   -9999.25   -0.16130   15.01730    0.00710    5.02190   -0.02100   13.04880    2.98980  148.13380 2057.54050  492.41850  -61.80760
 3749.50000   -9999.25   -9999.25   -0.14240   21.24180    0.00560    4.72240   -0.01080   13.10990    2.98920  113.15740 1294.91540  440.91850  -61.80610
 3750.00000   -9999.25   -9999.25   -0.12100   28.47940    0.00330    4.49760    0.00510   13.14070    2.95420  100.40780 1077.44860  407.30490  -61.80460
 3750.50000   -9999.25   -9999.25   -0.11050   38.64130    0.00170    4.39280    0.01230   13.21690    2.89410   93.90620  741.97490  233.59390  -61.42570
 3751.00000   -9999.25   -9999.25   -0.10810   38.85270   -0.00200    4.63270    0.01440   13.26270    2.88730   93.26010  417.77410  192.52240  -61.04660
 3751.50000   -9999.25   -9999.25   -0.11140   29.90350   -0.00120    4.93250    0.00870   13.33880    2.88370   91.34820  340.05770  305.73400  -60.74290
 3752.00000   -9999.25   -9999.25   -0.12220   22.77440    0.00180    5.03750    0.00300   13.41490    2.88850   79.01900  499.59560  209.12040  -60.73980
 3752.50000   -9999.25   -9999.25   -0.14060   18.68030    0.00480    5.15790   -0.00030   13.52120    2.90320   62.05600  208.03920   90.06520  -60.66180
 3753.00000   -9999.25   -9999.25   -0.14210   16.40710    0.00410    5.29710   -0.00180   13.64270    2.92530   87.03840  192.96510  246.77350  -60.43280
 3753.50000   -9999.25   -9999.25   -0.14630   13.52690    0.00030    5.56350   -0.00480   13.76420    2.93610   91.98110  369.40750  273.68210  -60.42980
 3754.00000   -9999.25   -9999.25   -0.14480   11.55720   -0.00270    5.89210   -0.00960   13.87050    2.94220   92.09970 1160.30260  831.71640  -60.12610
 3754.50000   -9999.25   -9999.25   -0.14750   10.49800    0.00260    5.78710   -0.01380   13.96170    2.94500   87.03840 1260.53750  961.42200  -59.82240
 3755.00000   -9999.25   -9999.25   -0.15620   10.65270    0.00410    5.62220   -0.01620   14.03780    2.94890   80.11770 1278.13790  854.88920  -59.81940
 3755.50000   -9999.25   -9999.25   -0.15740   11.86970    0.00330    5.39730   -0.01470   14.12910    2.96360   72.73600 1184.80910  729.31410  -59.66610
 3756.00000   -9999.25   -9999.25   -0.14190   16.46200    0.00330    5.20240   -0.01030   14.22030    2.96620   59.08480  566.34170  534.50570  -59.51270
 3756.50000   -9999.25   -9999.25   -0.11290   19.50290    0.00560    5.00750    0.00720   14.29680    2.94590   46.07940  258.14680  204.70620  -59.35940
 3757.00000   -9999.25   -9999.25   -0.09850   21.93680    0.01160    4.78260    0.02010   14.37370    2.91080   38.53790   66.72620   68.28730  -59.20600
 3757.50000   -9999.25   -9999.25   -0.09240   23.15670    0.01460    4.73760    0.02370   14.45260    2.87510   50.79580   64.46800   81.14700  -59.05270
 3758.00000   -9999.25   -9999.25   -0.09980   22.10050    0.01300    4.81260    0.02130   14.54260    2.85960   54.80390   97.80330  117.80450  -59.04970
 3758.50000   -9999.25   -9999.25   -0.11650   20.89250    0.00930    4.96250    0.01860   14.63110    2.86530   48.73450  184.00990  120.26380  -59.19710
 3759.00000   -9999.25   -9999.25   -0.11810   20.74660    0.00710    4.96250    0.01650   14.69210    2.89110   42.15680  170.57360  100.49320  -59.19420
 3759.50000   -9999.25   -9999.25   -0.10720   21.05620    0.00860    4.90080    0.01830   14.78330    2.89900   38.27270  100.28350   60.70390  -59.19120
 3760.00000   -9999.25   -9999.25   -0.05790   23.41000    0.01230    4.74460    0.02730   14.85940    2.90160   35.71940   81.54020   49.34370  -59.18820
 3760.50000   -9999.25   -9999.25   -0.04160   27.30460    0.01010    4.49780    0.03240   14.93550    2.87010   33.56740   73.02320   50.02730  -59.03490
 3761.00000   -9999.25   -9999.25   -0.02390   32.45640    0.00480    4.33280    0.03300   15.02670    2.81790   30.68580   65.39590   47.00920  -59.03150
 3761.50000   -9999.25   -9999.25   -0.02540   33.82810    0.00410    4.37780    0.02970   15.08760    2.77100   31.32800   58.16250   40.38190  -58.87820
 3762.00000   -9999.25   -9999.25   -0.06300   33.07530    0.00480    4.51270    0.02250   15.14860    2.74590   35.96690   75.08170   53.96270  -58.57440
 3762.50000   -9999.25   -9999.25   -0.09690   28.07370    0.00710    4.94750    0.00870   15.17930    2.74850   41.29260  182.84390  116.92190  -58.34600
 3763.00000   -9999.25   -9999.25   -0.13180   22.92030    0.01230    5.20240   -0.00130   15.19490    2.81380   44.24430  282.40610  322.58620  -57.96660
 3763.50000   -9999.25   -9999.25   -0.16480   16.40130    0.01380    5.29240   -0.00480   15.21050    2.88180   42.74300  543.93590  383.33510  -57.66290
