~Version ---------------------------------------------------
VERS.   2.0 : CWLS log ASCII Standard -VERSION 2.0
WRAP.    NO : One line per depth step
DLM . SPACE : Column Data Section Delimiter
~Well ------------------------------------------------------
STRT .F                  176.0 : START DEPTH
STOP .F                 5312.0 : STOP DEPTH
STEP .F                    0.5 : STEP
NULL .                -9999.25 : NULL VALUE
COMP .                         : COMPANY
WELL .                         : WELL
FLD  .                         : FIELD
LOC  .                         : LOCATION
PROV .                         : PROVINCE
CNTY .                         : COUNTY
STAT .                         : STATE
CTRY .                         : COUNTRY
SRVC .                         : SERVICE COMPANY
DATE .                         : DATE
UWI  .                         : UNIQUE WELL ID
API  .                         : API NUMBER
SLAT .WGS84 3.0300680289002955 : SURFACE LATITUDE
SLON .WGS84  8.145633773402011 : SURFACE LONGITUDE
DATUM.F                4036.29 : DEPTH DATUM ELEV
~Curve Information -----------------------------------------
DEPT.F     : 
DTCO.US/F  : COMPRESSIONAL-WAVE INTERVAL TRANSIT TIME ACAUSTIC SLOWNESS
DTSM.US/F  : DTSM
DPHZ.DEC   : DENSITY POROSITY LIMESTONE
GRD .GAPI  : GAMMA RAY FROM DENSITY LOG
HDRA.G/C3  : DELTA RHO HIP TOOL
PEFZ.B/E   : HILT PHOTOELECTRIC FACTOR
TNPH.DEC   : THERMAL NEUTRON POROSITY lLIMESTONE
HCAL.IN    : CALIPER FROM DENSITY LOG
RHOZ.G/C3  : HILT BULK DENSITY
RLA3.OHMM  : HRLTB RESISTIVITY 3
RLA5.OHMM  : HRLTB RESISTIVITY 5
RXOZ.OHMM  : FLUSHED ZONE RESISTIVITY
SPR .MV    : SPONTANEOUS POTENTIAL FROM RES.
~Params ----------------------------------------------------
~Other -----------------------------------------------------
~ASCII -----------------------------------------------------
# ...
 4310.00000   49.14180   81.20140   -0.02090   34.78200   -0.00520    3.19760    0.03320   10.01510    2.80510  542.72590  734.02640  806.74010 -148.25350
 4310.50000   49.00700   81.65480   -0.02030   39.91470   -0.00450    3.18300    0.03530   10.00050    2.76460  466.47610  690.00730  742.74080 -148.24690
 4311.00000   48.69210   82.25840   -0.02300   47.91310   -0.00290    3.21350    0.03710   10.00100    2.74970  371.65870  553.52030  494.43840 -148.24100
 4311.50000   48.91740   83.01200   -0.03020   63.15130   -0.00130    3.21400    0.03830   10.00140    2.74890  406.61530  509.64940  508.34190 -148.23500
 4312.00000   49.27770   83.61740   -0.03870   78.23870   -0.00060    3.19930    0.03860   10.00180    2.75340  500.17420  605.66430  732.85190 -148.37900
 4312.50000   49.77310   84.24420   -0.05150   80.95800   -0.00280    3.15500    0.03740   10.00230    2.77070  528.67720  729.72370  575.71300 -148.52370
 4313.00000   50.80860   85.14640   -0.04860   73.87350   -0.00580    3.11050    0.03620   10.00270    2.79090  448.17900  649.15510  359.59300 -148.51780
 4313.50000   51.52900   86.02760   -0.03680   63.31980   -0.00800    3.06600    0.03500    9.98810    2.78920  344.72910  424.71290  308.29010 -148.51190
 4314.00000   52.76060   86.93140   -0.02480   58.19610   -0.00870    3.05150    0.03500    9.97350    2.78480  211.02200  211.95190  151.05100 -148.50600
 4314.50000   53.61650   87.68520   -0.01370   59.43250   -0.00800    3.05200    0.03710    9.95890    2.76770  118.80510  159.30540  106.26090 -148.65070
 4315.00000   54.06700   88.43890   -0.00770   60.01490   -0.00490    3.00750    0.03890    9.94430    2.74030  111.46280  120.83260   99.87370 -148.64480
 4315.50000   54.41060   89.04240   -0.00290   59.41600   -0.00270    2.94700    0.03970    9.94470    2.72070  118.63770  112.02530  113.88160 -148.63890
 4316.00000   54.63590   89.64600   -0.00170   59.57240   -0.00190    2.90360    0.03730    9.94520    2.71440  128.01890  149.67630  127.18550 -148.63300
 4316.50000   54.72610   90.09940    0.00610   60.18010   -0.00340    2.91910    0.03640    9.94570    2.71160  113.89190  109.02810  113.91240 -148.62630
 4317.00000   54.68140   90.25250    0.01930   61.24040   -0.00480    2.97940    0.03850    9.94620    2.70840   88.27380   90.52910   89.48720 -148.62050
 4317.50000   54.32150   89.95440    0.02640   63.05480   -0.00550    3.03970    0.03790    9.93140    2.69510   90.14280   89.92090   88.88090 -148.61450
 4318.00000   54.05160   89.50760    0.02980   65.92500   -0.00250    3.01020    0.03550    9.91680    2.68340   95.93880   95.04360   97.91060 -149.05980
 4318.50000   53.87180   89.36040    0.02010   68.04100    0.00050    2.93580    0.03340    9.88730    2.67470  157.64510  141.79590  156.54300 -149.35500
 4319.00000   53.73700   89.21320    0.01800   69.10120    0.00130    2.87640    0.03280    9.87250    2.67830  178.52120  204.37820  182.22580 -149.65040
 4319.50000   53.60210   88.90640    0.02040   68.35150   -0.00170    2.83190    0.03640    9.85790    2.68150  174.80020  200.23530  165.92190 -149.79510
 4320.00000   53.55740   88.29810    0.01760   67.90350   -0.00320    2.84730    0.03970    9.84330    2.68350  155.83020  178.12730  136.42670 -149.63850
 4320.50000   52.16230   87.27090    0.01690   68.85080   -0.00540    2.96750    0.03700    9.84380    2.68450  131.91830  141.29940  145.18590 -149.63270
 4321.00000   50.72210   86.52310    0.01510   69.89850   -0.00460    3.02790    0.03880    9.82920    2.68450  158.96080  157.49360  173.73440 -149.62670
 4321.50000   49.64210   85.92540    0.01810   68.67200   -0.00160    3.02830    0.04350    9.81460    2.68490  139.48280  169.83880  113.90010 -149.62080
 4322.00000   48.55350   85.47790    0.01030   65.50900    0.00000    3.04370    0.04500    9.80000    2.68730  126.67550  120.34400  118.90890 -149.76550
 4322.50000   48.15720   85.18060   -0.01220   59.02780   -0.00300    3.13400    0.04130    9.80050    2.70250  190.32060  210.40200  243.71570 -149.98480
 4323.00000   48.45820   85.33370   -0.04100   42.74260   -0.00370    3.25620    0.03740    9.80090    2.71610  384.58500  508.59420  438.15100 -150.20480
 4323.50000   49.50800   85.93720   -0.07540   31.88730   -0.00070    3.38030    0.03390    9.80140    2.73480  667.77540  743.24210  686.18170 -150.27430
 4324.00000   50.09340   86.09030   -0.09250   26.16020   -0.00070    3.50970    0.03240    9.78680    2.81060  720.57930  865.14060  735.29310 -150.34290
 4324.50000   50.36370   86.24340   -0.08950   26.91880   -0.00060    3.49500    0.03270    9.78730    2.85770  627.94090  830.25370  645.04550 -150.48760
 4325.00000   50.31890   86.24640   -0.07060   30.84480   -0.00210    3.42070    0.03450    9.78770    2.85820  393.04580  608.93150  160.10530 -150.63230
 4325.50000   49.77890   86.09910   -0.04130   37.63660   -0.00280    3.36130    0.04320    9.78820    2.79450   60.17890   68.00810   58.07840 -150.77700
 4326.00000   49.19400   85.35140   -0.03380   41.56260   -0.00430    3.31680    0.05960    9.77340    2.77290   59.06420   59.67090   58.48840 -150.92170
 4326.50000   48.92410   84.90390   -0.04150   43.52790   -0.00050    3.25740    0.06200    9.72880    2.76930  117.72590  125.66210   92.87050 -150.91580
 4327.00000   48.74430   84.90690   -0.06140   42.72780    0.00180    3.22780    0.05960    9.71410    2.78480  274.94940  262.18100  304.29330 -151.21110
 4327.50000   49.28470   84.90990   -0.07430   40.37040    0.00100    3.18340    0.05000    9.72970    2.81660  359.86240  389.87310  339.85310 -151.50640
 4328.00000   50.23020   84.76260   -0.07870   38.11240   -0.00050    3.15380    0.04190    9.73010    2.82860  342.97800  420.16590  312.89230 -151.95230
 4328.50000   51.35570   84.61540   -0.07300   37.66320   -0.00190    3.09450    0.03590    9.73060    2.83720  357.58300  394.96890  332.99260 -152.47270
 4329.00000   52.12110   84.91940   -0.05660   40.68530   -0.00330    3.06500    0.03230    9.73100    2.83010  360.12950  406.09450  315.15440 -152.76810
 4329.50000   52.34640   85.37280   -0.03290   45.81800   -0.00410    3.02050    0.02960    9.73150    2.82760  283.01860  293.77760  272.68470 -152.83740
 4330.00000   52.39160   85.82620   -0.00080   49.44230   -0.00400    2.99100    0.03050    9.73190    2.82570  183.36200  169.27230  153.82620 -152.98140
 4330.50000   52.34250   86.12940    0.01090   54.57490   -0.00480    2.97650    0.03290    9.73240    2.81220  140.17160  147.50060  125.94990 -153.12610
 4331.00000   51.50830   85.98220    0.01690   55.96190   -0.00700    2.97900    0.03560    9.73290    2.75860  142.27480  148.55120  105.28190 -153.27080
 4331.50000   50.45680   85.53470    0.01570   53.82970   -0.00920    3.05230    0.03770    9.73340    2.69360  153.44570  161.39590  177.88030 -153.41550
 4332.00000   49.87190   85.23720    0.00700   51.27000   -0.00540    3.15760    0.03950    9.73380    2.68910  253.82020  270.72690  258.21670 -153.86150
 4332.50000   49.46700   84.93990   -0.00950   48.05660   -0.00760    3.27780    0.04010    9.73420    2.69660  279.59550  239.18140  295.82160 -154.30730
 4333.00000   49.28720   84.49250   -0.02300   45.90110   -0.00910    3.30800    0.03940    9.73470    2.71690  192.73950  180.32660  150.79750 -154.60270
 4333.50000   48.83730   83.89130   -0.03470   42.53630   -0.00680    3.23370    0.03710    9.75020    2.73380  233.85660  234.61750  190.99090 -154.89800
 4334.00000   48.38740   83.13340   -0.03960   36.65840   -0.00530    3.18920    0.03590    9.75060    2.74770  170.35010  176.70760  161.14140 -155.04270
 4334.50000   47.93750   82.37500   -0.04220   35.00370   -0.00600    3.17460    0.03470    9.75110    2.76990  450.41740  365.57060  490.84520 -155.18660
 4335.00000   47.48760   81.50210   -0.04280   33.49980   -0.00750    3.23510    0.03380    9.75150    2.77580  392.51130  436.16140  413.13970 -155.40660
 4335.50000   46.90270   80.90440   -0.04940   33.05170   -0.00590    3.31040    0.03340    9.75200    2.78150  289.88980  273.00130  223.60130 -155.55140
