~Version ---------------------------------------------------
VERS.   2.0 : CWLS log ASCII Standard -VERSION 2.0
WRAP.    NO : One line per depth step
DLM . SPACE : Column Data Section Delimiter
~Well ------------------------------------------------------
STRT .F                  176.0 : START DEPTH
STOP .F                 5312.0 : STOP DEPTH
STEP .F                    0.5 : STEP
NULL .                -9999.25 : NULL VALUE
COMP .                         : COMPANY
WELL .                         : WELL
FLD  .                         : FIELD
LOC  .                         : LOCATION
PROV .                         : PROVINCE
CNTY .                         : COUNTY
STAT .                         : STATE
CTRY .                         : COUNTRY
SRVC .                         : SERVICE COMPANY
DATE .                         : DATE
UWI  .                         : UNIQUE WELL ID
API  .                         : API NUMBER
SLAT .WGS84 3.0300680289002955 : SURFACE LATITUDE
SLON .WGS84  8.145633773402011 : SURFACE LONGITUDE
DATUM.F                4036.29 : DEPTH DATUM ELEV
~Curve Information -----------------------------------------
DEPT.F     : 
DTCO.US/F  : COMPRESSIONAL-WAVE INTERVAL TRANSIT TIME ACAUSTIC SLOWNESS
DTSM.US/F  : DTSM
DPHZ.DEC   : DENSITY POROSITY LIMESTONE
GRD .GAPI  : GAMMA RAY FROM DENSITY LOG
HDRA.G/C3  : DELTA RHO HIP TOOL
PEFZ.B/E   : HILT PHOTOELECTRIC FACTOR
TNPH.DEC   : THERMAL NEUTRON POROSITY lLIMESTONE
HCAL.IN    : CALIPER FROM DENSITY LOG
RHOZ.G/C3  : HILT BULK DENSITY
RLA3.OHMM  : HRLTB RESISTIVITY 3
RLA5.OHMM  : HRLTB RESISTIVITY 5
RXOZ.OHMM  : FLUSHED ZONE RESISTIVITY
SPR .MV    : SPONTANEOUS POTENTIAL FROM RES.
~Params ----------------------------------------------------
~Other -----------------------------------------------------
~ASCII -----------------------------------------------------
# ...
 4726.00000   50.57760   92.58640   -0.00170   10.10560    0.00340    4.39010    0.13160    8.59820    2.71850   53.98590   73.86820  108.07850 -134.35490
 4726.50000   50.84770   91.58140   -0.01130   10.70890    0.01240    4.30040    0.12470    8.65860    2.73060  274.75190  225.69250  293.93770 -134.80080
 4727.00000   51.61290   90.83210   -0.02570   11.01060    0.00940    4.33120    0.11510    8.79430    2.75010  282.46260  259.07140  247.40460 -134.79480
 4727.50000   51.70850   90.23300   -0.02420   11.16140   -0.00030    4.47280    0.11330    8.91490    2.75160  105.41220   92.75740  172.84680 -134.93950
 4728.00000   50.98270   89.63380   -0.00110   11.46300   -0.00850    4.74970    0.12380    8.90000    2.72810   39.33740   41.98230  124.99610 -134.93360
 4728.50000   50.08250   88.88460    0.02320   10.70890   -0.00780    4.85460    0.12920    8.79470    2.67960   40.16490   40.84320  105.20800 -134.92760
 4729.00000   49.35310   88.28540    0.02460    9.80390   -0.00400    4.80970    0.12680    8.71910    2.67120   44.24070   44.61640  106.08290 -134.92170
 4729.50000   48.31740   87.68630    0.01620    9.35140   -0.00020    4.49540    0.10990    8.64300    2.67140   93.80540  102.35360  165.92980 -134.91580
 4730.00000   47.91450   87.38710   -0.00020    9.67230   -0.00020    4.18110    0.08930    8.61450    2.67360  242.53630  417.05910  421.18960 -134.90980
 4730.50000   48.05700   87.53910   -0.01880   10.55810   -0.00390    3.97160    0.07220    8.65980    2.70140  583.89880  657.40310  716.55270 -134.75330
 4731.00000   49.00230   88.44150   -0.03860   10.10560   -0.00690    3.91180    0.05370    8.75030    2.76220  763.12990  734.11720  752.10910 -134.44620
 4731.50000   50.17250   89.19370   -0.04460    9.65310   -0.00770    4.15140    0.06090    8.84080    2.77960  669.53160  397.49140  378.23020 -134.13900
 4732.00000   51.47790   89.64980   -0.03320    9.80390   -0.00380    4.55570    0.08240    8.82590    2.78090   36.75790  103.63940  139.40580 -133.68130
 4732.50000   52.01800   90.24770   -0.01130   10.40720    0.00060    4.82520    0.10730    8.75080    2.76290   30.94170   29.35230  108.27410 -133.29820
 4733.00000   52.24310   90.72550   -0.00410   11.16140    0.00660    4.91510    0.11630    8.67560    2.72890   33.84860   32.32930  112.86550 -132.91560
 4733.50000   52.19800   91.15190    0.00190   12.21720    0.01340    4.68990    0.13330    8.60050    2.71170   42.20920   41.72570  124.32760 -132.45790
 4734.00000   51.92800   91.30360    0.00520   12.66970    0.01490    4.61590    0.13060    8.54040    2.70740   52.27340   52.02850  132.31000 -131.99950
 4734.50000   51.52290   91.30500    0.00790   12.51890    0.00970    4.69340    0.12220    8.52550    2.70350   62.11400   59.72430  140.80490 -131.54170
 4735.00000   51.65790   91.30650   -0.00200   11.91550    0.00600    4.79570    0.11600    8.60090    2.70370   63.85720   63.15840  128.74360 -131.23460
 4735.50000   51.92800   91.45810   -0.01220   11.31220    0.00300    4.87060    0.11540    8.70650    2.70450   40.24250   43.80050  120.17710 -130.92750
 4736.00000   52.01800   91.60980   -0.01380   10.85970    0.00150    4.84070    0.12370    8.70570    2.70960   35.75610   34.41270  103.26740 -130.62030
 4736.50000   51.97300   91.61120   -0.00500   10.70890    0.00000    4.69110    0.12790    8.64440    2.73230   38.36220   38.48770   95.73340 -130.46380
 4737.00000   51.83800   91.76280    0.01150   11.17580   -0.00070    4.51150    0.12580    8.58640    2.73230   31.03550   34.17600  100.48380 -130.30730
 4737.50000   51.56430   91.76430    0.02490   11.11210    0.00230    4.37690    0.12340    8.60170    2.72230   41.10230   49.60170   99.80640 -130.00010
 4738.00000   51.34280   91.76580    0.02420   10.25640    0.00460    4.27220    0.12460    8.63200    2.68740   34.13010   35.38440   97.10290 -129.99420
 4738.50000   51.24570   91.76730    0.01770    9.35140    0.00380    4.16740    0.12640    8.67730    2.67470   47.52350   50.99550   97.11630 -129.83770
 4739.00000   51.02780   91.76880    0.01790    8.44650    0.00240    4.09270    0.12550    8.70750    2.67370   58.45040   56.16550  100.80680 -129.83170
 4739.50000   50.84770   91.75120    0.02370    7.69230    0.00240    4.01790    0.12280    8.75290    2.67830   39.46280   39.79290  108.48360 -129.67520
 4740.00000   50.75770   91.17150    0.02250    7.54150    0.00540    3.98800    0.11860    8.78310    2.67910   40.29290   53.15990  107.01150 -129.51870
 4740.50000   50.75770   90.72250    0.01930    8.44650    0.00770    3.97310    0.11620    8.76820    2.67910   52.72950   68.61070  115.46440 -129.36140
 4741.00000   50.84770   90.57340    0.00840    9.35140    0.00920    4.00540    0.11530    8.73830    2.68070   49.22350   70.04800  105.57370 -129.12950
 4741.50000   50.75770   90.87560    0.00490   10.40720    0.00920    4.09310    0.11800    8.69320    2.68660   39.21290   52.44260  104.14110 -128.67180
 4742.00000   50.80270   91.47770    0.01210   11.91550    0.00920    4.21290    0.12160    8.66330    2.69730   37.19290   52.80900   88.26140 -128.13800
 4742.50000   51.07280   92.22990    0.02430   13.12220    0.00700    4.39260    0.12820    8.60260    2.70030   46.92350   55.04290   82.95900 -127.68030
 4743.00000   51.65790   93.28240    0.03210   13.27720    0.00330    4.51240    0.14230    8.54130    2.70090   44.71890   56.19690   81.27060 -127.22260
 4743.50000   52.42310   94.03460    0.04110   12.20280   -0.00120    4.51250    0.15780    8.49800    2.68530   32.29450   52.98850   68.40470 -126.76480
 4744.00000   52.96320   94.63670    0.05100   10.67300   -0.00570    4.51260    0.17080    8.46810    2.66530   29.55380   36.38180   68.33150 -126.60830
 4744.50000   53.59340   94.78830    0.04890    9.35140   -0.01020    4.52760    0.18180    8.48330    2.65820   30.41010   36.65890   72.30590 -126.30120
 4745.00000   53.95350   94.63960    0.03720    8.74810   -0.01090    4.57260    0.17270    8.52860    2.64790   30.83540   37.94710   75.89380 -126.29520
 4745.50000   54.04350   94.19070    0.03210    9.20060   -0.00860    4.67750    0.15930    8.61910    2.63270   26.68390   33.52090   66.51430 -126.13870
 4746.00000   53.49620   93.88000    0.03030   10.40720   -0.00550    4.78230    0.15210    8.72470    2.63570   23.89950   26.15540   63.01230 -125.83160
 4746.50000   52.91000   93.26960    0.02250   11.01060   -0.00250    4.91710    0.14700    8.80020    2.64790   33.74140   29.61300   66.46390 -125.67500
 4747.00000   52.50630   92.54380    0.01030   10.70890    0.00120    5.05410    0.14130    8.75510    2.66800   48.96650   46.03930  110.21850 -125.36790
 4747.50000   52.37810   92.09450    0.00940   10.10560    0.00340    5.23350    0.13890    8.68000    2.67780   56.21120   56.23210  122.25240 -125.06080
 4748.00000   52.42310   92.39660    0.00820    9.20060    0.00490    5.17190    0.14640    8.63490    2.68230   33.75510   48.99300  109.49040 -124.90350
 4748.50000   52.51310   92.69840    0.01990    8.44650    0.00120    5.08210    0.15420    8.60500    2.68910   27.83250   31.95410   87.81220 -124.59630
 4749.00000   52.60310   92.85000    0.02090    7.99400   -0.00250    5.02230    0.15360    8.60510    2.69450   30.23800   35.19490   75.97880 -124.43980
 4749.50000   52.64820   92.85150    0.02330    7.98260   -0.00320    5.02240    0.14850    8.62030    2.69200   29.21740   33.77110   78.65610 -124.28250
 4750.00000   52.60310   92.55230    0.03280    8.03930   -0.00020    5.03740    0.14190    8.60290    2.69170   25.28290   26.16960   56.49000 -124.25320
 4750.50000   52.28810   92.25350    0.04150    8.29560    0.00280    5.00760    0.13530    8.56040    2.69360   21.25030   22.33390   48.87750 -124.12870
 4751.00000   52.37810   91.35730    0.04690    8.74810   -0.00090    4.91780    0.13050    8.53040    2.64330   22.20680   24.26050   50.25190 -124.00420
 4751.50000   52.55810   91.36040    0.04960    9.20060    0.00210    4.90290    0.12540    8.53060    2.63820   34.25740   36.69430   69.50810 -123.87340
