~Version ---------------------------------------------------
VERS.   2.0 : CWLS log ASCII Standard -VERSION 2.0
WRAP.    NO : One line per depth step
DLM . SPACE : Column Data Section Delimiter
~Well ------------------------------------------------------
STRT .F                  176.0 : START DEPTH
STOP .F                 5312.0 : STOP DEPTH
STEP .F                    0.5 : STEP
NULL .                -9999.25 : NULL VALUE
COMP .                         : COMPANY
WELL .                         : WELL
FLD  .                         : FIELD
LOC  .                         : LOCATION
PROV .                         : PROVINCE
CNTY .                         : COUNTY
STAT .                         : STATE
CTRY .                         : COUNTRY
SRVC .                         : SERVICE COMPANY
DATE .                         : DATE
UWI  .                         : UNIQUE WELL ID
API  .                         : API NUMBER
SLAT .WGS84 3.0300680289002955 : SURFACE LATITUDE
SLON .WGS84  8.145633773402011 : SURFACE LONGITUDE
DATUM.F                4036.29 : DEPTH DATUM ELEV
~Curve Information -----------------------------------------
DEPT.F     : 
DTCO.US/F  : COMPRESSIONAL-WAVE INTERVAL TRANSIT TIME ACAUSTIC SLOWNESS
DTSM.US/F  : DTSM
DPHZ.DEC   : DENSITY POROSITY LIMESTONE
GRD .GAPI  : GAMMA RAY FROM DENSITY LOG
HDRA.G/C3  : DELTA RHO HIP TOOL
PEFZ.B/E   : HILT PHOTOELECTRIC FACTOR
TNPH.DEC   : THERMAL NEUTRON POROSITY lLIMESTONE
HCAL.IN    : CALIPER FROM DENSITY LOG
RHOZ.G/C3  : HILT BULK DENSITY
RLA3.OHMM  : HRLTB RESISTIVITY 3
RLA5.OHMM  : HRLTB RESISTIVITY 5
RXOZ.OHMM  : FLUSHED ZONE RESISTIVITY
SPR .MV    : SPONTANEOUS POTENTIAL FROM RES.
~Params ----------------------------------------------------
~Other -----------------------------------------------------
~ASCII -----------------------------------------------------
# ...
 4570.00000   46.67510   84.38420   -0.16260   12.42850   -0.00280    5.32930   -0.00100    9.94280    2.97410 4316.64310 101162.28910  940.23960 -189.00560
 4570.50000   46.22480   83.48180   -0.16650   10.46920   -0.00810    5.10480    0.00510    9.94310    2.97190 4438.52980 81188.20310 1099.16200 -189.00130
 4571.00000   45.95450   82.12900   -0.15600   10.15210   -0.00950    4.65300    0.01190    9.94340    2.96670 4003.55620 91939.35940 1236.19120 -188.99680
 4571.50000   45.86430   80.92630   -0.13660   10.77380   -0.00050    4.39660    0.02080    9.95870    2.94580 5204.32570 100574.86720 1262.23490 -188.99240
 4572.00000   45.81900   80.02390   -0.11440   11.83710    0.00480    4.21640    0.02410    9.95900    2.90120 5278.00100 55986.87500 1047.97470 -188.98800
 4572.50000   45.77380   79.42180   -0.10990   12.28510    0.00030    4.07190    0.02350    9.95930    2.88790 4114.28760 36523.05860 1070.10690 -188.98360
 4573.00000   45.90870   78.96990   -0.11560   11.38190    0.00330    3.99700    0.02170    9.94460    2.90250 4187.21780 76386.08590 1107.88870 -188.67800
 4573.50000   45.86340   78.66810   -0.13230   10.77970    0.00480    4.02690    0.02200    9.91480    2.91980 3927.41600 44013.01170 1237.43900 -188.52300
 4574.00000   45.63810   78.36630   -0.14010   11.98820    0.00030    4.16170    0.02410    9.88500    2.92880 4797.88960 97265.38280 1220.72790 -188.36740
 4574.50000   45.41280   78.21470   -0.13780   13.49800    0.00260    4.13170    0.02740    9.85520    2.92830 4327.69870 41668.17190 1239.04330 -188.28780
 4575.00000   45.09750   78.06310   -0.13360   13.19780    0.00330    3.99700    0.03190    9.84030    2.92550 2983.10210 19794.24610 1225.45350 -188.05690
 4575.50000   44.78220   78.06160   -0.10870   11.54010   -0.00110    3.84730    0.03730    9.81050    2.90490 3196.87130 8137.49070 1180.05020 -187.90190
 4576.00000   44.42190   78.06010   -0.08860   12.89910   -0.00560    3.83230    0.03940    9.78070    2.85880 1314.14640 1689.95150  883.42020 -187.74680
 4576.50000   44.19660   78.20880   -0.08050   15.76630   -0.00710    3.86230    0.03820    9.73590    2.84980 1508.83200 1967.11710  703.68540 -187.44120
 4577.00000   44.19640   78.20690   -0.08530   18.48270   -0.00480    3.86440    0.03460    9.70600    2.84010 3723.68950 7141.64450  647.87210 -187.28620
 4577.50000   44.24120   78.20540   -0.09100   17.42840   -0.00100    3.81740    0.03130    9.67610    2.84700 4102.10300 21524.24410  836.48890 -187.28180
 4578.00000   44.28600   78.35450   -0.09460   15.01660   -0.00030    3.78740    0.02760    9.64640    2.85330 4340.70210 52389.38280  808.28870 -187.27740
 4578.50000   44.28570   78.35260   -0.08830   14.11310   -0.00480    3.74160    0.02430    9.61660    2.85610 5191.15670 54234.94140  728.97110 -187.27300
 4579.00000   44.33050   78.35110   -0.08140   15.05330   -0.00630    3.69760    0.02020    9.58670    2.85370 4811.14990 31904.34960  729.11820 -187.26810
 4579.50000   44.37920   78.50020   -0.07960   17.73630   -0.00630    3.65270    0.01750    9.55600    2.84530 4460.99460 29579.87110 1065.84530 -187.26370
 4580.00000   44.51010   78.49830   -0.08350   21.50860   -0.00250    3.63770    0.01540    9.52510    2.83950 3628.50880 13026.22270 1249.38320 -187.25870
 4580.50000   44.55490   78.64740   -0.09280   24.97910   -0.00030    3.66770    0.01450    9.49730    2.84770 2831.78780 6721.73140 1266.93380 -187.25430
 4581.00000   44.23960   78.64550   -0.09970   26.48890   -0.00480    3.75750    0.01780    9.45250    2.86110 2972.59500 8616.94530  941.94270 -187.40050
 4581.50000   44.05930   78.64400   -0.10480   25.88710   -0.00400    3.81740    0.02080    9.42260    2.87480 3207.64890 10598.91800  792.87680 -187.39610
 4582.00000   43.96910   78.49240   -0.09610   24.22940   -0.00250    3.84730    0.02350    9.39270    2.87170 2336.57250 8740.11130  496.07580 -187.39160
 4582.50000   43.92240   78.34080   -0.09790   21.21430    0.00050    3.84730    0.02560    9.34790    2.86730 2210.32980 5070.81490  128.73620 -187.38720
 4583.00000   43.87860   78.18910   -0.10000   18.04840    0.00280    3.83230    0.02620    9.31810    2.86700 2683.93410 5286.02980  119.81050 -187.38280
 4583.50000   43.87840   78.33780   -0.10480   13.52500    0.00290    3.86230    0.02580    9.30330    2.87260 4311.16990 18286.87700  136.62590 -187.22780
 4584.00000   43.87820   78.93690   -0.09140   11.71650   -0.00250    3.92220    0.02490    9.28850    2.87410 3790.15550 15919.64360  892.48740 -187.22290
 4584.50000   43.78790   78.93310   -0.08850   12.92460   -0.00470    4.01200    0.02340    9.25880    2.86210 2372.36250 6836.63870  898.80200 -187.14320
 4585.00000   43.92270   78.31310   -0.08740   15.81890   -0.00620    3.92220    0.02130    9.24400    2.85410 2405.94730 5182.27690  827.59620 -187.06290
 4585.50000   44.10250   77.73120   -0.09280   18.89110   -0.00310    3.74200    0.02100    9.21420    2.85770 1974.74910 3934.12260  868.72020 -187.05850
 4586.00000   44.14740   77.57960   -0.09770   21.97920    0.00060    3.60520    0.02350    9.18430    2.86830 1030.97160 1947.80940  772.73610 -187.05410
 4586.50000   44.19210   77.72790   -0.10300   24.09230   -0.00020    3.51800    0.02640    9.15450    2.87340 1147.23500 1541.04700  721.36710 -187.20030
 4587.00000   44.41690   77.72650   -0.11080   25.75290   -0.00090    3.57780    0.02730    9.13770    2.88020 1446.06300 2236.67140  668.78280 -187.34650
 4587.50000   44.46180   77.87550   -0.10330   26.35770    0.00060    3.72750    0.02580    9.10990    2.88280 1322.45840 2003.48380  415.31760 -187.49260
 4588.00000   44.28140   78.17430   -0.09220   23.94590    0.00360    3.83230    0.02370    9.09520    2.87970 1388.30910 2430.55790  204.23320 -187.48830
 4588.50000   44.10120   78.32300   -0.08710   19.57330    0.00590    3.87720    0.02220    9.09550    2.86600 2100.07180 3503.29220  236.12140 -187.63440
 4589.00000   44.01090   78.32110   -0.09160   17.76480    0.00440    3.80240    0.02160    9.09580    2.85760 2189.34990 3385.27540  272.98850 -187.78000
 4589.50000   44.10070   78.47020   -0.09220   18.06800    0.00220    3.72750    0.02400    9.09610    2.85180 1768.55130 2546.13720 1036.03120 -187.85100
 4590.00000   44.23550   78.46830   -0.09400   19.57780   -0.00010    3.71260    0.02580    9.09640    2.85480 1912.03440 2432.52340 1289.68680 -188.07190
 4590.50000   44.23530   78.61700   -0.09460   21.08750   -0.00010    3.69760    0.02640    9.08160    2.86040 1962.28340 2624.69560 1307.86960 -188.06750
 4591.00000   44.32510   78.61550   -0.09520   22.44650   -0.00150    3.65270    0.02580    9.06680    2.86240  913.21420 1078.83190  801.52660 -188.06310
 4591.50000   44.59500   78.76450   -0.09940   22.28750   -0.00450    3.56290    0.02580    9.05210    2.86440  784.85980 2384.25630  790.66240 -188.05870
 4592.00000   44.90980   78.76270   -0.10240   20.44020   -0.00300    3.54520    0.02580    9.03740    2.86860  972.19310 4506.60940 1063.99510 -187.90370
 4592.50000   45.17970   78.76120   -0.09520   18.77580   -0.00150    3.63770    0.02670    9.03770    2.87190 1833.65920 2679.64720 1810.25120 -187.74870
 4593.00000   45.22450   78.60960   -0.09040   19.13450   -0.00460    3.72820    0.02880    9.02290    2.86820 1723.81030 1164.78640 1577.25310 -187.74430
 4593.50000   45.03620   78.60810   -0.08560   20.49350   -0.00670    3.74250    0.03310    9.02320    2.85650  397.08350  389.30160  410.88420 -187.58930
 4594.00000   44.53930   78.60660   -0.08380   21.24870   -0.00520    3.72750    0.04080    9.02350    2.84660  549.18320  434.78860  530.47920 -187.50890
 4594.50000   44.21970   78.44300   -0.08710   19.59140   -0.00220    3.74250    0.04250    9.02390    2.84530 1643.92550 3038.72830  485.07030 -187.27870
 4595.00000   43.87320   78.00300   -0.08380   17.02880   -0.00070    3.77250    0.04070    9.02410    2.84750 5058.74270 11108.46190 1691.36120 -187.27370
 4595.50000   43.69290   77.85140   -0.08320   14.91870   -0.00440    3.80240    0.03540    9.02440    2.84830 5273.44290 31249.53120 1763.11070 -187.11870
