~Version ---------------------------------------------------
VERS.   2.0 : CWLS log ASCII Standard -VERSION 2.0
WRAP.    NO : One line per depth step
DLM . SPACE : Column Data Section Delimiter
~Well ------------------------------------------------------
STRT .F                  176.0 : START DEPTH
STOP .F                 5312.0 : STOP DEPTH
STEP .F                    0.5 : STEP
NULL .                -9999.25 : NULL VALUE
COMP .                         : COMPANY
WELL .                         : WELL
FLD  .                         : FIELD
LOC  .                         : LOCATION
PROV .                         : PROVINCE
CNTY .                         : COUNTY
STAT .                         : STATE
CTRY .                         : COUNTRY
SRVC .                         : SERVICE COMPANY
DATE .                         : DATE
UWI  .                         : UNIQUE WELL ID
API  .                         : API NUMBER
SLAT .WGS84 3.0300680289002955 : SURFACE LATITUDE
SLON .WGS84  8.145633773402011 : SURFACE LONGITUDE
DATUM.F                4036.29 : DEPTH DATUM ELEV
~Curve Information -----------------------------------------
DEPT.F     : 
DTCO.US/F  : COMPRESSIONAL-WAVE INTERVAL TRANSIT TIME ACAUSTIC SLOWNESS
DTSM.US/F  : DTSM
DPHZ.DEC   : DENSITY POROSITY LIMESTONE
GRD .GAPI  : GAMMA RAY FROM DENSITY LOG
HDRA.G/C3  : DELTA RHO HIP TOOL
PEFZ.B/E   : HILT PHOTOELECTRIC FACTOR
TNPH.DEC   : THERMAL NEUTRON POROSITY lLIMESTONE
HCAL.IN    : CALIPER FROM DENSITY LOG
RHOZ.G/C3  : HILT BULK DENSITY
RLA3.OHMM  : HRLTB RESISTIVITY 3
RLA5.OHMM  : HRLTB RESISTIVITY 5
RXOZ.OHMM  : FLUSHED ZONE RESISTIVITY
SPR .MV    : SPONTANEOUS POTENTIAL FROM RES.
~Params ----------------------------------------------------
~Other -----------------------------------------------------
~ASCII -----------------------------------------------------
# ...
 3192.00000   -9999.25   -9999.25    0.13020   34.56390    0.05980    4.32030    0.30060   12.28870    2.50200   59.73490   56.48930    4.21970  -27.56670
 3192.50000   -9999.25   -9999.25    0.11620   43.12500    0.07500    4.41000    0.30240   12.04690    2.50430   52.38030   40.28560    3.69990  -27.86450
 3193.00000   -9999.25   -9999.25    0.05990   46.52510    0.07030    4.52980    0.24610   11.81580    2.55840   60.95810   33.43880    3.99080  -28.31260
 3193.50000   -9999.25   -9999.25   -0.00230   43.77660    0.04630    4.73990    0.17180   11.52820    2.80800   38.11050   55.33220   10.78260  -29.06150
 3194.00000   -9999.25   -9999.25   -0.08110   34.52610    0.03130    5.01290    0.10170   11.45780    2.83270   33.19010   32.28150   87.93220  -29.66000
 3194.50000   -9999.25   -9999.25   -0.08770   29.67630    0.02450    5.11880    0.06870   11.45810    2.84740   41.96100   43.76280  105.92280  -30.10820
 3195.00000   -9999.25   -9999.25   -0.08660   21.03280    0.02520    5.17390    0.04560   11.45840    2.83600   24.31510   18.34750   53.13140  -30.70670
 3195.50000   -9999.25   -9999.25   -0.07480   16.18290    0.01920    5.18880    0.03850   11.45870    2.82820   41.65530   19.38860    3.97670  -31.45560
 3196.00000   -9999.25   -9999.25   -0.10180   13.76100    0.01470    5.18860    0.02410   11.45900    2.87020  136.56000  107.30450    3.90230  -32.20450
 3196.50000   -9999.25   -9999.25   -0.11920   13.00670    0.01540    5.15850    0.01480   11.47450    2.93920  147.31270  301.79380  466.85710  -33.10380
 3197.00000   -9999.25   -9999.25   -0.14330   14.53160    0.02970    5.03840    0.01420   11.48990    2.94300  135.56490  561.97780 1333.02380  -33.55200
 3197.50000   -9999.25   -9999.25   -0.13130   17.44080    0.04240    4.81330    0.03540   11.49020    2.92890  103.54210  384.80290  698.83330  -34.45120
 3198.00000   -9999.25   -9999.25   -0.05340   22.46580    0.03490    4.57330    0.07110   11.49050    2.83870   79.08370  101.96080  150.51090  -35.20010
 3198.50000   -9999.25   -9999.25   -0.00830   29.36130    0.01660    4.54320    0.08580   11.52200    2.71340   86.49250   67.12320  145.19920  -36.09940
 3199.00000   -9999.25   -9999.25   -0.00050   30.79180    0.00100    4.78290    0.07620   11.56900    2.69470   95.91070   42.57160  178.55480  -37.14910
 3199.50000   -9999.25   -9999.25   -0.05130   25.03300    0.00330    5.03760    0.02820   11.64270    2.87400   98.57650   73.92990  153.36130  -38.04830
 3200.00000   -9999.25   -9999.25   -0.08120   19.65530    0.00260    5.29240    0.01150   11.71870    2.92950   45.48330   32.75380  252.05170  -39.69950
 3200.50000   -9999.25   -9999.25   -0.13290   14.87580    0.01380    5.44210    0.00820   11.82490    2.93400   26.35610   27.56490  117.09480  -42.40330
 3201.00000   -9999.25   -9999.25   -0.14000   13.21110    0.03780    5.47200    0.01830   11.93100    2.93360   40.23440   36.82970  152.18170  -46.15940
 3201.50000   -9999.25   -9999.25   -0.12070   13.21550    0.04760    5.45680    0.04050   12.02210    2.92220   77.35170   57.67070   93.17970  -48.26160
 3202.00000   -9999.25   -9999.25   -0.08360   14.15470    0.07610    5.39670    0.05790   12.08290    2.83720   11.03520   14.01920   34.70700  -48.86010
 3202.50000   -9999.25   -9999.25   -0.07810   16.27980    0.08960    5.38150    0.06780   12.14370    2.84410   12.15270   10.34870    4.37270  -48.78200
 3203.00000   -9999.25   -9999.25   -0.09740   16.11320    0.07300    5.38140    0.05920   12.18940    2.90100   87.52950   34.37450    4.40210  -48.17750
 3203.50000   -9999.25   -9999.25   -0.14330   15.20710    0.04670    5.48620    0.03430   12.22000    2.93540  256.95310   89.06750    4.71520  -46.59520
 3204.00000   -9999.25   -9999.25   -0.15260   14.14940    0.03100    5.63600    0.00520   12.23620    2.95950  101.14520  196.91940  236.33470  -44.63730
 3204.50000   -9999.25   -9999.25   -0.15020   13.24330    0.01870    5.65080    0.00250   12.25080    2.94670   82.77520   87.84690  156.13460  -43.73210
 3205.00000   -9999.25   -9999.25   -0.14390   13.24780    0.00730    5.61920    0.00070   12.25120    2.92390  132.34550   64.40140   63.61450  -44.02990
 3205.50000   -9999.25   -9999.25   -0.13010   12.94870    0.00240    5.55530   -0.00200   12.23640    2.91360  170.83040   59.28440  707.80650  -45.98180
 3206.00000   -9999.25   -9999.25   -0.12790   12.34620    0.00390    5.41050   -0.00590   12.20640    2.92120  162.73720  201.03760 1070.79500  -48.23440
 3206.50000   -9999.25   -9999.25   -0.14020   11.44020    0.00460    5.27540   -0.00950   12.16720    2.94530  156.10150  503.24450 1070.50340  -49.73520
 3207.00000   -9999.25   -9999.25   -0.15170   11.59640    0.00230    5.12530   -0.00530   12.13130    2.95570  135.94030  654.08890  991.94210  -50.03300
 3207.50000   -9999.25   -9999.25   -0.12760   14.41240    0.00230    4.96030    0.00790   12.11650    2.94930  114.36600  663.17670  304.52600  -48.07510
 3208.00000   -9999.25   -9999.25   -0.10240   18.45220    0.00460    4.88510    0.02500   12.13190    2.86120   78.75830   45.61230  215.56640  -46.11730
 3208.50000   -9999.25   -9999.25   -0.09280   22.84000    0.00610    4.93000    0.02590   12.13230    2.85820   98.20590  145.78650  211.08980  -44.46020
 3209.00000   -9999.25   -9999.25   -0.12850   21.93400    0.00080    5.15470    0.01630   12.16280    2.86490   83.76900  355.10600  270.57960  -43.85570
 3209.50000   -9999.25   -9999.25   -0.15770   16.32380   -0.01650    5.57440    0.00130   12.19340    2.92240   69.50800  197.98480 1106.29500  -44.00310
 3210.00000   -9999.25   -9999.25   -0.16100   11.77590   -0.02930    5.52920   -0.00050   12.25420    2.96320   78.68990  135.67210  839.09800  -44.30080
 3210.50000   -9999.25   -9999.25   -0.12010   12.84260   -0.03380    5.33420    0.01970   12.33010    2.96360   49.19630   25.02700   11.21070  -43.39560
 3211.00000   -9999.25   -9999.25   -0.04590   18.00640   -0.02120    4.92650    0.04910   12.42120    2.93400    8.22680   10.93600    3.19000  -41.88890
 3211.50000   -9999.25   -9999.25    0.00560   28.78470   -0.00310    4.42560    0.09510   12.54250    2.87920   11.69680   18.99140    3.03860  -41.28440
 3212.00000   -9999.25   -9999.25    0.06140   39.71480    0.00290    4.20670    0.13140   12.64870    2.72980   13.33370   17.00660    2.81560  -42.63480
 3212.50000   -9999.25   -9999.25    0.05150   43.20940   -0.00010    4.13420    0.12690   12.67930    2.60200   16.51260   15.87290   32.16640  -45.78970
 3213.00000   -9999.25   -9999.25    0.02230   40.09360   -0.00230    4.43390    0.09660   12.66440    2.64430   58.80980   92.19350  102.99480  -49.39580
 3213.50000   -9999.25   -9999.25   -0.00770   36.08740   -0.00090    4.55370    0.07060   12.63300    2.67190   49.81920   35.82730   45.77060  -52.47510
 3214.00000   -9999.25   -9999.25   -0.01560   33.81570    0.00060    4.59850    0.06790   12.55920    2.70590   41.05350   29.94410   40.13250  -51.19390
 3214.50000   -9999.25   -9999.25   -0.03630   32.30270    0.00290    4.65830    0.06520   12.57460    2.71480   57.96770   84.28480   79.47490  -49.38650
 3215.00000   -9999.25   -9999.25   -0.07480   29.57570   -0.00090    4.83810    0.04930   12.49930    2.72470   95.27730  149.43010  228.49800  -49.15790
 3215.50000   -9999.25   -9999.25   -0.10530   23.51040   -0.00690    4.98780    0.03820   12.42390    2.82860   87.68370  159.00270  405.17220  -49.83160
 3216.00000   -9999.25   -9999.25   -0.10960   21.99620   -0.01220    4.86780    0.02770   12.39390    2.88700   49.58660  144.36340  167.38370  -51.78320
 3216.50000   -9999.25   -9999.25   -0.05310   29.13380   -0.01150    4.56780    0.02890   12.39430    2.88900   37.99210   92.83180   72.57320  -57.04340
 3217.00000   -9999.25   -9999.25    0.00730   38.39470   -0.00820    4.20780    0.08120   12.42480    2.87210   38.84190   43.76280   43.22850  -60.04790
 3217.50000   -9999.25   -9999.25    0.10650   47.20040   -0.00100    3.90650    0.10930   12.47050    2.63020   22.95260   33.67030   29.15860  -59.59380
