~Version ---------------------------------------------------
VERS.   2.0 : CWLS log ASCII Standard -VERSION 2.0
WRAP.    NO : One line per depth step
DLM . SPACE : Column Data Section Delimiter
~Well ------------------------------------------------------
STRT .F                  176.0 : START DEPTH
STOP .F                 5312.0 : STOP DEPTH
STEP .F                    0.5 : STEP
NULL .                -9999.25 : NULL VALUE
COMP .                         : COMPANY
WELL .                         : WELL
FLD  .                         : FIELD
LOC  .                         : LOCATION
PROV .                         : PROVINCE
CNTY .                         : COUNTY
STAT .                         : STATE
CTRY .                         : COUNTRY
SRVC .                         : SERVICE COMPANY
DATE .                         : DATE
UWI  .                         : UNIQUE WELL ID
API  .                         : API NUMBER
SLAT .WGS84 3.0300680289002955 : SURFACE LATITUDE
SLON .WGS84  8.145633773402011 : SURFACE LONGITUDE
DATUM.F                4036.29 : DEPTH DATUM ELEV
~Curve Information -----------------------------------------
DEPT.F     : 
DTCO.US/F  : COMPRESSIONAL-WAVE INTERVAL TRANSIT TIME ACAUSTIC SLOWNESS
DTSM.US/F  : DTSM
DPHZ.DEC   : DENSITY POROSITY LIMESTONE
GRD .GAPI  : GAMMA RAY FROM DENSITY LOG
HDRA.G/C3  : DELTA RHO HIP TOOL
PEFZ.B/E   : HILT PHOTOELECTRIC FACTOR
TNPH.DEC   : THERMAL NEUTRON POROSITY lLIMESTONE
HCAL.IN    : CALIPER FROM DENSITY LOG
RHOZ.G/C3  : HILT BULK DENSITY
RLA3.OHMM  : HRLTB RESISTIVITY 3
RLA5.OHMM  : HRLTB RESISTIVITY 5
RXOZ.OHMM  : FLUSHED ZONE RESISTIVITY
SPR .MV    : SPONTANEOUS POTENTIAL FROM RES.
~Params ----------------------------------------------------
~Other -----------------------------------------------------
~ASCII -----------------------------------------------------
# ...
 4986.00000   48.86720   85.64560   -0.03040   40.70700   -0.00410    4.08270    0.09540    8.49580    2.75950   50.43370   61.40700  163.13820 -123.99430
 4986.50000   48.73220   86.09610   -0.03170   42.07040   -0.00700    4.03790    0.09590    8.49590    2.76140   33.81860   68.57280  245.11180 -123.53650
 4987.00000   48.46210   86.39640   -0.04030   41.47310   -0.00680    3.96320    0.09500    8.49610    2.76360   43.05610   66.71110  295.31980 -122.77760
 4987.50000   48.23710   86.99700   -0.04730   38.91490   -0.00400    3.90350    0.09350    8.49620    2.77550  123.65360  129.31830  394.60700 -121.71680
 4988.00000   48.32710   87.59760   -0.04840   36.65840   -0.00250    3.87370    0.09050    8.49640    2.78460   50.12790  135.26630  653.00050 -120.50610
 4988.50000   49.09230   87.89790   -0.03160   37.26760   -0.00540    4.03850    0.09290    8.52670    2.78540   57.55040   70.02480  173.64890 -119.52120
 4989.00000   49.67740   88.04800   -0.00650   40.13930   -0.00770    4.35440    0.10160    8.51170    2.77750   51.90440   59.35060  120.47580 -118.53560
 4989.50000   49.85750   88.19820    0.00760   42.40770   -0.00620    4.65670    0.10750    8.49600    2.73960   72.70490   56.77800   79.64420 -117.62610
 4990.00000   49.94750   88.49850    0.00490   43.77110   -0.00240    4.74250    0.11020    8.46690    2.71150   22.00270   21.54590   64.31210 -116.71660
 4990.50000   50.08250   88.94900   -0.01100   42.41960   -0.00160    4.56310    0.11080    8.45200    2.70140   64.33410   57.35230   67.96720 -115.95760
 4991.00000   50.53260   89.85220   -0.01700   41.82200   -0.00540    4.39850    0.11140    8.45210    2.72240   97.95540  105.93700  134.57310 -115.19870
 4991.50000   50.89420   90.62690   -0.01040   43.18560   -0.00460    4.27890    0.11240    8.46730    2.73440   82.46440   78.22410  184.84510 -113.83740
 4992.00000   51.71200   91.69950    0.00880   45.15240    0.00070    4.24910    0.11620    8.46750    2.73060  128.22460  126.75080  224.25390 -112.32550
 4992.50000   52.49580   93.30330    0.02710   45.61080    0.00670    4.41390    0.12580    8.48270    2.67590   20.49630   42.06670  130.03650 -111.56650
 4993.00000   53.34800   94.50450    0.04570   42.01370    0.01120    4.75840    0.14080    8.46780    2.63090   14.62370   13.96130   36.54130 -109.90400
 4993.50000   53.72840   95.55560    0.05460   37.68820    0.00500    5.17770    0.16020    8.46790    2.62640    7.81070    8.79740   31.18170 -108.24150
 4994.00000   53.77340   96.45650    0.05220   34.77040    0.00300    5.41740    0.17370    8.45300    2.62560   12.83350    7.40510   28.90480 -106.27690
 4994.50000   53.77340   97.05710    0.03820   35.37960    0.00600    5.46240    0.17160    8.43810    2.63370   17.02900   16.13950   28.31470 -104.61440
 4995.00000   53.77340   97.05710    0.03610   36.13970   -0.00300    5.46260    0.16590    8.43830    2.65710   13.84950   14.85900   29.68450 -103.55440
 4995.50000   53.81850   96.60660    0.02830   36.29500   -0.00070    5.44780    0.15990    8.45350    2.66050   18.25090   17.17490   45.47240 -102.04160
 4996.00000   53.95350   96.15620    0.02860   32.83330   -0.01270    5.46290    0.15570    8.45360    2.66610    7.50180   14.86100   46.86260 -100.98150
 4996.50000   53.95350   95.55560    0.02590   28.16360   -0.02390    5.44600    0.16230    8.45380    2.66600    5.88960    4.79800   27.17440 -100.67440
 4997.00000   53.90850   94.65470    0.03020   24.70040   -0.01940    5.32850    0.17820    8.43880    2.66110    6.30840    7.05920   23.02920 -100.36730
 4997.50000   53.72840   93.75380    0.03920   26.21460   -0.01190    5.16390    0.18680    8.43900    2.64890    7.50640    6.96300   20.20130 -100.51200
 4998.00000   53.14330   92.83970    0.04750   27.87970   -0.00440    5.20900    0.19490    8.43920    2.63880    7.33390    8.10390   21.05650 -100.65670
 4998.50000   52.10800   91.91830    0.03940   27.88570    0.00160    5.32890    0.19160    8.43930    2.63760    9.80060    7.82980   26.26010 -101.40380
 4999.00000   50.75850   90.96700    0.02290   27.58970    0.00540    5.40390    0.16980    8.45450    2.64220   19.71880   18.53710   43.15750 -102.30150
 4999.50000   49.90280   89.54960    0.00670   27.89750    0.00390    5.38910    0.15120    8.45470    2.66960   27.45880   27.65180   46.88570 -103.24740
 5000.00000   49.00220   88.64090   -0.01530   28.35600   -0.00060    5.29940    0.13610    8.47050    2.76140   18.79740   20.84490   61.36510 -104.32760
 5000.50000   48.55160   87.57500   -0.02480   29.12540   -0.01480    5.03010    0.12170    8.47880    2.77440   18.54290   18.79800   60.44380 -105.40790
 5001.00000   47.47090   86.05180   -0.03890   29.74350   -0.02680    4.70090    0.10750    8.50060    2.78740   33.78830   52.16640   58.10170 -106.48810
 5001.50000   46.39020   85.49550   -0.06290   31.08530   -0.02830    4.41660    0.07990    8.50090    2.81130  176.80830  157.22500   93.44750 -107.38270
 5002.00000   46.07470   85.49550   -0.09020   36.82130   -0.01550    4.08740    0.05650    8.51630    2.83350   89.37450  170.81130  255.90740 -108.42800
 5002.50000   46.61440   85.79580   -0.09680   43.46230   -0.00650    3.84810    0.04790    8.51660    2.86120   84.55310  145.80280  274.61970 -109.77440
 5003.00000   47.55920   86.24620   -0.08310   46.93580   -0.00580    3.72850    0.05140    8.50050    2.86200  106.24300  161.72040  302.55050 -110.97030
 5003.50000   48.54900   86.99700   -0.05720   49.05180   -0.00500    3.74360    0.06100    8.47200    2.83350  143.00580  219.07390  340.29280 -112.16610
 5004.00000   49.40370   87.89790   -0.04710   49.65850   -0.00280    3.86350    0.07510    8.45720    2.79680  147.99650  213.15900  345.09160 -113.06080
 5004.50000   49.98840   88.64870   -0.03840   47.85410    0.00250    4.01330    0.08970    8.44240    2.77650  142.56020  164.06660  288.52280 -113.35300
 5005.00000   51.02330   89.24930   -0.02580   44.08780   -0.00050    4.23800    0.10230    8.44280    2.76890   85.07580   54.45870  178.05370 -113.49460
 5005.50000   51.24790   89.24930   -0.00810   39.11490   -0.00280    4.54140    0.11700    8.42810    2.75650   11.55660   11.95230   78.90630 -113.78690
 5006.00000   50.96880   89.24930    0.01790   33.84030   -0.00350    4.94760    0.12380    8.42830    2.69550   14.91850   14.70220   50.40500 -113.92850
 5006.50000   50.28080   88.94900    0.02780   33.36460   -0.00340    5.07680    0.13940    8.44370    2.67460   15.76870   16.30730   57.08540 -114.22080
 5007.00000   49.62600   88.49430    0.02240   34.75420    0.00200    4.98720    0.14030    8.45910    2.68800   18.50160   19.11320   65.14350 -114.43650
 5007.50000   49.08540   88.03260    0.00140   35.82170    0.00550    4.62800    0.13670    8.45940    2.70980   17.02030   18.60020   64.74240 -114.87940
 5008.00000   48.58990   87.42160   -0.01000   35.76330    0.00400    4.32880    0.13300    8.47470    2.72130   23.72880   30.98080   76.33500 -115.39760
 5008.50000   47.86930   86.84680   -0.01400   34.46700    0.00330    4.29890    0.12470    8.47500    2.74210   47.89730   52.40120   81.42870 -115.99100
 5009.00000   47.10360   86.24620   -0.01660   34.31950    0.00550    4.41890    0.11540    8.49040    2.74800   39.49950   41.40180  109.42090 -116.96100
 5009.50000   46.15790   85.64560   -0.03100   36.43660    0.00780    4.32920    0.10340    8.49070    2.75950   59.34530   57.25680  149.77870 -118.00620
 5010.00000   45.70740   85.34530   -0.04390   42.47430    0.00700    4.08980    0.08870    8.47590    2.78260   94.86320  230.51900  218.40270 -119.12560
 5010.50000   45.93200   85.19520   -0.04600   45.79700    0.00480    3.88040    0.07620    8.49130    2.78710  323.70550  387.45570  599.48280 -119.86970
 5011.00000   47.01180   86.24620   -0.04780   46.25390    0.01000    3.82060    0.06780    8.49160    2.79120  447.69980  529.43520  700.21810 -120.46310
 5011.50000   47.95660   87.45460   -0.05260   46.10640    0.01750    3.82080    0.06360    8.49190    2.79540  406.62020  597.23810  561.65800 -120.90590
