~Version ---------------------------------------------------
VERS.   2.0 : CWLS log ASCII Standard -VERSION 2.0
WRAP.    NO : One line per depth step
DLM . SPACE : Column Data Section Delimiter
~Well ------------------------------------------------------
STRT .F                  176.0 : START DEPTH
STOP .F                 5312.0 : STOP DEPTH
STEP .F                    0.5 : STEP
NULL .                -9999.25 : NULL VALUE
COMP .                         : COMPANY
WELL .                         : WELL
FLD  .                         : FIELD
LOC  .                         : LOCATION
PROV .                         : PROVINCE
CNTY .                         : COUNTY
STAT .                         : STATE
CTRY .                         : COUNTRY
SRVC .                         : SERVICE COMPANY
DATE .                         : DATE
UWI  .                         : UNIQUE WELL ID
API  .                         : API NUMBER
SLAT .WGS84 3.0300680289002955 : SURFACE LATITUDE
SLON .WGS84  8.145633773402011 : SURFACE LONGITUDE
DATUM.F                4036.29 : DEPTH DATUM ELEV
~Curve Information -----------------------------------------
DEPT.F     : 
DTCO.US/F  : COMPRESSIONAL-WAVE INTERVAL TRANSIT TIME ACAUSTIC SLOWNESS
DTSM.US/F  : DTSM
DPHZ.DEC   : DENSITY POROSITY LIMESTONE
GRD .GAPI  : GAMMA RAY FROM DENSITY LOG
HDRA.G/C3  : DELTA RHO HIP TOOL
PEFZ.B/E   : HILT PHOTOELECTRIC FACTOR
TNPH.DEC   : THERMAL NEUTRON POROSITY lLIMESTONE
HCAL.IN    : CALIPER FROM DENSITY LOG
RHOZ.G/C3  : HILT BULK DENSITY
RLA3.OHMM  : HRLTB RESISTIVITY 3
RLA5.OHMM  : HRLTB RESISTIVITY 5
RXOZ.OHMM  : FLUSHED ZONE RESISTIVITY
SPR .MV    : SPONTANEOUS POTENTIAL FROM RES.
~Params ----------------------------------------------------
~Other -----------------------------------------------------
~ASCII -----------------------------------------------------
# ...
 4024.00000   -9999.25   -9999.25   -0.02810   35.89100    0.00200    3.68910    0.03830   14.71930    2.76100   23.67630   58.55410  115.86460  -61.81700
 4024.50000   -9999.25   -9999.25   -0.01400   36.49800    0.00570    3.71960    0.03920   14.74970    2.76150   24.01050   48.60870   94.86500  -62.11170
 4025.00000   -9999.25   -9999.25   -0.00050   37.55680    0.00730    3.80990    0.03680   14.76510    2.75540   29.54240   85.60520   99.58300  -62.40650
 4025.50000   -9999.25   -9999.25    0.00460   39.21890    0.00050    3.84050    0.03320   14.79550    2.72710   28.34150   82.71660  120.84610  -62.70130
 4026.00000   -9999.25   -9999.25    0.00070   39.82520   -0.00320    3.78010    0.03020   14.82590    2.70070   24.69810   80.47550  134.06020  -62.99600
 4026.50000   -9999.25   -9999.25   -0.00460   39.07400   -0.00470    3.68980    0.02810   14.85630    2.71280   24.03030   76.17040  115.99010  -63.44120
 4027.00000   -9999.25   -9999.25   -0.00910   37.71950   -0.00160    3.62940    0.02660   14.88680    2.71950   24.40570   66.36440  118.44210  -63.96080
 4027.50000   -9999.25   -9999.25   -0.01140   37.26990    0.00210    3.64750    0.02660   14.91720    2.72170   26.29790   80.52020  121.78380  -64.40590
 4028.00000   -9999.25   -9999.25   -0.00870   38.82530    0.00360    3.70790    0.02810   14.93250    2.72400   24.82210   83.35690  125.50460  -65.00140
 4028.50000   -9999.25   -9999.25    0.00090   40.59480   -0.00230    3.75320    0.03430   14.94790    2.72100   22.40250   64.14710   81.63110  -65.44650
 4029.00000   -9999.25   -9999.25    0.01500   40.74790   -0.00600    3.75370    0.04690   14.96330    2.70940   21.06720   51.80450   73.61510  -65.89180
 4029.50000   -9999.25   -9999.25    0.02090   39.54490   -0.00600    3.75410    0.06010   14.97870    2.69370   20.52730   52.17200   74.14060  -66.48730
 4030.00000   -9999.25   -9999.25    0.01490   38.19040   -0.00370    3.76950    0.06900   14.97900    2.68930   20.67390   45.14300   76.76050  -66.70680
 4030.50000   -9999.25   -9999.25    0.00890   36.38340    0.00450    3.79990    0.07230   14.99430    2.69880   21.30060   51.47470   80.03350  -67.00150
 4031.00000   -9999.25   -9999.25   -0.00460   34.72730    0.01520    3.90510    0.07080   14.99460    2.70290   22.67530   54.78150   81.15320  -67.14600
 4031.50000   -9999.25   -9999.25   -0.03720   32.31700    0.02560    4.17500    0.06510   15.01000    2.72640   24.25680   58.30080   84.75470  -67.14000
 4032.00000   -9999.25   -9999.25   -0.08130   29.90660    0.02440    4.45990    0.05040   15.01030    2.77270   29.02100   99.33470  119.67250  -67.13330
 4032.50000   -9999.25   -9999.25   -0.10740   27.64720    0.00980    4.78970    0.03900   15.01060    2.85540   33.78850  178.76210  194.60670  -67.12730
 4033.00000   -9999.25   -9999.25   -0.12870   24.93520    0.00160    5.02960    0.03570   15.01090    2.87770   35.22490  195.09380  265.23210  -67.12130
 4033.50000   -9999.25   -9999.25   -0.13290   22.66010   -0.00210    5.04540    0.03990   15.01120    2.89840   34.98980  188.35040  289.04280  -67.26570
 4034.00000   -9999.25   -9999.25   -0.12840   20.35250   -0.00060    5.09040    0.04260   14.99640    2.92000   34.75600  190.69600  295.50320  -67.25970
 4034.50000   -9999.25   -9999.25   -0.13100   17.55410    0.00100    5.18520    0.04020   14.96660    2.92080   36.23370  200.65480  291.51090  -67.85520
 4035.00000   -9999.25   -9999.25   -0.13820   15.89800   -0.00350    5.33090    0.03660   14.93670    2.92120   38.03570  173.62850  369.20560  -68.30030
 4035.50000   -9999.25   -9999.25   -0.13980   16.20260   -0.00720    5.46610    0.03600   14.90530    2.92750   37.00730  167.76990  417.59570  -68.59510
 4036.00000   -9999.25   -9999.25   -0.13080   18.31720   -0.00350    5.40670    0.04730   14.86200    2.93030   33.60460  113.24050  332.59630  -68.89020
 4036.50000   -9999.25   -9999.25   -0.12100   19.52680   -0.00050    5.30230    0.06020   14.81720    2.91560   32.02560   75.90900  171.45530  -68.95940
 4037.00000   -9999.25   -9999.25   -0.11200   20.43470   -0.00640    5.22790    0.07220   14.77230    2.90300   32.03230   77.50970  140.37310  -69.10370
 4037.50000   -9999.25   -9999.25   -0.11080   21.49350   -0.01390    5.21330    0.07010   14.72750    2.89480   35.78110  112.51960  149.39560  -69.54890
 4038.00000   -9999.25   -9999.25   -0.11620   21.64720   -0.01690    5.27370    0.05390   14.68260    2.89610   40.53600  134.64960  138.50520  -70.06920
 4038.50000   -9999.25   -9999.25   -0.13270   20.14190   -0.01080    5.34900    0.04100   14.62260    2.89840   44.05750  158.92390  261.46760  -70.36400
 4039.00000   -9999.25   -9999.25   -0.13630   18.33490   -0.00260    5.42430    0.03410   14.57770    2.90580   46.22410  254.10240  364.28010  -70.58350
 4039.50000   -9999.25   -9999.25   -0.13000   17.58370    0.00340    5.42470    0.03140   14.51780    2.92170   45.89820  306.18360  574.68000  -70.72800
 4040.00000   -9999.25   -9999.25   -0.11020   18.52150    0.00320    5.36530    0.03560   14.45780    2.92830   44.63330  319.16490  731.88170  -70.94680
 4040.50000   -9999.25   -9999.25   -0.10200   20.65030   -0.00030    5.23100    0.04540   14.38280    2.92990   43.46600  169.22030  280.38920  -71.24150
 4041.00000   -9999.25   -9999.25   -0.10810   22.26900    0.00120    5.09670    0.05380   14.32290    2.90840   44.10840  176.40230  272.80780  -71.68670
 4041.50000   -9999.25   -9999.25   -0.10550   22.27200    0.00430    4.97560    0.05740   14.26210    2.88260   46.66110  187.73480  239.30540  -71.98140
 4042.00000   -9999.25   -9999.25   -0.11210   21.82170    0.00880    4.93290    0.05770   14.16970    2.87450   48.23880  151.61250  311.17700  -72.12580
 4042.50000   -9999.25   -9999.25   -0.10610   23.18290    0.00430    4.97840    0.05590   14.03210    2.88000   38.50980   95.51250  219.67670  -72.27020
 4043.00000   -9999.25   -9999.25   -0.10190   26.05160   -0.00020    4.91890    0.05470   13.90250    2.88360   41.91750   79.84210  119.22640  -72.41460
 4043.50000   -9999.25   -9999.25   -0.09910   31.18280    0.00140    4.72480    0.05940   13.81240    2.88350   44.12540   86.74830  159.37550  -72.55900
 4044.00000   -9999.25   -9999.25   -0.07080   36.46480    0.00510    4.39590    0.08280   13.73740    2.87740   35.79120   46.63210  107.54660  -72.70340
 4044.50000   -9999.25   -9999.25   -0.03010   38.57930    0.00590    4.06700    0.09240   13.66240    2.85950   29.26140   28.77540   96.31360  -72.99820
 4045.00000   -9999.25   -9999.25   -0.01090   38.12980    0.00370    3.90270    0.10620   13.57230    2.81010   30.62350   36.38880   75.13700  -73.44330
 4045.50000   -9999.25   -9999.25   -0.00940   33.60790   -0.00080    3.91820    0.11000   13.49730    2.77440   40.37240   55.43880   76.72530  -73.73810
 4046.00000   -9999.25   -9999.25   -0.02140   30.57860   -0.00450    4.00840    0.11780   13.43740    2.72610   43.56710   74.08510   88.71500  -74.33360
 4046.50000   -9999.25   -9999.25   -0.03850   27.51690   -0.00370    4.17350    0.12040   13.36240    2.72710   37.17770   90.50610   11.98180  -74.77870
 4047.00000   -9999.25   -9999.25   -0.06340   25.02020    0.00230    4.41350    0.10880   13.27230    2.73910   31.07500   37.17360   12.57700  -75.37430
 4047.50000   -9999.25   -9999.25   -0.08740   20.04580    0.00530    4.74330    0.08420   13.15210    2.77710   29.20880  101.80780   12.40710  -75.66900
 4048.00000   -9999.25   -9999.25   -0.13020   15.82550    0.00520    4.98320    0.06320   13.01610    2.80030   34.48000  244.55680  120.30660  -75.96380
 4048.50000   -9999.25   -9999.25   -0.15360   14.31940   -0.00080    5.04360    0.03210   12.89360    2.87610  103.37590  407.54620  336.63210  -76.25860
 4049.00000   -9999.25   -9999.25   -0.16140   16.13310   -0.00140    4.99860    0.02430   12.80390    2.91520  113.89060  599.84810  405.69960  -76.70370
 4049.50000   -9999.25   -9999.25   -0.14910   16.89020    0.00160    4.87680    0.02460   12.73170    2.94530  116.29820  458.41790  251.99830  -76.99850
