~Version ---------------------------------------------------
VERS.   2.0 : CWLS log ASCII Standard -VERSION 2.0
WRAP.    NO : One line per depth step
DLM . SPACE : Column Data Section Delimiter
~Well ------------------------------------------------------
STRT .F                  176.0 : START DEPTH
STOP .F                 5312.0 : STOP DEPTH
STEP .F                    0.5 : STEP
NULL .                -9999.25 : NULL VALUE
COMP .                         : COMPANY
WELL .                         : WELL
FLD  .                         : FIELD
LOC  .                         : LOCATION
PROV .                         : PROVINCE
CNTY .                         : COUNTY
STAT .                         : STATE
CTRY .                         : COUNTRY
SRVC .                         : SERVICE COMPANY
DATE .                         : DATE
UWI  .                         : UNIQUE WELL ID
API  .                         : API NUMBER
SLAT .WGS84 3.0300680289002955 : SURFACE LATITUDE
SLON .WGS84  8.145633773402011 : SURFACE LONGITUDE
DATUM.F                4036.29 : DEPTH DATUM ELEV
~Curve Information -----------------------------------------
DEPT.F     : 
DTCO.US/F  : COMPRESSIONAL-WAVE INTERVAL TRANSIT TIME ACAUSTIC SLOWNESS
DTSM.US/F  : DTSM
DPHZ.DEC   : DENSITY POROSITY LIMESTONE
GRD .GAPI  : GAMMA RAY FROM DENSITY LOG
HDRA.G/C3  : DELTA RHO HIP TOOL
PEFZ.B/E   : HILT PHOTOELECTRIC FACTOR
TNPH.DEC   : THERMAL NEUTRON POROSITY lLIMESTONE
HCAL.IN    : CALIPER FROM DENSITY LOG
RHOZ.G/C3  : HILT BULK DENSITY
RLA3.OHMM  : HRLTB RESISTIVITY 3
RLA5.OHMM  : HRLTB RESISTIVITY 5
RXOZ.OHMM  : FLUSHED ZONE RESISTIVITY
SPR .MV    : SPONTANEOUS POTENTIAL FROM RES.
~Params ----------------------------------------------------
~Other -----------------------------------------------------
~ASCII -----------------------------------------------------
# ...
 5272.00000   53.81850   91.20120    0.03160   -9999.25    0.00280    4.53170   -9999.25    8.57770    2.66040   20.97110   20.38390   66.40480 -137.41560
 5272.50000   53.72840   91.35130    0.04690   -9999.25    0.00730    4.78630   -9999.25    8.56290    2.64020   16.36480   16.13010   56.60560 -138.01200
 5273.00000   53.63840   90.45040    0.03510   -9999.25    0.01180    5.32530   -9999.25    8.54670    2.64270   16.14240   19.84160   59.06390 -138.60850
 5273.50000   53.54840   90.60060    0.01580   -9999.25    0.01410    6.19360   -9999.25    8.51810    2.65940   24.41560   22.00780  103.80240 -139.20490
 5274.00000   53.54840   91.35130    0.00160   -9999.25    0.00610    6.56800   -9999.25    8.50330    2.68560   19.85730   19.31120  122.73950 -139.95200
 5274.50000   -9999.25   91.65160    0.00580   -9999.25   -0.00230    6.73270   -9999.25    8.50360    2.69850   25.45450   32.17460   96.60040 -140.84960
 5275.00000   -9999.25   91.50150    0.00280   -9999.25   -0.00380    6.73530   -9999.25    8.51890    2.70460   36.68640   29.02160   80.96190 -142.04840
 5275.50000   -9999.25   91.05100   -0.00470   -9999.25   -0.01200    6.47840   -9999.25    8.54920    2.71770   28.23530   23.12260   87.55170 -143.39790
 5276.00000   -9999.25   90.75070   -0.01160   -9999.25   -0.01420    6.06950   -9999.25    8.56450    2.73220   23.60510   24.60950  104.04000 -144.74730
 5276.50000   -9999.25   90.75070   -0.01970   -9999.25   -0.00290    5.58140   -9999.25    8.54970    2.74280   49.70720   44.22640  114.59620 -146.24740
 5277.00000   -9999.25   90.75070   -0.02510   -9999.25    0.00680    5.05440   -9999.25    8.53480    2.74930   24.60870   23.30170  101.22020 -147.29570
 5277.50000   -9999.25   90.74600   -0.02700   -9999.25    0.01440    4.56250   -9999.25    8.51990    2.75080   28.86480   30.08040   71.69540 -148.94630
 5278.00000   -9999.25   90.43440   -0.02310   -9999.25    0.01660    4.48770   -9999.25    8.50510    2.74630   28.94990   32.68360   97.13070 -150.44640
 5278.50000   -9999.25   89.97310   -0.01800   -9999.25    0.01220    4.53270   -9999.25    8.52040    2.74350   51.83630   60.80090  101.24090 -151.79500
 5279.00000   -9999.25   89.39940   -0.01830   -9999.25    0.00700    4.60760   -9999.25    8.55080    2.74100   78.94560   88.85850   81.75400 -153.59630
 5279.50000   -9999.25   88.79880   -0.02520   -9999.25    0.00480    4.69750   -9999.25    8.56600    2.74850  115.36060  103.43940   93.85640 -155.54820
 5280.00000   -9999.25   88.34840   -0.03990   -9999.25    0.00550    4.77250   -9999.25    8.56630    2.77510  263.87490  343.38580  675.18450 -158.02720
 5280.50000   -9999.25   87.89790   -0.04680   -9999.25    0.00630    4.78750   -9999.25    8.52130    2.79970  347.71040  322.79360  545.21550 -159.82850
 5281.00000   -9999.25   87.59760   -0.05300   -9999.25    0.00710    4.60790   -9999.25    8.50570    2.81390  583.21360  508.95320  370.51650 -161.85480
 5281.50000   -9999.25   87.44740   -0.07400   -9999.25    0.00940    4.48830   -9999.25    8.50670    2.83850 1419.43080 1412.24540  397.00850 -163.20430
 5282.00000   -9999.25   87.59760   -0.08790   -9999.25    0.01020    4.39850   -9999.25    8.52460    2.85660 2074.16770 1939.78320  684.75230 -164.70430
 5282.50000   -9999.25   87.89790   -0.09720   -9999.25    0.00930    4.41360   -9999.25    8.55240    2.85440 1459.51420 1667.26000  587.61300 -164.39720
 5283.00000   -9999.25   88.34840   -0.08940   -9999.25   -0.00050    4.56330   -9999.25    8.52250    2.85330 1019.94970 1110.38890  537.92770 -164.09000
 5283.50000   -9999.25   88.79880   -0.08100   -9999.25   -0.01190    4.78800   -9999.25    8.49250    2.83930  939.06340 1189.96390  541.68870 -164.08400
 5284.00000   -9999.25   88.94900   -0.07360   -9999.25   -0.01740    4.93810   -9999.25    8.47770    2.83110 1490.62180 1763.23790  530.62820 -164.37930
 5284.50000   -9999.25   89.24930   -0.07300   -9999.25   -0.01740    4.90520   -9999.25    8.53820    2.82430 1325.95360 1444.11940  634.92580 -164.67450
 5285.00000   -9999.25   89.39940   -0.07180   -9999.25   -0.01360    4.68930   -9999.25    8.56860    2.81970 1100.90300 1073.93740  600.22640 -165.12030
 5285.50000   -9999.25   89.24930   -0.06370   -9999.25   -0.00610    4.29430   -9999.25    8.58380    2.81120  931.39430  793.16020  552.31780 -165.56620
 5286.00000   -9999.25   89.24930   -0.05380   -9999.25    0.00220    4.03980   -9999.25    8.58410    2.78460  563.35890  593.92410  495.94970 -166.01200
 5286.50000   -9999.25   89.54960   -0.03830   -9999.25    0.01120    3.98000   -9999.25    8.58430    2.76350  182.83160  201.27490  298.83830 -166.15660
 5287.00000   -9999.25   89.84990   -0.02450   -9999.25    0.01270    4.18970   -9999.25    8.56940    2.73200   81.33240   98.29480  195.21760 -165.69890
 5287.50000   -9999.25   90.60060   -0.01190   -9999.25    0.00160    4.42930   -9999.25    8.53950    2.71720  101.42170  112.08190  163.17210 -164.93990
 5288.00000   -9999.25   91.50150   -0.00350   -9999.25    0.00460    4.57910   -9999.25    8.47950    2.71330  110.18390  120.94500  129.95470 -164.03030
 5288.50000   -9999.25   92.10210    0.00040   -9999.25    0.01060    4.66890   -9999.25    8.44960    2.71480  110.96120  118.49850  133.60000 -162.97010
 5289.00000   -9999.25   92.40240   -0.00720   -9999.25    0.01510    4.62410   -9999.25    8.41970    2.71710  106.47950  112.88250  125.56540 -161.90990
 5289.50000   -9999.25   92.55260   -0.00430   -9999.25    0.01530    4.39960   -9999.25    8.43610    2.71860   78.08990  106.05200  153.39040 -160.54850
 5290.00000   -9999.25   92.55260    0.00630   -9999.25    0.00470    4.20510   -9999.25    8.46540    2.66310   55.70990   94.43480  144.16310 -159.63890
 5290.50000   -9999.25   -9999.25    0.02910   -9999.25    0.00250    4.20260   -9999.25    8.48070    2.64630   81.40980   74.46380  156.61970 -159.03060
 5291.00000   -9999.25   -9999.25    0.04490   -9999.25    0.00550    4.31000   -9999.25    8.49600    2.63680   59.70430   68.83190  125.60180 -157.97040
 5291.50000   -9999.25   -9999.25    0.04370   -9999.25    0.00710    4.45980   -9999.25    8.49620    2.63170   59.71240   67.91250  112.48260 -156.45840
 5292.00000   -9999.25   -9999.25    0.05120   -9999.25    0.00400    4.68560   -9999.25    8.49640    2.62260   60.54960   66.99630  101.43110 -153.89140
 5292.50000   -9999.25   -9999.25    0.06080   -9999.25   -0.00120    5.08280   -9999.25    8.51170    2.61660   61.39860   67.01920   83.04420 -152.22890
 5293.00000   -9999.25   -9999.25    0.05900   -9999.25    0.00120    5.68470   -9999.25    8.49680    2.61600   61.40690   67.50120   83.62490 -150.34030
 5293.50000   -9999.25   -9999.25    0.04970   -9999.25   -0.00030    6.79540   -9999.25    8.46700    2.62490   61.41600   67.98670   67.06330 -148.67770
 5294.00000   -9999.25   -9999.25    0.04520   -9999.25   -0.00330    7.15480   -9999.25    8.45210    2.63350   61.00830   68.00280   71.67410 -147.45800
 5294.50000   -9999.25   -9999.25    0.04480   -9999.25   -0.00170    7.33450   -9999.25    8.45240   -9999.25   -9999.25   -9999.25   -9999.25   -9999.25
 5295.00000   -9999.25   -9999.25    0.03880   -9999.25    0.00130    7.54420   -9999.25    8.54290   -9999.25   -9999.25   -9999.25   -9999.25   -9999.25
 5295.50000   -9999.25   -9999.25    0.03790   -9999.25    0.00210    8.06820   -9999.25    8.49800   -9999.25   -9999.25   -9999.25   -9999.25   -9999.25
 5296.00000   -9999.25   -9999.25    0.04720   -9999.25   -0.00240    8.81680   -9999.25    8.42290   -9999.25   -9999.25   -9999.25   -9999.25   -9999.25
 5296.50000   -9999.25   -9999.25    0.05950   -9999.25   -0.01580    9.01150   -9999.25    8.37790   -9999.25   -9999.25   -9999.25   -9999.25   -9999.25
 5297.00000   -9999.25   -9999.25    0.06310   -9999.25   -0.01880    8.96660   -9999.25    8.34800   -9999.25   -9999.25   -9999.25   -9999.25   -9999.25
 5297.50000   -9999.25   -9999.25    0.04520   -9999.25   -0.00530    8.75710   -9999.25    8.31810   -9999.25   -9999.25   -9999.25   -9999.25   -9999.25
