~Version ---------------------------------------------------
VERS.   2.0 : CWLS log ASCII Standard -VERSION 2.0
WRAP.    NO : One line per depth step
DLM . SPACE : Column Data Section Delimiter
~Well ------------------------------------------------------
STRT .F                  176.0 : START DEPTH
STOP .F                 5312.0 : STOP DEPTH
STEP .F                    0.5 : STEP
NULL .                -9999.25 : NULL VALUE
COMP .                         : COMPANY
WELL .                         : WELL
FLD  .                         : FIELD
LOC  .                         : LOCATION
PROV .                         : PROVINCE
CNTY .                         : COUNTY
STAT .                         : STATE
CTRY .                         : COUNTRY
SRVC .                         : SERVICE COMPANY
DATE .                         : DATE
UWI  .                         : UNIQUE WELL ID
API  .                         : API NUMBER
SLAT .WGS84 3.0300680289002955 : SURFACE LATITUDE
SLON .WGS84  8.145633773402011 : SURFACE LONGITUDE
DATUM.F                4036.29 : DEPTH DATUM ELEV
~Curve Information -----------------------------------------
DEPT.F     : 
DTCO.US/F  : COMPRESSIONAL-WAVE INTERVAL TRANSIT TIME ACAUSTIC SLOWNESS
DTSM.US/F  : DTSM
DPHZ.DEC   : DENSITY POROSITY LIMESTONE
GRD .GAPI  : GAMMA RAY FROM DENSITY LOG
HDRA.G/C3  : DELTA RHO HIP TOOL
PEFZ.B/E   : HILT PHOTOELECTRIC FACTOR
TNPH.DEC   : THERMAL NEUTRON POROSITY lLIMESTONE
HCAL.IN    : CALIPER FROM DENSITY LOG
RHOZ.G/C3  : HILT BULK DENSITY
RLA3.OHMM  : HRLTB RESISTIVITY 3
RLA5.OHMM  : HRLTB RESISTIVITY 5
RXOZ.OHMM  : FLUSHED ZONE RESISTIVITY
SPR .MV    : SPONTANEOUS POTENTIAL FROM RES.
~Params ----------------------------------------------------
~Other -----------------------------------------------------
~ASCII -----------------------------------------------------
# ...
 3322.00000   -9999.25   -9999.25   -0.13050   13.01410    0.00860    5.22400    0.01240   12.76740    2.92080   52.94420  158.76150   23.96450  -46.09930
 3322.50000   -9999.25   -9999.25   -0.13950   12.26130    0.01090    5.32910    0.00670   12.79810    2.92940  177.48610  257.31680   26.58730  -45.79680
 3323.00000   -9999.25   -9999.25   -0.13470   10.90160    0.01310    5.43420    0.00670   12.81370    2.92460  150.76270   42.79920   32.37820  -45.79540
 3323.50000   -9999.25   -9999.25   -0.13230   10.45220    0.01010    5.46430    0.01040   12.85950    2.92360   34.98710   29.67900   60.03290  -45.64350
 3324.00000   -9999.25   -9999.25   -0.14160   10.76600    0.00630    5.47940    0.01500   12.87510    2.92970   37.23020   37.27940  255.61440  -45.64200
 3324.50000   -9999.25   -9999.25   -0.14550   11.70610    0.00260    5.44960    0.01840   12.89060    2.94100  177.23770  285.33130  303.73070  -45.49020
 3325.00000   -9999.25   -9999.25   -0.14730   12.46820   -0.00120    5.38980    0.01900   12.92140    2.94840  137.28140  107.86060  534.94180  -45.48870
 3325.50000   -9999.25   -9999.25   -0.12990   12.90550   -0.00350    5.25500    0.02130   12.96720    2.94470   26.00000   24.47110   24.26160  -45.48720
 3326.00000   -9999.25   -9999.25   -0.09130   13.67020    0.00180    5.09030    0.03060   12.99790    2.91920   17.30060   18.44130    4.14230  -45.48580
 3326.50000   -9999.25   -9999.25   -0.06890   15.34540    0.00410    4.98550    0.04500   13.12310    2.84260   71.73860   66.53970    4.17060  -45.63470
 3327.00000   -9999.25   -9999.25   -0.08990   15.04780    0.00330    5.09570    0.04710   13.28840    2.81870  101.31590  209.14340    7.55080  -45.78360
 3327.50000   -9999.25   -9999.25   -0.11070   12.77760    0.00260    5.33280    0.02610   13.24130    2.89290  104.15300  391.82190  214.88620  -45.78210
 3328.00000   -9999.25   -9999.25   -0.15610   10.35560    0.00180    5.36070    0.00730   13.19630    2.94550   91.34820  414.04510  201.91230  -45.93080
 3328.50000   -9999.25   -9999.25   -0.15670    9.90490    0.00180    5.15100    0.00030   13.24230    2.95970   64.68080  175.99230   84.00280  -45.77900
 3329.00000   -9999.25   -9999.25   -0.12960   11.42980    0.00560    4.79130    0.01600   13.30320    2.95820   34.03410   39.38150   41.82020  -45.77730
 3329.50000   -9999.25   -9999.25   -0.08240   16.13980    0.01630    4.43170    0.03020   13.34910    2.89520   30.89840   39.27240   41.03040  -45.62550
 3330.00000   -9999.25   -9999.25   -0.06140   22.67080    0.02280    4.47680    0.05940   13.39490    2.84420   43.33730   62.95170   59.45540  -45.32320
 3330.50000   -9999.25   -9999.25   -0.07970   24.95290    0.02580    4.88170    0.05370   13.44070    2.84060   39.89150   92.26200  173.34040  -45.17140
 3331.00000   -9999.25   -9999.25   -0.07160   22.29970    0.02360    5.15170    0.05370   13.47140    2.83280   22.18230   59.09850   75.16610  -44.71880
 3331.50000   -9999.25   -9999.25   -0.01600   18.69400    0.02580    5.21180    0.06670   13.48700    2.67690    6.18420    5.82440    4.77860  -44.41660
 3332.00000   -9999.25   -9999.25    0.05010   19.66120    0.02430    4.86720    0.08530   13.56310    2.55710    8.49600   16.16910    1.02410  -44.56550
 3332.50000   -9999.25   -9999.25    0.10090   27.10270    0.01610    4.32760    0.17960   13.66940    2.54560   18.92530   18.43310    1.14230  -45.31590
 3333.00000   -9999.25   -9999.25    0.09060   39.55170    0.00410    3.84800    0.21370   13.83810    2.59590   17.23610   13.60660   13.70080  -46.21660
 3333.50000   -9999.25   -9999.25    0.06420   45.32400    0.00260    3.83180    0.22900   13.94270    2.61560   14.73470   17.34990   20.09080  -46.96700
 3334.00000   -9999.25   -9999.25    0.04590   46.39070    0.00480    3.93820    0.20950   13.89780    2.64690   23.99020   35.74310   60.21440  -47.64210
 3334.50000   -9999.25   -9999.25    0.01760   42.45280    0.00480    4.31590    0.16600   13.82260    2.70600   41.86680  128.96870  148.75080  -48.39250
 3335.00000   -9999.25   -9999.25   -0.03590   35.47840    0.00330    4.66880    0.10970   13.73230    2.79040   32.87930   49.77210   38.43080  -49.06750
 3335.50000   -9999.25   -9999.25   -0.07500   29.26290    0.00560    4.99790    0.07610   13.67220    2.86970   30.05670  149.06390   70.06310  -49.51720
 3336.00000   -9999.25   -9999.25   -0.09520   21.52980    0.01470    5.22820    0.05940   13.65740    2.87630   29.64450   59.95870  164.91470  -49.96680
 3336.50000   -9999.25   -9999.25   -0.10710   21.08000    0.02930    5.27330    0.06780   13.67310    2.88290   20.00000   32.00210   34.87570  -50.26610
 3337.00000   -9999.25   -9999.25   -0.11710   20.63220    0.04810    5.21350    0.08010   13.73410    2.89580   15.06920   24.28360   22.88520  -50.71580
 3337.50000   -9999.25   -9999.25   -0.10050   20.03120    0.04380    5.03380    0.08490   13.79500    2.87050   35.47360   82.34470   28.93640  -51.31580
 3338.00000   -9999.25   -9999.25   -0.09810   19.27840    0.03780    4.99830    0.08370   13.78040    2.89300   45.17030  203.29660  125.04540  -51.91580
 3338.50000   -9999.25   -9999.25   -0.12610   18.07040    0.03480    5.22890    0.07170   13.73540    2.90890   38.53790   39.90240  442.31770  -52.51590
 3339.00000   -9999.25   -9999.25   -0.12400   16.55890    0.04830    5.49900    0.05550   13.67530    2.91030   14.55790   26.19470    3.69580  -53.26630
 3339.50000   -9999.25   -9999.25   -0.09450   14.89570    0.07910    5.52910    0.05010   13.58420    2.90950   13.12570   25.57790    2.15660  -54.16700
 3340.00000   -9999.25   -9999.25   -0.07950   14.74840    0.09490    5.46720    0.05370   13.54010    2.87700   42.44890  175.85300    2.20140  -54.76710
 3340.50000   -9999.25   -9999.25   -0.08910   14.77440    0.06860    5.34750    0.05700   13.51030    2.84280   39.07370   70.45480  153.71530  -55.21650
 3341.00000   -9999.25   -9999.25   -0.10700   13.69960    0.03930    5.27470    0.05340   13.48050    2.87290   55.95080   69.28290  144.43460  -55.51580
 3341.50000   -9999.25   -9999.25   -0.12730   13.40210    0.01610    5.34980    0.04620   13.40540    2.90760   60.63390  182.00500  119.85810  -55.81490
 3342.00000   -9999.25   -9999.25   -0.13240   13.42450    0.00480    5.43990    0.04200   13.36040    2.91780   52.57990  216.25930  551.14030  -56.26460
 3342.50000   -9999.25   -9999.25   -0.12280   13.71780    0.00710    5.47000    0.03960   13.34560    2.91740   50.44630  145.93980  594.54740  -56.86460
 3343.00000   -9999.25   -9999.25   -0.10480   15.39410    0.02080    5.38020    0.03750   13.33090    2.90060   26.94810   18.80490    3.37480  -57.46460
 3343.50000   -9999.25   -9999.25   -0.08440   17.52450    0.05080    5.15550    0.08370   13.33150    2.82930   12.16570   16.49420    2.80050  -58.06460
 3344.00000   -9999.25   -9999.25   -0.04140   19.19970    0.05020    4.99070    0.11810   13.33190    2.78520   42.74300   39.34060    2.68650  -58.66470
 3344.50000   -9999.25   -9999.25   -0.05070   18.29510    0.03260    4.97580    0.12140   13.30210    2.77380   57.91610  131.57420    7.94120  -59.11430
 3345.00000   -9999.25   -9999.25   -0.07560   15.72140    0.01230    5.11100    0.09120   13.12100    2.79020   74.25830  505.15630  466.01010  -59.86470
 3345.50000   -9999.25   -9999.25   -0.10250   11.02330    0.00560    5.44090    0.03900   12.89460    2.82910  108.55820  966.18210  568.24110  -60.31440
 3346.00000   -9999.25   -9999.25   -0.13010    7.38740    0.00180    5.59100    0.01510   12.83370    2.89310  127.24130 1760.78550  577.80750  -60.91440
 3346.50000   -9999.25   -9999.25   -0.14390    6.93660    0.00260    5.59120    0.01090   12.78760    2.91830  136.34810 2834.28810  517.28890  -61.81500
 3347.00000   -9999.25   -9999.25   -0.14840    7.55100    0.00260    5.44140    0.01570   12.75970    2.94740  142.10330 2304.31370  489.42480  -62.49020
 3347.50000   -9999.25   -9999.25   -0.14960    9.68140    0.00180    5.21580    0.02310   12.69980    2.95010  141.12560 1523.18570  535.31240  -63.01490
