~Version ---------------------------------------------------
VERS.   2.0 : CWLS log ASCII Standard -VERSION 2.0
WRAP.    NO : One line per depth step
DLM . SPACE : Column Data Section Delimiter
~Well ------------------------------------------------------
STRT .F                  176.0 : START DEPTH
STOP .F                 5312.0 : STOP DEPTH
STEP .F                    0.5 : STEP
NULL .                -9999.25 : NULL VALUE
COMP .                         : COMPANY
WELL .                         : WELL
FLD  .                         : FIELD
LOC  .                         : LOCATION
PROV .                         : PROVINCE
CNTY .                         : COUNTY
STAT .                         : STATE
CTRY .                         : COUNTRY
SRVC .                         : SERVICE COMPANY
DATE .                         : DATE
UWI  .                         : UNIQUE WELL ID
API  .                         : API NUMBER
SLAT .WGS84 3.0300680289002955 : SURFACE LATITUDE
SLON .WGS84  8.145633773402011 : SURFACE LONGITUDE
DATUM.F                4036.29 : DEPTH DATUM ELEV
~Curve Information -----------------------------------------
DEPT.F     : 
DTCO.US/F  : COMPRESSIONAL-WAVE INTERVAL TRANSIT TIME ACAUSTIC SLOWNESS
DTSM.US/F  : DTSM
DPHZ.DEC   : DENSITY POROSITY LIMESTONE
GRD .GAPI  : GAMMA RAY FROM DENSITY LOG
HDRA.G/C3  : DELTA RHO HIP TOOL
PEFZ.B/E   : HILT PHOTOELECTRIC FACTOR
TNPH.DEC   : THERMAL NEUTRON POROSITY lLIMESTONE
HCAL.IN    : CALIPER FROM DENSITY LOG
RHOZ.G/C3  : HILT BULK DENSITY
RLA3.OHMM  : HRLTB RESISTIVITY 3
RLA5.OHMM  : HRLTB RESISTIVITY 5
RXOZ.OHMM  : FLUSHED ZONE RESISTIVITY
SPR .MV    : SPONTANEOUS POTENTIAL FROM RES.
~Params ----------------------------------------------------
~Other -----------------------------------------------------
~ASCII -----------------------------------------------------
# ...
 3894.00000   -9999.25   -9999.25   -0.10870   23.12730    0.00230    5.01890    0.00900   11.26410    2.89640  353.51370 1031.31080 1988.04150  -75.82570
 3894.50000   -9999.25   -9999.25   -0.12820   21.92080    0.00030    5.10920    0.00420   11.24970    2.91310  248.58950  503.24450  601.70730  -75.82280
 3895.00000   -9999.25   -9999.25   -0.11170   24.50800    0.00110    5.13940    0.00090   11.22010    2.90210  136.33680  145.36280  313.93800  -75.97020
 3895.50000   -9999.25   -9999.25   -0.07870   29.06790    0.00330    4.95990    0.00330   11.20580    2.80110  142.10330  224.50050  241.52400  -75.96720
 3896.00000   -9999.25   -9999.25   -0.05220   31.80680    0.00930    4.70530    0.00540   11.17620    2.78540  122.07790  243.87780  197.72560  -76.11430
 3896.50000   -9999.25   -9999.25   -0.05550   31.20740    0.01160    4.66050    0.00390   11.11640    2.78610  119.57540  163.45170  189.72140  -76.11130
 3897.00000   -9999.25   -9999.25   -0.08020   24.68990    0.01310    4.88580   -0.00200   11.07160    2.81690  227.24910  242.20110  238.30930  -76.10800
 3897.50000   -9999.25   -9999.25   -0.11140   16.65490    0.00630    5.41080   -0.01050   11.05440    2.88820  348.66580 2343.92580 1526.85230  -76.10500
 3898.00000   -9999.25   -9999.25   -0.15800   11.04790   -0.00500    5.68100   -0.01750   11.03460    2.98200  417.22500 3932.44780 1985.17740  -76.10210
 3898.50000   -9999.25   -9999.25   -0.17510    8.77740   -0.00570    5.77120   -0.01830   11.01310    3.00370  499.26530 7418.53910 1999.13570  -76.24950
 3899.00000   -9999.25   -9999.25   -0.18350    9.09920   -0.00120    5.75660   -0.01830   10.98360    3.00630  472.43640 7732.07230  849.38050  -76.39690
 3899.50000   -9999.25   -9999.25   -0.17480   10.16000   -0.00050    5.66690   -0.01740   10.93880    3.00670  431.87970 2202.81270  561.37300  -76.24360
 3900.00000   -9999.25   -9999.25   -0.15950   11.84220   -0.00670    5.64110   -0.01640   10.89410    3.00450  423.02620 1567.18160  701.32290  -75.78950
 3900.50000   -9999.25   -9999.25   -0.15710   12.80360   -0.00880    5.56060   -0.01370   10.86450    2.96020  453.19800 1120.80260 1455.69080  -75.03480
 3901.00000   -9999.25   -9999.25   -0.15710   13.76490   -0.00950    5.42700   -0.00660   10.86520    2.96100  363.30930  546.75900  788.99620  -74.73110
 3901.50000   -9999.25   -9999.25   -0.14980   15.50710   -0.00500    5.06700    0.00690   10.85080    2.95770   96.49500  262.21550  204.18030  -73.90070
 3902.00000   -9999.25   -9999.25   -0.12780   20.06840   -0.00200    4.67700    0.01830   10.80600    2.92050  117.86970  176.38720  216.00670  -73.44650
 3902.50000   -9999.25   -9999.25   -0.09550   24.62970   -0.00200    4.45200    0.02550   10.77650    2.87980  353.26790  288.25860  566.72030  -73.06760
 3903.00000   -9999.25   -9999.25   -0.07980   29.03920   -0.00050    4.16700    0.02910   10.76200    2.85710  297.22290  254.29360  380.52680  -72.68870
 3903.50000   -9999.25   -9999.25   -0.07680   32.69010    0.00630    4.03190    0.02940   10.76280    2.83940  171.05780  202.52970  341.35400  -72.38490
 3904.00000   -9999.25   -9999.25   -0.08050   33.75900    0.01610    3.94180    0.02760   10.77860    2.83430  133.39430  189.04090  348.47420  -71.93080
 3904.50000   -9999.25   -9999.25   -0.08270   32.40450    0.02210    4.07660    0.02460   10.77930    2.84550   99.80240  115.04170  218.52070  -71.62710
 3905.00000   -9999.25   -9999.25   -0.08980   29.68200    0.02060    4.31630    0.01920   10.79510    2.85830   75.64280   78.72110  142.00330  -71.39860
 3905.50000   -9999.25   -9999.25   -0.10780   26.20080    0.01380    4.59070    0.01290   10.81090    2.88980   71.13700   73.98550  121.14640  -71.24520
 3906.00000   -9999.25   -9999.25   -0.12700   23.17490    0.00770    4.85580    0.00360   10.85700    2.92510   95.55740   84.35540  187.14520  -71.24180
 3906.50000   -9999.25   -9999.25   -0.14260   21.81810    0.00090    4.79560   -0.00130   10.90300    2.93560  432.03680  761.98730 1624.35010  -71.23880
 3907.00000   -9999.25   -9999.25   -0.12940   22.88930   -0.00270    4.60060   -0.00020   10.93390    2.91610  404.90380  507.22240  538.14230  -71.23580
 3907.50000   -9999.25   -9999.25   -0.10490   26.74480   -0.00200    4.22560    0.00480   10.98000    2.84460  198.89300  354.34220  462.26690  -71.08250
 3908.00000   -9999.25   -9999.25   -0.07720   31.69900   -0.00500    4.01560    0.01530   10.99580    2.80610  166.18780  282.21240  287.05590  -70.92910
 3908.50000   -9999.25   -9999.25   -0.05310   39.76210   -0.00570    3.98550    0.02340   11.01160    2.78860  114.45130  129.42820   46.38020  -70.92610
 3909.00000   -9999.25   -9999.25   -0.05010   41.13450   -0.00200    4.04530    0.02970   11.02740    2.78750  106.80120   50.64870   40.11820  -70.77270
 3909.50000   -9999.25   -9999.25   -0.07110   33.10320    0.00260    4.04760    0.03090   11.05830    2.79560  229.80020  119.16080  301.20800  -70.76980
 3910.00000   -9999.25   -9999.25   -0.10230   24.76610    0.00330    4.00000    0.02700   11.11960    2.86290  256.61490  731.43890 1929.48220  -70.61640
 3910.50000   -9999.25   -9999.25   -0.10540   19.31230    0.00030    3.99980    0.01980   11.16570    2.87260  215.89620  783.72350 1072.83000  -70.46300
 3911.00000   -9999.25   -9999.25   -0.10190   20.83870    0.00180    4.03350    0.01130   11.19660    2.87180  182.90330  473.66730  848.30510  -70.46000
 3911.50000   -9999.25   -9999.25   -0.09900   25.55170    0.00710    4.20940    0.00440   11.28810    2.87690  168.33720  288.25230  584.25600  -70.30670
 3912.00000   -9999.25   -9999.25   -0.11890   27.07810    0.00860    4.38920   -0.00280   11.36440    2.89150  161.48410  364.48120  564.40170  -70.30370
 3912.50000   -9999.25   -9999.25   -0.11740   27.08710    0.00470    4.49400   -0.00520   11.44070    2.90040  221.82030  433.37610  488.18280  -70.15030
 3913.00000   -9999.25   -9999.25   -0.10530   28.00650    0.00110    4.56880   -0.00380   11.54730    2.87920  125.91130  211.36370  217.63470  -70.14730
 3913.50000   -9999.25   -9999.25   -0.08310   32.41600    0.00030    4.68860    0.00770   11.66900    2.82840   79.81860   93.00490  179.36600  -70.14430
 3914.00000   -9999.25   -9999.25   -0.07290   36.06690    0.00260    4.85340    0.01370   11.79070    2.84750   48.21190   54.98640  115.29390  -69.99100
 3914.50000   -9999.25   -9999.25   -0.09450   35.58440    0.00480    4.98810    0.01430   11.86700    2.89590   61.80750   49.99220  103.94390  -69.98800
 3915.00000   -9999.25   -9999.25   -0.10760   30.95450    0.00330    5.09290    0.00980   11.97350    2.90950  138.61370  205.10330  136.05380  -69.98500
 3915.50000   -9999.25   -9999.25   -0.13290   24.65980   -0.00200    5.16780    0.00380   12.06500    2.91980  185.21820  278.63070  303.05010  -69.98200
 3916.00000   -9999.25   -9999.25   -0.13210   20.47510   -0.00350    5.24260   -0.00370   12.15690    2.92170  163.55030  352.69420  246.33690  -69.97900
 3916.50000   -9999.25   -9999.25   -0.13330   18.66310    0.00410    5.25740   -0.00730   12.20390    2.93050  165.80170  317.70540 1205.44490  -69.97600
 3917.00000   -9999.25   -9999.25   -0.13870   18.36640    0.00410    5.21230   -0.00760   12.28330    2.93350  180.09910  629.04760 1442.40110  -69.82260
 3917.50000   -9999.25   -9999.25   -0.14080   19.59150    0.00410    5.09220   -0.00610   12.38550    2.93050  168.06100  773.73710  377.86760  -69.81970
 3918.00000   -9999.25   -9999.25   -0.12960   22.63540    0.00420    4.88210   -0.00250   12.43160    2.89830  107.27660  171.96780  176.79690  -69.66630
 3918.50000   -9999.25   -9999.25   -0.11350   26.58970    0.00780    4.70210    0.00180   12.50790    2.87620   94.07500  133.23180  133.20290  -69.51290
 3919.00000   -9999.25   -9999.25   -0.10310   30.39230    0.00930    4.62700    0.00820   12.56910    2.86830  115.80780  234.60530  174.34840  -69.05880
 3919.50000   -9999.25   -9999.25   -0.09450   31.91870    0.00110    4.67180    0.01220   12.64540    2.86410  103.64010  239.52390  166.11110  -68.75510
