~Version ---------------------------------------------------
VERS.   2.0 : CWLS log ASCII Standard -VERSION 2.0
WRAP.    NO : One line per depth step
DLM . SPACE : Column Data Section Delimiter
~Well ------------------------------------------------------
STRT .FT                200.0 : START DEPTH
STOP .FT              12037.0 : STOP DEPTH
STEP .FT                  0.5 : STEP
NULL .               -9999.25 : NULL VALUE
COMP .                        : COMPANY
WELL .                        : WELL
FLD  .                        : FIELD
LOC  .                        : LOCATION
PROV .                        : PROVINCE
CNTY .                        : COUNTY
STAT .                        : STATE
CTRY .                        : COUNTRY
SRVC .                        : SERVICE COMPANY
DATE .                        : DATE
UWI  .                        : UNIQUE WELL ID
API  .                        : API NUMBER
SLAT .WGS84 2.772362038108895 : SURFACE LATITUDE
SLON .WGS84 8.174796129004008 : SURFACE LONGITUDE
DATUM.F                   nan : DEPTH DATUM ELEV
~Curve Information -----------------------------------------
DEPT   .FT    : 
DPHZ_LS.DEC   : HGRD STANDARD RESOLUTION DENSITY POROSITY
DTCO   .US/F  : DELTA-T COMPRESSIONAL
DTSM   .US/F  : DELTA-T SHEAR
HCALD  .IN    : HRCC CALIPER CALIBRATED FROM DENSITY LOG
HCGR   .GAPI  : HNGS COMPUTED GAMMA RAY
HCGRD  .GAPI  : HNGS COMPUTED GAMMA RAY FROM DENSITY LOG
PEFZ   .B/E   : HRDD STANDARD RESOLUTION FORMATION PHOTOELECTRIC FACTOR
RHOZ   .G/C3  : HRDD STANDARD RESOLUTION FORMATION DENSITY
RLA3   .OHMM  : APPARENT RESISTIVITY FROM COMPUTED FOCUSING MODE 3
RLA5   .OHMM  : APPARENT RESISTIVITY FROM COMPUTED FOCUSING MODE 5
RXOZ   .OHMM  : INVADED FORMATION RESISTIVITY FILTERED AT 18 INCHES
TNPH_LS.DEC   : THERMAL NEUTRON POROSITY [LIMESTONE]
~Params ----------------------------------------------------
~Other -----------------------------------------------------
~ASCII -----------------------------------------------------
# ...
 9916.00000    0.04440   61.23460  100.38160    8.79210   57.88300   59.28680    2.72780    2.63550   16.40860   20.99450   15.00590    0.06460
 9916.50000    0.04950   61.32800  100.85880    8.79440   60.22840   60.58520    2.72770    2.62940   13.98440   18.15180   12.46740    0.06270
 9917.00000    0.05350   61.52700  100.89530    8.79670   63.34610   64.18710    2.76680    2.62520   13.68140   19.36230   11.20440    0.06490
 9917.50000    0.05040   61.65270  101.28530    8.79890   68.59660   70.58020    2.79790    2.62840   13.22680   18.48330   11.14200    0.07220
 9918.00000    0.05000   61.73390  102.00120    8.81080   72.79630   73.03530    2.77420    2.62970   12.46920   18.54280    9.65660    0.07520
 9918.50000    0.05290   62.00310  101.67650    8.81440   70.62720   72.13550    2.74460    2.62300   11.10560   17.01130    9.06020    0.07790
 9919.00000    0.05840   62.33390  102.33670    8.80970   68.89120   70.90850    2.71510    2.61330    9.98920   17.54330    8.95780    0.07730
 9919.50000    0.06490   62.93160  103.06480    8.81020   69.69080   70.36310    2.67060    2.59980   10.52520   19.28480    9.18480    0.07590
 9920.00000    0.07370   63.29200  103.44970    8.81070   69.91690   69.66100    2.61620    2.58340   10.95410   18.67500    9.16500    0.07830
 9920.50000    0.08730   63.52660  103.33790    8.81120   69.04320   68.72360    2.62360    2.56270    9.97140   18.20210    8.30700    0.08290
 9921.00000    0.10090   63.95160  103.60170    8.81200   67.92560   69.00750    2.62660    2.54710   10.37150   18.94860    8.54050    0.08290
 9921.50000    0.10330   64.13980  104.08090    8.81120   67.85930   71.36410    2.62470    2.54460   11.86330   21.83260    8.84740    0.08430
 9922.00000    0.09790   64.12850  104.01900    8.81020   69.30460   71.59550    2.58110    2.55200   10.80270   21.06690    8.87290    0.08670
 9922.50000    0.09820   64.19930  104.57500    8.81190   71.03440   71.23560    2.58250    2.55060    9.85810   20.53090    8.31600    0.08920
 9923.00000    0.10160   64.20310  104.81520    8.81940   72.76410   74.23500    2.61270    2.54730   10.35380   19.99500    7.96510    0.09010
 9923.50000    0.10360   64.09250  104.84440    8.80900   72.70640   72.70190    2.61940    2.54390   10.49970   19.45900    7.61420    0.08870
 9924.00000    0.10060   64.04910  104.67580    8.80690   68.25910   68.86940    2.59400    2.54390   10.34820   18.92300    8.33840    0.08410
 9924.50000    0.10010   63.97760  104.62980    8.80430   63.63690   63.58710    2.56860    2.55320   14.36330   28.45980   10.32410    0.07940
 9925.00000    0.09740   63.86850  104.94800    8.80020   59.86760   61.72150    2.54340    2.55880   14.71180   25.75910   10.03570    0.07750
 9925.50000    0.09470   63.66330  105.05390    8.79960   62.00910   62.15010    2.52910    2.55910    9.77480   17.50260    8.52380    0.08010
 9926.00000    0.09340   63.50480  104.40840    8.81070   65.57070   65.85560    2.52970    2.55950    9.85810   16.54900    7.11820    0.08440
 9926.50000    0.09460   63.35940  104.49420    8.80840   68.95870   69.73590    2.53600    2.55950   10.65120   16.74670    7.70380    0.08830
 9927.00000    0.09480   63.20460  104.39370    8.80610   67.91610   68.74690    2.55080    2.56100   10.04520   15.81890    7.80350    0.08930
 9927.50000    0.09060   62.98710  103.98650    8.80230   66.87360   67.60760    2.57780    2.56610    9.94150   14.85010    7.62020    0.08750
 9928.00000    0.08580   62.64520  103.52210    8.79740   65.01620   65.41010    2.55620    2.57280   10.80270   15.14190    8.04240    0.08540
 9928.50000    0.08110   62.47160  103.40180    8.79260   62.96750   63.63580    2.55260    2.57960   11.56030   15.81200    8.50460    0.08410
 9929.00000    0.07810   62.25490  102.94160    8.78780   62.25050   62.14370    2.54900    2.58330   12.01480   15.61500    9.06440    0.08280
 9929.50000    0.07750   61.83420  101.57470    8.78300   60.44670   60.65150    2.55600    2.58700   11.40880   14.64690    9.33260    0.08020
 9930.00000    0.07670   61.38700  101.37220    8.77810   59.90410   60.05090    2.56570    2.58660   10.65110   14.13360    9.32010    0.07800
 9930.50000    0.07530   60.91310  100.83530    8.78940   61.25320   61.51170    2.57540    2.59000   12.16620   14.45240    9.68510    0.07590
 9931.00000    0.07320   60.22880   99.69740    8.78190   62.06270   62.21990    2.60300    2.59610   13.68140   17.24920   11.29360    0.07440
 9931.50000    0.06860   59.27280   98.28540    8.76510   61.91270   61.93750    2.63220    2.60380   16.23200   20.40200   15.61270    0.07260
 9932.00000    0.06000   58.42140   96.81270    8.74580   59.53560   60.18850    2.67330    2.61490   22.92500   27.23030   18.40860    0.06990
 9932.50000    0.05660   57.63060   96.20800    8.73630   56.96570   57.22290    2.70940    2.61790   36.02580   38.47790   31.78620    0.06340
 9933.00000    0.04830   56.61950   95.13710    8.72690   51.41910   50.00380    2.81640    2.63050   58.73830   66.20350   54.67360    0.05270
 9933.50000    0.03780   55.85350   94.31800    8.71880   41.52500   43.75370    2.97910    2.65470  114.30910  276.23590   77.56100    0.04200
 9934.00000    0.02290   55.37680   93.38110    8.71580   40.62550   38.84220    3.11620    2.67450  263.91210  354.52330  161.96880    0.03130
 9934.50000    0.02070   55.17780   92.71810    8.71270   41.10150   39.44200    3.20500    2.67780  227.95290  291.03590  181.92640    0.02960
 9935.00000    0.02080   55.21090   92.08290    8.70970   43.57880   42.44150    3.27930    2.67480  401.54710  986.38820  177.20160    0.03190
 9935.50000    0.02290   55.38980   92.08620    8.70670   44.64620   44.74460    3.31860    2.67170  464.67020  893.11740  180.91850    0.03240
 9936.00000    0.02200   55.72480   92.23890    8.70370   46.36600   46.58370    3.25290    2.67510  293.33180  448.96390  167.67100    0.03040
 9936.50000    0.02560   56.49250   92.65890    8.70060   50.29660   49.49000    3.12240    2.66920  120.45330  186.24690  101.79350    0.03170
 9937.00000    0.03180   57.14770   93.36340    8.70740   53.21370   53.53920    3.02370    2.66240  118.91610  126.81830   81.33900    0.03650
 9937.50000    0.03410   57.46240   93.50140    8.71800   56.25180   56.90600    2.93780    2.65760  123.52990  122.41750   72.97330    0.04300
 9938.00000    0.03640   57.55270   93.34060    8.71080   60.68730   60.78930    2.89340    2.65270  131.22150  133.09290   71.80180    0.05220
 9938.50000    0.04270   57.31440   94.02510    8.70370   65.12270   65.77680    2.87530    2.64790  138.91310  145.09850   76.59750    0.05800
 9939.00000    0.05230   56.64070   94.10010    8.69940   69.55820   71.53560    3.01300    2.62790  168.14270  215.76440   90.90130    0.06740
 9939.50000    0.05710   55.76050   93.68030    8.69960   67.75920   65.23690    3.24290    2.61750  329.21610  461.09610  152.46200    0.07370
 9940.00000    0.05000   54.56650   92.93850    8.71070   51.90630   50.93820    3.61600    2.63580  970.75760 1906.34740  289.88080    0.05890
 9940.50000    0.03560   53.21270   92.36090    8.71400   36.35310   32.46250    3.88310    2.66410 1250.85830 11444.05110  316.03440    0.03670
 9941.00000    0.02050   52.62640   92.11440    8.71720   20.79990   21.23360    4.08760    2.68740 1338.55610 6242.88080  247.40390    0.01440
 9941.50000    0.00520   52.70140   91.60980    8.72040   14.54120   15.67810    4.11030    2.70730 1364.09230 28272.95010  248.80770    0.00720
 9942.00000   -0.00510   52.72680   91.04430    8.72370   11.98920   13.19350    4.13310    2.71590 1403.95490 55810.53680  315.99930    0.00460
 9942.50000   -0.00760   52.47790   90.84130    8.72690   14.44440   15.13460    4.09570    2.72150 1443.81750 51990.77100  382.13360    0.00500
 9943.00000   -0.00380   52.55400   90.47440    8.70940   18.74560   17.95550    3.97320    2.72090 1356.11970 16908.76220  386.32940    0.00680
 9943.50000    0.00560   52.74540   90.15700    8.70830   24.19970   26.03320    3.84760    2.69820 1290.31520 6886.11260  349.07990    0.00950
