~Version ---------------------------------------------------
VERS.   2.0 : CWLS log ASCII Standard -VERSION 2.0
WRAP.    NO : One line per depth step
DLM . SPACE : Column Data Section Delimiter
~Well ------------------------------------------------------
STRT .FT                200.0 : START DEPTH
STOP .FT              12037.0 : STOP DEPTH
STEP .FT                  0.5 : STEP
NULL .               -9999.25 : NULL VALUE
COMP .                        : COMPANY
WELL .                        : WELL
FLD  .                        : FIELD
LOC  .                        : LOCATION
PROV .                        : PROVINCE
CNTY .                        : COUNTY
STAT .                        : STATE
CTRY .                        : COUNTRY
SRVC .                        : SERVICE COMPANY
DATE .                        : DATE
UWI  .                        : UNIQUE WELL ID
API  .                        : API NUMBER
SLAT .WGS84 2.772362038108895 : SURFACE LATITUDE
SLON .WGS84 8.174796129004008 : SURFACE LONGITUDE
DATUM.F                   nan : DEPTH DATUM ELEV
~Curve Information -----------------------------------------
DEPT   .FT    : 
DPHZ_LS.DEC   : HGRD STANDARD RESOLUTION DENSITY POROSITY
DTCO   .US/F  : DELTA-T COMPRESSIONAL
DTSM   .US/F  : DELTA-T SHEAR
HCALD  .IN    : HRCC CALIPER CALIBRATED FROM DENSITY LOG
HCGR   .GAPI  : HNGS COMPUTED GAMMA RAY
HCGRD  .GAPI  : HNGS COMPUTED GAMMA RAY FROM DENSITY LOG
PEFZ   .B/E   : HRDD STANDARD RESOLUTION FORMATION PHOTOELECTRIC FACTOR
RHOZ   .G/C3  : HRDD STANDARD RESOLUTION FORMATION DENSITY
RLA3   .OHMM  : APPARENT RESISTIVITY FROM COMPUTED FOCUSING MODE 3
RLA5   .OHMM  : APPARENT RESISTIVITY FROM COMPUTED FOCUSING MODE 5
RXOZ   .OHMM  : INVADED FORMATION RESISTIVITY FILTERED AT 18 INCHES
TNPH_LS.DEC   : THERMAL NEUTRON POROSITY [LIMESTONE]
~Params ----------------------------------------------------
~Other -----------------------------------------------------
~ASCII -----------------------------------------------------
# ...
 11565.50000    0.08290   60.10740   94.84100    8.53290   24.81490   25.52100    2.28930    2.57640  160.18940  165.10430   63.89800    0.05170
 11566.00000    0.08250   59.47190   93.94850    8.53540   22.96920   22.63860    2.34100    2.57790  271.90040  439.94150   90.58410    0.04750
 11566.50000    0.08140   59.32240   93.29370    8.53790   20.35520   20.15700    2.66370    2.57940  390.82530  568.94340  144.34710    0.04010
 11567.00000    0.07330   59.41740   93.25840    8.54940   18.61420   18.74620    2.92310    2.61030  561.23320 1381.15640  177.49100    0.03510
 11567.50000    0.06070   59.55500   93.22310    8.52110   18.31710   18.50610    3.11600    2.61030  682.00970 1970.40510  157.34200    0.03410
 11568.00000    0.06960   59.72470   93.18780    8.52940   18.66200   18.66510    2.96970    2.59690  209.41620  363.37940   97.37110    0.03850
 11568.50000    0.08370   59.86450   93.15010    8.53610   20.18160   20.49920    2.67390    2.57470  171.07550  180.77850   69.25910    0.04570
 11569.00000    0.09850   60.55190   93.11270    8.53940   22.52400   22.49550    2.40190    2.55250  144.02360  154.70290   69.09680    0.05260
 11569.50000    0.09490   60.81960   93.37610    8.53000   24.38230   24.17350    2.30400    2.55250  211.93470  252.02020   84.85370    0.05430
 11570.00000    0.08590   60.95470   93.62430    8.52840   26.06850   25.59630    2.30800    2.57130  327.90770  357.81440  111.60400    0.05130
 11570.50000    0.08250   61.26790   94.58360    8.53230   27.52060   27.19450    2.32850    2.57630  251.01500  287.97990  102.03800    0.04830
 11571.00000    0.08110   61.56230   94.77530    8.53630   28.49690   27.79380    2.41510    2.57980  187.10870  192.45030   85.30190    0.04890
 11571.50000    0.07800   61.55290   94.99110    8.53940   28.75670   28.39310    2.48510    2.58400  272.98870  344.35130   81.72130    0.05040
 11572.00000    0.07540   61.34780   95.32300    8.53940   29.01650   28.99230    2.43590    2.58880   58.34120  197.20370   74.85420    0.05370
 11572.50000    0.07490   61.80800   96.42100    8.53940   29.24270   29.37060    2.38260    2.58700   52.62660   55.14150   57.68640    0.06240
 11573.00000    0.07740   61.92020   95.92320    8.53940   30.85890   30.13200    2.35700    2.58270  119.32080  195.25490   46.96020    0.06560
 11573.50000    0.08190   61.93180   95.16530    8.53940   31.71600   31.98690    2.35740    2.57840  101.03180  105.01050   61.95380    0.06280
 11574.00000    0.08170   61.72450   94.78920    8.53750   28.95890   29.73100    2.36660    2.57550  160.66280  182.83580   64.08080    0.05960
 11574.50000    0.08580   61.61200   95.03450    8.52790   27.13290   27.57560    2.38380    2.57100  187.05710  199.99530   76.11190    0.05690
 11575.00000    0.08770   61.16740   92.54790    8.53940   25.32450   26.16460    2.38330    2.56660  125.57590  146.85820   70.25620    0.05650
 11575.50000    0.08790   60.26570   92.13260    8.53940   23.58660   24.07010    2.38280    2.56660  102.52060  105.11350   64.24300    0.05430
 11576.00000    0.07910   59.87510   92.55920    8.53640   22.09560   22.62480    2.32660    2.58380  200.63470  291.93640   67.70300    0.05010
 11576.50000    0.07320   59.72890   92.82980    8.53260   21.69830   21.95930    2.22770    2.59270  319.14020  364.95380   73.31130    0.04340
 11577.00000    0.07140   59.63620   92.42710    8.52880   21.48190   21.74210    2.17080    2.59260  265.76100  275.39510   83.42630    0.04110
 11577.50000    0.07440   59.41140   91.88170    8.53980   21.26540   21.52490    2.14680    2.58880  327.91020  339.10670  107.29710    0.04120
 11578.00000    0.07440   59.32580   91.74160    8.55910   21.51790   21.66390    2.17480    2.59270  227.99370  352.69260  125.20010    0.04310
 11578.50000    0.07310   59.14380   91.60150    8.53940   22.94680   23.17440    2.24520    2.59350   78.27590   98.94290   81.54630    0.04620
 11579.00000    0.07670   59.15280   91.36180    8.53940   22.97920   23.10660    2.30020    2.58150   67.61720   85.23920   49.25820    0.05110
 11579.50000    0.08500   58.85330   90.64120    8.53940   22.43610   22.60760    2.32430    2.56660  146.36330  156.30140   48.23690    0.05260
 11580.00000    0.08740   58.83750   89.84070    8.53940   21.60440   21.85770    2.27490    2.56840  215.14730  272.01100   79.00160    0.04550
 11580.50000    0.08530   59.06910   89.43880    8.52620   21.04440   21.27050    2.22540    2.57110  433.98150  627.08440  108.15040    0.03960
 11581.00000    0.08550   59.02540   90.40710    8.53930   20.46510   20.79580    2.19590    2.57260  293.27700  493.32660  125.24730    0.03740
 11581.50000    0.08970   58.85840   90.43910    8.53880   19.33020   19.62900    2.19640    2.55600  419.19290  584.12880  112.87920    0.03510
 11582.00000    0.09740   58.73640   88.94410    8.53830   18.58620   18.92470    2.19680    2.55490  580.70890  957.25140  113.85360    0.03400
 11582.50000    0.09400   58.61440   88.45400    8.53780   17.84220   18.24230    2.19720    2.56020  455.55080  715.87530  107.99930    0.03250
 11583.00000    0.08950   58.57390   88.88160    8.53730   17.54760   17.72660    2.19770    2.57120  469.60170  765.02870   84.47460    0.03330
 11583.50000    0.08370   58.96120   89.56780    8.53670   18.64380   18.92050    2.19810    2.57460  435.40860  577.29630   81.26380    0.03600
 11584.00000    0.08530   59.11340   89.86900    8.53290   20.04630   20.15530    2.20790    2.56810  310.79470  333.23220   92.89260    0.04110
 11584.50000    0.08970   59.17150   89.53500    8.55130   21.08390   21.16250    2.22170    2.56660  247.74020  279.36890   92.69800    0.04460
 11585.00000    0.08580   59.30350   90.32610    8.54820   21.30640   21.53790    2.22470    2.57290  182.61840  187.88850   81.01940    0.04700
 11585.50000    0.08130   59.45180   90.81760    8.54500   21.81810   21.94170    2.21840    2.57980  209.47260  222.00290   79.43990    0.04740
 11586.00000    0.07570   59.63060   91.30910    8.54190   22.32990   22.34540    2.21030    2.58670  236.86540  247.54960   83.24820    0.04770
 11586.50000    0.07620   59.46680   91.66790    8.53940   22.21840   22.25570    2.20220    2.58710  178.37320  183.57620   86.28260    0.04770
 11587.00000    0.07760   59.21460   92.37370    8.53440   23.05230   23.06280    2.19580    2.58200  215.59040  228.84730   68.97610    0.04530
 11587.50000    0.08010   59.30940   92.07250    8.54030   22.21610   22.16460    2.21930    2.57800  181.62170  199.48360   78.65490    0.04330
 11588.00000    0.08090   59.59000   91.98500    8.54440   22.23360   22.27490    2.20930    2.57940  239.47640  300.88930   94.94890    0.04200
 11588.50000    0.07770   59.41330   91.65320    8.54850   21.88470   21.92200    2.18240    2.58880  248.34530  272.24690  119.39310    0.04300
 11589.00000    0.07590   59.18280   91.64240    8.53940   21.53570   21.56920    2.16820    2.58880  265.04200  359.61930   93.94390    0.04400
 11589.50000    0.07790   59.95090   92.62090    8.53940   21.04140   20.89590    2.17850    2.57770  238.63740  237.70600   69.75700    0.04450
 11590.00000    0.08330   60.71900   93.93600    8.53440   21.54500   21.45220    2.22600    2.57400  249.35710  258.70540   63.06820    0.04540
 11590.50000    0.08340   61.24490   94.41590    8.52100   22.13860   21.97050    2.23380    2.57690  129.49610  184.73760   62.31630    0.04690
 11591.00000    0.08180   61.72370   95.22670    8.52870   22.78690   22.54250    2.24790    2.58070  121.80460  133.78120   84.70030    0.05440
 11591.50000    0.08010   62.77470   98.99760    8.53640   26.99370   26.85950    2.29100    2.58070  169.49230  288.30600   57.43780    0.05790
 11592.00000    0.08210   63.93070   99.90270    8.55470   31.16710   31.36360    2.36000    2.57600   52.83260   60.21150   47.21590    0.06910
 11592.50000    0.08200   64.90310  100.32070    8.53940   35.87470   33.96800    2.42890    2.57940   34.24600   36.99170   27.07260    0.07920
 11593.00000    0.08190   65.60100  101.24830    8.53940   36.73280   35.84230    2.50390    2.57720   37.26890   50.50310   31.16960    0.08810
