~Version ---------------------------------------------------
VERS.   2.0 : CWLS log ASCII Standard -VERSION 2.0
WRAP.    NO : One line per depth step
DLM . SPACE : Column Data Section Delimiter
~Well ------------------------------------------------------
STRT .FT                200.0 : START DEPTH
STOP .FT              12037.0 : STOP DEPTH
STEP .FT                  0.5 : STEP
NULL .               -9999.25 : NULL VALUE
COMP .                        : COMPANY
WELL .                        : WELL
FLD  .                        : FIELD
LOC  .                        : LOCATION
PROV .                        : PROVINCE
CNTY .                        : COUNTY
STAT .                        : STATE
CTRY .                        : COUNTRY
SRVC .                        : SERVICE COMPANY
DATE .                        : DATE
UWI  .                        : UNIQUE WELL ID
API  .                        : API NUMBER
SLAT .WGS84 2.772362038108895 : SURFACE LATITUDE
SLON .WGS84 8.174796129004008 : SURFACE LONGITUDE
DATUM.F                   nan : DEPTH DATUM ELEV
~Curve Information -----------------------------------------
DEPT   .FT    : 
DPHZ_LS.DEC   : HGRD STANDARD RESOLUTION DENSITY POROSITY
DTCO   .US/F  : DELTA-T COMPRESSIONAL
DTSM   .US/F  : DELTA-T SHEAR
HCALD  .IN    : HRCC CALIPER CALIBRATED FROM DENSITY LOG
HCGR   .GAPI  : HNGS COMPUTED GAMMA RAY
HCGRD  .GAPI  : HNGS COMPUTED GAMMA RAY FROM DENSITY LOG
PEFZ   .B/E   : HRDD STANDARD RESOLUTION FORMATION PHOTOELECTRIC FACTOR
RHOZ   .G/C3  : HRDD STANDARD RESOLUTION FORMATION DENSITY
RLA3   .OHMM  : APPARENT RESISTIVITY FROM COMPUTED FOCUSING MODE 3
RLA5   .OHMM  : APPARENT RESISTIVITY FROM COMPUTED FOCUSING MODE 5
RXOZ   .OHMM  : INVADED FORMATION RESISTIVITY FILTERED AT 18 INCHES
TNPH_LS.DEC   : THERMAL NEUTRON POROSITY [LIMESTONE]
~Params ----------------------------------------------------
~Other -----------------------------------------------------
~ASCII -----------------------------------------------------
# ...
 9496.00000    0.10460   61.06460   94.03110    8.66810   15.26270   15.28580    2.43160    2.54040  847.59920 2000.00000  223.56550    0.07580
 9496.50000    0.10570   61.01690   93.30430    8.68880   15.18280   15.82140    2.31950    2.54150 1007.38040 4696.14580  288.07110    0.07260
 9497.00000    0.10520   60.67700   92.57750    8.70950   16.33530   16.43720    2.19870    2.54020 1007.31840 4411.94380  204.20400    0.06730
 9497.50000    0.10650   60.43860   92.06570    8.68160   16.19020   16.63150    2.13530    2.53710  973.78930 3504.03080  127.15740    0.06590
 9498.00000    0.11010   60.52560   92.33400    8.63890   16.19020   16.54090    2.12480    2.53170  871.58070 2368.08750  104.88120    0.06840
 9498.50000    0.11430   60.47190   92.92460    8.62940   16.19020   16.34840    2.20800    2.52540  843.19650 3338.92000  158.85640    0.07180
 9499.00000    0.12020   60.50140   92.98690    8.65850   16.19020   16.66010    2.34890    2.51960  792.55890 2086.26420  234.77040    0.07580
 9499.50000    0.11830   60.82670   92.98760    8.69490   16.31330   16.97180    2.48170    2.52200  730.29220 1453.80770  310.67990    0.08070
 9500.00000    0.11050   61.15690   93.13470    8.70940   17.54990   17.69450    2.53150    2.53130  782.28090 1590.23940  245.08070    0.07800
 9500.50000    0.10760   61.54090   93.43210    8.68920   18.73900   19.18950    2.50240    2.53630  868.74720 2000.00000  149.04780    0.07480
 9501.00000    0.11060   61.51950   93.82970    8.63690   20.75380   21.01010    2.37120    2.53050  955.21340 3526.79930  105.39000    0.07160
 9501.50000    0.11790   61.58320   94.16790    8.63710   22.42800   21.85410    2.26630    2.52300  943.76260 3641.39710  130.42540    0.07450
 9502.00000    0.11920   61.74880   94.47080    8.65620   23.23640   22.24250    2.24410    2.51900  970.82660 3709.59490  201.53120    0.08060
 9502.50000    0.11700   61.66150   94.90870    8.67540   22.93650   22.63090    2.27630    2.52260  968.54630 3390.70040  263.52820    0.08390
 9503.00000    0.11350   61.38510   94.97610    8.69450   22.18630   22.34540    2.32670    2.53050  951.31520 3151.90770  199.08630    0.08350
 9503.50000    0.10730   61.28940   95.01340    8.65940   22.62560   22.93950    2.40120    2.53950  937.69230 2640.05050  134.12670    0.07960
 9504.00000    0.10180   61.35440   95.19160    8.63470   22.97940   23.80300    2.44970    2.54780  924.06930 3109.27270  116.00240    0.07740
 9504.50000    0.10100   61.27220   94.46530    8.64090   23.33330   23.68280    2.54740    2.54780  910.44630 3003.07670  179.43410    0.07800
 9505.00000    0.10270   61.29510   94.68100    8.66960   21.93290   21.37140    2.62350    2.54390  903.64420 3102.17760  289.93170    0.07920
 9505.50000    0.10500   61.30950   94.83830    8.69830   19.63760   19.79600    2.61320    2.53740  959.34170 3201.27860  370.37600    0.07770
 9506.00000    0.11030   61.25830   94.50420    8.69360   20.42400   20.69150    2.55100    2.53090  960.45250 3240.65480  221.59040    0.07610
 9506.50000    0.11670   61.26440   93.85140    8.64730   23.60210   23.09530    2.48890    2.52120  908.10480 2393.50950  118.19910    0.07620
 9507.00000    0.12550   61.23520   93.79850    8.62940   25.57320   24.04960    2.41330    2.50960  879.90280 2774.87390  111.34210    0.08010
 9507.50000    0.13040   61.01840   93.90560    8.65610   25.22710   25.00400    2.38010    2.49930  851.68800 3261.53520  167.09250    0.08200
 9508.00000    0.12910   60.99200   94.29660    8.68940   24.78020   25.11460    2.34680    2.49930  912.64910 3361.69620  272.43390    0.08130
 9508.50000    0.11750   61.06560   93.78060    8.70940   24.29680   24.88650    2.34680    2.51700  840.31290 2000.00000  262.85710    0.08060
 9509.00000    0.09640   61.01050   93.91240    8.70940   23.20020   24.03420    2.37710    2.54860  943.25860 2889.34230  169.07940    0.07540
 9509.50000    0.08760   60.99330   94.21280    8.66940   22.10360   22.64540    2.36200    2.56790  935.46970 3778.46450   97.99690    0.06890
 9510.00000    0.09370   60.97400   95.07610    8.65610   22.38140   22.19550    2.31850    2.55650  935.38510 4420.39000   96.43590    0.06410
 9510.50000    0.10690   60.99970   94.50710    8.67770   23.95960   24.09420    2.30430    2.54230  919.88820 5278.59550  170.21980    0.06830
 9511.00000    0.11720   60.99840   94.56280    8.69940   25.48720   27.68400    2.41040    2.52810  869.90440 3720.61800  299.31810    0.08250
 9511.50000    0.11600   61.10050   95.02820    8.71480   26.46850   27.90520    2.54980    2.51820  841.71980 2162.64040  382.47260    0.09210
 9512.00000    0.11040   60.61460   95.02890    8.69820   24.71120   25.42330    2.62490    2.52290  904.76320 3127.08720  202.57390    0.09040
 9512.50000    0.10320   59.53670   94.97810    8.66940   23.26640   23.37830    2.70690    2.53840  856.18380 3126.64260  132.93680    0.08340
 9513.00000    0.09420   58.14010   94.51330    8.68270   22.90030   22.85440    2.81870    2.55170  795.48150 2574.70760  126.74870    0.07930
 9513.50000    0.08490   57.56110   94.72940    8.69940   22.35120   22.42760    3.02170    2.56970  840.16020 3195.89990  182.59830    0.07550
 9514.00000    0.07540   56.02060   94.89300    8.71110   21.66640   21.98110    3.31220    2.57580  885.56090 4393.99560  434.95180    0.06740
 9514.50000    0.06590   55.08740   94.82140    8.74410   20.98150   21.59560    3.75170    2.60220  933.27920 3543.29930  465.50290    0.05960
 9515.00000    0.05220   54.15610   94.67890    8.74170   18.52890   18.22200    4.04070    2.62360  974.18550 8899.95660  233.20490    0.05020
 9515.50000    0.03950   53.48550   94.73850    8.74260   14.62090   15.12470    4.22250    2.65090  987.37160 17505.62940  181.24710    0.04130
 9516.00000    0.02720   53.10400   93.26160    8.74850   10.74330   11.45970    4.34430    2.67820 1000.40460 22670.51050  194.94180    0.03230
 9516.50000    0.02280   52.55810   93.02840    8.76140    9.83650    9.91570    4.43910    2.67760 1012.82510 15743.80940  296.97100    0.02330
 9517.00000    0.02130   52.19170   92.87050    8.77430    9.64970    9.75590    4.46360    2.67460 1025.24550 13690.76120  422.86470    0.02160
 9517.50000    0.02360   51.64000   93.01390    8.78720   10.56720   10.73350    4.47900    2.67150 1037.66590 19549.48440  425.35680    0.02350
 9518.00000    0.02640   51.20460   92.38700    8.77180   10.99210   11.91180    4.49440    2.66590  923.64050 8900.07010  219.64940    0.02600
 9518.50000    0.02870   50.91030   92.09730    8.76060   10.35530   12.33990    4.55210    2.66820  752.45040 1547.33300  159.46850    0.02560
 9519.00000    0.02010   50.70160   91.79550    8.76630    8.86180    9.73460    4.61240    2.68140  972.26100 2000.00000  144.57450    0.02160
 9519.50000    0.01210   50.37150   91.73270    8.77190    6.21920    6.43260    4.58240    2.69630  995.28250 11776.82580  244.11310    0.01290
 9520.00000    0.01020   50.03990   90.78270    8.77750    4.44190    4.90320    4.55190    2.69320  979.79800 8288.47200  335.91910    0.00590
 9520.50000    0.01630   50.00730   90.56150    8.78310    3.94670    3.86080    4.58020    2.68530  941.34640 5441.55980  354.28040    0.00270
 9521.00000    0.02180   49.95840   90.34380    8.78490    3.45140    3.68760    4.70730    2.67750  902.89480 3799.13760  255.84780    0.00230
 9521.50000    0.02290   50.10040   89.84550    8.78100    2.85690    3.40480    4.77430    2.67290  855.01280 2683.29050  177.02630    0.00410
 9522.00000    0.02320   50.23780   90.43370    8.77330    2.80580    3.06300    4.72560    2.66810  884.53850 2462.10430  183.48520    0.00580
 9522.50000    0.02510   50.54520   90.95800    8.77420    2.75480    2.72120    4.60500    2.66560  914.06410 4429.85180  239.12410    0.00760
 9523.00000    0.02680   50.42200   91.19380    8.77510    3.84930    3.65570    4.53120    2.66410  931.77950 8171.30330  324.58050    0.00940
 9523.50000    0.02720   50.48620   90.50450    8.77600    4.12160    4.06840    4.49290    2.66560  969.94860 7477.26160  326.72880    0.01120
