~Version ---------------------------------------------------
VERS.   2.0 : CWLS log ASCII Standard -VERSION 2.0
WRAP.    NO : One line per depth step
DLM . SPACE : Column Data Section Delimiter
~Well ------------------------------------------------------
STRT .FT                200.0 : START DEPTH
STOP .FT              12037.0 : STOP DEPTH
STEP .FT                  0.5 : STEP
NULL .               -9999.25 : NULL VALUE
COMP .                        : COMPANY
WELL .                        : WELL
FLD  .                        : FIELD
LOC  .                        : LOCATION
PROV .                        : PROVINCE
CNTY .                        : COUNTY
STAT .                        : STATE
CTRY .                        : COUNTRY
SRVC .                        : SERVICE COMPANY
DATE .                        : DATE
UWI  .                        : UNIQUE WELL ID
API  .                        : API NUMBER
SLAT .WGS84 2.772362038108895 : SURFACE LATITUDE
SLON .WGS84 8.174796129004008 : SURFACE LONGITUDE
DATUM.F                   nan : DEPTH DATUM ELEV
~Curve Information -----------------------------------------
DEPT   .FT    : 
DPHZ_LS.DEC   : HGRD STANDARD RESOLUTION DENSITY POROSITY
DTCO   .US/F  : DELTA-T COMPRESSIONAL
DTSM   .US/F  : DELTA-T SHEAR
HCALD  .IN    : HRCC CALIPER CALIBRATED FROM DENSITY LOG
HCGR   .GAPI  : HNGS COMPUTED GAMMA RAY
HCGRD  .GAPI  : HNGS COMPUTED GAMMA RAY FROM DENSITY LOG
PEFZ   .B/E   : HRDD STANDARD RESOLUTION FORMATION PHOTOELECTRIC FACTOR
RHOZ   .G/C3  : HRDD STANDARD RESOLUTION FORMATION DENSITY
RLA3   .OHMM  : APPARENT RESISTIVITY FROM COMPUTED FOCUSING MODE 3
RLA5   .OHMM  : APPARENT RESISTIVITY FROM COMPUTED FOCUSING MODE 5
RXOZ   .OHMM  : INVADED FORMATION RESISTIVITY FILTERED AT 18 INCHES
TNPH_LS.DEC   : THERMAL NEUTRON POROSITY [LIMESTONE]
~Params ----------------------------------------------------
~Other -----------------------------------------------------
~ASCII -----------------------------------------------------
# ...
 6192.00000    0.17200   74.04590  133.05870    8.98390   53.56450   53.13920    3.22910    2.43790    2.08430    2.12010    2.04510    0.17930
 6192.50000    0.16480   73.96770  132.44330    8.97180   52.87690   52.72500    3.16190    2.45170    2.30970    2.39480    2.26940    0.18040
 6193.00000    0.15440   73.61550  132.05780    8.95960   54.21250   54.65320    3.07130    2.46540    2.43870    2.55220    2.40410    0.17480
 6193.50000    0.14600   73.61430  131.04530    8.94750   54.42140   55.33880    2.99400    2.47840    2.42320    2.53330    2.40410    0.16770
 6194.00000    0.14460   73.45240  130.33720    8.93540   54.63030   55.33880    2.97530    2.47840    2.40770    2.51440    2.40410    0.16050
 6194.50000    0.15170   73.24720  130.41740    8.92330   53.83680   53.68910    2.99970    2.46100    2.39230    2.49560    2.40410    0.15670
 6195.00000    0.15920   72.76290  129.25240    8.92050   51.06640   51.06460    3.19550    2.44350    2.54100    2.67690    2.48100    0.16170
 6195.50000    0.17060   72.13880  127.97830    8.89010   48.38000   49.01360    3.65960    2.42950    2.42080    2.53040    2.32710    0.16670
 6196.00000    0.17560   71.51480  127.26670    8.86380   46.02220   47.78080    4.16690    2.43620    2.22050    2.28620    2.17330    0.17050
 6196.50000    0.15570   70.85700  125.26450    8.83680   46.02220   46.47520    4.46710    2.46510    2.19650    2.25680    2.17330    0.16150
 6197.00000    0.12810   70.40620  124.44570    8.80980   45.16500   45.86310    4.32140    2.52170    2.65530    2.96970    2.35280    0.15070
 6197.50000    0.09950   70.16980  123.30320    8.84310   45.61840   46.12040    3.84170    2.55640    3.72220    4.65420    3.43400    0.14810
 6198.00000    0.09380   70.14570  122.25700    8.86740   51.56890   49.06430    3.36400    2.55660    4.78920    5.66490    4.43820    0.15130
 6198.50000    0.10840   70.51660  121.87910    8.89140   56.81570   56.14410    3.16780    2.52640    4.49080    4.80530    3.76880    0.16230
 6199.00000    0.12630   70.59060  121.82770    8.89790   63.47600   63.43710    3.08010    2.50220    4.69540    4.95940    6.69030    0.17320
 6199.50000    0.14400   71.29950  122.03600    8.89440   63.82150   63.36560    3.01820    2.47550    4.37160    5.16490    3.96660    0.17590
 6200.00000    0.15300   71.86770  122.24420    8.89080   57.84780   59.65940    3.00150    2.46020    3.50030    3.72650    3.27020    0.16960
 6200.50000    0.15940   72.50080  123.26410    8.89630   54.61690   55.93870    3.04150    2.44530    3.24680    3.49050    2.86560    0.16280
 6201.00000    0.16550   73.06490  124.17540    8.86780   52.72010   52.94910    3.29910    2.43150    3.41350    3.64570    3.39850    0.16330
 6201.50000    0.17630   73.25970  125.21770    8.84460   50.50070   50.69140    3.83060    2.41730    3.01640    3.19960    2.67950    0.17180
 6202.00000    0.18450   73.45090  126.13840    8.78760   47.60430   48.24960    4.39250    2.40880    2.52010    2.64190    2.41390    0.18190
 6202.50000    0.18800   73.53900  126.80240    8.78460   46.78230   47.54790    4.72270    2.41590    2.42080    2.53040    2.46310    0.18790
 6203.00000    0.17840   73.54420  127.51460    8.78170   46.97170   47.79160    4.77180    2.43210    2.55200    2.69030    2.28310    0.18610
 6203.50000    0.16890   73.65960  127.62880    8.78820   48.72060   48.59340    4.55810    2.44270    2.71590    2.89010    2.59300    0.17720
 6204.00000    0.16650   73.70600  127.76410    8.82000   48.44360   48.97440    4.38160    2.44100    2.74360    2.92400    2.68610    0.16930
 6204.50000    0.17020   73.54000  127.94590    8.82040   46.92820   48.14020    4.24830    2.43160    2.55480    2.69370    2.57070    0.16290
 6205.00000    0.17860   73.30740  128.14730    8.80990   46.02680   46.04070    4.32250    2.42070    2.73330    2.91140    2.48100    0.16380
 6205.50000    0.18380   73.30170  128.07270    8.77940   47.10550   46.94050    4.42160    2.41450    2.50500    2.63300    2.36990    0.17010
 6206.00000    0.18270   73.29520  127.48880    8.78220   48.60670   49.17550    4.32880    2.42560    2.27660    2.35450    2.14760    0.17360
 6206.50000    0.17330   73.53790  127.17540    8.78580   52.32650   52.92630    4.11900    2.43910    2.85130    3.04960    2.70440    0.17200
 6207.00000    0.16560   73.53920  127.03140    8.78940   53.70470   53.23920    3.86020    2.44470    3.80920    4.20800    3.56060    0.16930
 6207.50000    0.16500   73.44480  127.05670    8.80220   52.84690   52.01250    3.71550    2.44410    3.91530    4.20210    3.40940    0.16870
 6208.00000    0.17020   73.12440  127.12500    8.81490   50.36800   49.24940    3.78830    2.43150    3.22250    3.42010    2.87190    0.17100
 6208.50000    0.17820   73.28840  127.24050    8.82320   48.55130   47.58000    3.97530    2.41830    2.52970    2.63800    2.48080    0.17190
 6209.00000    0.18530   73.27560  127.44250    8.82600   47.30900   48.30380    4.17390    2.40870    2.20670    2.26920    2.28810    0.16740
 6209.50000    0.18980   73.08270  127.42300    8.85920   50.10940   50.56670    4.24780    2.40570    2.13020    2.17590    2.19030    0.16560
 6210.00000    0.18820   72.91070  127.40340    8.85030   51.49200   51.61900    4.14820    2.41180    2.05370    2.08260    2.37040    0.16560
 6210.50000    0.18170   72.86360  127.34990    8.85810   51.45790   51.64870    3.97200    2.42020    2.00780    2.02660    2.47610    0.16570
 6211.00000    0.17640   72.63110  127.50110    8.86600   50.67540   50.39410    3.75320    2.43150    2.01070    2.02510    2.39930    0.16210
 6211.50000    0.16790   72.28410  127.66510    8.87390   50.36130   50.77550    3.54690    2.44380    2.11730    2.15760    2.65540    0.15760
 6212.00000    0.16490   72.15960  127.46760    8.90230   50.67180   51.75980    3.44010    2.44540    2.22390    2.29020    2.60420    0.15490
 6212.50000    0.16360   72.15010  127.20090    8.90320   52.50350   52.74400    3.40340    2.44440    2.12570    2.17040    2.47610    0.15770
 6213.00000    0.16670   72.07820  126.91210    8.89850   52.87300   52.74210    3.42460    2.44150    2.02740    2.05060    2.42490    0.16120
 6213.50000    0.16700   72.09170  126.56750    8.90700   53.48340   52.77660    3.45340    2.44220    2.12790    2.17300    2.20500    0.16030
 6214.00000    0.16380   72.26630  126.22300    8.92120   54.09370   53.56310    3.42280    2.44860    2.22390    2.29020    2.01420    0.15940
 6214.50000    0.16130   72.22610  126.16330    8.93550   55.47420   54.56190    3.34500    2.45570    2.29600    2.37800    2.15280    0.15900
 6215.00000    0.15500   72.16260  125.77490    8.97630   56.53700   55.30870    3.28210    2.47210    2.44430    2.56380    2.35270    0.15780
 6215.50000    0.14590   72.13760  125.32650    8.97810   54.68400   53.51050    3.24910    2.48200    2.82570    3.05360    2.57390    0.15580
 6216.00000    0.14130   72.06490  125.21080    8.95280   52.61980   52.51640    3.22110    2.48200    2.90350    3.25310    2.70670    0.15550
 6216.50000    0.14770   72.13280  124.98020    8.95370   51.57990   51.55050    3.22430    2.46880    2.77900    3.01730    2.58710    0.15570
 6217.00000    0.15600   72.07910  124.88710    8.96930   52.27660   51.67360    3.35130    2.45450    2.65630    2.81730    2.50170    0.15580
 6217.50000    0.16670   72.30160  124.64250    8.98500   52.64840   51.88070    3.64080    2.44170    2.72490    2.90090    2.47610    0.15490
 6218.00000    0.17070   72.39290  124.55060    9.03130   53.02020   52.08780    3.88040    2.43370    2.68630    2.85390    2.42490    0.15360
 6218.50000    0.17330   72.36200  124.80860    8.98640   52.34950   51.53860    4.12010    2.43080    2.48810    2.61230    2.32240    0.14980
 6219.00000    0.17300   72.36160  125.20130    8.90320   50.30230   50.52330    4.31650    2.43260    2.47010    2.59030    2.20710    0.14510
 6219.50000    0.17090   72.34480  125.73710    8.88100   48.66450   48.93470    4.36560    2.43600    2.17260    2.22760    2.09180    0.14540
