~Version ---------------------------------------------------
VERS.   2.0 : CWLS log ASCII Standard -VERSION 2.0
WRAP.    NO : One line per depth step
DLM . SPACE : Column Data Section Delimiter
~Well ------------------------------------------------------
STRT .FT                200.0 : START DEPTH
STOP .FT              12037.0 : STOP DEPTH
STEP .FT                  0.5 : STEP
NULL .               -9999.25 : NULL VALUE
COMP .                        : COMPANY
WELL .                        : WELL
FLD  .                        : FIELD
LOC  .                        : LOCATION
PROV .                        : PROVINCE
CNTY .                        : COUNTY
STAT .                        : STATE
CTRY .                        : COUNTRY
SRVC .                        : SERVICE COMPANY
DATE .                        : DATE
UWI  .                        : UNIQUE WELL ID
API  .                        : API NUMBER
SLAT .WGS84 2.772362038108895 : SURFACE LATITUDE
SLON .WGS84 8.174796129004008 : SURFACE LONGITUDE
DATUM.F                   nan : DEPTH DATUM ELEV
~Curve Information -----------------------------------------
DEPT   .FT    : 
DPHZ_LS.DEC   : HGRD STANDARD RESOLUTION DENSITY POROSITY
DTCO   .US/F  : DELTA-T COMPRESSIONAL
DTSM   .US/F  : DELTA-T SHEAR
HCALD  .IN    : HRCC CALIPER CALIBRATED FROM DENSITY LOG
HCGR   .GAPI  : HNGS COMPUTED GAMMA RAY
HCGRD  .GAPI  : HNGS COMPUTED GAMMA RAY FROM DENSITY LOG
PEFZ   .B/E   : HRDD STANDARD RESOLUTION FORMATION PHOTOELECTRIC FACTOR
RHOZ   .G/C3  : HRDD STANDARD RESOLUTION FORMATION DENSITY
RLA3   .OHMM  : APPARENT RESISTIVITY FROM COMPUTED FOCUSING MODE 3
RLA5   .OHMM  : APPARENT RESISTIVITY FROM COMPUTED FOCUSING MODE 5
RXOZ   .OHMM  : INVADED FORMATION RESISTIVITY FILTERED AT 18 INCHES
TNPH_LS.DEC   : THERMAL NEUTRON POROSITY [LIMESTONE]
~Params ----------------------------------------------------
~Other -----------------------------------------------------
~ASCII -----------------------------------------------------
# ...
 5772.00000   -9999.25   -9999.25   -9999.25   -9999.25   33.86470   33.59120   -9999.25   -9999.25   -9999.25   -9999.25   -9999.25    0.20920
 5772.50000   -9999.25   -9999.25   -9999.25   -9999.25   34.73840   34.59300   -9999.25   -9999.25   -9999.25   -9999.25   -9999.25    0.21490
 5773.00000   -9999.25   -9999.25   -9999.25   -9999.25   33.86490   33.34220   -9999.25   -9999.25   -9999.25   -9999.25   -9999.25    0.22890
 5773.50000   -9999.25   -9999.25   -9999.25   -9999.25   32.81740   31.19370   -9999.25   -9999.25   -9999.25   -9999.25   -9999.25    0.22740
 5774.00000   -9999.25   -9999.25   -9999.25   -9999.25   31.86430   31.32250   -9999.25   -9999.25   -9999.25   -9999.25   -9999.25    0.21330
 5774.50000   -9999.25   -9999.25   -9999.25   -9999.25   31.58600   31.45140   -9999.25   -9999.25   -9999.25   -9999.25   -9999.25    0.19920
 5775.00000   -9999.25   -9999.25   -9999.25   -9999.25   31.74020   31.58030   -9999.25   -9999.25   -9999.25   -9999.25   -9999.25    0.19870
 5775.50000   -9999.25   -9999.25   -9999.25   -9999.25   30.98480   30.71320   -9999.25   -9999.25   -9999.25   -9999.25   -9999.25    0.20740
 5776.00000   -9999.25   -9999.25   -9999.25   -9999.25   28.91780   28.55450   -9999.25   -9999.25   -9999.25   -9999.25   -9999.25    0.21860
 5776.50000   -9999.25   -9999.25   -9999.25   -9999.25   26.90510   27.08950   -9999.25   -9999.25   -9999.25   -9999.25   -9999.25    0.21990
 5777.00000   -9999.25   -9999.25   -9999.25   -9999.25   25.17020   25.95560   -9999.25   -9999.25   -9999.25   -9999.25   -9999.25    0.21540
 5777.50000   -9999.25   -9999.25   -9999.25   -9999.25   25.02830   24.82180   -9999.25   -9999.25   -9999.25   -9999.25   -9999.25    0.19280
 5778.00000   -9999.25   -9999.25   -9999.25   -9999.25   24.61220   24.33510   -9999.25   -9999.25   -9999.25   -9999.25   -9999.25    0.17470
 5778.50000   -9999.25   -9999.25   -9999.25   -9999.25   24.81000   24.50410   -9999.25   -9999.25   -9999.25   -9999.25   -9999.25    0.17810
 5779.00000   -9999.25   -9999.25   -9999.25   -9999.25   25.33470   25.12490   -9999.25   -9999.25   -9999.25   -9999.25   -9999.25    0.19490
 5779.50000   -9999.25   -9999.25   -9999.25   -9999.25   26.08430   26.35090   -9999.25   -9999.25   -9999.25   -9999.25   -9999.25    0.20920
 5780.00000   -9999.25   -9999.25   -9999.25   -9999.25   26.83390   26.36460   -9999.25   -9999.25   -9999.25   -9999.25   -9999.25    0.21050
 5780.50000   -9999.25   -9999.25   -9999.25   -9999.25   27.08370   26.37830   -9999.25   -9999.25   -9999.25   -9999.25   -9999.25    0.19310
 5781.00000   -9999.25   -9999.25   -9999.25   -9999.25   26.83390   26.39200   -9999.25   -9999.25   -9999.25   -9999.25   -9999.25    0.16710
 5781.50000   -9999.25   -9999.25   -9999.25   -9999.25   26.59430   26.16570   -9999.25   -9999.25   -9999.25   -9999.25   -9999.25    0.16660
 5782.00000   -9999.25   -9999.25   -9999.25   -9999.25   27.37780   27.27680   -9999.25   -9999.25   -9999.25   -9999.25   -9999.25    0.20470
 5782.50000   -9999.25   -9999.25   -9999.25   -9999.25   28.73130   29.67230   -9999.25   -9999.25   -9999.25   -9999.25   -9999.25    0.23650
 5783.00000   -9999.25   -9999.25   -9999.25   -9999.25   29.64510   30.05270   -9999.25   -9999.25   -9999.25   -9999.25   -9999.25    0.22080
 5783.50000   -9999.25   -9999.25   -9999.25   -9999.25   30.15480   30.37850   -9999.25   -9999.25   -9999.25   -9999.25   -9999.25    0.19150
 5784.00000   -9999.25   -9999.25   -9999.25   -9999.25   30.63930   30.70420   -9999.25   -9999.25   -9999.25   -9999.25   -9999.25    0.17590
 5784.50000   -9999.25   -9999.25   -9999.25   -9999.25   32.41000   32.17570   -9999.25   -9999.25   -9999.25   -9999.25   -9999.25    0.16850
 5785.00000   -9999.25   -9999.25   -9999.25   -9999.25   31.83190   31.38460   -9999.25   -9999.25   -9999.25   -9999.25   -9999.25    0.16630
 5785.50000   -9999.25   -9999.25   -9999.25   -9999.25   29.01140   29.80900   -9999.25   -9999.25   -9999.25   -9999.25   -9999.25    0.16980
 5786.00000   -9999.25   -9999.25   -9999.25   -9999.25   26.84630   26.40070   -9999.25   -9999.25   -9999.25   -9999.25   -9999.25    0.17740
 5786.50000   -9999.25   -9999.25   -9999.25   -9999.25   24.47880   24.26410   -9999.25   -9999.25   -9999.25   -9999.25   -9999.25    0.17630
 5787.00000   -0.10090   -9999.25   -9999.25    8.82940   22.98720   22.61620    9.96160    3.00260   -9999.25   -9999.25   -9999.25    0.17230
 5787.50000   -0.10080   -9999.25   -9999.25    8.86940   25.41360   23.49000    9.45800    3.00260   -9999.25   -9999.25   -9999.25    0.16390
 5788.00000   -0.10060   74.12400  126.58680    8.92940   27.53130   27.32850    7.80610    2.90380    0.22650    0.24070    0.21610    0.19020
 5788.50000   -0.01800   72.72250  124.57310    9.34930   31.60660   31.31800    5.83480    2.65840    0.62450    3.25780    0.21610    0.19840
 5789.00000    0.09880   71.14430  122.50910    9.44590   36.53960   35.09300    4.05920    2.51120    1.66900    3.93660    1.11710    0.18250
 5789.50000    0.10160   69.02770  119.03540    9.72920   39.42030   39.47780    3.49970    2.54190    2.98980    7.24020    2.69590    0.16410
 5790.00000    0.06720   67.41790  117.86290    9.51340   39.84030   39.50850    3.31700    2.58030    8.89020   12.69240    5.57740    0.13300
 5790.50000    0.05190   65.98870  116.02060    9.14980   38.56750   37.64380    3.31460    2.61870   12.42190   17.07550    8.97370    0.10390
 5791.00000    0.04640   63.95470  113.58480    9.11690   37.55700   37.52180    3.36270    2.64250   14.97670   17.81530   10.98530    0.07970
 5791.50000    0.04170   61.94120  111.28270    9.10080   39.53740   39.84840    3.38430    2.64730   16.35970   16.21100   11.30870    0.07880
 5792.00000    0.03800   61.00680  109.65670    9.08460   41.89700   41.05940    3.38470    2.65150   17.74260   18.14090   13.53770    0.07910
 5792.50000    0.03640   60.26180  107.37110    9.06850   42.01680   41.68290    3.38510    2.64790   19.12560   21.35270   17.30670    0.07990
 5793.00000    0.04260   60.05460  105.14380    9.05230   41.54340   40.73300    3.38340    2.63350   19.02820   20.29560   15.08490    0.08210
 5793.50000    0.04930   60.21140  103.73030    9.09280   41.07000   40.20390    3.37290    2.62570   18.51360   19.02220   15.93940    0.08410
 5794.00000    0.05220   60.69370  104.52690    9.11990   40.59670   39.58230    3.36240    2.62920   17.95260   18.44350   17.00620    0.08600
 5794.50000    0.04640   61.45570  105.21710    9.18710   39.04630   38.98980    3.35190    2.63800   18.21820   18.79860   17.86100    0.08420
 5795.00000    0.04320   61.70920  106.24440    9.37420   40.85610   40.59150    3.27150    2.63790   18.54760   19.08040   17.86450    0.08560
 5795.50000    0.04780   61.87980  107.14100    9.33030   43.94190   42.19690    3.21690    2.62510   17.65840   18.14010   16.50160    0.08740
 5796.00000    0.05240   61.82690  108.32090    9.29520   47.17870   47.49780    3.19030    2.62400   14.66700   15.05500   13.07490    0.09370
 5796.50000    0.04740   61.66230  108.92830    9.30670   51.66080   52.43720    3.16740    2.63390   12.87420   13.20600   13.09490    0.10950
 5797.00000    0.04000   61.69530  108.16730    9.32540   50.04920   51.09410    3.18570    2.64380   15.16960   15.57330   14.56130    0.12140
 5797.50000    0.03730   61.56140  107.88960    9.33680   47.90320   47.72500    3.23680    2.65380   17.00800   17.46930   16.02760    0.12230
 5798.00000    0.03260   61.13550  107.74750    9.39730   45.36840   45.02580    3.33490    2.65840   15.79740   16.42140   16.03320    0.12050
 5798.50000    0.05230   60.33170  107.83920    9.59780   41.03160   42.71840    3.56410    2.63090   15.60070   16.01790   11.43230    0.11800
 5799.00000    0.06610   60.09260  107.69420    9.96820   36.65660   37.10210    3.78000    2.60330   17.59620   18.07600    2.95790    0.11510
 5799.50000    0.05450   60.91420  107.44290   10.37860   31.82590   32.28920    3.93100    2.66450   14.90500   15.29970    1.68830    0.12050
