~Version ---------------------------------------------------
VERS.   2.0 : CWLS log ASCII Standard -VERSION 2.0
WRAP.    NO : One line per depth step
DLM . SPACE : Column Data Section Delimiter
~Well ------------------------------------------------------
STRT .FT                200.0 : START DEPTH
STOP .FT              12037.0 : STOP DEPTH
STEP .FT                  0.5 : STEP
NULL .               -9999.25 : NULL VALUE
COMP .                        : COMPANY
WELL .                        : WELL
FLD  .                        : FIELD
LOC  .                        : LOCATION
PROV .                        : PROVINCE
CNTY .                        : COUNTY
STAT .                        : STATE
CTRY .                        : COUNTRY
SRVC .                        : SERVICE COMPANY
DATE .                        : DATE
UWI  .                        : UNIQUE WELL ID
API  .                        : API NUMBER
SLAT .WGS84 2.772362038108895 : SURFACE LATITUDE
SLON .WGS84 8.174796129004008 : SURFACE LONGITUDE
DATUM.F                   nan : DEPTH DATUM ELEV
~Curve Information -----------------------------------------
DEPT   .FT    : 
DPHZ_LS.DEC   : HGRD STANDARD RESOLUTION DENSITY POROSITY
DTCO   .US/F  : DELTA-T COMPRESSIONAL
DTSM   .US/F  : DELTA-T SHEAR
HCALD  .IN    : HRCC CALIPER CALIBRATED FROM DENSITY LOG
HCGR   .GAPI  : HNGS COMPUTED GAMMA RAY
HCGRD  .GAPI  : HNGS COMPUTED GAMMA RAY FROM DENSITY LOG
PEFZ   .B/E   : HRDD STANDARD RESOLUTION FORMATION PHOTOELECTRIC FACTOR
RHOZ   .G/C3  : HRDD STANDARD RESOLUTION FORMATION DENSITY
RLA3   .OHMM  : APPARENT RESISTIVITY FROM COMPUTED FOCUSING MODE 3
RLA5   .OHMM  : APPARENT RESISTIVITY FROM COMPUTED FOCUSING MODE 5
RXOZ   .OHMM  : INVADED FORMATION RESISTIVITY FILTERED AT 18 INCHES
TNPH_LS.DEC   : THERMAL NEUTRON POROSITY [LIMESTONE]
~Params ----------------------------------------------------
~Other -----------------------------------------------------
~ASCII -----------------------------------------------------
# ...
 10334.50000    0.08260   62.12030  100.88560    8.61780   33.31770   33.13370    2.75620    2.57860 1029.67020 5895.77030  198.95260    0.05650
 10335.00000    0.08110   61.82820  100.73250    8.62800   36.45800   36.98010    2.70510    2.57650  998.22960 4648.31850  237.65250    0.05600
 10335.50000    0.08410   61.26490  100.48770    8.62800   44.13340   42.86410    2.65930    2.57200  717.34680 2000.00000  275.95300    0.06930
 10336.00000    0.08790   60.51820  100.04130    8.62800   50.35580   50.10640    2.74100    2.56740  351.58680  509.65170  163.91160    0.09350
 10336.50000    0.09160   59.98370   99.53650    8.62750   55.16680   54.18850    2.89060    2.56280  126.00510  129.79930   90.45640    0.11560
 10337.00000    0.09050   59.17800   98.59890    8.62880   46.73970   45.62940    3.05290    2.56050  401.94480  356.19570   90.91830    0.09140
 10337.50000    0.08540   58.26280   97.71340    8.63100   33.87960   37.07040    3.18110    2.58080  946.09300 1979.89930  128.62090    0.06120
 10338.00000    0.07340   57.90750   97.02290    8.63320   25.47120   25.78160    3.28810    2.59770  992.64400 5264.59900  172.33650    0.03570
 10338.50000    0.06170   57.83920   95.93240    8.63550   22.89900   23.01700    3.41120    2.61460  993.01210 5376.94760  242.00670    0.02510
 10339.00000    0.05110   57.58640   94.87550    8.63770   21.68570   23.25610    3.48500    2.63150  985.62440 5102.32870  455.22930    0.02420
 10339.50000    0.03830   57.52670   94.51920    8.63990   24.73260   24.51200    3.47210    2.64850  955.21400 3992.63350  450.27020    0.02600
 10340.00000    0.03750   57.89790   94.14170    8.64220   29.50100   28.46050    3.35170    2.64880  912.17740 2749.46420  286.67420    0.02960
 10340.50000    0.04380   58.18780   94.43120    8.64440   35.84740   36.81630    3.17800    2.63370  640.20710 2000.00000  123.07820    0.04820
 10341.00000    0.06110   58.30160   94.83490    8.64670   44.13980   41.86180    3.02320    2.61860  171.72140  202.77810   82.09550    0.06040
 10341.50000    0.06330   58.46530   96.07860    8.64890   49.11530   47.87560    2.81990    2.60670  167.04950  490.18840  107.84770    0.07260
 10342.00000    0.06640   58.71400   96.64940    8.65110   44.56420   45.86680    2.73020    2.59970  603.23660  952.85480  236.97700    0.07840
 10342.50000    0.06820   58.94860   96.60860    8.61240   40.01300   40.82660    2.77120    2.59550  672.14080 1661.11270  293.85840    0.06980
 10343.00000    0.07030   58.99580   96.40140    8.61370   36.60810   36.79620    2.85580    2.59840  732.24270 2000.00000  159.66120    0.06120
 10343.50000    0.06840   58.49740   96.05250    8.61620   35.69220   37.00520    2.94280    2.59830  715.65100 1981.89190  112.70540    0.05380
 10344.00000    0.07080   58.27220   95.70360    8.61860   36.35130   37.51410    2.92230    2.58910  655.16030 1609.44190  120.09600    0.05340
 10344.50000    0.07850   58.42910   95.35470    8.62110   39.24260   38.02310    2.85420    2.57980  559.36550 1166.72740  168.39770    0.05820
 10345.00000    0.08570   58.30350   94.77360    8.62360   40.09730   40.45340    2.75120    2.57060  429.34720  602.31650  193.17720    0.06440
 10345.50000    0.08350   58.17790   94.87860    8.62600   42.79280   42.81050    2.69190    2.57320  255.71960  366.31820  179.00310    0.06720
 10346.00000    0.07150   57.95050   95.39200    8.62850   41.41100   39.90120    2.75020    2.59010  337.18210  537.88220  166.58030    0.06420
 10346.50000    0.05990   57.91760   95.15760    8.63090   39.17610   39.32770    2.94310    2.60680  405.47600  751.60010  153.25550    0.05560
 10347.00000    0.05430   57.70250   93.82220    8.63340   36.46020   36.30080    3.05470    2.62030  475.83200  865.44220  162.94070    0.04690
 10347.50000    0.05210   57.24140   94.55020    8.63580   33.63530   33.79270    3.12070    2.62630  503.09730  972.46910  205.52250    0.04080
 10348.00000    0.04830   56.81490   94.13500    8.63830   31.06930   29.67610    3.15610    2.63240  553.01840 1212.25650  273.33930    0.03810
 10348.50000    0.04610   56.83630   94.06880    8.65790   31.17680   30.80630    3.19660    2.63680  479.39990  622.69970  234.17540    0.03770
 10349.00000    0.04530   56.92160   93.54600    8.66870   32.06530   30.89480    3.25910    2.64230  384.73330  526.56680  209.94800    0.03900
 10349.50000    0.04140   57.26450   94.34590    8.65830   32.95380   33.13030    3.27730    2.64450  369.98960  458.67930  171.96200    0.04040
 10350.00000    0.04250   58.16660   95.39110    8.65260   34.28350   34.11670    3.25460    2.64340  355.24590  466.92890  161.95090    0.04220
 10350.50000    0.04610   59.27250   96.50390    8.64680   35.94670   35.09550    3.16940    2.63330  334.19830  424.65890  160.35690    0.04310
 10351.00000    0.05370   60.28420   97.14340    8.63850   36.30590   36.07430    3.03490    2.62320  296.10240  369.16620  170.08730    0.04620
 10351.50000    0.06400   61.41570   98.58160    8.64310   36.37530   36.61940    2.90030    2.60100  283.23110  340.20760  182.12570    0.05170
 10352.00000    0.07050   61.76460   99.86150    8.64760   36.54820   36.40100    2.78290    2.59340  283.32380  374.81200  177.00620    0.06370
 10352.50000    0.07570   62.07230  100.31510    8.64250   37.48780   40.16000    2.71020    2.58590  304.76320  384.22830  146.17120    0.07310
 10353.00000    0.08750   62.15270  102.62410    8.63440   44.88710   46.79780    2.68200    2.56970  470.97750  685.17250  119.15650    0.08830
 10353.50000    0.09960   62.06110  102.58270    8.62630   51.22930   50.77690    2.76990    2.54760  550.59710  868.27050  145.14670    0.10290
 10354.00000    0.10490   61.72990  102.29910    8.61810   46.39760   44.38910    2.98080    2.54820  648.36880 1252.91650  248.77890    0.11740
 10354.50000    0.08930   61.02510  101.93420    8.61000   36.08020   36.68810    3.22720    2.57360  972.49030 1984.07690  293.26960    0.09810
 10355.00000    0.06900   60.00820  101.42830    8.60490   28.08550   29.40940    3.47360    2.60120 1128.02910 15456.94100  249.46620    0.07390
 10355.50000    0.06380   58.91070  100.76140    8.60450   22.49060   22.75500    3.50600    2.60730 1159.22660 11894.87790  208.63450    0.04930
 10356.00000    0.07470   57.65210   97.65090    8.60860   22.62290   22.65810    3.36080    2.57850 1198.22350 11532.99170  200.74020    0.05240
 10356.50000    0.08560   57.17790   98.31660    8.61600   21.90700   21.94420    3.22180    2.57460 1086.89270 4739.17880  179.33660    0.05650
 10357.00000    0.08010   57.25400   97.04060    8.62260   19.47910   18.72610    3.25740    2.59390  781.95030 1613.58440  145.14670    0.05050
 10357.50000    0.06680   57.31720   96.27340    8.62620   15.47020   15.88050    3.43180    2.61730 1180.65990 7807.95480  140.11940    0.03910
 10358.00000    0.05260   57.51440   95.87710    8.62490   14.15760   13.98250    3.62040    2.64070 1145.59280 6527.92870  137.59920    0.02790
 10358.50000    0.04440   57.53370   95.80570    8.62350   16.45930   16.84060    3.74690    2.64070 1049.61890 6468.61460  145.39460    0.02560
 10359.00000    0.04280   58.17620   96.12830    8.62240   22.81620   22.62990    3.63020    2.62360  977.38050 5259.54080  159.70460    0.03280
 10359.50000    0.05670   59.49470   96.80340    8.60490   27.91070   28.41930    3.33820    2.60220  832.59280 2407.05390  215.44430    0.04770
 10360.00000    0.07350   60.40860   98.98700    8.61430   34.79410   34.20870    3.07080    2.58080  648.15600 1444.17920  260.21130    0.06440
 10360.50000    0.09040   62.40620   99.87760    8.62360   37.01110   36.65300    2.91590    2.55900  463.71920  730.70310  174.51970    0.07660
 10361.00000    0.09430   63.78610  100.74520    8.62290   38.54930   39.09730    2.85300    2.55410  397.35340  676.26920  125.09240    0.08110
 10361.50000    0.09930   65.01170  101.59320    8.61540   40.29130   41.54160    2.79000    2.54380  485.74540  896.92240  145.93560    0.08900
 10362.00000    0.11040   65.80980  102.41170    8.60940   48.39230   47.68740    2.77700    2.52770  470.72760  797.31410  189.23420    0.10270
