~Version ---------------------------------------------------
VERS.   2.0 : CWLS log ASCII Standard -VERSION 2.0
WRAP.    NO : One line per depth step
DLM . SPACE : Column Data Section Delimiter
~Well ------------------------------------------------------
STRT .FT                200.0 : START DEPTH
STOP .FT              12037.0 : STOP DEPTH
STEP .FT                  0.5 : STEP
NULL .               -9999.25 : NULL VALUE
COMP .                        : COMPANY
WELL .                        : WELL
FLD  .                        : FIELD
LOC  .                        : LOCATION
PROV .                        : PROVINCE
CNTY .                        : COUNTY
STAT .                        : STATE
CTRY .                        : COUNTRY
SRVC .                        : SERVICE COMPANY
DATE .                        : DATE
UWI  .                        : UNIQUE WELL ID
API  .                        : API NUMBER
SLAT .WGS84 2.772362038108895 : SURFACE LATITUDE
SLON .WGS84 8.174796129004008 : SURFACE LONGITUDE
DATUM.F                   nan : DEPTH DATUM ELEV
~Curve Information -----------------------------------------
DEPT   .FT    : 
DPHZ_LS.DEC   : HGRD STANDARD RESOLUTION DENSITY POROSITY
DTCO   .US/F  : DELTA-T COMPRESSIONAL
DTSM   .US/F  : DELTA-T SHEAR
HCALD  .IN    : HRCC CALIPER CALIBRATED FROM DENSITY LOG
HCGR   .GAPI  : HNGS COMPUTED GAMMA RAY
HCGRD  .GAPI  : HNGS COMPUTED GAMMA RAY FROM DENSITY LOG
PEFZ   .B/E   : HRDD STANDARD RESOLUTION FORMATION PHOTOELECTRIC FACTOR
RHOZ   .G/C3  : HRDD STANDARD RESOLUTION FORMATION DENSITY
RLA3   .OHMM  : APPARENT RESISTIVITY FROM COMPUTED FOCUSING MODE 3
RLA5   .OHMM  : APPARENT RESISTIVITY FROM COMPUTED FOCUSING MODE 5
RXOZ   .OHMM  : INVADED FORMATION RESISTIVITY FILTERED AT 18 INCHES
TNPH_LS.DEC   : THERMAL NEUTRON POROSITY [LIMESTONE]
~Params ----------------------------------------------------
~Other -----------------------------------------------------
~ASCII -----------------------------------------------------
# ...
 7424.00000    0.15700   69.51990  119.45060    8.65170   44.12350   44.48060    5.52970    2.45690    2.15800    2.21100    2.49060    0.15100
 7424.50000    0.15920   69.33310  119.16220    8.66910   43.24910   43.66430    5.35180    2.45400    1.94020    1.95110    2.20850    0.15690
 7425.00000    0.15440   69.14640  118.84040    8.66920   43.32400   43.14320    5.03950    2.45930    2.40810    2.51490    2.15730    0.16220
 7425.50000    0.14960   69.13340  118.77130    8.66930   44.82310   44.32040    4.70380    2.47010    2.54540    2.73710    2.20850    0.15560
 7426.00000    0.14110   69.18320  118.72120    8.66590   46.32220   45.97760    4.30200    2.48240    2.99690    3.42460    2.49100    0.14530
 7426.50000    0.13020   69.39510  118.16350    8.77670   46.28480   46.87870    4.03770    2.49230    3.35810    3.73200    3.00500    0.14110
 7427.00000    0.14120   69.50780  118.64470    8.77720   46.09740   46.34060    3.87930    2.49060    3.31910    3.60730    2.97780    0.14030
 7427.50000    0.15440   69.51200  119.18770    8.76990   46.02240   45.98990    3.97170    2.46610    3.12420    3.37640    2.72140    0.13760
 7428.00000    0.17230   69.50330  119.47600    8.72120   46.14270   46.17900    4.32000    2.44170    2.54210    2.67310    2.34380    0.13620
 7428.50000    0.17740   69.61660  119.77510    8.68620   47.91630   47.68170    4.47310    2.42210    2.07640    2.11040    1.93590    0.14370
 7429.00000    0.17690   69.71440  120.07090    8.68070   49.15930   49.33060    4.63970    2.42540    2.00240    1.99650    1.80550    0.15630
 7429.50000    0.16730   69.84330  119.98100    8.67680   49.76610   50.53520    4.61310    2.44050    2.07880    2.23960    1.92020    0.15930
 7430.00000    0.15150   69.74340  120.14070    8.72650   50.31960   50.43980    4.43390    2.45930    2.44600    2.64480    2.08030    0.15130
 7430.50000    0.14100   69.68780  120.48150    8.79800   50.13350   49.83280    4.21690    2.48850    3.03250    3.50490    2.59320    0.14330
 7431.00000    0.13780   69.66170  120.08290    8.86940   48.82910   48.59010    4.03230    2.48510    3.08060    3.60580    2.87890    0.13800
 7431.50000    0.15130   69.60040  120.24320    8.83820   50.19550   49.16340    4.01180    2.46870    2.73440    3.13650    2.51260    0.13800
 7432.00000    0.15890   69.39810  120.27140    8.76540   49.23700   49.74730    4.18240    2.45220    2.53880    2.66730    2.31110    0.14280
 7432.50000    0.15760   69.39810  120.15200    8.75690   46.96110   47.88090    4.36940    2.46220    2.35510    2.58520    2.24700    0.14700
 7433.00000    0.15070   69.43270  119.93180    8.79060   44.59940   44.85790    4.37410    2.46980    2.07000    2.20090    2.18290    0.14920
 7433.50000    0.14270   69.55880  119.87860    8.82440   42.08090   43.79950    4.25950    2.48300    2.05800    2.34490    1.88740    0.14510
 7434.00000    0.13380   69.49770  119.44970    8.85810   42.40390   42.74120    4.03390    2.49850    2.45280    2.74490    2.20270    0.14720
 7434.50000    0.12700   69.23700  119.02070    8.89190   43.49400   44.45240    3.66370    2.50460    2.93130    3.36470    2.70090    0.15170
 7435.00000    0.12980   68.98770  118.33880    8.88900   47.10150   46.92080    3.40530    2.50510    3.40980    3.98450    3.19900    0.14400
 7435.50000    0.12960   68.98700  117.60620    8.87570   48.61480   47.99030    3.29320    2.50560    3.77940    4.13490    3.74570    0.13670
 7436.00000    0.12240   68.98630  117.35780    8.90730   50.75130   51.66690    3.27390    2.51330    4.58650    5.15970    4.48200    0.13580
 7436.50000    0.11240   68.91970  117.23360    8.93890   52.72300   53.46510    3.22930    2.52570    5.57670    6.29160    4.65710    0.14050
 7437.00000    0.10800   68.87860  116.87760    8.97050   53.34960   53.25630    3.19380    2.53810    5.29180    6.50880    4.90730    0.14610
 7437.50000    0.11260   69.00690  116.64270    8.96290   51.82370   51.66730    3.13550    2.53740    4.08420    4.12270    3.68080    0.14650
 7438.00000    0.12580   69.17190  116.70140    8.95540   50.29780   50.51560    3.07710    2.52400    3.16500    3.42810    3.00500    0.14120
 7438.50000    0.13560   69.19540  116.90260    8.94940   48.77180   49.57990    3.04000    2.49060    2.91900    3.13510    2.82390    0.13800
 7439.00000    0.13960   69.18310  117.17190    8.98100   49.70220   50.46840    2.97130    2.48680    3.16590    3.38290    3.00500    0.14180
 7439.50000    0.13400   69.16640  117.44120    9.01270   50.63260   51.09440    2.89110    2.49660    3.41280    3.63070    3.32240    0.14610
 7440.00000    0.12880   69.07330  117.50600    9.08260   51.56300   51.43910    2.82220    2.50310    3.61030    3.82900    3.41230    0.14260
 7440.50000    0.12760   68.89650  117.69420    9.09530   52.30620   52.23090    2.80010    2.50200    3.51420    3.73940    3.30120    0.14070
 7441.00000    0.13430   69.03540  118.08680    9.00970   50.95570   50.90980    2.81900    2.49150    3.35390    3.59020    3.11600    0.14270
 7441.50000    0.14180   69.12550  117.82570    8.95980   50.32000   49.58880    2.84930    2.48260    3.19360    3.44110    3.07900    0.14380
 7442.00000    0.14080   69.14390  117.70450    8.98430   50.75680   50.09430    2.86120    2.48210    3.34640    3.58330    3.07900    0.13760
 7442.50000    0.13800   69.25080  117.81130    9.04710   51.19350   51.11230    2.86050    2.48580    3.51770    3.74270    3.07900    0.13130
 7443.00000    0.13750   69.41980  117.89780    9.11940   49.17030   49.05330    2.93410    2.48810    3.40200    3.63500    2.97780    0.13000
 7443.50000    0.13780   69.41390  117.90300    9.10330   47.67120   47.89960    3.00760    2.48930    3.21650    3.44110    2.64440    0.12820
 7444.00000    0.13650   69.81900  118.49560    9.02410   44.45170   46.74590    3.05620    2.49010    2.86960    3.08550    2.87520    0.12820
 7444.50000    0.13480   69.99640  118.98870    8.96070   44.90600   46.00340    3.05970    2.49080    3.84420    4.25480    3.41230    0.13010
 7445.00000    0.14160   70.22250  119.15610    8.99910   45.72330   45.62070    3.06320    2.48040    3.34410    3.67950    3.06610    0.13260
 7445.50000    0.15140   70.41300  119.62790    9.03750   46.54060   46.34350    3.06280    2.46740    2.71900    2.96030    2.61880    0.13210
 7446.00000    0.15830   70.52900  120.25890    9.07590   47.35790   47.12640    3.08620    2.45580    2.78310    3.01340    2.49320    0.13000
 7446.50000    0.16040   70.67200  120.71700    9.11430   47.00730   46.37950    3.09170    2.45020    2.78210    3.05320    2.42730    0.13620
 7447.00000    0.16310   70.88380  121.48170    9.11490   47.05020   47.60370    3.10360    2.44550    2.69930    2.77890    2.37260    0.14670
 7447.50000    0.16580   71.04450  121.50200    9.07870   48.12100   48.33510    3.13330    2.44160    2.61660    2.76130    2.24010    0.15010
 7448.00000    0.16800   71.04980  121.51970    9.04250   48.41010   47.37220    3.15660    2.43900    2.48720    2.61130    2.10180    0.14800
 7448.50000    0.16830   70.97750  122.10210    9.04270   48.35650   48.54160    3.14080    2.43880    2.44790    2.56340    2.10030    0.14380
 7449.00000    0.16710   70.94300  122.59860    9.17620   48.30300   49.24440    3.10410    2.44210    2.52560    2.65810    2.18330    0.13970
 7449.50000    0.16480   70.93350  122.70500    9.20310   48.17480   48.64750    3.07650    2.44600    2.64640    2.80540    2.40060    0.13760
 7450.00000    0.16170   70.91220  122.70730    9.11960   46.89700   47.70260    3.00730    2.44990    2.77260    2.96320    2.33960    0.13920
 7450.50000    0.16010   70.90440  122.70970    9.03610   45.72260   46.75770    3.06690    2.45040    2.45800    2.57570    2.21420    0.13880
 7451.00000    0.16170   70.81080  122.51230    9.06930   45.72260   46.49060    3.09220    2.44890    2.43240    2.54450    2.00260    0.13830
 7451.50000    0.16100   70.73320  122.34630    9.19430   45.42280   46.79060    3.06680    2.44900    2.44210    2.55630    2.04250    0.13540
