~Version ---------------------------------------------------
VERS.   2.0 : CWLS log ASCII Standard -VERSION 2.0
WRAP.    NO : One line per depth step
DLM . SPACE : Column Data Section Delimiter
~Well ------------------------------------------------------
STRT .FT                200.0 : START DEPTH
STOP .FT              12037.0 : STOP DEPTH
STEP .FT                  0.5 : STEP
NULL .               -9999.25 : NULL VALUE
COMP .                        : COMPANY
WELL .                        : WELL
FLD  .                        : FIELD
LOC  .                        : LOCATION
PROV .                        : PROVINCE
CNTY .                        : COUNTY
STAT .                        : STATE
CTRY .                        : COUNTRY
SRVC .                        : SERVICE COMPANY
DATE .                        : DATE
UWI  .                        : UNIQUE WELL ID
API  .                        : API NUMBER
SLAT .WGS84 2.772362038108895 : SURFACE LATITUDE
SLON .WGS84 8.174796129004008 : SURFACE LONGITUDE
DATUM.F                   nan : DEPTH DATUM ELEV
~Curve Information -----------------------------------------
DEPT   .FT    : 
DPHZ_LS.DEC   : HGRD STANDARD RESOLUTION DENSITY POROSITY
DTCO   .US/F  : DELTA-T COMPRESSIONAL
DTSM   .US/F  : DELTA-T SHEAR
HCALD  .IN    : HRCC CALIPER CALIBRATED FROM DENSITY LOG
HCGR   .GAPI  : HNGS COMPUTED GAMMA RAY
HCGRD  .GAPI  : HNGS COMPUTED GAMMA RAY FROM DENSITY LOG
PEFZ   .B/E   : HRDD STANDARD RESOLUTION FORMATION PHOTOELECTRIC FACTOR
RHOZ   .G/C3  : HRDD STANDARD RESOLUTION FORMATION DENSITY
RLA3   .OHMM  : APPARENT RESISTIVITY FROM COMPUTED FOCUSING MODE 3
RLA5   .OHMM  : APPARENT RESISTIVITY FROM COMPUTED FOCUSING MODE 5
RXOZ   .OHMM  : INVADED FORMATION RESISTIVITY FILTERED AT 18 INCHES
TNPH_LS.DEC   : THERMAL NEUTRON POROSITY [LIMESTONE]
~Params ----------------------------------------------------
~Other -----------------------------------------------------
~ASCII -----------------------------------------------------
# ...
 11145.50000    0.11900   69.76940  116.80650    8.57590   69.17070   68.70710    2.69940    2.52470    3.83360    3.84440    3.93990    0.12230
 11146.00000    0.11070   69.58760  116.52850    8.61150   67.41680   68.03250    2.65910    2.53070    3.83360    3.84440    4.01990    0.12500
 11146.50000    0.10560   69.42340  116.55600    8.64940   65.66290   66.82990    2.65910    2.54100    4.00620    4.05320    4.24770    0.12500
 11147.00000    0.10060   69.20400  116.39750    8.64580   63.90910   65.62730    2.67250    2.54680    4.29380    4.26190    4.47550    0.12240
 11147.50000    0.09920   69.17380  116.23910    8.64120   62.85670   65.65520    2.73970    2.55270    4.52390    4.47060    4.70330    0.11980
 11148.00000    0.09160   68.92310  116.08070    8.60380   65.08420   66.83680    2.77710    2.56030    5.04470    5.01000    5.22370    0.12060
 11148.50000    0.08980   68.82530  115.99930    8.54940   67.86850   68.27440    2.83590    2.56510    5.58180    5.63220    5.81720    0.12380
 11149.00000    0.08920   68.78230  116.03350    8.57300   69.30870   69.21510    2.86060    2.56600    5.79670    5.88110    6.17340    0.12690
 11149.50000    0.09120   68.75940  115.98430    8.60990   68.69090   68.38610    2.83480    2.56530    5.79670    5.88110    6.17340    0.12950
 11150.00000    0.09450   68.92970  115.83480    8.64470   67.00550   66.53360    2.79180    2.55800    5.05800    5.04610    5.30370    0.12950
 11150.50000    0.09800   69.01120  115.79320    8.67950   65.75290   65.77920    2.74890    2.55090    4.47830    4.42290    4.60790    0.12640
 11151.00000    0.10050   69.06320  115.43150    8.66470   64.45090   64.68250    2.76940    2.55040    4.64730    4.57180    4.80220    0.12410
 11151.50000    0.09780   69.25080  115.57880    8.58050   64.64600   64.41840    2.78350    2.55370    4.84240    4.72070    4.94960    0.12580
 11152.00000    0.09420   69.21790  115.77870    8.62770   65.54770   66.11440    2.78900    2.55970    4.61480    4.60160    4.88470    0.12880
 11152.50000    0.09210   69.11530  115.73670    8.61860   66.07120   66.04390    2.79460    2.56340    4.47830    4.47500    4.70960    0.13170
 11153.00000    0.09560   68.94130  115.54000    8.60940   64.91140   64.65290    2.82190    2.55880    4.63760    4.60530    4.84660    0.13470
 11153.50000    0.10160   68.88840  115.42660    8.62740   63.20910   62.79810    2.79630    2.54780    4.75140    4.73560    4.98350    0.13520
 11154.00000    0.10630   68.76750  115.57890    8.63520   60.52470   60.94320    2.78880    2.54040    4.70580    4.71330    4.96000    0.12850
 11154.50000    0.10720   68.74960  115.49280    8.60180   58.76620   59.08830    2.78250    2.53690    4.70580    4.67610    4.92090    0.12180
 11155.00000    0.10190   68.59350  115.03060    8.55580   59.32900   58.60250    2.74470    2.54240    4.79690    4.73330    4.98610    0.11510
 11155.50000    0.09530   68.55610  114.99850    8.56020   60.36540   60.19220    2.75610    2.55370    5.07880    5.16840    5.46880    0.11190
 11156.00000    0.09010   68.61900  114.96640    8.62940   61.21590   61.78180    2.77020    2.56500    5.09040    5.13030    5.44820    0.11560
 11156.50000    0.09300   68.76160  114.92180    8.62540   62.79490   63.37150    2.78440    2.56250    5.14930    4.76800    5.38960    0.11960
 11157.00000    0.09710   68.85820  114.69120    8.61530   64.37510   64.96110    2.78940    2.55100    5.09040    4.88710    5.38960    0.12370
 11157.50000    0.09950   69.09760  115.00800    8.60520   65.12650   66.55080    2.75330    2.54860    4.61990    4.46060    4.81910    0.12130
 11158.00000    0.09980   69.25590  115.30350    8.59510   64.62810   66.36510    2.70220    2.55290    3.93380    3.92750    4.10610    0.12130
 11158.50000    0.09840   69.25920  115.59910    8.55360   64.12980   64.99580    2.65540    2.55400    3.89540    3.80950    3.95120    0.12060
 11159.00000    0.09880   69.37350  115.80640    8.56690   63.17570   63.62650    2.63680    2.55140    4.16610    4.13720    4.35480    0.11730
 11159.50000    0.10050   69.38380  115.67750    8.63850   62.65250   62.25720    2.63160    2.54820    4.33200    4.21810    4.43970    0.12070
 11160.00000    0.10110   69.25980  115.74310    8.63260   61.80560   60.88790    2.61700    2.54750    4.05550    3.94500    4.21480    0.12630
 11160.50000    0.10120   69.19890  115.59080    8.61500   60.94520   60.44100    2.58830    2.54740    3.98880    3.94520    4.12850    0.12840
 11161.00000    0.10170   68.94420  115.99190    8.59740   59.44770   59.99410    2.60180    2.54400    4.20850    4.13760    4.27230    0.12170
 11161.50000    0.10460   68.76750  115.51190    8.57990   59.18350   59.54720    2.63450    2.53880    4.25080    4.11340    4.36300    0.11630
 11162.00000    0.10680   68.65300  114.88820    8.53110   59.18350   59.10030    2.66720    2.53920    4.18260    4.21910    4.39980    0.11770
 11162.50000    0.10440   68.40830  114.66800    8.56020   59.67600   59.38220    2.66700    2.54310    4.43850    4.45300    4.66570    0.11980
 11163.00000    0.10530   68.03920  114.44770    8.61920   60.99560   60.77980    2.66690    2.53940    4.69450    4.68680    4.93170    0.12770
 11163.50000    0.10910   67.41860  113.34650    8.64160   61.59540   62.17730    2.71650    2.53420    4.70590    4.56970    4.84150    0.13040
 11164.00000    0.10800   67.27750  112.89250    8.64490   62.07470   62.01540    2.78080    2.54170    4.43290    4.28890    4.51410    0.12550
 11164.50000    0.09860   66.96080  112.42700    8.61970   60.11180   59.66490    2.87140    2.55790    4.52390    5.06270    5.19800    0.11710
 11165.00000    0.08600   66.83660  112.04110    8.53160   57.54030   57.35770    2.98010    2.58100    6.47060    7.44310    7.65880    0.10510
 11165.50000    0.07630   66.92570  112.23900    8.54490   56.35340   55.90360    2.94820    2.58570    8.32630    9.82360   11.09190    0.10000
 11166.00000    0.08050   67.04180  112.06310    8.57940   56.78500   55.77380    2.92040    2.57300    7.14880    5.93330    7.21360    0.10190
 11166.50000    0.09140   67.09260  112.19170    8.61390   57.21660   56.76790    2.80210    2.55720    5.11130    4.30900    4.72820    0.10890
 11167.00000    0.10270   67.26480  112.52330    8.65150   56.76530   56.90160    2.66120    2.54130    3.94480    3.88940    4.07460    0.11150
 11167.50000    0.10470   67.82960  112.80280    8.63170   57.18350   57.34340    2.59430    2.54060    3.83360    3.80540    3.95310    0.11310
 11168.00000    0.10360   68.19540  113.03960    8.57570   57.69400   57.79170    2.58080    2.54400    3.88420    3.83270    3.96690    0.11130
 11168.50000    0.10520   68.32540  114.00850    8.55340   58.01510   57.78930    2.58070    2.54230    3.94740    3.90620    4.06230    0.11220
 11169.00000    0.10770   68.49300  114.51920    8.56690   57.91190   57.64780    2.61980    2.53790    4.01070    3.95030    4.13850    0.11360
 11169.50000    0.10700   68.54570  114.97310    8.59230   57.80860   58.36190    2.61530    2.53850    3.98190    3.95030    4.13850    0.11920
 11170.00000    0.10420   68.46180  115.09290    8.62740   58.82200   59.07600    2.59260    2.54410    4.70580    4.64630    4.88960    0.11870
 11170.50000    0.10180   68.42670  115.05670    8.65060   57.65450   57.64470    2.57980    2.54680    4.36940    4.38240    4.65680    0.11770
 11171.00000    0.10070   68.34710  115.09740    8.63890   56.65630   56.81010    2.56680    2.54940    3.96020    3.78010    4.05540    0.11670
 11171.50000    0.09870   68.28880  114.23780    8.60150   56.07930   56.72540    2.57860    2.55390    3.72240    3.65710    3.78510    0.11500
 11172.00000    0.09410   68.29820  113.83100    8.56410   62.43680   61.70910    2.63400    2.55840    4.28370    4.14280    4.38140    0.11500
 11172.50000    0.09350   68.40210  113.51820    8.53350   65.68380   66.69290    2.68930    2.55960    5.50150    5.05690    5.64090    0.11730
 11173.00000    0.09510   68.40010  113.11880    8.60160   68.58750   69.58620    2.72490    2.55510    6.71930    6.23340    7.31330    0.12150
