~Version ---------------------------------------------------
VERS.   2.0 : CWLS log ASCII Standard -VERSION 2.0
WRAP.    NO : One line per depth step
DLM . SPACE : Column Data Section Delimiter
~Well ------------------------------------------------------
STRT .FT                200.0 : START DEPTH
STOP .FT              12037.0 : STOP DEPTH
STEP .FT                  0.5 : STEP
NULL .               -9999.25 : NULL VALUE
COMP .                        : COMPANY
WELL .                        : WELL
FLD  .                        : FIELD
LOC  .                        : LOCATION
PROV .                        : PROVINCE
CNTY .                        : COUNTY
STAT .                        : STATE
CTRY .                        : COUNTRY
SRVC .                        : SERVICE COMPANY
DATE .                        : DATE
UWI  .                        : UNIQUE WELL ID
API  .                        : API NUMBER
SLAT .WGS84 2.772362038108895 : SURFACE LATITUDE
SLON .WGS84 8.174796129004008 : SURFACE LONGITUDE
DATUM.F                   nan : DEPTH DATUM ELEV
~Curve Information -----------------------------------------
DEPT   .FT    : 
DPHZ_LS.DEC   : HGRD STANDARD RESOLUTION DENSITY POROSITY
DTCO   .US/F  : DELTA-T COMPRESSIONAL
DTSM   .US/F  : DELTA-T SHEAR
HCALD  .IN    : HRCC CALIPER CALIBRATED FROM DENSITY LOG
HCGR   .GAPI  : HNGS COMPUTED GAMMA RAY
HCGRD  .GAPI  : HNGS COMPUTED GAMMA RAY FROM DENSITY LOG
PEFZ   .B/E   : HRDD STANDARD RESOLUTION FORMATION PHOTOELECTRIC FACTOR
RHOZ   .G/C3  : HRDD STANDARD RESOLUTION FORMATION DENSITY
RLA3   .OHMM  : APPARENT RESISTIVITY FROM COMPUTED FOCUSING MODE 3
RLA5   .OHMM  : APPARENT RESISTIVITY FROM COMPUTED FOCUSING MODE 5
RXOZ   .OHMM  : INVADED FORMATION RESISTIVITY FILTERED AT 18 INCHES
TNPH_LS.DEC   : THERMAL NEUTRON POROSITY [LIMESTONE]
~Params ----------------------------------------------------
~Other -----------------------------------------------------
~ASCII -----------------------------------------------------
# ...
 9076.00000    0.07520   56.40040   97.76170    8.70240    9.37480    9.64550    4.02120    2.59000 1010.52790 5047.88810  280.39800    0.03630
 9076.50000    0.06750   56.20100   95.69690    8.72180    9.01030    9.32680    4.11050    2.60410 1037.32580 4981.66110  395.99990    0.03820
 9077.00000    0.06000   56.46510   95.32520    8.71780    8.45520    8.79840    4.12930    2.61070 1065.99420 5145.85000  338.13630    0.03670
 9077.50000    0.06050   57.07380   95.07250    8.70670    7.90010    7.98080    4.08440    2.61260 1066.77320 5795.28830  189.02730    0.03560
 9078.00000    0.06690   57.57040   96.90090    8.69990    8.49830    8.48740    4.00820    2.60040  983.52650 4749.65620  121.54470    0.03690
 9078.50000    0.07500   57.91370   96.18260    8.69940   11.14920   11.87670    3.94580    2.58010  914.60270 4802.93850  107.31050    0.04610
 9079.00000    0.08230   58.37690   96.92510    8.69790   16.52920   16.76150    3.87440    2.55980  613.37670 2000.00000  171.93250    0.06410
 9079.50000    0.09430   59.02920   97.41340    8.71090   20.27620   20.54580    3.82480    2.53950  589.04450  900.70010  279.04590    0.07750
 9080.00000    0.09870   59.92130   98.26750    8.71860   19.19350   19.53980    3.88790    2.54050  820.75300 1953.96480  412.68800    0.08560
 9080.50000    0.09370   60.69680   99.27620    8.72630   17.84210   17.56020    3.91120    2.56570 1009.91670 4857.99070  276.54970    0.07350
 9081.00000    0.08560   61.75810  100.22010    8.71790   16.82990   16.33810    3.95300    2.58590 1014.74220 4350.89130  155.37380    0.06140
 9081.50000    0.08090   62.67980  101.47220    8.71940   16.14120   16.19670    3.94140    2.58590  967.73170 4756.73280  129.41270    0.06190
 9082.00000    0.08570   63.58260  102.80130    8.72190   17.47550   18.29630    3.86480    2.56560  921.88790 3515.80210  179.15700    0.07050
 9082.50000    0.10100   64.45210  103.60980    8.72870   19.32760   20.39590    3.69340    2.54530  997.75480 5869.50810  311.22020    0.08910
 9083.00000    0.11800   65.44510  106.62270    8.74590   23.70400   24.42950    3.58130    2.51560 1097.39030 7080.71900  460.03390    0.10770
 9083.50000    0.13130   67.16680  107.92250    8.74560   26.37860   25.86190    3.51880    2.49870 1163.33310 9292.04910  350.52760    0.12620
 9084.00000    0.14110   67.99400  109.08670    8.74540   26.88760   26.64410    3.56320    2.48560 1118.16750 10103.05030  198.42750    0.14110
 9084.50000    0.14290   68.40080  109.95880    8.74000   27.00540   27.09600    3.61040    2.47440 1039.33110 6867.78430  177.70640    0.13870
 9085.00000    0.14920   68.66490  110.31020    8.72540   26.18960   26.73190    3.60560    2.46610 1018.59890 9123.68560  254.59780    0.13440
 9085.50000    0.15540   68.49590  110.49250    8.76440   27.92910   28.79420    3.61140    2.45780 1116.95730 13020.79530  546.74890    0.14170
 9086.00000    0.16020   67.56810  110.67480    8.75780   27.48950   26.95310    3.65260    2.45280 1187.33810 12619.38310  705.21920    0.15030
 9086.50000    0.15380   66.55370  110.22520    8.75130   25.72390   25.11200    3.71930    2.45830 1172.93270 8967.02340  412.64260    0.15540
 9087.00000    0.14740   65.01830  108.80350    8.74470   23.48390   23.66660    3.81440    2.47230 1178.47400 16011.53820  191.47430    0.14140
 9087.50000    0.13900   63.58870  106.14790    8.74350   21.86320   22.69690    3.91560    2.47570 1113.57650 11805.77750  155.59310    0.12440
 9088.00000    0.12520   62.00900  103.75670    8.74130   20.14190   21.11450    4.04490    2.50870 1095.35450 10663.49510  236.45770    0.10750
 9088.50000    0.10100   59.62160  101.36540    8.74440   17.25330   17.27650    4.18640    2.56650 1068.70720 8845.97700  476.55680    0.08560
 9089.00000    0.08050   57.94580  100.10690    8.76940   13.49580   13.08240    4.29040    2.59640 1042.06000 4290.00940  597.92140    0.05770
 9089.50000    0.05940   56.34440   97.76590    8.76020    9.54390    9.91310    4.35400    2.62270 1015.41270 5344.52500  389.24770    0.03450
 9090.00000    0.04540   55.37250   96.81300    8.75100   10.11450   10.16740    4.34450    2.64370  988.76550 6399.04060  229.07640    0.03400
 9090.50000    0.04180   54.54780   95.44620    8.74180   10.76560   10.42170    4.31880    2.64240  962.11820 5394.91850  197.04220    0.03390
 9091.00000    0.04550   54.19120   94.51970    8.73440   10.35870   10.54370    4.34140    2.63610  930.16550 3959.52020  250.58570    0.03360
 9091.50000    0.05010   53.85980   93.94190    8.76020   10.13890   10.06260    4.39230    2.63080  944.47750 3916.96000  507.58300    0.03270
 9092.00000    0.04950   53.80450   93.36420    8.79180    9.20970    8.97430    4.46410    2.63090  964.10250 3761.30920  464.50030    0.02980
 9092.50000    0.04580   53.64710   92.33610    8.78000    8.28040    8.20010    4.48660    2.63850  964.04520 4282.28550  299.33870    0.02710
 9093.00000    0.04050   53.50110   92.77950    8.76310    7.76230    8.01160    4.50560    2.64580  969.25860 5745.83680  174.09700    0.02260
 9093.50000    0.03850   53.61520   92.94980    8.74620    7.30140    8.01160    4.50310    2.64780  977.23620 6673.98760  156.02660    0.02070
 9094.00000    0.04050   53.71000   92.40180    8.74640    7.60520    8.01160    4.50070    2.64410  927.65310 3551.85960  226.91980    0.02080
 9094.50000    0.04330   53.94690   92.69170    8.76740    8.10840    8.23020    4.48360    2.64190  936.31690 4022.81330  425.51190    0.02230
 9095.00000    0.04330   54.14970   92.95910    8.78320    8.47770    8.89800    4.44740    2.64080  944.98080 5906.62820  575.31830    0.02530
 9095.50000    0.04330   54.35130   93.08120    8.77620    8.74330    9.29810    4.37660    2.63680  924.40540 3326.61230  325.33460    0.02750
 9096.00000    0.04630   54.47640   93.20340    8.76590    9.00900    9.18710    4.29190    2.63180  909.98640 3534.48200  158.32850    0.02610
 9096.50000    0.05400   54.68660   93.47910    8.75560    8.90030    8.90960    4.20700    2.62340  931.41270 4353.78950  118.41290    0.02680
 9097.00000    0.05980   54.56200   93.79890    8.75140    8.47140    8.63210    4.24030    2.61420  959.60010 4573.86170  144.26490    0.02900
 9097.50000    0.06420   54.88970   93.58550    8.75640    8.65270    8.35460    4.27360    2.60880  939.11150 4248.35740  248.42670    0.03090
 9098.00000    0.06460   54.96990   94.94810    8.76940    7.90720    8.12550    4.30700    2.60700  918.06930 4010.11780  446.55720    0.03270
 9098.50000    0.06400   55.20630   94.95560    8.77490    7.63060    8.03420    4.34030    2.60870  897.02710 3150.28070  311.47700    0.03220
 9099.00000    0.06130   55.47440   95.34300    8.76370    7.12420    7.56230    4.36690    2.61220  865.77820 3328.75970  166.13780    0.03110
 9099.50000    0.05870   55.89330   95.77250    8.75240    6.61770    6.82310    4.37100    2.61800  903.36620 3725.29570  115.50980    0.02940
 9100.00000    0.05300   56.66560   96.16420    8.74020    6.24840    6.57790    4.38160    2.62440  923.15450 3673.65560  139.18730    0.03060
 9100.50000    0.05150   57.34120   96.55590    8.74010    5.85620    6.33260    4.33600    2.62690  931.78530 4317.11330  255.28610    0.03270
 9101.00000    0.05680   57.99830   97.47790    8.75650    6.35460    6.41870    4.29040    2.61040  940.41600 5273.73810  383.54950    0.03490
 9101.50000    0.06970   58.83810   98.20760    8.76770   10.06420    9.14810    4.24120    2.59400  887.28310 2816.23210  336.82310    0.03950
 9102.00000    0.08310   59.71680   98.88920    8.75940   15.91960   14.38970    4.24150    2.57750  773.78620 2020.21750  156.99910    0.04780
 9102.50000    0.09380   60.19460   99.25450    8.75110   20.78560   20.91530    4.28200    2.56100  779.45960 2415.09350   95.92260    0.05650
 9103.00000    0.09460   60.95360  100.49960    8.74270   22.48990   22.94540    4.21520    2.55700 1040.26870 5203.62850   97.62900    0.07440
 9103.50000    0.09670   61.66570  101.43080    8.73440   19.17790   18.25080    4.04780    2.55160 1015.44030 4832.93450  203.00500    0.07620
