~Version ---------------------------------------------------
VERS.   2.0 : CWLS log ASCII Standard -VERSION 2.0
WRAP.    NO : One line per depth step
DLM . SPACE : Column Data Section Delimiter
~Well ------------------------------------------------------
STRT .FT                200.0 : START DEPTH
STOP .FT              12037.0 : STOP DEPTH
STEP .FT                  0.5 : STEP
NULL .               -9999.25 : NULL VALUE
COMP .                        : COMPANY
WELL .                        : WELL
FLD  .                        : FIELD
LOC  .                        : LOCATION
PROV .                        : PROVINCE
CNTY .                        : COUNTY
STAT .                        : STATE
CTRY .                        : COUNTRY
SRVC .                        : SERVICE COMPANY
DATE .                        : DATE
UWI  .                        : UNIQUE WELL ID
API  .                        : API NUMBER
SLAT .WGS84 2.772362038108895 : SURFACE LATITUDE
SLON .WGS84 8.174796129004008 : SURFACE LONGITUDE
DATUM.F                   nan : DEPTH DATUM ELEV
~Curve Information -----------------------------------------
DEPT   .FT    : 
DPHZ_LS.DEC   : HGRD STANDARD RESOLUTION DENSITY POROSITY
DTCO   .US/F  : DELTA-T COMPRESSIONAL
DTSM   .US/F  : DELTA-T SHEAR
HCALD  .IN    : HRCC CALIPER CALIBRATED FROM DENSITY LOG
HCGR   .GAPI  : HNGS COMPUTED GAMMA RAY
HCGRD  .GAPI  : HNGS COMPUTED GAMMA RAY FROM DENSITY LOG
PEFZ   .B/E   : HRDD STANDARD RESOLUTION FORMATION PHOTOELECTRIC FACTOR
RHOZ   .G/C3  : HRDD STANDARD RESOLUTION FORMATION DENSITY
RLA3   .OHMM  : APPARENT RESISTIVITY FROM COMPUTED FOCUSING MODE 3
RLA5   .OHMM  : APPARENT RESISTIVITY FROM COMPUTED FOCUSING MODE 5
RXOZ   .OHMM  : INVADED FORMATION RESISTIVITY FILTERED AT 18 INCHES
TNPH_LS.DEC   : THERMAL NEUTRON POROSITY [LIMESTONE]
~Params ----------------------------------------------------
~Other -----------------------------------------------------
~ASCII -----------------------------------------------------
# ...
 11985.50000    0.14060   76.48990  136.54450    8.62970   44.56450   44.91560    2.60780    2.48120  175.36480  204.70660   40.21820    0.16010
 11986.00000    0.13130   75.65900  136.06590    8.62840   45.21490   44.89970    2.70330    2.51300  120.51980  143.45300   32.17520    0.15760
 11986.50000    0.11440   75.78700  135.60250    8.65300   45.27460   44.85850    2.82920    2.54300  114.15360  130.92770   26.82770    0.15670
 11987.00000    0.09260   76.13690  136.31830    8.66510   45.72740   45.35880    2.98990    2.57700  108.62600  126.62550   22.87770    0.15130
 11987.50000    0.07100   76.42170  136.98560    8.66700   46.18030   45.85910    3.15550    2.59560  100.72060  116.07030   19.95650    0.14730
 11988.00000    0.06740   76.87470  137.62230    8.68310   47.45590   46.80260    3.21040    2.60150   85.76850   96.85140   19.39710    0.14770
 11988.50000    0.07600   77.49090  137.32460    8.69540   48.84050   47.85680    3.19280    2.58670   56.79290   62.41630   19.90340    0.16000
 11989.00000    0.09310   77.05400  138.02540    8.70410   49.06110   48.91110    3.10640    2.56190   49.79170   58.15310   18.25290    0.19170
 11989.50000    0.10550   78.87110  138.39700    8.71290   49.47220   49.96530    3.02630    2.53710   67.28860   80.58250   18.26780    0.22820
 11990.00000    0.11960   79.98210  138.44340    8.72170   49.62310   50.80370    2.95650    2.51240   80.94500  103.01180   22.12040    0.24320
 11990.50000    0.13240   80.49650  138.61280    8.67830   49.62730   51.58800    2.87050    2.49230   48.73780   66.37260   37.30500    0.23260
 11991.00000    0.14450   80.51670  138.74160    8.64410   49.17760   51.21520    2.80400    2.47350  138.53200  181.91030   52.51990    0.20720
 11991.50000    0.15710   80.71020  139.26900    8.62060   49.71480   50.55310    2.76520    2.45460  189.58230  277.59720   55.32350    0.18680
 11992.00000    0.16550   81.03800  139.55270    8.62110   50.28480   49.89100    2.75360    2.44130  198.81200  300.18130   48.00320    0.18840
 11992.50000    0.16910   81.68110  139.63230    8.62170   49.56070   -9999.25    2.74190    2.43860  213.75460  318.24860   46.64940    0.19390
 11993.00000    0.16700   82.30150  139.64930    8.64080   48.83660   -9999.25    2.73030    2.44330  128.04930  185.05110   63.79820    0.19760
 11993.50000    0.16320   82.26180  139.75800    8.64910   49.02150   -9999.25    2.71030    2.44910  143.37190  244.19200   65.47060    0.19980
 11994.00000    0.15750   82.55450  141.10140    8.66470   51.43200   -9999.25    2.72610    2.46190   73.52320   97.29920   49.90740    0.20030
 11994.50000    0.15060   84.37100  143.21990    8.68520   -9999.25   -9999.25    2.75710    2.47650   71.85660   81.60350   33.84710    0.20030
 11995.00000    0.14130   84.18440  145.53230    8.69420   -9999.25   -9999.25    2.78810    2.49000   71.44000   82.67590   26.22870    0.19940
 11995.50000    0.12820   84.51290  148.13330    8.70330   -9999.25   -9999.25    2.80270    2.50870   49.07500   80.26310   17.63170    0.19650
 11996.00000    0.11420   84.00770  148.70540    8.69720   -9999.25   -9999.25    2.87000    2.52390   11.77140   13.32820    9.10290    0.19360
 11996.50000    0.10280   83.10990  148.98000    8.74520   -9999.25   -9999.25    2.96480    2.54160    9.84470   10.37330    7.34040    0.19470
 11997.00000    0.09260   82.17090  149.02690    8.73180   -9999.25   -9999.25    3.04600    2.55930    9.07400    9.20290    7.47800    0.19560
 11997.50000    0.08570   80.86430  147.88160    8.70460   -9999.25   -9999.25    3.15720    2.56970   14.04880   21.11320    9.99260    0.19480
 11998.00000    0.08370   79.64290  145.49040    8.71460   -9999.25   -9999.25    3.26840    2.57220   35.02880   36.84800   14.06970    0.19490
 11998.50000    0.08700   79.03550  143.09910    8.71540   -9999.25   -9999.25    3.30550    2.56820   36.15410   37.97320   16.58440    0.19960
 11999.00000    0.09230   78.35280  142.12540    8.70560   -9999.25   -9999.25    3.30440    2.56180   35.21640   37.03550   18.43480    0.20330
 11999.50000    0.09700   78.28020  139.07170    8.70560   -9999.25   -9999.25    3.29720    2.55550   34.74750   36.56670   19.39770    0.20170
 12000.00000    0.09820   78.67500  134.28240    8.70560   -9999.25   -9999.25    3.23330    2.55010   35.71410   36.47340   19.64830    0.19850
 12000.50000    0.10280   78.77450  132.90630    8.70560   -9999.25   -9999.25    3.15540    2.54420   41.46990   45.79620   19.83840    0.19710
 12001.00000    0.10800   79.24690  133.50300    8.69750   -9999.25   -9999.25    3.06650    2.53590   35.50430   43.16480   18.92610    0.19430
 12001.50000    0.11620   80.11090  135.22430    8.70940   -9999.25   -9999.25    2.98470    2.52770   25.02960   30.00750   15.97980    0.19150
 12002.00000    0.11850   80.42900  136.10660    8.70940   -9999.25   -9999.25    2.95080    2.51950   14.55490   16.85030   12.11080    0.18910
 12002.50000    0.11400   80.51140  136.98880    8.70940   -9999.25   -9999.25    2.91460    2.51930   14.36180   14.51180    8.24180    0.18910
 12003.00000    0.10710   80.25300  137.06560    8.71610   -9999.25   -9999.25    2.93290    2.53520   19.11640   23.18030    8.24180    0.19040
 12003.50000    0.10090   79.27930  136.75480    8.74900   -9999.25   -9999.25    2.95120    2.54980   19.42960   23.44510    8.24180    0.19510
 12004.00000    0.09610   78.63080  136.20230    8.71030   -9999.25   -9999.25    2.95660    2.55280   19.88420   23.18030   11.54960    0.19890
 12004.50000    0.09990   78.19710  134.89980    8.70040   -9999.25   -9999.25    2.96200    2.54920   35.29310   39.42610   14.46800    0.20030
 12005.00000    0.10320   77.44260  132.57770    8.70220   -9999.25   -9999.25    2.99840    2.54450   28.92290   29.51990   17.08990    0.20540
 12005.50000    0.10390   76.47660  128.93670    8.70390   -9999.25   -9999.25    3.00940    2.54170   25.49490   29.66730   18.86260    0.21120
 12006.00000    0.10270   75.41170  127.44600    8.70560   -9999.25   -9999.25    3.01400    2.54320   23.82170   30.01490   19.88530    0.21100
 12006.50000    0.10120   74.25210  125.29760    8.70730   -9999.25   -9999.25    2.97720    2.54710   24.92360   33.50910   20.35940    0.20640
 12007.00000    0.10350   71.86730  121.77510    8.70910   -9999.25   -9999.25    2.94940    2.54400   33.29250   47.50130   19.26760    0.19880
 12007.50000    0.10540   68.60000  119.25150    8.70940   -9999.25   -9999.25    2.91090    2.53980   37.69370   85.16810   18.98840    0.19790
 12008.00000    0.10840   67.02400  116.67900    8.70940   -9999.25   -9999.25    2.92880    2.53650  141.62860  273.50220   18.93460    0.20370
 12008.50000    0.10790   66.60730  115.39040    8.70940   -9999.25   -9999.25    2.95120    2.53570  188.04640  340.19150   18.73510    0.20610
 12009.00000    0.10660   66.27690  114.23420    8.70940   -9999.25   -9999.25    2.97360    2.53950  221.65280  366.86720   18.59820    0.20410
 12009.50000    0.10110   -9999.25   -9999.25    8.70940   -9999.25   -9999.25    2.99150    2.54520   58.73870   78.20000   18.56450    0.19920
 12010.00000    0.10030   -9999.25   -9999.25    8.70940   -9999.25   -9999.25    2.96560    2.54930   39.42990   39.85210   18.37830    0.19420
 12010.50000    0.10030   -9999.25   -9999.25    8.70940   -9999.25   -9999.25    2.93160    2.54730   25.52550   29.46180   18.08250   -9999.25
 12011.00000    0.10200   -9999.25   -9999.25    8.70940   -9999.25   -9999.25    2.91120    2.54500   28.12390   29.86380   18.07250   -9999.25
 12011.50000    0.10460   -9999.25   -9999.25    8.70940   -9999.25   -9999.25    2.91180    2.54260   27.07490   28.32710   17.83060   -9999.25
 12012.00000    0.10480   -9999.25   -9999.25    8.70940   -9999.25   -9999.25    2.93950    2.54200   26.69850   27.93870   17.83400   -9999.25
 12012.50000    0.10290   -9999.25   -9999.25    8.70940   -9999.25   -9999.25    2.94810    2.54670   28.64690   30.13610   17.76970   -9999.25
 12013.00000    0.09870   -9999.25   -9999.25    8.70940   -9999.25   -9999.25    2.94740    2.55140   32.87070   34.68980   17.42980   -9999.25
