~Version ---------------------------------------------------
VERS.   2.0 : CWLS log ASCII Standard -VERSION 2.0
WRAP.    NO : One line per depth step
DLM . SPACE : Column Data Section Delimiter
~Well ------------------------------------------------------
STRT .FT                200.0 : START DEPTH
STOP .FT              12037.0 : STOP DEPTH
STEP .FT                  0.5 : STEP
NULL .               -9999.25 : NULL VALUE
COMP .                        : COMPANY
WELL .                        : WELL
FLD  .                        : FIELD
LOC  .                        : LOCATION
PROV .                        : PROVINCE
CNTY .                        : COUNTY
STAT .                        : STATE
CTRY .                        : COUNTRY
SRVC .                        : SERVICE COMPANY
DATE .                        : DATE
UWI  .                        : UNIQUE WELL ID
API  .                        : API NUMBER
SLAT .WGS84 2.772362038108895 : SURFACE LATITUDE
SLON .WGS84 8.174796129004008 : SURFACE LONGITUDE
DATUM.F                   nan : DEPTH DATUM ELEV
~Curve Information -----------------------------------------
DEPT   .FT    : 
DPHZ_LS.DEC   : HGRD STANDARD RESOLUTION DENSITY POROSITY
DTCO   .US/F  : DELTA-T COMPRESSIONAL
DTSM   .US/F  : DELTA-T SHEAR
HCALD  .IN    : HRCC CALIPER CALIBRATED FROM DENSITY LOG
HCGR   .GAPI  : HNGS COMPUTED GAMMA RAY
HCGRD  .GAPI  : HNGS COMPUTED GAMMA RAY FROM DENSITY LOG
PEFZ   .B/E   : HRDD STANDARD RESOLUTION FORMATION PHOTOELECTRIC FACTOR
RHOZ   .G/C3  : HRDD STANDARD RESOLUTION FORMATION DENSITY
RLA3   .OHMM  : APPARENT RESISTIVITY FROM COMPUTED FOCUSING MODE 3
RLA5   .OHMM  : APPARENT RESISTIVITY FROM COMPUTED FOCUSING MODE 5
RXOZ   .OHMM  : INVADED FORMATION RESISTIVITY FILTERED AT 18 INCHES
TNPH_LS.DEC   : THERMAL NEUTRON POROSITY [LIMESTONE]
~Params ----------------------------------------------------
~Other -----------------------------------------------------
~ASCII -----------------------------------------------------
# ...
 6612.00000    0.13010   66.01770  112.60470    8.86450   44.37340   45.74080    2.77710    2.49720    4.13810    4.59300    3.13070    0.10390
 6612.50000    0.13300   68.31750  117.62980    8.86880   47.97120   49.64000    2.69590    2.49520    3.59720    4.15050    2.90820    0.12550
 6613.00000    0.13300   70.40060  119.34930    8.87310   53.10150   55.20300    2.65060    2.48710    3.48900    3.89650    3.00900    0.13450
 6613.50000    0.14130   71.75840  121.71070    8.87740   60.76360   61.79230    2.68900    2.47690    5.78160    6.11600    2.53380    0.14250
 6614.00000    0.14520   72.18910  124.67320    8.88170   66.16690   67.50880    2.75660    2.47660    7.50110    7.75640    2.67210    0.15040
 6614.50000    0.13600   71.49000  124.55550    8.88590   70.19860   70.76450    2.78730    2.49450    6.33020    6.65900    2.90270    0.15680
 6615.00000    0.11910   70.78860  124.07790    8.88940   73.05040   74.71500    2.76130    2.51430    7.90900    8.17900    5.73480    0.14430
 6615.50000    0.10180   68.49200  122.67140    9.03330   76.54530   76.33470    2.83200    2.53560    8.48190    8.74010    6.58930    0.14340
 6616.00000    0.09130   60.03880  121.44980    8.93940   69.76620   72.13550    3.16150    2.55800   12.24150   15.77290    8.99850    0.12600
 6616.50000    0.07830   54.91780  118.24150    8.74940   57.86530   58.63820    3.45310    2.58530   21.78710   33.47180   15.31630    0.10480
 6617.00000    0.06870   63.12560  113.54090    8.78440   42.77890   43.24130    3.89770    2.60160   29.42360   44.09120   22.85060    0.08310
 6617.50000    0.06890   59.50150  109.83050    8.80940   28.67370   28.79420    4.26100    2.59750   21.15730   23.35650   15.95090    0.06900
 6618.00000    0.07160   58.43580  106.79580    8.82940   16.78990   18.73410    4.42970    2.59500   12.89100   14.59250   13.41480    0.06950
 6618.50000    0.07290   57.67550  104.41250    8.80940   15.36580   15.62460    4.47670    2.59240    9.19410   12.45900   12.10840    0.07310
 6619.00000    0.06950   56.73760  103.16270    8.81850   13.19210   13.06960    4.51430    2.59590   12.16080   15.36960   12.72320    0.07680
 6619.50000    0.06450   56.86360  101.78340    8.82990   10.98110   11.22990    4.53740    2.60310   14.06990   17.59600   12.87690    0.07800
 6620.00000    0.05950   57.25160  101.62550    8.85240   10.06880    9.61850    4.50200    2.61030   15.13440   19.03540   14.54400    0.07810
 6620.50000    0.05690   57.32290  102.26800    8.85940   10.09700    9.02120    4.45200    2.61750   16.19880   19.46050   15.28490    0.07810
 6621.00000    0.05710   57.39840  102.82200    8.85940   10.38150   10.20430    4.36270    2.62040   15.93860   18.40170   15.65560    0.07650
 6621.50000    0.06090   57.40360  102.75990    8.85370   11.58120   11.90130    4.33180    2.61330   14.63760   16.20020   12.96850    0.07400
 6622.00000    0.06660   57.41150  102.78520    8.83940   12.99290   13.17890    4.37270    2.60250   13.33670   14.46890   11.37130    0.07210
 6622.50000    0.07220   57.47030  103.28230    8.82510   13.57260   13.62620    4.41360    2.59170   12.03570   14.09940   10.14210    0.07380
 6623.00000    0.07360   57.48250  103.04730    8.81980   12.46950   13.04740    4.44600    2.58950   11.51530   13.57130    9.87430    0.07540
 6623.50000    0.06890   57.46570  102.94150    8.84890   11.13380   11.50330    4.49580    2.59050   12.06110   13.27850    9.99700    0.07780
 6624.00000    0.06100   57.14580  102.83560    8.83630   10.40770   10.96710    4.54740    2.60560   12.60700   13.41750   10.51130    0.08280
 6624.50000    0.05560   56.80740  102.60440    8.82050   10.45620   11.21370    4.55870    2.61610   13.78610   14.14730   11.38350    0.08340
 6625.00000    0.05270   56.76460  102.71560    8.82040   11.24670   11.46030    4.55870    2.62250   15.91500   15.76690   12.40590    0.08260
 6625.50000    0.05320   57.10240  102.03600    8.83310   12.07950   12.06550    4.50530    2.62350   15.20530   15.81270   13.04950    0.07920
 6626.00000    0.05490   56.74250  101.54690    8.84520   13.08880   12.69740    4.46540    2.62150   14.49570   15.40370   15.61920    0.07840
 6626.50000    0.05660   57.36750  101.99970    8.85190   14.13120   13.12840    4.42550    2.61840   19.20060   31.00200   21.00430    0.07220
 6627.00000    0.05750   58.33600  101.62350    8.83000   15.17360   15.84270    4.26740    2.61710   33.31530   38.72800   26.38930    0.06500
 6627.50000    0.05640   59.45200  102.32860    8.79540   18.71900   19.63520    4.04790    2.62120   19.54750   20.16520   13.64540    0.05900
 6628.00000    0.05180   60.03030  104.46200    8.76430   24.13550   22.64140    3.78990    2.62530   24.29570   21.54220   18.93700    0.05400
 6628.50000    0.04990   60.22030  104.47250    8.73940   28.93260   27.74450    3.50660    2.62820   17.19230   44.94300   22.87810    0.06050
 6629.00000    0.05600   60.73300  104.21560    8.76690   38.63930   38.58520    3.28860    2.61220   18.81370   19.00240   19.48610    0.10340
 6629.50000    0.06870   60.79520  104.03360    8.83560   44.91680   46.34080    3.27700    2.59260   20.86090   22.91920   17.39570    0.14360
 6630.00000    0.07920   61.05880  104.21700    8.82130   43.13130   43.86550    3.43660    2.58080   26.85440   33.63790   20.44730    0.15430
 6630.50000    0.07420   61.66100  104.82590    8.80100   29.42510   36.73740    3.71670    2.58220   24.04240   42.24990   20.54330    0.11530
 6631.00000    0.06130   62.79220  106.08080    8.78870   20.93220   21.85240    4.04800    2.59920   20.96260   22.19920   19.27080    0.08350
 6631.50000    0.05260   63.87050  107.46630    8.82580   19.71270   17.96040    4.19310    2.62140   22.03390   22.19920   22.51240    0.06590
 6632.00000    0.05850   64.40590  108.55920    8.86030   23.69130   24.85570    4.08280    2.61900   22.03390   36.26360   21.58620    0.05850
 6632.50000    0.07250   63.43770  109.97380    8.89720   32.68030   35.81650    3.66920    2.58480    9.41840    9.26080    8.54660    0.07250
 6633.00000    0.09780   66.37700  114.20260    8.89760   40.71540   41.51030    3.27350    2.54910    5.80440    5.86270    4.88720    0.09780
 6633.50000    0.12050   68.99780  118.48170    8.89790   46.47200   46.85930    2.97900    2.51310    2.79960    2.97240    2.33350    0.12050
 6634.00000    0.14030   70.82160  120.55100    8.89830   49.02040   48.12380    2.74630    2.47680    2.23170    2.48590    1.91820    0.14160
 6634.50000    0.15640   72.43250  124.22250    8.89870   49.65000   49.10750    2.76840    2.45330    2.11810    2.43060    1.73090    0.16090
 6635.00000    0.16720   73.47120  128.70120    8.89910   50.39790   50.02470    2.80890    2.44100    2.11810    2.28840    1.60840    0.16330
 6635.50000    0.17110   74.53700  131.31900    8.89940   51.22840   50.70780    2.86530    2.43410    2.11810    2.30640    1.52130    0.15800
 6636.00000    0.17270   74.60330  132.18100    8.89900   51.04800   51.31850    2.87880    2.43040    2.11810    2.29300    1.49500    0.15600
 6636.50000    0.17400   74.65760  133.34370    8.88830   51.82320   51.92920    2.89230    2.42880    2.09410    2.30590    1.51600    0.15550
 6637.00000    0.17460   74.90360  134.20680    8.89200   52.81620   52.04590    2.91830    2.42650    2.05970    2.44890    1.52300    0.15800
 6637.50000    0.17700   75.14950  134.45400    8.89270   54.14540   52.93810    2.91880    2.42350    2.09060    2.53390    1.57770    0.15960
 6638.00000    0.17840   75.27910  134.77430    8.88490   55.90270   54.60100    2.89840    2.41910    2.19360    2.75200    1.66620    0.16510
 6638.50000    0.18080   75.09210  134.37000    8.91680   59.81390   59.05120    2.90060    2.42380    2.31040    2.97040    1.96730    0.16560
 6639.00000    0.16600   74.70710  133.20680    8.93030   66.73810   64.12010    3.01890    2.44210    3.32490    3.80570    0.97020    0.17050
 6639.50000    0.14100   74.04800  130.84070    8.89660   71.66980   71.29540    3.12500    2.47580    7.91690    8.83150    1.21820    0.17210
