~Version ---------------------------------------------------
VERS.   2.0 : CWLS log ASCII Standard -VERSION 2.0
WRAP.    NO : One line per depth step
DLM . SPACE : Column Data Section Delimiter
~Well ------------------------------------------------------
STRT .FT                200.0 : START DEPTH
STOP .FT              12037.0 : STOP DEPTH
STEP .FT                  0.5 : STEP
NULL .               -9999.25 : NULL VALUE
COMP .                        : COMPANY
WELL .                        : WELL
FLD  .                        : FIELD
LOC  .                        : LOCATION
PROV .                        : PROVINCE
CNTY .                        : COUNTY
STAT .                        : STATE
CTRY .                        : COUNTRY
SRVC .                        : SERVICE COMPANY
DATE .                        : DATE
UWI  .                        : UNIQUE WELL ID
API  .                        : API NUMBER
SLAT .WGS84 2.772362038108895 : SURFACE LATITUDE
SLON .WGS84 8.174796129004008 : SURFACE LONGITUDE
DATUM.F                   nan : DEPTH DATUM ELEV
~Curve Information -----------------------------------------
DEPT   .FT    : 
DPHZ_LS.DEC   : HGRD STANDARD RESOLUTION DENSITY POROSITY
DTCO   .US/F  : DELTA-T COMPRESSIONAL
DTSM   .US/F  : DELTA-T SHEAR
HCALD  .IN    : HRCC CALIPER CALIBRATED FROM DENSITY LOG
HCGR   .GAPI  : HNGS COMPUTED GAMMA RAY
HCGRD  .GAPI  : HNGS COMPUTED GAMMA RAY FROM DENSITY LOG
PEFZ   .B/E   : HRDD STANDARD RESOLUTION FORMATION PHOTOELECTRIC FACTOR
RHOZ   .G/C3  : HRDD STANDARD RESOLUTION FORMATION DENSITY
RLA3   .OHMM  : APPARENT RESISTIVITY FROM COMPUTED FOCUSING MODE 3
RLA5   .OHMM  : APPARENT RESISTIVITY FROM COMPUTED FOCUSING MODE 5
RXOZ   .OHMM  : INVADED FORMATION RESISTIVITY FILTERED AT 18 INCHES
TNPH_LS.DEC   : THERMAL NEUTRON POROSITY [LIMESTONE]
~Params ----------------------------------------------------
~Other -----------------------------------------------------
~ASCII -----------------------------------------------------
# ...
 8264.00000    0.09100   61.29570  103.35140    8.82010   32.77400   32.88940    2.83840    2.56060    4.13040    4.47950    4.97390    0.05880
 8264.50000    0.09800   62.10090  104.23280    8.83080   32.62000   32.63510    2.86170    2.55410    4.13040    4.24380    5.34160    0.06300
 8265.00000    0.09610   63.32460  105.52410    8.83940   31.38740   31.44410    2.95520    2.56490    5.12620    4.28840    7.72350    0.06300
 8265.50000    0.08530   64.13600  106.71980    8.83190   32.96130   31.04370    3.03300    2.58200    7.15220    6.31190    8.25660    0.05840
 8266.00000    0.07140   64.72390  108.66570    8.84880   35.17000   35.85980    3.08330    2.59990   11.70890    8.55200   14.95160    0.05150
 8266.50000    0.06320   65.55530  111.71860    8.86570   40.73240   41.85150    3.05690    2.60670   11.62670   10.08610   13.74610    0.04830
 8267.00000    0.08370   66.94620  113.82530    8.88260   48.24760   47.84310    2.99070    2.55850    7.79020    7.82690    6.67510    0.06840
 8267.50000    0.11510   68.36740  115.85950    8.88440   50.09480   50.23980    2.92400    2.48080    4.23680    5.00290    3.65250    0.09530
 8268.00000    0.15470   69.51750  118.62430    8.85940   42.36190   41.10830    3.26390    2.43420    1.81620    1.86570    1.33860    0.12210
 8268.50000    0.17280   70.82500  121.83860    8.83440   33.72970   32.54340    3.60390    2.44800    1.25400    1.16270    1.77490    0.13150
 8269.00000    0.17030   71.83720  124.61050    8.80940   30.79150   30.71040    4.01290    2.46180    1.25830    1.05700    2.26930    0.12260
 8269.50000    0.16930   72.26690  126.92090    8.80830   29.42010   29.24400    4.23610    2.46180    1.56580    1.40280    1.77880    0.11500
 8270.00000    0.17860   72.43470  127.90510    8.82110   32.17050   31.64360    4.22280    2.42410    1.20310    1.10660    1.47960    0.12170
 8270.50000    0.19280   72.60260  128.84310    8.83380   35.77500   35.23790    4.11060    2.38640    0.98170    0.94650    1.15760    0.13970
 8271.00000    0.20020   72.73270  129.57770    8.84650   38.50590   38.21220    3.94760    2.38640    0.89470    0.89140    1.27210    0.15770
 8271.50000    0.19070   73.08700  130.65790    8.86750   39.57630   38.95380    3.87940    2.40490    1.04410    0.98250    1.35620    0.16890
 8272.00000    0.18040   73.16650  131.44880    8.87140   37.70140   37.47050    3.86520    2.42340    1.19400    1.10470    2.05060    0.16270
 8272.50000    0.18030   73.45480  131.83760    8.85340   35.82650   35.85340    4.00460    2.40180    1.13310    1.04620    1.43360    0.15230
 8273.00000    0.19730   73.81010  132.18850    8.83840   35.38930   35.54730    4.15000    2.38010    0.94130    0.92550    1.25890    0.14400
 8273.50000    0.21500   74.13990  132.85540    8.83310   36.19330   36.26650    4.41540    2.35850    0.75150    0.71850    1.07970    0.16100
 8274.00000    0.22070   74.08810  132.70770    8.83500   36.62750   36.82750    4.56890    2.35410    0.83600    0.81310    1.40750    0.16550
 8274.50000    0.21460   73.76180  132.35620    8.82100   37.02810   37.78930    4.63380    2.36260    0.87850    0.86980    1.60470    0.16470
 8275.00000    0.20840   73.71280  131.87140    8.82360   38.36250   38.75110    4.58680    2.37310    0.88220    0.87470    1.25900    0.16450
 8275.50000    0.20070   72.82780  130.99510    8.82950   39.69690   39.81130    4.47920    2.39820    0.75930    0.72700    1.25900    0.17000
 8276.00000    0.18290   71.41530  128.58980    8.83530   41.70610   41.49760    4.20420    2.43190    1.50160    2.01460    1.16310    0.17180
 8276.50000    0.15050   69.67380  125.46810    8.84120   44.80330   42.29160    3.77930    2.47330    3.13980    4.16080    1.80980    0.16640
 8277.00000    0.13370   68.46550  123.67810    8.84700   45.42280   43.85780    3.48280    2.50280    3.56090    5.08170    4.34610    0.15050
 8277.50000    0.12910   67.80710  122.10630    8.85270   42.22470   41.57660    3.27720    2.49680    1.99760    1.48240    2.18010    0.13460
 8278.00000    0.13240   67.42610  119.11390    8.86110   36.89450   36.67460    3.26560    2.50170    1.89250    1.81960    2.14760    0.11380
 8278.50000    0.11920   66.80970  115.93540    8.86940   32.57790   32.71630    3.32310    2.51250    3.10130    3.03330    6.00680    0.09290
 8279.00000    0.12060   65.42200  113.86800    8.84850   31.07430   31.27360    3.36130    2.51690    3.23960    3.12360    4.45350    0.08040
 8279.50000    0.13930   64.20430  113.38670    8.79420   30.73160   31.04380    3.43120    2.49210    1.86820    1.69330    2.62750    0.08370
 8280.00000    0.15470   63.72270  112.70830    8.75600   30.51480   30.85110    3.50100    2.47450    2.07940    1.63800    2.93960    0.10000
 8280.50000    0.16430   63.52180  111.85720    8.74230   29.88590   30.82790    3.56590    2.47520    1.70080    1.59510    2.54970    0.11160
 8281.00000    0.15760   63.48000  111.86610    8.72850   30.43330   30.80480    3.57690    2.49370    1.61990    1.51680    2.39380    0.10730
 8281.50000    0.13910   63.45170  111.31630    8.72310   30.98070   30.92770    3.50340    2.51260    2.54150    2.30970    3.18120    0.09480
 8282.00000    0.11810   63.60420  111.20950    8.80330   31.52810   31.26970    3.39670    2.53150    3.46320    3.10270   11.53400    0.07290
 8282.50000    0.10830   63.79140  111.10270    8.80600   32.14920   32.15080    3.28720    2.53910    3.12600    3.23020    3.06870    0.06860
 8283.00000    0.12780   64.30570  111.47560    8.77550   33.20300   33.16120    3.23600    2.50540    2.28090    2.72320    2.12700    0.09110
 8283.50000    0.14740   65.24160  111.79150    8.74260   33.59330   33.24600    3.28010    2.46450    1.92660    2.52540    1.49760    0.11370
 8284.00000    0.16690   66.15890  111.28390    8.75940   33.57970   32.58140    3.42820    2.43900    2.37580    3.05590    1.44800    0.12970
 8284.50000    0.17760   66.92600  112.75120    8.80900   32.23330   31.91680    3.59770    2.41860    2.73620    3.26900    1.40960    0.13150
 8285.00000    0.18290   67.44500  114.26970    8.76530   30.31260   30.45430    3.74290    2.41560    2.07490    2.29670    1.36070    0.13420
 8285.50000    0.17790   67.66170  116.33690    8.72170   29.24780   29.67530    3.81060    2.43030    1.52930    1.66070    1.20630    0.13140
 8286.00000    0.16370   67.66980  116.81070    8.70890   29.51830   29.40020    3.83680    2.44840    1.75570    1.89470    1.36550    0.12280
 8286.50000    0.14600   67.90500  116.58380    8.72660   29.78870   30.17290    3.81130    2.47180    2.39030    2.60570    1.59350    0.11410
 8287.00000    0.13440   68.08550  117.09810    8.75130   30.76890   31.37260    3.77140    2.49430    2.04930    2.01910    2.04450    0.10970
 8287.50000    0.13090   68.55620  118.12930    8.73840   31.19610   32.00660    3.74200    2.49870    2.48680    2.58350    1.84460    0.10030
 8288.00000    0.13510   68.69590  118.54800    8.72550   30.27060   30.52330    3.77170    2.49870    2.46220    2.60350    2.00200    0.09940
 8288.50000    0.14130   68.60700  118.96670    8.70820   31.30620   31.36490    3.79550    2.48580    2.95110    3.17860    1.86360    0.10160
 8289.00000    0.14880   68.28230  119.20200    8.77690   31.05840   30.73750    3.81260    2.46970    2.02840    2.40950    1.87970    0.11570
 8289.50000    0.15910   67.89680  118.35110    8.76160   32.37090   30.54470    3.80870    2.45360    1.69030    1.75020    1.52380    0.13010
 8290.00000    0.16930   67.35580  117.89990    8.72450   35.43540   35.49630    3.70160    2.43750    1.36940    1.46950    1.23540    0.13870
 8290.50000    0.15380   66.99590  118.11240    8.71010   39.88990   40.60180    3.53590    2.43750    2.43130    3.34300    1.27940    0.12970
 8291.00000    0.11720   66.68760  116.62960    8.72680   46.08760   45.35880    3.33330    2.47930    7.08500    8.07020    5.93500    0.11390
 8291.50000    0.07810   66.25950  114.75510    8.76750   52.28520   53.82910    3.12150    2.57560   11.73880   12.79730   10.59050    0.09800
