~Version ---------------------------------------------------
VERS.   2.0 : CWLS log ASCII Standard -VERSION 2.0
WRAP.    NO : One line per depth step
DLM . SPACE : Column Data Section Delimiter
~Well ------------------------------------------------------
STRT .FT                200.0 : START DEPTH
STOP .FT              12037.0 : STOP DEPTH
STEP .FT                  0.5 : STEP
NULL .               -9999.25 : NULL VALUE
COMP .                        : COMPANY
WELL .                        : WELL
FLD  .                        : FIELD
LOC  .                        : LOCATION
PROV .                        : PROVINCE
CNTY .                        : COUNTY
STAT .                        : STATE
CTRY .                        : COUNTRY
SRVC .                        : SERVICE COMPANY
DATE .                        : DATE
UWI  .                        : UNIQUE WELL ID
API  .                        : API NUMBER
SLAT .WGS84 2.772362038108895 : SURFACE LATITUDE
SLON .WGS84 8.174796129004008 : SURFACE LONGITUDE
DATUM.F                   nan : DEPTH DATUM ELEV
~Curve Information -----------------------------------------
DEPT   .FT    : 
DPHZ_LS.DEC   : HGRD STANDARD RESOLUTION DENSITY POROSITY
DTCO   .US/F  : DELTA-T COMPRESSIONAL
DTSM   .US/F  : DELTA-T SHEAR
HCALD  .IN    : HRCC CALIPER CALIBRATED FROM DENSITY LOG
HCGR   .GAPI  : HNGS COMPUTED GAMMA RAY
HCGRD  .GAPI  : HNGS COMPUTED GAMMA RAY FROM DENSITY LOG
PEFZ   .B/E   : HRDD STANDARD RESOLUTION FORMATION PHOTOELECTRIC FACTOR
RHOZ   .G/C3  : HRDD STANDARD RESOLUTION FORMATION DENSITY
RLA3   .OHMM  : APPARENT RESISTIVITY FROM COMPUTED FOCUSING MODE 3
RLA5   .OHMM  : APPARENT RESISTIVITY FROM COMPUTED FOCUSING MODE 5
RXOZ   .OHMM  : INVADED FORMATION RESISTIVITY FILTERED AT 18 INCHES
TNPH_LS.DEC   : THERMAL NEUTRON POROSITY [LIMESTONE]
~Params ----------------------------------------------------
~Other -----------------------------------------------------
~ASCII -----------------------------------------------------
# ...
 10754.50000    0.08280   60.29360  100.93360    8.58640   24.49060   24.64730    3.63720    2.57520 1043.37940 4053.09440  144.95010    0.07190
 10755.00000    0.08200   60.15490  100.63200    8.54940   22.11630   22.37740    3.61490    2.58430 1188.52460 5540.28590  130.77360    0.06300
 10755.50000    0.07920   59.70110  100.39260    8.58810   20.55390   18.68700    3.70450    2.59350 1082.88190 7660.04410  173.64440    0.05520
 10756.00000    0.07090   59.24720  100.24260    8.58620   19.68520   18.40710    3.81110    2.60270 1005.55250 4653.08510  215.09330    0.06010
 10756.50000    0.06760   58.67150   99.70020    8.58430   19.42060   19.53930    3.79820    2.60270 1070.15390 3755.31260  217.26670    0.06590
 10757.00000    0.06980   57.76630   99.05030    8.58240   19.27700   19.34170    3.73770    2.59740 1024.68150 5098.26680  161.46660    0.06970
 10757.50000    0.07960   56.74280   98.61950    8.58050   17.98590   17.20410    3.76120    2.58860  978.27750 3830.56440  134.01410    0.07130
 10758.00000    0.07860   55.74740   98.11840    8.58230   16.47680   14.79060    3.78470    2.58860 1046.99550 5736.21780  127.94470    0.05700
 10758.50000    0.06740   54.61750   97.50870    8.58650   13.32240   12.76290    3.90810    2.59690 1193.23330 9344.88350  154.08470    0.04410
 10759.00000    0.05650   53.99960   96.04650    8.58280   10.49610   10.19890    4.05910    2.61260 1212.78650 6781.48310  175.45860    0.03540
 10759.50000    0.04590   52.90200   95.40200    8.59380    8.16680    8.70330    4.20020    2.62840 1382.00860 19179.10220  292.71420    0.02130
 10760.00000    0.03350   52.30040   95.06660    8.60110    7.43910    7.33360    4.34750    2.64560 1376.40540 30633.97830  284.85190    0.00970
 10760.50000    0.02530   52.20710   94.11710    8.60840    7.10680    6.27680    4.52710    2.66390 1366.53040 27237.15750  197.86750    0.00720
 10761.00000    0.01570   52.06990   93.86910    8.60730    6.77460    6.35220    4.63180    2.68210 1356.65540 75260.92260  179.17680    0.00630
 10761.50000    0.00920   51.97720   93.54710    8.57940    6.78210    6.84810    4.71200    2.69670 1360.84190 30428.72270  205.92280    0.00590
 10762.00000    0.01170   51.97310   93.33830    8.59180    8.14860    8.13810    4.73660    2.69670 1260.88220 51267.50380  224.40880    0.00970
 10762.50000    0.02270   52.07190   93.75220    8.59650   10.04010    9.37930    4.73410    2.68370 1284.98570 29836.65350  203.66440    0.01340
 10763.00000    0.03820   52.17480   93.96490    8.59440    9.79650   10.58790    4.73410    2.66370 1312.71250 98357.24830  191.53820    0.01750
 10763.50000    0.04650   52.06490   94.49150    8.59220    8.57720    9.49070    4.73400    2.64370 1312.71250 67971.80170  192.78170    0.01650
 10764.00000    0.04500   52.16990   94.60590    8.59010    8.02480    8.32140    4.74410    2.63730 1312.71250 36276.14930  151.23860    0.01270
 10764.50000    0.04160   52.16040   94.02880    8.58800    7.93850    8.24830    4.79440    2.64190 1302.70900 98490.54830  128.25620    0.01110
 10765.00000    0.03650   52.66220   94.22500    8.57940    7.93850    8.24830    4.83270    2.64750 1277.44730 22119.81350  154.26520    0.01260
 10765.50000    0.03400   53.22440   94.28930    8.59300    8.53150    8.96210    4.87010    2.65460 1228.39730 39859.55250  252.75420    0.01330
 10766.00000    0.02310   53.64240   94.25100    8.60840    9.92560    9.85420    4.87230    2.66590 1117.53440 15307.67850  183.02500    0.01280
 10766.50000    0.01550   53.95200   94.21270    8.61310   10.95240   10.46930    4.85340    2.67840  880.95970 19554.36520   15.66830    0.01170
 10767.00000    0.00930   54.37290   94.83800    8.61780   11.97930   11.89760    4.64480    2.69090 2000.00000 36742.77000   14.05320    0.01480
 10767.50000    0.02230   54.77230   95.77300    8.60140   14.52110   14.09720    4.30920    2.69580 1664.71520 10641.68280   30.21390    0.02380
 10768.00000    0.03520   55.17770   95.50350    8.61320   18.37970   19.28300    3.90700    2.67620  826.50350 2000.00000  105.96660    0.03280
 10768.50000    0.04430   55.69830   95.38330    8.60680   21.45680   21.60100    3.56960    2.65660  316.19540  357.92310  159.20120    0.04170
 10769.00000    0.04960   56.15820   96.33490    8.62540   19.39380   20.11610    3.45290    2.63710  394.02540  397.99280  168.18900    0.04440
 10769.50000    0.04880   56.98140   96.77520    8.64390   16.21830   14.99700    3.62600    2.63090  764.30520 1943.87180  138.50640    0.03880
 10770.00000    0.04830   57.28310   96.99780    8.58540   12.75220   12.64960    3.74750    2.63360 1078.14090 8785.26350  104.92660    0.03360
 10770.50000    0.04690   57.37880   97.85430    8.54930   10.30900   10.52280    3.81900    2.63520 1201.36360 14022.47250  114.97210    0.02840
 10771.00000    0.05330   57.74040   98.86920    8.56700   11.32910   10.81710    3.90780    2.62480 1201.79730 11978.28560  182.26780    0.03310
 10771.50000    0.06150   57.77720   98.53800    8.58470   11.66610   11.19960    4.03870    2.61360 1202.19080 17868.66890  293.47980    0.04020
 10772.00000    0.06690   57.82180   98.11210    8.59590   11.02070   11.58220    4.04910    2.60500 1225.12570 19012.40720  378.21580    0.04490
 10772.50000    0.06520   57.86630   98.67780    8.60050    9.14440    9.71440    4.12190    2.60500 1263.13640 66012.72580  285.10010    0.04370
 10773.00000    0.06040   57.84220   99.18560    8.58740    8.27650    8.37830    4.15800    2.60940 1301.14710 24101.26740  212.90160    0.04010
 10773.50000    0.06200   57.88010   98.57850    8.57440    8.68460    8.67160    4.14090    2.61360 1309.09460 62920.22700  193.26040    0.03950
 10774.00000    0.06350   57.70480   99.92570    8.58300    9.51010    8.75590    4.19140    2.61020 1239.31780 15072.95960  196.81850    0.04090
 10774.50000    0.06000   57.50160   99.15890    8.58640    9.55560    8.84020    4.28880    2.61020 1204.65230 24125.01010  235.80190    0.04230
 10775.00000    0.05360   57.22140   98.62260    8.58640    9.99340    8.92460    4.37140    2.61900 1327.79460 36676.01500  254.00390    0.03930
 10775.50000    0.04900   57.50910   99.38870    8.58640   10.34370   10.14590    4.33550    2.62920 1170.33610 13179.90520  131.11000    0.03770
 10776.00000    0.04810   57.60910   99.17030    8.58640   10.84450   11.31250    4.21420    2.63260 1328.65790 15526.41450   75.54920    0.03640
 10776.50000    0.04640   57.39620   99.08710    8.59820   10.94340   11.36020    4.11960    2.63160 1469.40810 12161.58040   90.73860    0.03940
 10777.00000    0.05010   57.33510   98.96360    8.58470   11.56430   11.60300    4.13110    2.62600 1171.54470 15606.87400  158.78680    0.04250
 10777.50000    0.05540   57.57790   99.26410    8.58470   12.28380   11.84580    4.13970    2.62290 1259.70830 18320.26450  198.86160    0.04170
 10778.00000    0.05380   57.85920   99.05920    8.58470   11.74520   11.57540    4.08340    2.62360 1207.45910 11205.39640  179.95420    0.03890
 10778.50000    0.04780   58.20590   98.95600    8.58470   11.20660   11.28000    3.91710    2.63070  916.23080 3467.37520  209.54440    0.03610
 10779.00000    0.04280   58.08390   99.87690    8.58470   11.03050   11.43410    3.77110    2.64240  541.88900  594.81770  199.99260    0.03330
 10779.50000    0.05590   58.07190   99.75660    8.58910   13.52070   13.13020    3.81650    2.62750  672.17210  373.70400  209.65700    0.04450
 10780.00000    0.07100   57.68640   99.25090    8.60160   15.03510   15.37610    4.03010    2.60280 1057.15230 1999.79050  246.04330    0.06310
 10780.50000    0.08610   57.30090   99.28970    8.61800   16.54960   17.13470    4.24370    2.57800 1179.11220 12085.37190  299.50270    0.06720
 10781.00000    0.07160   57.20490   99.27730    8.59710   16.54960   16.17220    4.45720    2.58410 1143.26000 10031.60090  226.33810    0.06010
 10781.50000    0.05630   57.02680   99.44170    8.59030   14.52190   14.32430    4.58870    2.61180 1037.31650 5544.16350  163.75050    0.04820
