~Version ---------------------------------------------------
VERS.   2.0 : CWLS log ASCII Standard -VERSION 2.0
WRAP.    NO : One line per depth step
DLM . SPACE : Column Data Section Delimiter
~Well ------------------------------------------------------
STRT .FT                200.0 : START DEPTH
STOP .FT              12037.0 : STOP DEPTH
STEP .FT                  0.5 : STEP
NULL .               -9999.25 : NULL VALUE
COMP .                        : COMPANY
WELL .                        : WELL
FLD  .                        : FIELD
LOC  .                        : LOCATION
PROV .                        : PROVINCE
CNTY .                        : COUNTY
STAT .                        : STATE
CTRY .                        : COUNTRY
SRVC .                        : SERVICE COMPANY
DATE .                        : DATE
UWI  .                        : UNIQUE WELL ID
API  .                        : API NUMBER
SLAT .WGS84 2.772362038108895 : SURFACE LATITUDE
SLON .WGS84 8.174796129004008 : SURFACE LONGITUDE
DATUM.F                   nan : DEPTH DATUM ELEV
~Curve Information -----------------------------------------
DEPT   .FT    : 
DPHZ_LS.DEC   : HGRD STANDARD RESOLUTION DENSITY POROSITY
DTCO   .US/F  : DELTA-T COMPRESSIONAL
DTSM   .US/F  : DELTA-T SHEAR
HCALD  .IN    : HRCC CALIPER CALIBRATED FROM DENSITY LOG
HCGR   .GAPI  : HNGS COMPUTED GAMMA RAY
HCGRD  .GAPI  : HNGS COMPUTED GAMMA RAY FROM DENSITY LOG
PEFZ   .B/E   : HRDD STANDARD RESOLUTION FORMATION PHOTOELECTRIC FACTOR
RHOZ   .G/C3  : HRDD STANDARD RESOLUTION FORMATION DENSITY
RLA3   .OHMM  : APPARENT RESISTIVITY FROM COMPUTED FOCUSING MODE 3
RLA5   .OHMM  : APPARENT RESISTIVITY FROM COMPUTED FOCUSING MODE 5
RXOZ   .OHMM  : INVADED FORMATION RESISTIVITY FILTERED AT 18 INCHES
TNPH_LS.DEC   : THERMAL NEUTRON POROSITY [LIMESTONE]
~Params ----------------------------------------------------
~Other -----------------------------------------------------
~ASCII -----------------------------------------------------
# ...
 8684.00000    0.01080   51.26650   93.99880    8.79400   11.15690   10.35980    5.10670    2.69210  672.82640 1553.08950  220.12740    0.02850
 8684.50000    0.01060   51.10660   93.72010    8.79330    8.97180    8.66360    5.11870    2.69260  739.41750 2266.74580  161.79530    0.02150
 8685.00000    0.00560   51.26040   93.61530    8.79250    6.78660    6.28370    5.13340    2.70580  739.41750 2248.40320  137.11740    0.01760
 8685.50000    0.00470   52.21920   94.86840    8.79330    5.71760    5.57520    5.12690    2.70430  739.41750 2185.06370  173.08780    0.01460
 8686.00000    0.00740   53.44300   96.12980    8.79510    6.08070    6.02200    5.12690    2.69700  876.96610 2375.94100  224.37260    0.01620
 8686.50000    0.01130   55.14280   96.93530    8.78730    9.91130    9.74040    5.03950    2.68970  876.96610 2452.59910  304.36710    0.02020
 8687.00000    0.01970   56.75440   98.99510    8.77730   14.54130   14.37620    4.89510    2.66810  772.78290 2133.94280  222.90610    0.02810
 8687.50000    0.04270   58.75480  101.51100    8.77130   29.60730   34.73960    4.67100    2.63860  308.94790  348.43630   53.45130    0.05470
 8688.00000    0.06640   60.75530  104.76180    8.78550   43.43410   46.24520    4.41620    2.59200  228.48050  218.43670   15.13320    0.10920
 8688.50000    0.08000   63.71330  106.68860    8.76860   49.60340   50.88470    4.23710    2.58280  284.24980  344.39100   15.99920    0.14130
 8689.00000    0.08140   66.92510  108.41970    8.77630   51.19230   50.82000    4.11960    2.57880  377.19860  587.15920   29.49110    0.18060
 8689.50000    0.07640   68.64680  109.92360    8.77990   51.51610   52.00970    3.89210    2.58860  350.02600  567.28720  263.40850    0.16220
 8690.00000    0.07760   69.39250  111.54970    8.78340   54.33730   54.67990    3.66460    2.58300  195.09820  254.45740  193.97060    0.16870
 8690.50000    0.08540   69.27590  111.66290    8.77980   57.15890   58.04390    3.49860    2.57400  188.94130  243.05170  157.03970    0.17700
 8691.00000    0.09070   68.24670  111.01390    8.75080   58.33270   57.97000    3.37930    2.56510  293.35750  328.31900  127.80780    0.16940
 8691.50000    0.09380   66.01880  111.94610    8.74540   57.95460   57.96200    3.36510    2.55900  296.95320  379.17720  128.14540    0.16120
 8692.00000    0.09890   64.40790  109.94100    8.75330   58.26290   59.98700    3.47090    2.54950  246.91730  260.40990  144.43750    0.15280
 8692.50000    0.10130   62.60560  108.76040    8.75790   54.97890   56.87500    3.73570    2.54760  266.22900  317.24920  168.95180    0.15550
 8693.00000    0.09330   60.35070  106.89420    8.76260   42.52900   38.87010    4.11490    2.56900  391.13920  433.61600  208.68480    0.10800
 8693.50000    0.05700   58.15310  104.91140    8.76720   26.03170   22.69890    4.48690    2.60930  810.26750 1965.89110  186.93020    0.06530
 8694.00000    0.03470   56.91560  103.20520    8.77190   11.38300   10.88930    4.75080    2.66220  973.46060 4178.94540  143.42090    0.02700
 8694.50000    0.02070   56.37760  101.87380    8.75420    8.61110    8.56920    4.85110    2.69210  874.01060 5367.42820  143.42090    0.01970
 8695.00000    0.01620   56.54420  102.50290    8.74470   14.91170   12.39780    4.85700    2.68710  477.13950 2000.00000  135.85480    0.03020
 8695.50000    0.01850   57.33470   99.21590    8.74720   17.68320   17.27980    4.80730    2.68000  225.85330  232.45910  190.13310    0.04590
 8696.00000    0.02340   57.88370  101.65120    8.74360   23.27860   25.68190    4.71660    2.67050  443.57930  872.62760  233.63870    0.06450
 8696.50000    0.03500   58.77490  103.52180    8.74000   29.28500   30.37100    4.59770    2.64580  622.28230 1242.37630  243.89460    0.07200
 8697.00000    0.05430   60.07330  102.95910    8.73630   33.41530   40.09950    4.40510    2.60390  520.82100  952.98600  151.59120    0.10170
 8697.50000    0.07520   60.82430  103.74520    8.73270   50.25780   51.87640    4.15270    2.58290  298.99490  374.21480   50.54800    0.14240
 8698.00000    0.08130   61.53410  104.52860    8.72910   52.72890   54.83530    4.09270    2.57940  119.65930  100.98610   51.99220    0.18540
 8698.50000    0.06630   62.34420  104.60960    8.72550   40.94830   43.78260    4.25600    2.60750  330.82690  454.33940   67.12320    0.13860
 8699.00000    0.04600   63.12180  105.44290    8.72190   27.89870   30.71360    4.39450    2.63720  739.42970 1711.46830  309.14920    0.09320
 8699.50000    0.02490   63.63170  104.90590    8.71830   22.68970   22.13300    4.47900    2.66690  623.16250  680.00060  341.44770    0.07660
 8700.00000    0.02040   63.26610  104.88160    8.71700   25.82850   24.51500    4.35130    2.65430  430.91110  579.04200  291.32650    0.07940
 8700.50000    0.04710   62.59060  105.03790    8.72510   34.62430   35.20950    4.10450    2.62340  446.71770  613.24590  241.20540    0.09370
 8701.00000    0.06290   61.84370  105.02460    8.71940   46.46340   44.99080    3.81460    2.59250  355.02020  506.09360  196.89390    0.10790
 8701.50000    0.08730   61.35640  105.08450    8.73940   58.02790   58.33810    3.59750    2.56770  181.24310  204.43600  155.34920    0.12210
 8702.00000    0.08510   60.60900  103.11330    8.73860   53.31220   58.03820    3.68680    2.57820  203.43290  223.65120  157.57260    0.15950
 8702.50000    0.06280   59.30890  102.03870    8.73650   39.62110   41.29160    3.96940    2.60780  275.88720  724.58680  198.46130    0.12470
 8703.00000    0.04360   57.71230  102.22800    8.73440   25.53390   24.54500    4.28730    2.63550  721.21470 2000.00000  218.04520    0.08150
 8703.50000    0.02900   55.28730  101.14260    8.73230   15.77920   16.04670    4.69420    2.65600  657.97810 1730.13640  178.20180    0.03830
 8704.00000    0.02020   53.30240   99.20190    8.73020   12.82930   12.72500    4.91420    2.68010  369.84710  475.03340  186.41170    0.03740
 8704.50000    0.01050   52.57240   96.58460    8.73940   11.88370   11.14900    5.12000    2.69520  566.92800 1413.06440  180.40760    0.04170
 8705.00000   -0.00090   51.93700   94.76450    8.74480   10.13410    8.98500    5.28530    2.71020  764.00890 1457.06280  197.89710    0.03080
 8705.50000   -0.00490   51.31830   93.63000    8.73880    8.67770    8.43070    5.36500    2.71920  961.08980 2000.00000  158.55370    0.01790
 8706.00000   -0.00040   50.80590   92.85260    8.73290    8.96100    9.09130    5.36880    2.71070  824.21970 4397.29810  188.81790    0.01270
 8706.50000    0.00730   50.74760   93.68290    8.72690   10.05980   10.28890    5.28240    2.70010  779.47030 2014.46630  149.83800    0.01300
 8707.00000    0.01400   50.79900   93.40640    8.72260   11.44610   11.74430    5.19600    2.69320  976.49800 2445.61680  169.63750    0.01550
 8707.50000    0.01580   51.21730   93.05870    8.72080   12.18990   12.98280    5.11530    2.68620  719.41930  974.53610  233.93090    0.01850
 8708.00000    0.01430   51.57670   93.90270    8.72020   12.93380   14.22120    5.11540    2.68340  668.50600 1039.31520  322.19760    0.01940
 8708.50000    0.01810   51.58340   94.34030    8.72440   13.39900   13.27480    5.18130    2.68050  878.96770 1695.58510  339.85090    0.01790
 8709.00000    0.01950   51.63370   94.06550    8.72860   12.74980   12.97560    5.19250    2.67820  770.28320 2000.00000  187.92510    0.01890
 8709.50000    0.02100   51.79600   94.10100    8.72260   13.44870   14.12540    5.15330    2.67890  488.87650  606.43190  131.04110    0.02290
 8710.00000    0.01800   51.79110   94.53010    8.72130   14.48480   14.25310    5.02170    2.68250  556.14710  606.49060  151.85260    0.02700
 8710.50000    0.01380   51.77100   94.15290    8.72250   14.69680   14.38080    5.02400    2.68610  733.10170 1251.27910  229.93950    0.02940
 8711.00000    0.01180   51.89040   94.38960    8.72850   15.11960   14.50850    5.02120    2.68970  499.95650  763.42290  343.86450    0.02830
 8711.50000    0.01060   52.05200   94.42420    8.72850   15.27400   14.31720    4.99500    2.69330  727.08610 1793.46700  258.10440    0.02660
