~Version ---------------------------------------------------
VERS.   2.0 : CWLS log ASCII Standard -VERSION 2.0
WRAP.    NO : One line per depth step
DLM . SPACE : Column Data Section Delimiter
~Well ------------------------------------------------------
STRT .FT                200.0 : START DEPTH
STOP .FT              12037.0 : STOP DEPTH
STEP .FT                  0.5 : STEP
NULL .               -9999.25 : NULL VALUE
COMP .                        : COMPANY
WELL .                        : WELL
FLD  .                        : FIELD
LOC  .                        : LOCATION
PROV .                        : PROVINCE
CNTY .                        : COUNTY
STAT .                        : STATE
CTRY .                        : COUNTRY
SRVC .                        : SERVICE COMPANY
DATE .                        : DATE
UWI  .                        : UNIQUE WELL ID
API  .                        : API NUMBER
SLAT .WGS84 2.772362038108895 : SURFACE LATITUDE
SLON .WGS84 8.174796129004008 : SURFACE LONGITUDE
DATUM.F                   nan : DEPTH DATUM ELEV
~Curve Information -----------------------------------------
DEPT   .FT    : 
DPHZ_LS.DEC   : HGRD STANDARD RESOLUTION DENSITY POROSITY
DTCO   .US/F  : DELTA-T COMPRESSIONAL
DTSM   .US/F  : DELTA-T SHEAR
HCALD  .IN    : HRCC CALIPER CALIBRATED FROM DENSITY LOG
HCGR   .GAPI  : HNGS COMPUTED GAMMA RAY
HCGRD  .GAPI  : HNGS COMPUTED GAMMA RAY FROM DENSITY LOG
PEFZ   .B/E   : HRDD STANDARD RESOLUTION FORMATION PHOTOELECTRIC FACTOR
RHOZ   .G/C3  : HRDD STANDARD RESOLUTION FORMATION DENSITY
RLA3   .OHMM  : APPARENT RESISTIVITY FROM COMPUTED FOCUSING MODE 3
RLA5   .OHMM  : APPARENT RESISTIVITY FROM COMPUTED FOCUSING MODE 5
RXOZ   .OHMM  : INVADED FORMATION RESISTIVITY FILTERED AT 18 INCHES
TNPH_LS.DEC   : THERMAL NEUTRON POROSITY [LIMESTONE]
~Params ----------------------------------------------------
~Other -----------------------------------------------------
~ASCII -----------------------------------------------------
# ...
 7844.00000    0.11330   66.74140  115.69850    8.93940   46.73200   46.82780    2.61860    2.53460    5.18540    4.03840    5.54430    0.12410
 7844.50000    0.10190   66.55440  114.97970    8.93940   45.42280   45.29710    2.69070    2.55590    7.99240    6.44680    9.09590    0.11310
 7845.00000    0.09340   66.55440  114.26100    8.93940   47.28080   44.99090    2.74220    2.55690    8.48740    7.55150   12.07920    0.09690
 7845.50000    0.09960   66.55260  114.24670    8.93940   49.13890   48.29030    2.74470    2.54540    5.77480    5.97540    6.34330    0.09230
 7846.00000    0.10990   66.57550  114.25920    8.95320   51.09440   51.95400    2.71800    2.52680    3.53040    4.39930    3.23200    0.10430
 7846.50000    0.11900   66.75220  114.25370    8.99930   53.90160   54.44560    2.64500    2.51360    3.34360    3.67360    3.23040    0.11630
 7847.00000    0.12480   67.40560  113.91790    8.99930   53.74220   53.85700    2.57210    2.50970    3.45280    3.68450    3.35200    0.12640
 7847.50000    0.12630   67.96650  115.27040    8.99440   53.58270   53.16800    2.53820    2.50440    3.49890    3.69540    3.50460    0.13040
 7848.00000    0.12990   68.30040  116.09670    9.00550   52.03550   51.84040    2.54610    2.49590    3.46260    3.69170    3.44500    0.13310
 7848.50000    0.13470   68.44410  116.73570    8.99090   51.06210   50.80500    2.55580    2.49360    3.42140    3.65550    3.38540    0.14290
 7849.00000    0.13610   68.47720  117.47080    8.99360   51.71900   51.86410    2.56400    2.49750    3.38010    3.61930    3.36070    0.14650
 7849.50000    0.12600   68.47620  118.34290    8.99930   52.33150   52.92360    2.58860    2.50520    3.76200    3.82370    3.46310    0.14070
 7850.00000    0.11480   68.44410  117.90430    9.00500   52.94400   53.46530    2.58230    2.51540    4.46190    4.38870    5.05550    0.13480
 7850.50000    0.11510   68.41080  117.47480    9.01930   53.55650   52.87470    2.59950    2.52380    4.17600    4.09430    4.92700    0.13080
 7851.00000    0.11890   68.45730  117.51330    9.00360   52.65780   52.01490    2.61880    2.51530    3.69930    3.58160    3.60790    0.13080
 7851.50000    0.12830   68.40440  117.37820    9.01420   51.14950   51.05470    2.61830    2.50440    3.45370    3.41680    3.63560    0.13130
 7852.00000    0.13290   68.40070  117.05660    8.99990   51.23080   51.29040    2.61790    2.49650    3.55470    3.48420    3.70510    0.13260
 7852.50000    0.13450   68.39700  116.88060    8.99630   53.31010   52.76150    2.61740    2.49130    3.63550    3.52800    3.58470    0.13680
 7853.00000    0.13690   68.39330  116.70460    9.00440   55.62400   54.15000    2.61700    2.48960    3.51330    3.47740    3.57310    0.14230
 7853.50000    0.13510   68.28850  116.60360    8.99350   55.64910   55.10520    2.61090    2.49330    3.49480    3.42690    3.66740    0.14290
 7854.00000    0.13140   68.26710  116.89200    8.99480   54.32150   54.27540    2.59290    2.49720    3.48740    3.37640    3.64260    0.14010
 7854.50000    0.13040   68.18130  116.46800    8.99760   53.97740   53.97800    2.58860    2.50000    3.75720    3.71480    3.98990    0.14100
 7855.00000    0.12900   68.16560  116.32870    9.00030   54.25270   55.57080    2.58860    2.50270    3.96890    4.05320    4.26770    0.13630
 7855.50000    0.12770   68.16760  116.44380    8.99430   54.46880   54.79970    2.58860    2.50520    3.98930    4.12090    4.18920    0.13420
 7856.00000    0.12540   68.16950  116.70490    8.99260   54.19030   53.96140    2.56630    2.50710    3.83070    3.87090    4.03120    0.13430
 7856.50000    0.12560   68.27890  116.70660    9.02150   53.69940   53.49230    2.56130    2.50540    3.67210    3.62090    3.87330    0.13210
 7857.00000    0.12820   68.28440  116.66940    9.01600   54.22680   54.20640    2.55870    2.50280    3.51350    3.37090    3.71540    0.13320
 7857.50000    0.13070   68.29000  116.81900    8.99890   53.44580   53.16080    2.58120    2.49950    3.35480    3.12090    3.55750    0.13070
 7858.00000    0.13260   68.33410  117.02560    8.99540   52.32620   51.72610    2.58510    2.49400    3.19620    2.91640    3.39950    0.12830
 7858.50000    0.13600   68.39800  117.23210    8.99910   51.20650   52.05310    2.57650    2.49040    3.03760    2.95490    3.28780    0.12660
 7859.00000    0.13880   68.49360  117.27350    9.00270   52.16440   53.09360    2.56800    2.48780    3.00590    3.02130    3.26560    0.12760
 7859.50000    0.13670   68.49570  117.46900    9.00640   53.93670   54.13420    2.55940    2.48840    3.04050    3.08770    3.29590    0.13700
 7860.00000    0.13200   68.53300  117.63980    9.01000   53.67650   53.67920    2.55820    2.49750    3.12690    3.15410    3.48990    0.13890
 7860.50000    0.13060   68.53340  117.67610    9.01370   53.68410   53.65690    2.55900    2.49730    3.21330    3.22060    3.67330    0.13410
 7861.00000    0.13180   68.53380  117.76950    9.01580   54.17470   54.76060    2.58860    2.49580    3.26510    3.24710    3.71380    0.12820
 7861.50000    0.13500   68.58820  117.93690    9.01080   54.56720   55.25060    2.58860    2.49560    3.24830    3.21390    3.54940    0.12520
 7862.00000    0.13230   68.66230  117.76250    9.01610   54.13930   54.05880    2.56930    2.49500    3.16390    3.13070    3.38490    0.12830
 7862.50000    0.13300   68.73050  117.95390    9.00980   52.35240   52.28590    2.55840    2.49210    3.07960    3.04750    3.22040    0.13130
 7863.00000    0.13850   68.64820  117.74850    9.02940   51.31780   50.75510    2.55980    2.48710    2.99530    2.96430    3.13040    0.13170
 7863.50000    0.14250   68.54450  117.66250    9.02270   50.97020   48.98030    2.58150    2.48340    2.97840    2.96030    3.15210    0.12730
 7864.00000    0.14070   68.18760  118.32880    9.02400   50.62250   49.27160    2.58480    2.48680    3.11330    3.08520    3.38790    0.12500
 7864.50000    0.13740   68.05170  117.79960    9.03170   50.69640   49.74730    2.57540    2.49250    3.23060    3.20480    3.67730    0.12780
 7865.00000    0.13200   67.98220  117.61560    9.03930   50.09640   50.39000    2.56590    2.49920    3.34790    3.32430    3.71930    0.13250
 7865.50000    0.12670   67.91890  117.11110    9.03930   48.02970   48.14040    2.55840    2.50580    3.46510    3.44380    3.76130    0.13620
 7866.00000    0.12460   67.94950  116.66210    9.01710   46.04960   45.89090    2.58250    2.51240    3.58240    3.56330    3.90470    0.13170
 7866.50000    0.12320   67.74060  116.45390    8.99490   44.25580   43.79130    2.58530    2.51380    3.69970    3.64790    4.15040    0.12050
 7867.00000    0.12370   67.55530  116.57240    8.97270   44.33220   44.03830    2.58410    2.50930    3.85770    3.68020    4.43990    0.12140
 7867.50000    0.12780   67.52910  116.64350    8.95940   44.11050   45.27330    2.58360    2.50310    3.93180    3.69960    4.15670    0.12550
 7868.00000    0.13080   67.53070  116.46790    8.93940   45.54920   46.50840    2.56340    2.50000    3.69700    3.63500    3.90720    0.12960
 7868.50000    0.13000   67.43850  116.53970    8.95440   47.15660   47.74350    2.54620    2.49980    3.60540    3.55420    3.65770    0.13130
 7869.00000    0.12940   67.58230  116.94180    8.97310   48.42090   48.29040    2.53820    2.49960    3.51380    3.47340    3.53840    0.12800
 7869.50000    0.13010   67.78700  117.10530    8.99190   47.97110   47.93590    2.53820    2.49940    3.64970    3.59920    3.68640    0.12480
 7870.00000    0.13100   67.87950  117.51420    8.99940   47.47140   47.79950    2.53420    2.49940    3.77600    3.71600    3.82800    0.12410
 7870.50000    0.13090   67.91980  117.01550    8.99930   47.37150   47.86180    2.52410    2.49940    3.90240    3.83280    3.96960    0.12640
 7871.00000    0.13070   67.92500  116.81960    8.98650   47.73160   48.71880    2.51410    2.49940    4.02880    3.94960    4.11120    0.12920
 7871.50000    0.13110   68.01250  117.08670    8.96510   48.69680   49.57570    2.52260    2.49940    4.15520    4.06640    4.19780    0.13200
