~Version ---------------------------------------------------
VERS.   2.0 : CWLS log ASCII Standard -VERSION 2.0
WRAP.    NO : One line per depth step
DLM . SPACE : Column Data Section Delimiter
~Well ------------------------------------------------------
STRT .FT                200.0 : START DEPTH
STOP .FT              12037.0 : STOP DEPTH
STEP .FT                  0.5 : STEP
NULL .               -9999.25 : NULL VALUE
COMP .                        : COMPANY
WELL .                        : WELL
FLD  .                        : FIELD
LOC  .                        : LOCATION
PROV .                        : PROVINCE
CNTY .                        : COUNTY
STAT .                        : STATE
CTRY .                        : COUNTRY
SRVC .                        : SERVICE COMPANY
DATE .                        : DATE
UWI  .                        : UNIQUE WELL ID
API  .                        : API NUMBER
SLAT .WGS84 2.772362038108895 : SURFACE LATITUDE
SLON .WGS84 8.174796129004008 : SURFACE LONGITUDE
DATUM.F                   nan : DEPTH DATUM ELEV
~Curve Information -----------------------------------------
DEPT   .FT    : 
DPHZ_LS.DEC   : HGRD STANDARD RESOLUTION DENSITY POROSITY
DTCO   .US/F  : DELTA-T COMPRESSIONAL
DTSM   .US/F  : DELTA-T SHEAR
HCALD  .IN    : HRCC CALIPER CALIBRATED FROM DENSITY LOG
HCGR   .GAPI  : HNGS COMPUTED GAMMA RAY
HCGRD  .GAPI  : HNGS COMPUTED GAMMA RAY FROM DENSITY LOG
PEFZ   .B/E   : HRDD STANDARD RESOLUTION FORMATION PHOTOELECTRIC FACTOR
RHOZ   .G/C3  : HRDD STANDARD RESOLUTION FORMATION DENSITY
RLA3   .OHMM  : APPARENT RESISTIVITY FROM COMPUTED FOCUSING MODE 3
RLA5   .OHMM  : APPARENT RESISTIVITY FROM COMPUTED FOCUSING MODE 5
RXOZ   .OHMM  : INVADED FORMATION RESISTIVITY FILTERED AT 18 INCHES
TNPH_LS.DEC   : THERMAL NEUTRON POROSITY [LIMESTONE]
~Params ----------------------------------------------------
~Other -----------------------------------------------------
~ASCII -----------------------------------------------------
# ...
 7004.00000    0.18900   74.07930  131.22090    8.84840   49.56980   50.04910    3.75000    2.40680    1.45860    1.48500    1.36670    0.16870
 7004.50000    0.19080   74.04340  131.56700    8.84860   49.68260   49.56410    3.71380    2.40320    1.41490    1.44270    1.33580    0.17740
 7005.00000    0.19090   74.01800  131.43010    8.84880   50.07490   49.78160    3.71070    2.40530    1.37120    1.40040    1.30490    0.18570
 7005.50000    0.19070   74.00930  131.77190    8.84890   51.81940   51.60770    3.74370    2.40650    1.32750    1.35810    1.28080    0.20320
 7006.00000    0.19400   73.98480  131.85580    8.84910   52.68910   52.30650    3.82950    2.39910    1.28380    1.31580    1.25660    0.19660
 7006.50000    0.19740   73.96070  131.91300    8.84930   53.16000   52.79850    3.93900    2.39170    1.24010    1.27350    1.23240    0.19010
 7007.00000    0.19700   73.95240  132.04600    8.84940   53.47940   53.29050    4.01750    2.39510    1.37880    1.40780    1.30290    0.18480
 7007.50000    0.19340   73.81600  132.10200    8.84960   53.79880   53.43310    4.01610    2.39840    1.48980    1.51520    1.39700    0.18430
 7008.00000    0.19400   73.72260  132.15810    8.84970   53.02910   52.81930    4.01160    2.39860    1.43700    1.46410    1.33560    0.18170
 7008.50000    0.19510   73.66170  132.21410    8.85040   53.29170   52.90850    3.97350    2.39690    1.37100    1.40010    1.34220    0.17410
 7009.00000    0.19460   73.66270  132.00390    8.85320   52.31290   52.31210    4.01630    2.39770    1.31810    1.34900    1.34220    0.16910
 7009.50000    0.18730   73.66370  131.71020    8.85600   51.58750   51.04550    4.08520    2.40380    1.31810    1.36410    1.35100    0.17040
 7010.00000    0.18140   73.66470  131.49560    8.85250   51.46730   51.57980    4.12820    2.42040    1.46430    1.49050    1.38170    0.17260
 7010.50000    0.17640   73.66570  131.36430    8.85910   51.34710   51.80200    4.15430    2.42320    1.65590    1.67590    1.52910    0.17870
 7011.00000    0.18000   73.66670  131.30760    8.87570   49.16230   49.34880    4.08230    2.42150    1.77090    1.78710    1.62730    0.17990
 7011.50000    0.18460   73.73020  131.27960    8.88740   46.40950   46.59300    3.93090    2.41230    1.43190    1.45910    1.24390    0.18360
 7012.00000    0.19060   73.79220  131.18280    8.89910   45.97810   43.80030    3.85820    2.40340    1.14640    1.18280    1.08020    0.18440
 7012.50000    0.19570   73.83190  131.36490    8.90330   45.54680   44.61380    3.82410    2.39690    1.30470    1.33610    1.29850    0.18220
 7013.00000    0.19810   73.96070  131.45440    8.90580   45.86440   45.96820    3.80110    2.39340    1.37360    1.40270    1.36990    0.17870
 7013.50000    0.19600   73.97190  131.65150    8.90820   46.49140   46.51050    3.77800    2.39400    1.33890    1.36910    1.35730    0.17590
 7014.00000    0.19420   74.06080  131.84850    8.91060   45.80960   46.21480    3.74210    2.39560    1.31810    1.34900    1.34470    0.17610
 7014.50000    0.19590   74.12760  132.01850    8.91300   46.44160   46.19050    3.69740    2.39530    1.32850    1.35910    1.33210    0.17620
 7015.00000    0.19750   74.14300  132.13840    8.91540   46.47610   46.87520    3.68870    2.39400    1.33890    1.36910    1.31950    0.17750
 7015.50000    0.19680   74.14430  132.22390    8.91780   46.53840   47.12360    3.68880    2.39460    1.34930    1.37920    1.30950    0.18190
 7016.00000    0.19490   74.19250  132.23630    8.92020   46.60070   46.61000    3.71790    2.39710    1.35970    1.38930    1.29310    0.18630
 7016.50000    0.19290   74.20700  132.25040    8.92130   46.25880   46.25180    3.74490    2.39950    1.37010    1.39940    1.29310    0.19060
 7017.00000    0.19340   74.21030  132.27170    8.92230   44.66680   45.68680    3.75400    2.40000    1.38060    1.40940    1.29310    0.18410
 7017.50000    0.19360   74.21350  132.17460    8.92400   45.50550   45.65800    3.71330    2.39930    1.38060    1.40940    1.29310    0.17760
 7018.00000    0.19410   74.27380  132.25850    8.92560   45.75760   44.62470    3.69490    2.39670    1.38220    1.41290    1.30950    0.18320
 7018.50000    0.19650   74.23370  132.32560    8.92730   44.60280   44.27450    3.69770    2.39340    1.38380    1.41630    1.30950    0.19330
 7019.00000    0.20020   74.45410  132.39840    8.92890   45.37750   44.40690    3.70050    2.38810    1.38540    1.41970    1.30420    0.19780
 7019.50000    0.20370   74.75200  132.45200    8.93050   46.98620   45.44130    3.68470    2.38580    1.38700    1.42320    1.29120    0.18940
 7020.00000    0.20150   74.52170  132.50570    8.93220   48.59490   47.91310    3.66940    2.38550    1.38860    1.42640    1.27820    0.17840
 7020.50000    0.20110   74.80580  132.50340    8.93380   49.58400   49.22680    3.68040    2.38650    1.38920    1.43110    1.26520    0.17400
 7021.00000    0.20210   74.66020  132.23220    8.93550   49.16140   49.29950    3.74760    2.38760    1.37360    1.43570    1.24620    0.17540
 7021.50000    0.19980   74.71770  132.39560    8.93710   49.71660   49.52300    3.85100    2.38990    1.38480    1.44040    1.31170    0.18260
 7022.00000    0.19720   75.05910  132.28950    8.93870   50.41170   49.74650    3.89810    2.39210    1.39590    1.44500    1.32810    0.18390
 7022.50000    0.19640   74.87490  132.05770    8.93170   51.10690   50.71360    3.96620    2.39430    1.40710    1.44970    1.32480    0.18350
 7023.00000    0.19510   74.87130  132.35970    8.92000   50.61510   50.72090    3.96360    2.39680    1.41830    1.45430    1.30850    0.18000
 7023.50000    0.19290   74.73310  132.41660    8.90830   48.93880   48.52430    3.89220    2.39920    1.39210    1.45710    1.29530    0.17420
 7024.00000    0.19260   74.54290  132.44320    8.89660   48.40160   46.76650    3.77890    2.39980    1.32820    1.40790    1.26580    0.17080
 7024.50000    0.19560   74.52970  132.52670    8.88500   48.30690   47.09730    3.69090    2.39690    1.26420    1.23040    1.22160    0.16970
 7025.00000    0.19720   74.45020  132.49810    8.87670   48.42530   47.51160    3.66400    2.39460    1.30100    1.32480    1.26260    0.17390
 7025.50000    0.19510   74.35820  132.39490    8.87370   48.54370   47.92600    3.63600    2.39560    1.39300    1.41930    1.29830    0.17700
 7026.00000    0.19320   74.20570  132.29160    8.87070   48.54050   48.36610    3.59440    2.39800    1.39070    1.41930    1.31320    0.17990
 7026.50000    0.19240   73.96290  131.82240    8.88590   47.92280   47.89510    3.54200    2.40030    1.35170    1.38150    1.32810    0.17550
 7027.00000    0.19220   73.35880  131.49520    8.87870   47.58560   47.57930    3.52630    2.40300    1.38290    1.41180    1.37730    0.17080
 7027.50000    0.18900   73.00490  130.87420    8.87730   46.95880   47.31960    3.51430    2.40650    1.53920    1.56300    1.42650    0.16710
 7028.00000    0.18460   72.60950  129.65340    8.86450   46.92310   47.45680    3.50740    2.41390    1.56420    1.58720    1.52480    0.16720
 7028.50000    0.17640   72.26610  128.78880    8.84870   46.88740   47.33970    3.50500    2.42660    1.70570    1.73290    1.65470    0.16730
 7029.00000    0.16580   71.92380  127.62950    8.83290   46.53370   46.42320    3.49200    2.44280    2.00470    2.04430    2.05820    0.16360
 7029.50000    0.15660   71.42970  125.73400    8.83470   45.36640   45.82120    3.47910    2.46380    2.43130    2.54320    2.46170    0.15960
 7030.00000    0.15110   71.12060  125.06090    8.84450   43.57510   43.73830    3.46610    2.46270    2.62520    2.77960    2.46170    0.15550
 7030.50000    0.15820   71.06200  124.46750    8.85170   43.47380   42.74140    3.42400    2.45350    2.54100    2.67690    2.46170    0.15210
 7031.00000    0.16720   70.98790  123.53890    8.85880   43.47380   43.05450    3.31220    2.44380    2.42080    2.50110    2.35920    0.14940
 7031.50000    0.16900   70.57540  122.68990    8.86600   47.27970   46.62270    3.22030    2.44020    2.15640    2.20800    1.57400    0.14850
