~Version ---------------------------------------------------
VERS.   2.0 : CWLS log ASCII Standard -VERSION 2.0
WRAP.    NO : One line per depth step
DLM . SPACE : Column Data Section Delimiter
~Well ------------------------------------------------------
STRT .F                6404.0 : START DEPTH
STOP .F                9957.0 : STOP DEPTH
STEP .F                   0.5 : STEP
NULL .               -9999.25 : NULL VALUE
COMP .                        : COMPANY
WELL .                        : WELL
FLD  .                        : FIELD
LOC  .                        : LOCATION
PROV .                        : PROVINCE
CNTY .                        : COUNTY
STAT .                        : STATE
CTRY .                        : COUNTRY
SRVC .                        : SERVICE COMPANY
DATE .                        : DATE
UWI  .                        : UNIQUE WELL ID
API  .                        : API NUMBER
SLAT .WGS84 2.329908992646601 : SURFACE LATITUDE
SLON .WGS84 4.975112136590994 : SURFACE LONGITUDE
DATUM.F                2139.5 : DEPTH DATUM ELEV
~Curve Information -----------------------------------------
DEPT.F     : 1 MEASURED DEPTH
DTST.US/F  : DELTA-T STONELEY - MONOPOLE STONELEY
DTCO.US/F  : DELTA-T COMPRESSIONAL
DTSM.US/F  : DELTA-T SHEAR
GRS .GAPI  : GAMMA RAY FROM SONIC LOG
~Params ----------------------------------------------------
~Other -----------------------------------------------------
~ASCII -----------------------------------------------------
# ...
 8048.50000  198.18950   46.66190   83.69580   15.60320
 8049.00000  198.15790   46.77100   81.88420   13.44110
 8049.50000  198.25640   46.18410   81.19680   13.42800
 8050.00000  198.86770   46.04260   82.08340   14.02300
 8050.50000  199.42400   45.91120   83.25720   14.61800
 8051.00000  199.46710   45.33180   84.43090   15.21300
 8051.50000  199.48330   45.20820   84.82370   15.80800
 8052.00000  199.61190   45.39730   83.84150   16.29040
 8052.50000  199.44050   46.06790   83.49950   15.97210
 8053.00000  199.12820   46.11970   84.27050   15.42260
 8053.50000  198.27360   46.09450   84.51570   16.03320
 8054.00000  198.21680   46.39770   85.49770   19.82760
 8054.50000  198.36110   46.87960   84.99150   23.62190
 8055.00000  199.33950   46.85690   84.24800   23.44130
 8055.50000  199.21480   46.48990   84.67110   22.70750
 8056.00000  197.85860   46.41820   83.42000   21.91830
 8056.50000  198.21680   45.95920   84.28710   22.35380
 8057.00000  198.34650   45.34870   84.76120   23.24300
 8057.50000  199.46610   45.14840   86.25040   24.40030
 8058.00000  198.70050   45.36670   88.46110   25.42990
 8058.50000  198.03980   46.03980   91.11930   24.78650
 8059.00000  198.14560   48.29940   91.68550   23.40430
 8059.50000  199.61090   49.32950   90.65360   22.02210
 8060.00000  199.21200   46.52130   87.69330   20.67770
 8060.50000  199.21440   45.26370   85.22300   19.34580
 8061.00000  199.54230   45.56450   84.86770   18.01390
 8061.50000  198.96730   48.02680   88.61560   16.68210
 8062.00000  197.90470   49.92880   92.26960   15.97300
 8062.50000  198.05290   49.41170   92.27050   17.42700
 8063.00000  199.20670   47.41600   90.86420   18.55810
 8063.50000  198.81330   47.07500   89.53840   16.85760
 8064.00000  198.34700   47.05590   92.39950   14.93510
 8064.50000  199.22870   47.05270   90.25240   15.94730
 8065.00000  198.79750   47.17240   85.70570   16.88870
 8065.50000  198.20630   47.45150   84.42530   16.85190
 8066.00000  198.18840   48.63480   85.79920   15.91060
 8066.50000  198.43670   49.66360   86.90640   14.78210
 8067.00000  199.25820   50.37280   87.45370   13.87920
 8067.50000  198.24360   49.68500   84.15500   13.64370
 8068.00000  198.20450   49.79360   85.81480   13.40830
 8068.50000  198.21070   49.84520   90.92600   12.77290
 8069.00000  198.21700   49.13440   91.02960   11.70340
 8069.50000  198.22330   48.40780   89.28340   10.08940
 8070.00000  198.22950   47.23010   89.09890   10.18500
 8070.50000  198.24020   45.81850   89.44760   10.45980
 8071.00000  198.37890   45.75990   88.44620   11.65680
 8071.50000  198.79470   47.18260   88.30430   12.86090
 8072.00000  199.13420   47.65810   87.24550   13.47650
 8072.50000  199.30600   46.07720   85.63800   13.80320
 8073.00000  199.34490   45.26730   83.30020   14.16740
 8073.50000  199.38390   45.95780   82.36000   14.25840
 8074.00000  199.42280   47.49290   82.81970   14.04950
 8074.50000  199.44860   50.11410   84.53400   12.87780
 8075.00000  199.42470   50.50950   87.31670   11.06270
 8075.50000  199.40090   49.83870   87.59910    8.85660
 8076.00000  199.37710   48.81810   86.32320    8.30040
 8076.50000  199.35330   47.69060   86.53850    8.72420
 8077.00000  199.32950   46.69840   87.17870   10.17890
 8077.50000  199.30570   46.29370   87.33620   11.63370
 8078.00000  199.26920   47.81930   88.39950   13.08850
 8078.50000  199.12280   52.51070   90.73610   15.13250
 8079.00000  197.99200   56.08860   91.88340   17.64200
 8079.50000  199.15480   56.73750   90.99710   19.33240
 8080.00000  199.28500   54.09510   89.33650   18.75910
 8080.50000  199.35440   49.79290   88.27230   17.62720
 8081.00000  199.47740   48.34990   87.78080   17.79520
 8081.50000  199.57010   49.47760   88.81390   18.16750
 8082.00000  199.23080   51.62360   90.61990   17.62100
 8082.50000  198.30740   52.76850   92.41070   16.12550
 8083.00000  201.35120   51.71950   92.87420   14.63010
 8083.50000  201.01330   50.59820   92.23320   13.23110
 8084.00000  199.19330   50.21050   90.51780   11.93210
 8084.50000  198.13040   50.80810   88.22520   12.35170
 8085.00000  197.54420   52.72070   90.16350   14.36290
 8085.50000  197.74570   60.43590  102.22030   16.90540
 8086.00000  196.60890   66.97260  112.73990   18.29910
 8086.50000  195.17230   62.57350  107.63740   18.17970
 8087.00000  197.33420   53.49160   94.42300   16.68400
 8087.50000  197.43190   47.11500   88.01590   15.61050
 8088.00000  198.76790   45.93380   84.36490   16.12450
 8088.50000  199.65500   45.56340   82.44270   18.62240
 8089.00000  199.46040   46.01930   83.29010   21.70840
 8089.50000  199.26060   46.98910   84.19070   23.62410
 8090.00000  199.60940   47.44630   84.70080   23.29810
 8090.50000  201.31830   47.85580   85.22140   19.64060
 8091.00000  202.11310   49.36520   87.51600   15.96820
 8091.50000  200.69640   50.52130   88.58890   13.68840
 8092.00000  198.36680   49.43500   84.87200   12.09040
 8092.50000  199.53950   49.65350   84.63410   12.90640
 8093.00000  199.06410   51.60150   88.12510   15.05360
 8093.50000  198.06340   56.54630   94.07450   17.25310
 8094.00000  198.83140   59.72760  103.36740   19.86690
 8094.50000  200.78390   56.32630  108.91820   22.03730
 8095.00000  202.00720   52.13760  106.98010   23.90200
 8095.50000  203.02500   51.90310  106.40320   23.41260
 8096.00000  202.82080   55.98500  108.50070   22.09300
 8096.50000  202.03490   59.46200  106.39430   23.45070
 8097.00000  201.02070   58.24150   97.88130   25.65480
 8097.50000  200.97050   56.91640   93.24470   25.47220
 8098.00000  199.88330   56.16650   90.27570   23.04920
 8098.50000  198.21590   54.64050   86.93430   19.49510
 8099.00000  198.22340   51.78540   84.88570   16.84750
 8099.50000  198.23100   48.25780   83.62410   15.03710
 8100.00000  198.23000   46.24460   83.76490   13.22660
 8100.50000  198.22570   46.93970   84.04640   11.48070
 8101.00000  198.22140   49.16910   84.47740    9.89810
 8101.50000  198.21710   52.83130   85.22730    9.21830
 8102.00000  198.21280   54.14460   84.11690   11.23220
 8102.50000  198.31910   54.09370   84.58260   16.30940
 8103.00000  198.95990   53.21230   86.31410   21.58480
 8103.50000  199.49210   52.24980   87.10280   25.20930
 8104.00000  199.55560   50.87050   86.57020   24.36940
 8104.50000  199.55790   49.40940   88.45530   17.47840
 8105.00000  199.55350   48.93140   90.86830   12.68750
 8105.50000  199.19790   48.56060   90.86180   10.29000
 8106.00000  198.42340   48.08060   88.91630   10.30230
 8106.50000  198.39490   47.21690   86.17880   11.19140
 8107.00000  199.35190   46.48300   84.30810   18.75080
 8107.50000  199.46050   47.83690   84.36340   28.98130
 8108.00000  198.81650   51.45800   86.94070   41.39040
 8108.50000  198.36790   56.16270   89.58830   43.09460
 8109.00000  198.45680   59.22140   90.14730   40.29950
 8109.50000  199.41070   60.39960   89.95310   28.92210
 8110.00000  199.79450   59.94370   89.72890   21.65940
 8110.50000  199.84190   59.04410   89.43390   15.68400
 8111.00000  199.46660   58.02360   90.68710   14.64620
 8111.50000  198.48160   56.64900   90.41800   14.24680
 8112.00000  197.04330   53.95110   89.12830   14.00580
 8112.50000  197.28720   50.05290   88.28560   13.78060
 8113.00000  198.00260   47.45650   86.31450   13.36200
 8113.50000  198.09910   46.03660   84.98340   12.65100
 8114.00000  198.08920   45.93320   87.09950   11.76590
 8114.50000   -9999.25   46.81870   90.93390   11.33300
 8115.00000   -9999.25   50.76600   96.53960   11.80460
 8115.50000   -9999.25   -9999.25   -9999.25   16.17840
 8116.00000   -9999.25   -9999.25   -9999.25   21.74240
 8116.50000   -9999.25   -9999.25   -9999.25   25.55940
 8117.00000   -9999.25   -9999.25   -9999.25   25.82310
 8117.50000   -9999.25   -9999.25   -9999.25   18.80400
 8118.00000  199.08430   48.43750   93.09490   13.20290
 8118.50000  201.52650   53.49720   97.67040   11.99530
 8119.00000  200.53540   53.95490   98.29870   11.31730
 8119.50000  200.13350   54.04330   98.14890   10.48630
