~Version ---------------------------------------------------
VERS.   2.0 : CWLS log ASCII Standard -VERSION 2.0
WRAP.    NO : One line per depth step
DLM . SPACE : Column Data Section Delimiter
~Well ------------------------------------------------------
STRT .F                6404.0 : START DEPTH
STOP .F                9957.0 : STOP DEPTH
STEP .F                   0.5 : STEP
NULL .               -9999.25 : NULL VALUE
COMP .                        : COMPANY
WELL .                        : WELL
FLD  .                        : FIELD
LOC  .                        : LOCATION
PROV .                        : PROVINCE
CNTY .                        : COUNTY
STAT .                        : STATE
CTRY .                        : COUNTRY
SRVC .                        : SERVICE COMPANY
DATE .                        : DATE
UWI  .                        : UNIQUE WELL ID
API  .                        : API NUMBER
SLAT .WGS84 2.329908992646601 : SURFACE LATITUDE
SLON .WGS84 4.975112136590994 : SURFACE LONGITUDE
DATUM.F                2139.5 : DEPTH DATUM ELEV
~Curve Information -----------------------------------------
DEPT.F     : 1 MEASURED DEPTH
DTST.US/F  : DELTA-T STONELEY - MONOPOLE STONELEY
DTCO.US/F  : DELTA-T COMPRESSIONAL
DTSM.US/F  : DELTA-T SHEAR
GRS .GAPI  : GAMMA RAY FROM SONIC LOG
~Params ----------------------------------------------------
~Other -----------------------------------------------------
~ASCII -----------------------------------------------------
# ...
 8549.00000  201.76930   46.88180   90.27330   20.14510
 8549.50000  199.55910   47.38870   89.68960   17.54370
 8550.00000  200.54000   48.01690   90.15370   14.86770
 8550.50000  203.07770   47.88460   89.22190   13.61830
 8551.00000  203.22620   47.41840   85.82460   13.61090
 8551.50000  204.27610   47.95780   85.21950   13.24670
 8552.00000  200.65170   50.40330   86.05750   12.74570
 8552.50000  197.66510   49.66430   85.37630   11.62550
 8553.00000  198.31050   46.88620   82.63590   10.80990
 8553.50000  199.90590   45.66500   84.06210   10.74190
 8554.00000  198.17370   45.40490   84.70360   11.89080
 8554.50000  197.11450   44.92340   83.66440   12.96380
 8555.00000  197.25110   44.68690   83.57090   15.20420
 8555.50000  198.02390   44.47360   84.00580   17.62950
 8556.00000  199.96840   44.28470   86.76890   21.71640
 8556.50000  199.17400   44.13070   88.76790   28.96220
 8557.00000  197.94980   44.00330   90.22980   30.59760
 8557.50000  197.94240   44.24020   91.75060   30.47110
 8558.00000  197.96230   45.69140   94.90850   27.39480
 8558.50000  197.57010   48.44540   99.75090   23.77200
 8559.00000  195.26900   50.36140  105.40760   21.43490
 8559.50000  195.04700   51.78880  107.50190   19.09780
 8560.00000  194.89650   53.77230  107.23380   16.76070
 8560.50000  195.31630   54.96230  106.68150   14.42360
 8561.00000  195.93870   53.92360  103.82040   12.25600
 8561.50000  196.49010   49.94010   95.94340   10.43450
 8562.00000  199.52710   45.60660   90.19580   10.43350
 8562.50000  199.70920   44.43360   87.84840   10.43250
 8563.00000  198.93800   43.88330   88.55820   10.43150
 8563.50000  198.15260   43.83030   89.63570   10.55220
 8564.00000  197.57290   43.87570   90.01690   10.81290
 8564.50000  198.30120   44.00740   89.69600   11.48160
 8565.00000  199.30310   44.39170   87.15940   12.42050
 8565.50000  199.15570   44.93610   87.82150   13.66120
 8566.00000  200.72320   46.15890   89.81180   15.33900
 8566.50000  198.32760   45.69450   89.63780   19.01300
 8567.00000  197.38420   44.66800   88.13310   22.68700
 8567.50000  197.36830   44.45440   87.63120   26.94640
 8568.00000  197.94480   45.20340   87.69790   31.45530
 8568.50000  198.49810   45.85350   89.44620   35.06790
 8569.00000  200.05590   46.50350   91.82490   35.22870
 8569.50000  200.80040   47.16040   94.20370   32.15500
 8570.00000  200.19170   47.99190   96.45070   28.85770
 8570.50000  199.09330   49.90580   98.68710   28.46440
 8571.00000  199.63330   53.35320  103.35880   28.84770
 8571.50000  200.48760   57.66390  106.62130   30.49280
 8572.00000  199.51390   51.49230  105.19660   33.90630
 8572.50000  199.76270   47.04510   92.39020   38.37140
 8573.00000  201.18240   46.40940   86.89530   40.90730
 8573.50000  201.71970   47.88310   87.34960   40.95170
 8574.00000  201.19210   49.95080   90.00770   38.13410
 8574.50000  201.19820   50.25760   91.45470   38.60990
 8575.00000  201.14410   49.77360   91.78080   39.45560
 8575.50000  199.63560   49.66920   90.87840   39.45650
 8576.00000  202.19760   49.91290   90.84430   36.37040
 8576.50000  200.02490   51.77360   94.50930   33.74890
 8577.00000  199.37470   54.29520   94.58930   31.99950
 8577.50000  199.64000   56.81670   93.75910   31.87340
 8578.00000  201.49980   58.24090   92.78360   34.09900
 8578.50000  201.72020   57.01670   91.46110   37.30700
 8579.00000  201.81760   52.71050   87.87490   41.19200
 8579.50000  204.48220   48.49540   83.36890   45.07700
 8580.00000  203.17450   46.93720   85.14500   48.39480
 8580.50000  202.31790   50.07890   92.30800   48.79570
 8581.00000  202.24330   55.71530   95.25700   45.12410
 8581.50000  201.94910   55.99620   93.08150   40.75850
 8582.00000  199.83640   54.52290   86.54590   35.14510
 8582.50000  199.71460   54.31920   86.75940   31.82720
 8583.00000  202.36400   54.32810   89.94870   30.58700
 8583.50000  202.37490   56.90020   94.88330   30.93300
 8584.00000  201.90170   57.01360   94.93190   33.51600
 8584.50000  201.23890   54.98320   94.27270   34.85560
 8585.00000  200.01900   52.86530   94.12520   33.57230
 8585.50000  198.85850   51.29830   93.53610   30.67550
 8586.00000  201.55690   49.73140   91.34420   27.22630
 8586.50000  198.57760   47.12910   89.93930   25.31400
 8587.00000  198.45030   48.40970   89.94830   24.46120
 8587.50000  199.07820   50.71800   94.12150   23.64480
 8588.00000  199.88620   52.53150   98.65710   22.49490
 8588.50000  201.07350   53.87660  102.20870   22.07740
 8589.00000  201.37810   55.00610  103.63460   22.44720
 8589.50000  202.16320   54.86230  102.98600   29.58860
 8590.00000  202.46190   51.67970   99.71320   38.62220
 8590.50000  202.23800   50.14280   97.54350   41.53900
 8591.00000  202.16740   49.93850   99.36100   39.94450
 8591.50000  202.16230   48.84670   99.11730   37.07670
 8592.00000  202.46430   45.64750   97.09030   32.53760
 8592.50000  203.11140   44.21170   96.43520   30.24220
 8593.00000  204.12900   45.22540   96.26670   29.48780
 8593.50000  203.04270   47.21940   96.15480   30.41640
 8594.00000  203.69290   48.90170   93.52740   32.32340
 8594.50000  203.46550   49.24750   89.84200   32.62120
 8595.00000  202.91230   49.44720   86.08240   31.56960
 8595.50000  202.93800   49.76330   83.75780   31.26450
 8596.00000  202.96700   50.08000   86.89250   32.26260
 8596.50000  202.11230   52.01450   93.07940   33.99390
 8597.00000  202.94260   53.24770   99.47060   36.66120
 8597.50000  202.32630   53.23880  105.27970   43.19640
 8598.00000  202.98440   52.85610  105.17710   48.25200
 8598.50000  202.97790   52.46320  102.36920   48.95530
 8599.00000  202.26080   52.12990   97.75740   45.03250
 8599.50000  202.15090   51.79660   95.67560   40.99940
 8600.00000  201.96110   51.26920   93.59380   40.87320
 8600.50000  201.41800   50.40480   91.64060   42.49630
 8601.00000  201.27110   47.61080   85.37510   43.68770
 8601.50000  202.04340   45.70360   81.59830   43.56290
 8602.00000  202.40980   46.20000   80.42690   42.87860
 8602.50000  203.00160   46.39080   82.22580   43.25930
 8603.00000  203.50620   46.85910   85.86360   44.68740
 8603.50000  203.73330   46.68170   89.28630   48.86180
 8604.00000  203.01840   46.59950   92.68210   53.37410
 8604.50000  202.27100   46.43850   94.69120   57.36470
 8605.00000  203.11760   46.35970   94.97080   56.04710
 8605.50000  201.51500   46.92360   91.59270   48.03330
 8606.00000  198.34280   49.27370   89.32420   42.53280
 8606.50000  198.64470   51.76150   87.36270   40.04580
 8607.00000  200.73540   51.90670   84.59060   40.81750
 8607.50000  200.81130   51.90020   83.36460   40.98140
 8608.00000  198.37750   55.30940   92.23380   40.11750
 8608.50000  198.33350   57.50680   91.83980   38.44390
 8609.00000  198.30790   53.47430   87.54670   35.84310
 8609.50000  198.26740   50.50640   83.70100   32.73110
 8610.00000  198.27800   49.56390   82.94570   28.43170
 8610.50000  198.37200   51.53250   82.94760   23.03410
 8611.00000  199.56920   51.48870   83.94620   20.09040
 8611.50000  198.65910   50.96290   85.83090   19.34540
 8612.00000  197.47290   50.67110   87.65180   19.97600
 8612.50000  198.29190   49.19780   87.24260   21.99590
 8613.00000  199.31990   48.69560   87.01240   25.35180
 8613.50000  199.40410   49.16180   87.01970   28.70770
 8614.00000  199.21900   50.26700   87.22590   34.65160
 8614.50000  199.65640   51.20640   88.12450   40.75870
 8615.00000  199.99520   51.80320   91.16440   44.26820
 8615.50000  199.40670   51.70920   93.36650   44.30300
 8616.00000  198.38830   50.47490   93.39730   42.27550
 8616.50000  198.29430   49.12130   89.55790   39.34200
 8617.00000  198.38120   47.84220   85.57780   36.34420
 8617.50000  199.41720   47.75040   82.32190   33.23980
 8618.00000  200.48810   49.05790   83.11400   27.73970
 8618.50000  197.21280   49.39140   84.48470   21.78270
 8619.00000  197.00250   49.39870   86.93960   17.93490
 8619.50000  199.60710   49.99650   87.71050   16.33560
 8620.00000  197.75770   48.71310   87.05580   17.19340
