~Version ---------------------------------------------------
VERS.   2.0 : CWLS log ASCII Standard -VERSION 2.0
WRAP.    NO : One line per depth step
DLM . SPACE : Column Data Section Delimiter
~Well ------------------------------------------------------
STRT .F                6404.0 : START DEPTH
STOP .F                9957.0 : STOP DEPTH
STEP .F                   0.5 : STEP
NULL .               -9999.25 : NULL VALUE
COMP .                        : COMPANY
WELL .                        : WELL
FLD  .                        : FIELD
LOC  .                        : LOCATION
PROV .                        : PROVINCE
CNTY .                        : COUNTY
STAT .                        : STATE
CTRY .                        : COUNTRY
SRVC .                        : SERVICE COMPANY
DATE .                        : DATE
UWI  .                        : UNIQUE WELL ID
API  .                        : API NUMBER
SLAT .WGS84 2.329908992646601 : SURFACE LATITUDE
SLON .WGS84 4.975112136590994 : SURFACE LONGITUDE
DATUM.F                2139.5 : DEPTH DATUM ELEV
~Curve Information -----------------------------------------
DEPT.F     : 1 MEASURED DEPTH
DTST.US/F  : DELTA-T STONELEY - MONOPOLE STONELEY
DTCO.US/F  : DELTA-T COMPRESSIONAL
DTSM.US/F  : DELTA-T SHEAR
GRS .GAPI  : GAMMA RAY FROM SONIC LOG
~Params ----------------------------------------------------
~Other -----------------------------------------------------
~ASCII -----------------------------------------------------
# ...
 7047.50000  208.15150   47.68470   81.13650   28.94230
 7048.00000  208.14200   45.61500   77.39730   29.48450
 7048.50000  208.16720   45.83290   77.12500   31.90690
 7049.00000  208.15920   47.54650   79.85970   30.52820
 7049.50000  208.15110   49.00230   87.40220   28.51970
 7050.00000  208.14300   49.13400   88.28560   24.45380
 7050.50000  208.13500   47.27640   86.69550   21.26140
 7051.00000  208.22280   48.35350   86.89060   20.99830
 7051.50000  208.32490   51.85680   90.02360   21.67700
 7052.00000  208.29300   52.55320   93.10310   23.49880
 7052.50000  208.51830   51.08510   97.37010   27.64820
 7053.00000  209.68700   49.13100   96.59450   30.77660
 7053.50000  210.63860   45.87190   93.01100   32.90730
 7054.00000  209.41760   44.31210   90.80720   33.15550
 7054.50000  209.63700   45.20060   90.80080   32.89290
 7055.00000  212.19170   46.29530   91.73750   33.20470
 7055.50000  212.16000   46.40040   92.32710   32.79360
 7056.00000  210.99080   45.63890   94.19540   30.88700
 7056.50000  210.19710   46.32100   97.53630   28.55670
 7057.00000  211.78040   49.10180  102.18340   28.60850
 7057.50000  211.99580   51.56220  105.65800   34.99490
 7058.00000  211.33120   52.30590  107.62110   45.73130
 7058.50000  210.56040   52.10840  105.95120   51.74060
 7059.00000  210.68850   51.39600  101.77100   53.10910
 7059.50000  210.68090   49.31990   98.16900   52.39420
 7060.00000  208.93640   47.97950   94.44770   50.25750
 7060.50000  208.99340   48.10200   90.89200   48.01230
 7061.00000  209.63720   49.24760   89.41510   45.48780
 7061.50000  209.94040   51.06940   90.22050   41.79460
 7062.00000  209.46820   52.45810   89.91680   35.10780
 7062.50000  209.26470   53.22690   90.50580   27.98960
 7063.00000  209.51690   53.53190   91.96120   26.75880
 7063.50000  211.00840   53.21970   91.88170   29.04940
 7064.00000  209.72370   52.44190   89.27290   30.90190
 7064.50000  208.86020   52.67610   86.31730   31.44940
 7065.00000  207.92400   52.71130   84.32110   29.18950
 7065.50000  208.93610   51.82320   84.84990   25.46540
 7066.00000  208.82020   50.55930   86.22570   22.97260
 7066.50000  208.80260   51.17950   87.45050   22.69840
 7067.00000  207.41420   52.40290   87.52390   23.26060
 7067.50000  208.23810   52.05400   85.62030   24.15070
 7068.00000  208.74310   50.44650   86.19410   24.31490
 7068.50000  209.26350   51.83990   86.79250   23.63110
 7069.00000  211.09070   51.55040   87.22910   22.81290
 7069.50000  210.22200   50.43610   87.26240   22.01010
 7070.00000  209.60190   49.95510   87.24720   20.96240
 7070.50000  209.59710   51.24120   88.11140   19.86830
 7071.00000  209.10870   51.88670   92.45800   19.05610
 7071.50000  206.87750   52.05220   93.88400   18.57680
 7072.00000  205.49960   51.81560   92.39100   18.89200
 7072.50000  205.17890   51.11550   92.08410   19.35150
 7073.00000  206.52600   50.36200   92.76780   20.08770
 7073.50000  207.03990   49.83680   93.38350   21.81620
 7074.00000  207.05980   49.67690   91.70020   25.70950
 7074.50000  207.00510   49.29970   89.66150   29.69000
 7075.00000  206.09930   48.92240   89.65490   29.89720
 7075.50000  206.19400   48.44440   88.84460   27.69340
 7076.00000  207.01260   47.94950   87.62500   23.32750
 7076.50000  207.09590   46.66890   86.37770   18.89310
 7077.00000  205.87350   45.73260   85.45220   16.20120
 7077.50000  206.20960   45.36330   84.88670   16.09220
 7078.00000  207.69080   45.08570   84.52530   17.19180
 7078.50000  210.61890   44.85330   84.00670   16.57450
 7079.00000  214.23640   44.48840   83.56040   14.79600
 7079.50000  217.40260   44.33800   84.27740   14.36500
 7080.00000  217.60900   44.32380   84.39770   13.93410
 7080.50000  213.73070   44.31140   84.38440   13.50310
 7081.00000  209.69450   44.35270   85.20930   13.21770
 7081.50000  207.65990   44.69020   86.80730   12.85280
 7082.00000  205.14670   45.74830   88.31400   12.76330
 7082.50000  203.36010   48.52520   89.82070   12.66680
 7083.00000  201.58640   51.17560   91.32740   12.31810
 7083.50000  199.93710   51.85190   92.03400   12.51770
 7084.00000  198.56370   50.48590   91.26150   13.50400
 7084.50000  198.32010   49.36760   89.74060   15.28070
 7085.00000  198.14750   47.89880   87.87430   17.18150
 7085.50000  198.15510   46.67730   85.38500   18.59420
 7086.00000  198.22670   46.22000   83.83220   19.36820
 7086.50000  198.16900   45.95580   83.48860   18.86260
 7087.00000  198.15620   45.27210   83.59520   17.57550
 7087.50000  198.22980   44.63520   84.25540   15.75480
 7088.00000  198.23470   44.27210   83.90690   15.57090
 7088.50000  198.23450   44.13220   83.41020   15.47310
 7089.00000  198.29680   44.20910   83.53550   15.31220
 7089.50000  198.23790   44.57400   84.28960   14.01360
 7090.00000  198.22890   45.31110   84.79960   11.30710
 7090.50000  198.18600   46.02610   85.30350   10.44960
 7091.00000  198.13750   46.12250   85.41160   10.80470
 7091.50000  198.16000   46.10270   85.42800   12.12950
 7092.00000  198.23770   46.13300   85.44030   13.44710
 7092.50000  198.22030   46.12860   85.41460   13.88840
 7093.00000  198.17260   46.26220   85.41320   13.80190
 7093.50000  198.22650   47.07440   85.38800   13.51800
 7094.00000  198.25430   47.78820   84.98800   13.24070
 7094.50000  198.11850   46.82190   84.50870   13.64050
 7095.00000  197.13170   46.28160   84.44020   13.94010
 7095.50000  198.42270   46.87220   84.67110   13.41760
 7096.00000  197.79570   47.01790   85.89660   12.31890
 7096.50000  197.31190   47.10620   87.57740   11.75800
 7097.00000  197.24220   47.07960   86.41410   12.16090
 7097.50000  197.73250   46.95430   85.57390   13.27070
 7098.00000  198.16690   46.93820   86.29960   13.26970
 7098.50000  198.32900   46.99980   85.78370   12.80220
 7099.00000  198.30400   46.66830   84.83750   11.95860
 7099.50000  198.24190   44.80330   85.04510   11.17330
 7100.00000  198.31930   44.75860   87.48800   10.12120
 7100.50000  198.36960   45.40500   89.78490    9.91280
 7101.00000  198.31300   45.89630   89.84390    9.70470
 7101.50000  198.62580   45.69260   89.21120    9.24770
 7102.00000  199.67800   46.50060   88.47300    9.14000
 7102.50000  199.94700   47.88120   88.23810    9.41950
 7103.00000  201.43070   48.20880   87.99520   10.16220
 7103.50000  201.36540   50.05430   88.82550   11.54220
 7104.00000  199.73760   55.57280   91.55550   14.04390
 7104.50000  198.35160   60.47930   93.46410   17.94940
 7105.00000  199.33910   61.57200   91.94190   20.86390
 7105.50000  199.44570   61.67420   90.71610   21.55180
 7106.00000  199.32140   61.51240   91.74160   19.90900
 7106.50000  198.53180   60.01760   93.01770   16.73370
 7107.00000  198.34590   54.62290   93.22620   15.24830
 7107.50000  198.22830   49.85380   93.26130   15.78300
 7108.00000  197.28920   45.95260   95.13660   16.82700
 7108.50000  196.18200   47.52940   97.72670   17.41100
 7109.00000  196.30780   48.94490   99.49650   17.75310
 7109.50000  196.84970   49.56090   97.28990   17.25230
 7110.00000  197.25170   49.55840   93.61750   16.29550
 7110.50000  197.44970   48.72810   89.94510   15.30780
 7111.00000  198.08970   48.35970   87.42370   15.71120
 7111.50000  197.48970   49.45980   87.39680   16.90030
 7112.00000  198.13310   48.33530   87.22670   19.26620
 7112.50000  198.36860   46.38470   86.68260   22.30310
 7113.00000  199.14160   45.95380   85.90250   24.65720
 7113.50000  198.33940   44.76230   86.48740   26.43900
 7114.00000  198.18410   44.95050   86.41720   28.06710
 7114.50000  198.54790   45.25810   82.50810   30.14540
 7115.00000  199.76930   45.68770   82.01870   34.59540
 7115.50000  200.99760   46.74330   86.06150   40.81170
 7116.00000  201.78590   49.06030   91.81390   47.58310
 7116.50000  202.27000   52.48430   98.17990   50.81920
 7117.00000  203.84990   56.40290  102.01160   46.34010
 7117.50000  203.93900   58.63890  103.19400   37.42760
 7118.00000  203.44820   59.89080  102.59080   27.16440
 7118.50000  203.18990   59.17890  100.72030   21.53250
