~Version ---------------------------------------------------
VERS.   2.0 : CWLS log ASCII Standard -VERSION 2.0
WRAP.    NO : One line per depth step
DLM . SPACE : Column Data Section Delimiter
~Well ------------------------------------------------------
STRT .F                6404.0 : START DEPTH
STOP .F                9957.0 : STOP DEPTH
STEP .F                   0.5 : STEP
NULL .               -9999.25 : NULL VALUE
COMP .                        : COMPANY
WELL .                        : WELL
FLD  .                        : FIELD
LOC  .                        : LOCATION
PROV .                        : PROVINCE
CNTY .                        : COUNTY
STAT .                        : STATE
CTRY .                        : COUNTRY
SRVC .                        : SERVICE COMPANY
DATE .                        : DATE
UWI  .                        : UNIQUE WELL ID
API  .                        : API NUMBER
SLAT .WGS84 2.329908992646601 : SURFACE LATITUDE
SLON .WGS84 4.975112136590994 : SURFACE LONGITUDE
DATUM.F                2139.5 : DEPTH DATUM ELEV
~Curve Information -----------------------------------------
DEPT.F     : 1 MEASURED DEPTH
DTST.US/F  : DELTA-T STONELEY - MONOPOLE STONELEY
DTCO.US/F  : DELTA-T COMPRESSIONAL
DTSM.US/F  : DELTA-T SHEAR
GRS .GAPI  : GAMMA RAY FROM SONIC LOG
~Params ----------------------------------------------------
~Other -----------------------------------------------------
~ASCII -----------------------------------------------------
# ...
 8334.50000  201.22190   50.78460   98.02510   29.46370
 8335.00000  201.23790   51.00360   97.96080   27.47500
 8335.50000  201.22010   51.48050   97.15000   24.55340
 8336.00000  201.14720   50.89290   96.27340   21.21840
 8336.50000  201.10810   47.30960   95.74820   20.54430
 8337.00000  200.62030   47.08810   95.23090   20.30480
 8337.50000  199.32970   46.64000   91.12920   20.01030
 8338.00000  199.14520   47.12450   88.28700   19.71580
 8338.50000  199.38990   47.48760   86.56090   19.73990
 8339.00000  199.92420   47.25450   85.53590   20.18040
 8339.50000  199.04260   46.55030   84.36050   20.90520
 8340.00000  200.03490   46.36550   83.29200   21.69190
 8340.50000  201.17660   47.07080   82.54760   22.04380
 8341.00000  200.71540   49.00150   82.37810   21.78650
 8341.50000  199.42040   49.91380   83.48640   21.82390
 8342.00000  198.54550   49.31600   85.98690   22.47210
 8342.50000  198.27080   48.61730   87.44800   24.02090
 8343.00000  199.15980   47.27650   88.49580   24.75100
 8343.50000  199.00630   45.74330   87.45540   25.19150
 8344.00000  198.01970   45.64270   84.98220   25.28390
 8344.50000  197.49700   45.77120   83.98290   24.54990
 8345.00000  199.16230   47.06190   86.69800   24.66420
 8345.50000  198.19620   47.49860   87.16180   26.07570
 8346.00000  199.06400   47.02760   86.45340   27.67870
 8346.50000  200.59860   46.53870   86.53520   27.68250
 8347.00000  201.18470   46.06580   89.76220   24.22700
 8347.50000  201.33630   45.47370   93.50860   19.35820
 8348.00000  201.94070   44.58620   93.07470   15.42820
 8348.50000  201.85710   45.82720   92.29880   15.84660
 8349.00000  201.03970   50.31080   90.32440   18.17220
 8349.50000  201.27400   53.34190   89.01700   20.49790
 8350.00000  200.65030   54.77010   88.24690   22.41160
 8350.50000  198.84700   54.99480   87.92780   24.25360
 8351.00000  198.25420   55.33160   89.36670   25.72430
 8351.50000  198.92880   54.09580   88.82610   26.12340
 8352.00000  199.29280   48.48090   86.60190   23.43560
 8352.50000  199.48980   46.00310   88.00970   19.22100
 8353.00000  199.31170   46.12390   90.28890   16.66860
 8353.50000  201.29940   46.49150   91.85380   15.22760
 8354.00000  201.60310   47.96890   93.95410   15.56850
 8354.50000  202.03740   49.08200   96.06300   16.73320
 8355.00000  201.40870   50.02560   96.03080   17.80040
 8355.50000  201.94640   52.70390   95.72010   17.90760
 8356.00000  201.05370   54.12430   92.47830   17.53270
 8356.50000  201.16270   53.99870   90.34580   17.65120
 8357.00000  199.35200   50.90560   87.85960   20.05940
 8357.50000  198.11790   48.71630   84.97640   23.15110
 8358.00000  199.26830   48.86930   86.31190   25.25240
 8358.50000  199.68220   50.11140   89.86780   24.09980
 8359.00000  200.16170   49.78580   90.74710   22.80700
 8359.50000  198.55810   48.14030   89.31250   23.21100
 8360.00000  200.30200   47.03020   90.43520   24.61980
 8360.50000  201.53130   46.49880   91.89640   24.34070
 8361.00000  201.24010   47.06700   90.71930   22.21930
 8361.50000  199.30900   48.44990   89.87090   20.78550
 8362.00000  199.26170   49.50460   90.05630   20.48860
 8362.50000  199.21890   46.30980   90.02780   21.30960
 8363.00000  199.20210   45.22960   87.86810   21.94810
 8363.50000  199.18530   45.72490   87.26200   22.61730
 8364.00000  199.11220   47.33750   86.87800   24.30430
 8364.50000  199.52420   46.88170   86.14360   28.52160
 8365.00000  199.95290   46.41270   86.40000   28.88200
 8365.50000  198.96930   45.67910   88.92270   25.97590
 8366.00000  198.51090   46.73060   91.00550   20.15900
 8366.50000  201.10120   48.21730   93.08830   15.65040
 8367.00000  200.39720   49.83750   95.15330   15.07500
 8367.50000  201.67490   51.49220   98.96310   14.90510
 8368.00000  202.88100   53.14680  103.12970   15.11280
 8368.50000  203.17220   54.80150  105.59960   15.53790
 8369.00000  202.58600   54.94610  106.17490   15.63830
 8369.50000  201.86950   52.24980  101.93840   15.72350
 8370.00000  200.62050   48.94950   97.48910   15.89220
 8370.50000  199.55180   45.99700   93.22260   15.15570
 8371.00000  199.43090   44.36540   90.39350   13.81950
 8371.50000  199.43090   44.44400   88.75790   13.13590
 8372.00000  199.43210   45.36170   88.79080   13.83550
 8372.50000  199.66990   47.05790   89.34280   15.73920
 8373.00000  201.39800   48.44340   90.21990   17.34910
 8373.50000  201.56170   49.37090   91.76380   17.85730
 8374.00000  198.76050   50.29840   93.33730   18.46310
 8374.50000  198.23230   51.19590   93.79940   18.89770
 8375.00000  199.18580   51.91940   93.79940   19.30060
 8375.50000  201.10430   51.88150   93.22660   20.08870
 8376.00000  199.72810   50.40690   92.51440   20.73470
 8376.50000  201.98340   49.54960   90.90700   19.64330
 8377.00000  202.01260   50.44590   88.95840   16.62350
 8377.50000  199.24590   51.57700   89.62420   15.19930
 8378.00000  200.31870   52.28440   93.34620   15.20670
 8378.50000  200.75190   51.85580  100.71340   16.85900
 8379.00000  200.76380   51.01480  101.38920   20.06780
 8379.50000  201.40720   49.97500  101.37060   23.30460
 8380.00000  202.04700   49.02240   99.99930   26.40250
 8380.50000  201.39280   48.01570   97.18940   26.25640
 8381.00000  200.17140   47.21420   94.37950   23.37510
 8381.50000  198.52350   46.86030   89.44760   20.45640
 8382.00000  198.65540   46.54770   89.33320   17.78910
 8382.50000  200.40570   46.49560   89.65800   16.52920
 8383.00000  202.13890   47.42960   91.08440   16.53410
 8383.50000  204.17130   49.25280   93.18810   16.33940
 8384.00000  203.81310   50.53600   96.38490   15.18970
 8384.50000  203.14980   51.43480   97.46440   13.50330
 8385.00000  202.71840   50.93000   95.77600   12.80790
 8385.50000  200.80110   49.08820   92.83880   12.90970
 8386.00000  200.41640   46.87080   90.04890   13.61970
 8386.50000  198.60760   45.87880   88.12610   14.29030
 8387.00000  198.23030   45.79780   87.35180   14.62260
 8387.50000  198.21690   45.71670   87.17350   14.95500
 8388.00000  198.21600   45.73680   86.24130   15.18380
 8388.50000  198.22610   46.61600   85.69750   15.18870
 8389.00000  198.38900   46.91480   86.95700   15.75770
 8389.50000  199.83380   46.51510   90.47910   16.76000
 8390.00000  199.79370   46.20470   91.29900   16.14050
 8390.50000  200.70780   46.22420   92.20960   14.54310
 8391.00000  201.26850   46.21110   93.15160   13.25010
 8391.50000  201.27120   46.22980   93.36090   13.52110
 8392.00000  200.15260   45.96800   90.82080   15.13330
 8392.50000  197.39870   45.38870   86.19810   16.74560
 8393.00000  197.21390   45.30160   83.29840   18.35780
 8393.50000  197.44330   45.54410   82.18710   18.70150
 8394.00000  199.55930   46.10610   80.53380   17.58750
 8394.50000  199.14000   47.99820   80.34630   16.46830
 8395.00000  198.31710   49.90850   81.52560   15.34920
 8395.50000  198.19240   53.59770   84.58900   15.66980
 8396.00000  197.88280   58.51040   90.95330   18.64670
 8396.50000  197.40980   63.23900   96.14900   23.02370
 8397.00000  198.10320   63.07900   95.93920   25.09510
 8397.50000  198.71120   57.80620   87.01620   25.40690
 8398.00000  202.51330   55.03790   83.09770   25.01850
 8398.50000  203.20110   57.69810   89.29590   21.58860
 8399.00000  203.20270   60.79350  100.14620   18.15590
 8399.50000  203.18270   60.38290  103.95760   15.16830
 8400.00000  203.03880   57.20760   98.45440   14.64740
 8400.50000  201.51810   52.26340   91.90290   14.66850
 8401.00000  198.08630   49.83220   87.30410   14.99010
 8401.50000  198.02450   48.36800   83.38410   15.09650
 8402.00000  199.13900   45.24530   81.70410   15.12780
 8402.50000  199.17590   44.16880   80.59350   15.15690
 8403.00000  199.38300   43.85500   79.42020   15.22960
 8403.50000  201.75200   43.35950   77.57810   15.09650
 8404.00000  203.41040   44.26610   81.85960   14.45190
 8404.50000  204.55060   49.66070   89.49850   14.44800
 8405.00000  206.51220   54.72480   94.28660   14.58060
 8405.50000  208.41270   58.49230   92.91260   17.31750
