~Version ---------------------------------------------------
VERS.   2.0 : CWLS log ASCII Standard -VERSION 2.0
WRAP.    NO : One line per depth step
DLM . SPACE : Column Data Section Delimiter
~Well ------------------------------------------------------
STRT .F                6404.0 : START DEPTH
STOP .F                9957.0 : STOP DEPTH
STEP .F                   0.5 : STEP
NULL .               -9999.25 : NULL VALUE
COMP .                        : COMPANY
WELL .                        : WELL
FLD  .                        : FIELD
LOC  .                        : LOCATION
PROV .                        : PROVINCE
CNTY .                        : COUNTY
STAT .                        : STATE
CTRY .                        : COUNTRY
SRVC .                        : SERVICE COMPANY
DATE .                        : DATE
UWI  .                        : UNIQUE WELL ID
API  .                        : API NUMBER
SLAT .WGS84 2.329908992646601 : SURFACE LATITUDE
SLON .WGS84 4.975112136590994 : SURFACE LONGITUDE
DATUM.F                2139.5 : DEPTH DATUM ELEV
~Curve Information -----------------------------------------
DEPT.F     : 1 MEASURED DEPTH
DTST.US/F  : DELTA-T STONELEY - MONOPOLE STONELEY
DTCO.US/F  : DELTA-T COMPRESSIONAL
DTSM.US/F  : DELTA-T SHEAR
GRS .GAPI  : GAMMA RAY FROM SONIC LOG
~Params ----------------------------------------------------
~Other -----------------------------------------------------
~ASCII -----------------------------------------------------
# ...
 7905.50000  198.44190   46.25700   87.20450   28.39130
 7906.00000  201.19450   45.35670   89.52660   28.01610
 7906.50000  200.96700   45.76520   90.21840   28.15480
 7907.00000  200.27830   46.37900   91.64720   28.49740
 7907.50000  200.34640   46.97820   93.35710   29.66460
 7908.00000  200.29120   46.28270   94.12220   31.03320
 7908.50000  200.17550   46.65810   93.72250   33.05010
 7909.00000  200.12650   47.59100   93.26710   35.07210
 7909.50000  199.95060   48.03350   92.76630   36.04050
 7910.00000  199.43610   46.97550   91.95430   33.86900
 7910.50000  199.22050   47.40120   91.27310   31.49570
 7911.00000  199.23060   49.99730   91.14780   29.38660
 7911.50000  199.56840   51.76690   91.68420   28.37490
 7912.00000  200.64590   52.11220   93.22780   29.27120
 7912.50000  201.33790   52.35520   93.52820   29.85620
 7913.00000  202.00170   52.74610   94.10370   27.62260
 7913.50000  202.12670   52.45170   94.38060   24.08650
 7914.00000  202.56370   52.75960   95.33770   22.59310
 7914.50000  203.43260   52.55120   95.06010   23.22570
 7915.00000  202.25320   53.04950   94.04740   24.05120
 7915.50000  203.64660   53.18370   93.39170   23.50360
 7916.00000  201.81200   53.07310   92.93210   21.09180
 7916.50000  202.02390   52.70310   91.21010   18.54200
 7917.00000  200.80390   51.30210   89.17540   16.79640
 7917.50000  200.70720   50.26610   87.25500   15.14250
 7918.00000  199.07950   47.87640   85.29750   15.48920
 7918.50000  198.02320   47.04350   85.40600   17.88390
 7919.00000  199.43350   46.80300   85.16460   20.71890
 7919.50000  198.15880   45.86410   84.59490   23.52930
 7920.00000  198.21080   45.84560   84.27140   26.33970
 7920.50000  198.22330   46.03680   84.82690   29.15010
 7921.00000  198.22450   46.14880   85.31270   28.94040
 7921.50000  198.22560   47.09170   85.48840   26.56640
 7922.00000  198.22450   48.25920   85.66410   25.61850
 7922.50000  198.21620   47.20270   84.83380   26.35810
 7923.00000  198.21700   46.08200   83.76100   27.46780
 7923.50000  198.57500   46.34770   84.41700   28.38790
 7924.00000  198.42140   46.97170   84.28080   28.47560
 7924.50000  198.15790   48.00640   84.31990   26.47850
 7925.00000  199.42820   49.26960   87.38670   23.88620
 7925.50000  199.50040   50.62750   90.64400   21.29540
 7926.00000  199.50710   51.73570   92.30890   19.89950
 7926.50000  199.50440   50.81840   91.53310   19.44200
 7927.00000  199.46330   48.88380   89.68230   19.27300
 7927.50000  199.12810   47.36310   87.32770   18.76180
 7928.00000  198.40440   47.94070   85.78530   17.06330
 7928.50000  199.20280   49.31050   85.13640   15.76540
 7929.00000  199.45560   50.00980   85.25370   15.45370
 7929.50000  198.58490   51.15730   86.83920   16.46270
 7930.00000  199.39740   52.15180   89.98220   17.80520
 7930.50000  203.35050   53.28510   90.48100   19.72290
 7931.00000  201.81470   53.86360   93.26660   21.77540
 7931.50000  202.22470   53.10670   96.46160   21.67630
 7932.00000  202.21980   53.92600   97.77880   21.67130
 7932.50000  201.28640   54.81700   98.14690   22.28990
 7933.00000  201.11140   55.04340   96.18970   24.03330
 7933.50000  201.22680   54.26780   94.44250   25.75260
 7934.00000  201.15470   51.60620   95.28120   27.18340
 7934.50000  199.43340   50.01350   95.82520   29.63550
 7935.00000  198.28260   48.08080   94.05750   32.80040
 7935.50000  198.54490   47.59190   91.73770   34.71310
 7936.00000  200.27330   50.66940   91.64490   35.75100
 7936.50000  200.37570   56.33630   92.44020   34.14900
 7937.00000  200.30700   60.06010   92.98550   32.03960
 7937.50000  200.40610   62.65590   96.42160   29.24520
 7938.00000  202.26450   62.24340   99.92650   26.25680
 7938.50000  202.74480   60.01810  101.40940   24.28820
 7939.00000  201.75060   56.73880  100.24170   24.17320
 7939.50000  201.09550   54.09660   94.79830   26.16810
 7940.00000  201.77250   52.03630   93.50840   28.56260
 7940.50000  202.25360   51.15690   92.70910   31.57470
 7941.00000  202.18840   50.36470   89.44690   35.03340
 7941.50000  201.90510   49.18840   83.84740   38.02850
 7942.00000  199.52960   48.66520   82.27130   39.76930
 7942.50000  197.87150   50.04030   81.74900   37.29170
 7943.00000  196.82100   51.20340   80.52770   34.61430
 7943.50000  197.75690   53.36130   79.58170   34.09670
 7944.00000  199.37250   53.85460   80.60400   33.57910
 7944.50000  199.76970   53.03860   82.72350   32.47210
 7945.00000  199.55220   52.17540   84.47380   28.56400
 7945.50000  199.35790   49.88820   84.76960   24.16870
 7946.00000  201.38450   46.95830   78.91510   20.97100
 7946.50000  204.57860   43.12810   75.21420   20.75420
 7947.00000  205.20170   42.55440   75.50720   22.92650
 7947.50000  203.28790   43.02810   77.76400   26.35290
 7948.00000  199.40050   43.40620   80.34630   30.64320
 7948.50000  196.98090   43.88970   82.92860   34.00060
 7949.00000  195.55600   44.99870   85.06290   38.54370
 7949.50000  195.27530   46.97280   87.21210   43.94100
 7950.00000  194.90910   51.21330   89.08170   48.88650
 7950.50000  188.14300   54.07780   88.99050   48.12420
 7951.00000  189.23410   54.23180   87.61020   41.89590
 7951.50000  191.72700   54.44830   89.47850   35.66750
 7952.00000  196.37420   56.03930   92.71730   29.24870
 7952.50000  197.29010   55.04000   93.24350   25.29730
 7953.00000  196.17080   51.54160   91.20330   22.49590
 7953.50000  195.06830   48.16130   88.55820   19.69450
 7954.00000  196.31150   46.47870   85.91310   21.31240
 7954.50000  199.64250   45.89740   83.29500   24.73090
 7955.00000  202.00000   47.51150   82.93090   27.85450
 7955.50000  203.11580   50.39780   86.93390   29.44860
 7956.00000  202.61110   54.99100   95.65590   31.87750
 7956.50000  200.87420   59.68590  102.26130   38.76970
 7957.00000  200.25400   57.87120   99.72820   46.38130
 7957.50000  200.23320   55.14480   95.17500   53.99300
 7958.00000  199.63440   51.96420   87.69900   61.45930
 7958.50000  196.06930   46.36730   80.35770   68.88910
 7959.00000  191.41630   43.52540   74.61740   75.16570
 7959.50000  189.11160   43.20420   74.53660   80.03400
 7960.00000  192.37580   44.80760   77.36610   85.83580
 7960.50000  195.57200   46.63980   80.72540   91.98890
 7961.00000  200.60150   49.15150   84.92100   98.16280
 7961.50000  205.59890   51.72730   85.49270  103.26160
 7962.00000  207.29520   53.42660   86.66250  102.09200
 7962.50000  201.76690   58.90890   93.19370   99.55390
 7963.00000  189.65860   63.42120   99.63650   94.33790
 7963.50000  192.15740   67.50520  106.17600   86.38980
 7964.00000  194.60840   69.80430  109.19330   78.44160
 7964.50000  195.60230   68.80650  107.09110   65.26340
 7965.00000  195.51640   66.31240  103.62220   59.83850
 7965.50000  195.50030   58.02470   93.83380   54.41360
 7966.00000  197.18870   51.62000   89.42520   48.12170
 7966.50000  199.15830   49.32550   92.38590   40.74980
 7967.00000  200.96190   47.54330   91.21850   33.44290
 7967.50000  200.44200   44.48150   86.10930   31.08960
 7968.00000  199.80740   45.74980   85.65440   30.46550
 7968.50000  199.50070   46.94590   85.45940   39.52640
 7969.00000  199.50170   47.52450   85.81920   54.67580
 7969.50000  199.50260   48.67770   87.30250   73.70650
 7970.00000  199.50350   50.27580   88.73140   99.53320
 7970.50000  199.49930   49.52440   90.26860  119.12950
 7971.00000  199.48890   47.86600   90.57690  121.99310
 7971.50000  198.99120   47.44640   90.48910  123.71510
 7972.00000  198.71490   51.33830   90.90100  123.71510
 7972.50000  198.97950   50.06090   91.17310  123.55300
 7973.00000  199.16790   47.60290   90.70080  121.62540
 7973.50000  199.18760   46.55070   90.27050  119.66790
 7974.00000  200.04020   46.30120   89.89660  117.83310
 7974.50000  200.50090   46.25730   89.34740  116.57200
 7975.00000  199.05820   46.41380   88.72460  116.30500
 7975.50000  199.15250   47.12820   87.89780  112.92260
 7976.00000  199.23870   47.41340   87.16970  103.34170
 7976.50000  198.82450   46.36770   86.77640   86.23300
