~Version ---------------------------------------------------
VERS.   2.0 : CWLS log ASCII Standard -VERSION 2.0
WRAP.    NO : One line per depth step
DLM . SPACE : Column Data Section Delimiter
~Well ------------------------------------------------------
STRT .F                6404.0 : START DEPTH
STOP .F                9957.0 : STOP DEPTH
STEP .F                   0.5 : STEP
NULL .               -9999.25 : NULL VALUE
COMP .                        : COMPANY
WELL .                        : WELL
FLD  .                        : FIELD
LOC  .                        : LOCATION
PROV .                        : PROVINCE
CNTY .                        : COUNTY
STAT .                        : STATE
CTRY .                        : COUNTRY
SRVC .                        : SERVICE COMPANY
DATE .                        : DATE
UWI  .                        : UNIQUE WELL ID
API  .                        : API NUMBER
SLAT .WGS84 2.329908992646601 : SURFACE LATITUDE
SLON .WGS84 4.975112136590994 : SURFACE LONGITUDE
DATUM.F                2139.5 : DEPTH DATUM ELEV
~Curve Information -----------------------------------------
DEPT.F     : 1 MEASURED DEPTH
DTST.US/F  : DELTA-T STONELEY - MONOPOLE STONELEY
DTCO.US/F  : DELTA-T COMPRESSIONAL
DTSM.US/F  : DELTA-T SHEAR
GRS .GAPI  : GAMMA RAY FROM SONIC LOG
~Params ----------------------------------------------------
~Other -----------------------------------------------------
~ASCII -----------------------------------------------------
# ...
 8191.50000  201.99010   51.84600   89.06050   35.76220
 8192.00000  200.72250   52.90500   90.91460   33.76110
 8192.50000  202.66630   55.66220   93.24340   30.13750
 8193.00000  201.29330   55.58940   89.54870   26.20550
 8193.50000  201.19920   56.00510   90.74710   25.00810
 8194.00000  201.18700   56.05200   91.94550   25.33080
 8194.50000  201.23580   56.06630   93.14390   25.24490
 8195.00000  201.22620   56.14040   94.29400   24.92380
 8195.50000  201.63760   56.49180   95.06930   24.41970
 8196.00000  202.25270   56.20100   96.06160   24.07370
 8196.50000  202.23480   54.93180   99.29390   24.21170
 8197.00000  202.33680   54.68060  101.96070   24.85640
 8197.50000  203.09070   55.46740  102.08360   25.41530
 8198.00000  202.94170   54.89400   98.18980   25.13270
 8198.50000  202.30140   52.58430   94.21920   25.48900
 8199.00000  202.18920   52.81170   94.84100   27.44240
 8199.50000  202.24750   54.54220   96.56340   29.55580
 8200.00000  202.28650   54.18670   96.92930   29.81890
 8200.50000  202.30920   49.80130   96.44330   27.70480
 8201.00000  203.13780   50.86970   97.74190   25.25700
 8201.50000  203.21510   53.53820   98.95160   24.13620
 8202.00000  203.27080   56.20680   98.28960   28.90420
 8202.50000  203.24960   59.05540   96.73720   33.82640
 8203.00000  203.17990   59.42820   94.74710   34.72100
 8203.50000  203.02020   58.53810   92.32160   33.81360
 8204.00000  202.80520   53.63930   89.62990   31.69090
 8204.50000  202.59020   49.62400   91.37760   30.79480
 8205.00000  202.37520   49.35670   93.62190   30.46240
 8205.50000  201.97730   50.30980   95.38570   30.69570
 8206.00000  201.38280   51.17740   95.94540   31.07510
 8206.50000  199.49970   50.75440   99.61020   30.80350
 8207.00000  197.14070   49.88690   98.39610   27.29150
 8207.50000  198.62100   48.47120   96.29620   23.64320
 8208.00000  200.25640   47.73690   94.42830   22.16270
 8208.50000  198.92640   46.68760   92.59140   26.38670
 8209.00000  197.19150   45.64130   91.49080   27.48650
 8209.50000  196.57330   46.37350   90.05980   28.60720
 8210.00000  197.72770   47.84360   93.49530   29.75240
 8210.50000  198.65820   48.48500   92.77230   30.89820
 8211.00000  199.28990   47.37900   88.97990   32.10570
 8211.50000  199.71970   46.07510   86.21800   32.72460
 8212.00000  199.20730   45.68590   85.64470   32.92540
 8212.50000  197.73490   45.79600   85.56570   32.93070
 8213.00000  196.50630   45.66630   85.58630   30.87610
 8213.50000  195.65740   45.48360   83.79620   29.81620
 8214.00000  198.07060   45.96780   83.57580   30.21280
 8214.50000  202.26500   46.78820   85.95650   37.29670
 8215.00000  204.35030   46.87810   86.52050   48.76820
 8215.50000  205.57980   46.91070   86.90100   60.19600
 8216.00000  205.45830   46.45400   87.28150   68.30690
 8216.50000  205.00340   45.91160   87.73740   61.58050
 8217.00000  203.84650   46.22810   89.91150   48.13870
 8217.50000  201.12220   47.18790   90.58600   34.34390
 8218.00000  199.82820   47.72890   90.83950   22.84400
 8218.50000  199.72350   48.69630   91.14680   19.20500
 8219.00000  200.25760   50.57440   92.02100   18.90000
 8219.50000  200.25490   55.53190   92.85750   20.28470
 8220.00000  200.25230   56.31350   93.06190   24.83070
 8220.50000  200.19100   55.94190   91.10280   26.21880
 8221.00000  200.09030   53.21570   87.69060   25.24360
 8221.50000  199.98960   49.70530   86.15050   23.10060
 8222.00000  199.86980   47.54050   85.89430   20.76470
 8222.50000  199.74170   47.16460   85.89830   20.59970
 8223.00000  199.61360   46.91400   87.38580   22.56870
 8223.50000  199.48560   47.93420   88.18740   25.10740
 8224.00000  199.55980   49.21680   87.88560   27.35280
 8224.50000  199.56470   49.97560   86.86240   27.09590
 8225.00000  199.56970   50.50720   87.25150   25.13370
 8225.50000  199.57460   52.03220   87.08840   23.17600
 8226.00000  199.57960   52.95610   86.53580   21.42210
 8226.50000  199.58460   53.80700   86.36550   19.77130
 8227.00000  199.58950   53.66590   86.30160   18.74550
 8227.50000  199.59450   52.22760   86.33460   17.82930
 8228.00000  199.48920   51.56930   86.63390   17.74520
 8228.50000  198.74500   51.57090   87.11230   17.99540
 8229.00000  199.09900   52.88420   89.70820   18.63040
 8229.50000  202.52290   56.15550   93.54920   21.04320
 8230.00000  202.57910   56.69650   95.34650   28.57800
 8230.50000  202.13430   55.14350   94.72740   28.58930
 8231.00000  201.41710   53.57340   93.18410   27.23800
 8231.50000  200.70940   52.20460   91.07840   24.35400
 8232.00000  200.13620   50.98660   90.01420   21.47010
 8232.50000  199.19980   49.79640   89.02820   20.56700
 8233.00000  198.64740   48.87880   86.95700   21.61410
 8233.50000  198.28490   47.96120   85.95810   23.91700
 8234.00000  198.19910   47.33730   85.01530   25.59300
 8234.50000  198.15050   47.07370   84.39880   25.31970
 8235.00000  198.15090   47.07460   84.15220   23.02050
 8235.50000  198.16660   47.07560   83.88880   20.98440
 8236.00000  198.19300   46.36370   83.61660   20.63580
 8236.50000  198.16850   45.56960   83.33330   20.89250
 8237.00000  198.16810   45.08090   83.75840   20.33000
 8237.50000  198.15550   45.72730   84.84010   19.04640
 8238.00000  198.19650   46.42210   86.02650   17.76270
 8238.50000  197.96590   46.72520   85.85450   17.22820
 8239.00000  197.52410   46.36790   83.73570   17.21780
 8239.50000  198.06460   46.16020   83.35840   17.05820
 8240.00000  197.70570   46.67860   84.32090   14.90450
 8240.50000  197.44250   47.42050   84.92990   13.87530
 8241.00000  198.06910   48.01710   84.70600   13.55120
 8241.50000  198.12810   50.33820   83.49430   13.89050
 8242.00000  198.23700   54.37640   81.68500   14.97270
 8242.50000  198.13530   57.91440   81.58660   15.44550
 8243.00000  197.87080   58.72230   82.66180   15.57690
 8243.50000  197.29950   57.76130   84.12120   15.88360
 8244.00000  198.17030   56.62410   86.32830   16.23960
 8244.50000  198.34370   56.10090   88.45870   17.25700
 8245.00000  199.19280   55.81210   90.74730   20.60130
 8245.50000  199.18590   55.46940   90.89520   21.74830
 8246.00000  199.22210   54.82120   90.54120   21.96250
 8246.50000  199.53010   52.26910   89.22490   22.27270
 8247.00000  200.21570   48.62250   87.95290   23.39120
 8247.50000  200.88490   46.19760   86.80450   25.70410
 8248.00000  201.55130   45.60630   87.49420   27.35740
 8248.50000  202.21930   45.07950   88.86120   27.29650
 8249.00000  201.31420   45.08440   90.39440   25.72680
 8249.50000  202.26810   46.31690   92.17780   23.94120
 8250.00000  201.79510   47.58580   92.47480   22.02970
 8250.50000  200.83970   47.37330   92.05130   20.04460
 8251.00000  199.27920   45.72580   90.91050   18.05950
 8251.50000  200.10110   45.76410   89.79630   16.76100
 8252.00000  199.61440   47.02940   88.88600   16.81040
 8252.50000  199.08940   48.65560   88.06620   17.67450
 8253.00000  199.84960   48.95320   87.25910   17.32520
 8253.50000  199.16800   48.95320   86.36640   16.15180
 8254.00000  197.31690   49.21120   85.66910   15.36540
 8254.50000  199.78210   53.42760   85.54470   15.20040
 8255.00000  197.08620   55.87360   86.03410   15.20040
 8255.50000  198.06960   58.08320   87.52890   15.58760
 8256.00000  198.19340   60.70370   94.15410   16.81850
 8256.50000  198.31560   60.33330   98.80580   20.60990
 8257.00000  199.27460   53.21650   96.98910   26.46780
 8257.50000  201.81040   49.56600   93.37020   34.38030
 8258.00000  203.90500   48.70760   95.03370   42.29270
 8258.50000  205.09950   50.29430   99.23010   44.39500
 8259.00000  205.67630   52.94280  102.52410   39.93520
 8259.50000  205.68720   55.59120  100.24070   34.96420
 8260.00000  203.94580   58.18910  100.15970   28.96340
 8260.50000  203.53090   57.66660   99.73500   21.76010
 8261.00000  201.54070   55.65640   97.04120   20.50650
 8261.50000  200.43370   53.64620   91.74920   20.67000
 8262.00000  199.68750   52.13180   87.72500   21.76960
 8262.50000  199.26860   49.98310   89.27960   23.13370
