~Version ---------------------------------------------------
VERS.   2.0 : CWLS log ASCII Standard -VERSION 2.0
WRAP.    NO : One line per depth step
DLM . SPACE : Column Data Section Delimiter
~Well ------------------------------------------------------
STRT .F                6404.0 : START DEPTH
STOP .F                9957.0 : STOP DEPTH
STEP .F                   0.5 : STEP
NULL .               -9999.25 : NULL VALUE
COMP .                        : COMPANY
WELL .                        : WELL
FLD  .                        : FIELD
LOC  .                        : LOCATION
PROV .                        : PROVINCE
CNTY .                        : COUNTY
STAT .                        : STATE
CTRY .                        : COUNTRY
SRVC .                        : SERVICE COMPANY
DATE .                        : DATE
UWI  .                        : UNIQUE WELL ID
API  .                        : API NUMBER
SLAT .WGS84 2.329908992646601 : SURFACE LATITUDE
SLON .WGS84 4.975112136590994 : SURFACE LONGITUDE
DATUM.F                2139.5 : DEPTH DATUM ELEV
~Curve Information -----------------------------------------
DEPT.F     : 1 MEASURED DEPTH
DTST.US/F  : DELTA-T STONELEY - MONOPOLE STONELEY
DTCO.US/F  : DELTA-T COMPRESSIONAL
DTSM.US/F  : DELTA-T SHEAR
GRS .GAPI  : GAMMA RAY FROM SONIC LOG
~Params ----------------------------------------------------
~Other -----------------------------------------------------
~ASCII -----------------------------------------------------
# ...
 7548.00000  201.39850   50.44930   88.76810   26.41040
 7548.50000  200.57370   50.24210   86.60830   27.71480
 7549.00000  203.21640   51.54800   89.20430   27.31580
 7549.50000  203.19680   53.78420   91.11050   26.69130
 7550.00000  202.76600   52.92370   89.24540   26.69040
 7550.50000  202.33650   51.73750   92.05000   27.57290
 7551.00000  202.22400   53.86160   90.60230   28.77890
 7551.50000  201.88640   54.24460   89.03110   29.93780
 7552.00000  202.40540   54.12580   96.88000   30.46640
 7552.50000  201.99630   53.26670  102.88740   30.02160
 7553.00000  201.30130   50.83740   99.54910   28.82310
 7553.50000  200.26920   48.43510   95.26890   26.88050
 7554.00000  198.22010   48.45380   92.06630   24.93780
 7554.50000  198.29120   49.03980   88.73250   23.52010
 7555.00000  199.11080   49.94540   87.09990   22.65880
 7555.50000  199.64700   51.73000   85.86040   22.42710
 7556.00000  200.59990   54.86280   87.47470   22.65630
 7556.50000  201.75710   57.26990   88.43780   23.01640
 7557.00000  202.89350   58.46670   91.41780   23.36620
 7557.50000  203.19590   58.94450   92.32020   23.60300
 7558.00000  203.65590   57.85550   95.97330   24.45990
 7558.50000  204.07750   56.63610  110.64440   25.42410
 7559.00000  204.30940   56.69120  118.37350   26.74730
 7559.50000  204.16870   56.50490  117.45350   28.27800
 7560.00000  202.77270   56.64850  115.44100   29.28610
 7560.50000  202.41950   55.93260  112.87880   29.76210
 7561.00000  203.68320   54.47700  109.17470   29.85040
 7561.50000  204.44920   52.56800  104.95630   28.01990
 7562.00000  203.13660   51.16950  104.70650   25.08330
 7562.50000  201.16690   51.31320  106.45620   24.57270
 7563.00000  201.97590   52.65910  106.27820   25.69350
 7563.50000  201.08420   57.99950  104.03060   27.71860
 7564.00000  200.38890   59.65440  100.65520   31.31830
 7564.50000  199.28890   57.37460   96.88050   36.69630
 7565.00000  199.56760   54.45840   95.12920   41.98680
 7565.50000  198.81510   52.91880   93.73270   46.97190
 7566.00000  198.50630   51.60350   90.11590   50.14110
 7566.50000  198.75570   50.12080   83.55290   52.13180
 7567.00000  198.12160   49.14510   81.27430   54.12260
 7567.50000  198.20180   48.25790   79.03240   55.86270
 7568.00000  198.26220   48.71450   78.46670   53.58260
 7568.50000  198.06860   52.96390   82.31620   48.46590
 7569.00000  199.31800   54.81460   87.22380   43.59220
 7569.50000  200.61470   52.72930   90.90430   41.14360
 7570.00000  199.31540   52.64440   93.92180   41.41010
 7570.50000  200.13590   53.05960   96.42260   42.36790
 7571.00000  203.13590   52.96110   98.13360   43.81310
 7571.50000  203.62270   50.91150   95.32620   44.82820
 7572.00000  202.83410   48.70010   93.52530   43.01880
 7572.50000  202.27230   47.31770   91.32420   36.84630
 7573.00000  200.66830   46.54330   88.60610   30.67380
 7573.50000  201.33630   46.13460   85.12830   26.40980
 7574.00000  200.58510   46.24860   84.33620   23.10860
 7574.50000  199.61250   47.00230   84.08050   23.34050
 7575.00000  199.58560   45.89000   83.43350   23.97450
 7575.50000  199.45650   46.81910   83.35480   24.75700
 7576.00000  199.30500   48.48470   83.39890   25.53940
 7576.50000  199.35240   49.87970   83.74120   26.32190
 7577.00000  199.76900   51.32560   84.79870   28.28700
 7577.50000  199.32920   51.96840   86.40400   29.56720
 7578.00000  199.33670   51.29000   87.27060   30.18940
 7578.50000  200.95270   51.79080   88.01360   32.34910
 7579.00000  202.34750   52.46200   88.38280   40.53600
 7579.50000  202.96760   52.26770   88.97160   46.57690
 7580.00000  203.14720   52.38860   94.51940   45.49690
 7580.50000  203.23690   54.18210   97.29990   35.73230
 7581.00000  203.26850   54.65470   96.27030   29.07900
 7581.50000  203.17310   53.00470   95.13230   23.96550
 7582.00000  202.00980   50.43750   93.18120   20.68770
 7582.50000  200.74650   49.66320   90.52010   19.58730
 7583.00000  201.02030   50.65300   89.74290   18.49950
 7583.50000  201.46430   50.52540   89.37500   17.74880
 7584.00000  201.89460   51.37650   89.30510   17.53760
 7584.50000  201.21000   52.22070   89.54060   17.63600
 7585.00000  201.15680   52.55150   90.06070   18.40640
 7585.50000  201.53790   51.61630   91.23180   20.80400
 7586.00000  201.99050   50.22050   90.86120   23.18000
 7586.50000  201.50130   49.14900   88.01810   25.17640
 7587.00000  199.43940   49.94250   86.78580   26.41840
 7587.50000  198.69720   50.61380   84.92050   28.02350
 7588.00000  199.37110   49.87190   84.08590   29.94220
 7588.50000  202.20990   50.41310   86.48960   30.49780
 7589.00000  201.09680   52.22420   87.08850   29.94310
 7589.50000  198.55610   53.07420   86.75230   28.58390
 7590.00000  197.93060   51.98540   86.65610   27.18210
 7590.50000  198.75530   50.49980   86.69310   26.56820
 7591.00000  199.30790   49.01420   87.18300   26.94850
 7591.50000  198.85140   48.03700   87.33020   28.19660
 7592.00000  198.36900   47.26000   87.39040   28.58690
 7592.50000  198.61330   47.00930   87.76390   27.36850
 7593.00000  200.32780   49.68460   90.12970   24.69480
 7593.50000  199.62460   54.18200   92.24930   21.80910
 7594.00000  200.01150   58.21130   94.67240   19.19070
 7594.50000  199.92000   59.61660   97.47480   19.96330
 7595.00000  198.48930   59.56670   98.99530   22.18790
 7595.50000  198.20740   58.13290   98.19440   23.77570
 7596.00000  198.19830   54.50710   96.04370   23.75950
 7596.50000  198.19000   49.77350   93.16200   23.44590
 7597.00000  198.22030   47.04570   90.73870   23.85890
 7597.50000  198.39850   46.80930   90.64430   24.42220
 7598.00000  198.47450   50.29730   92.37850   25.50330
 7598.50000  197.90800   56.36320   98.12620   26.81450
 7599.00000  197.38240   56.93000   97.82370   27.87260
 7599.50000  197.93770   54.37860   92.46280   28.60390
 7600.00000  197.41720   51.34540   87.13720   28.45670
 7600.50000  198.17890   48.85920   85.93590   26.46700
 7601.00000  198.52020   47.75040   85.21880   23.56540
 7601.50000  197.53540   46.22690   84.99820   20.66370
 7602.00000  197.01850   45.61570   85.43110   20.49600
 7602.50000  197.63960   45.23660   85.70860   23.92420
 7603.00000  199.22280   45.24770   85.80510   29.08410
 7603.50000  199.92780   45.43800   85.27560   35.10100
 7604.00000  198.08860   46.48840   84.13390   41.11790
 7604.50000  197.53080   47.66080   84.46790   47.13480
 7605.00000  198.08680   49.36450   84.95810   58.01630
 7605.50000  198.00950   49.67110   84.32630   69.42430
 7606.00000  197.33740   48.12410   82.61190   77.25320
 7606.50000  196.82420   48.73420   83.98480   75.48670
 7607.00000  196.50940   50.76490   90.30720   61.66800
 7607.50000  197.65830   49.82070   90.53070   45.13990
 7608.00000  196.90610   46.53900   87.62630   28.61180
 7608.50000  196.86740   47.70170   92.14380   17.02120
 7609.00000  196.35320   51.74990   98.27500   14.47800
 7609.50000  198.39920   54.67680   98.89150   13.44070
 7610.00000  197.95570   52.22890   92.47020   12.96680
 7610.50000  198.62180   47.22450   86.29550   12.58700
 7611.00000  199.58870   46.83750   85.35490   12.19870
 7611.50000  199.90640   46.81850   84.40790   12.42690
 7612.00000  199.93090   45.63330   83.04290   12.83690
 7612.50000  199.78200   44.57970   82.96790   13.75760
 7613.00000  199.26760   44.15080   86.70550   14.48370
 7613.50000  199.49680   44.12420   92.91470   15.17810
 7614.00000  201.02360   45.00520  100.04780   16.70940
 7614.50000  203.19200   48.22500  109.24580   18.49010
 7615.00000  203.07270   52.14990  118.77210   21.65500
 7615.50000  199.19170   58.17920  130.50930   26.73300
 7616.00000  198.42620   65.03190  138.98480   37.94740
 7616.50000  198.17970   68.24270  142.58060   49.74250
 7617.00000  198.21350   65.91600  136.00480   52.99320
 7617.50000  198.23710   63.58920  125.47440   48.32590
 7618.00000  198.84600   63.08030  117.66940   38.35790
 7618.50000  200.11040   59.27990  105.77830   27.19920
 7619.00000  200.88270   52.43620   93.29140   20.19370
