~Version ---------------------------------------------------
VERS.   2.0 : CWLS log ASCII Standard -VERSION 2.0
WRAP.    NO : One line per depth step
DLM . SPACE : Column Data Section Delimiter
~Well ------------------------------------------------------
STRT .F                6404.0 : START DEPTH
STOP .F                9957.0 : STOP DEPTH
STEP .F                   0.5 : STEP
NULL .               -9999.25 : NULL VALUE
COMP .                        : COMPANY
WELL .                        : WELL
FLD  .                        : FIELD
LOC  .                        : LOCATION
PROV .                        : PROVINCE
CNTY .                        : COUNTY
STAT .                        : STATE
CTRY .                        : COUNTRY
SRVC .                        : SERVICE COMPANY
DATE .                        : DATE
UWI  .                        : UNIQUE WELL ID
API  .                        : API NUMBER
SLAT .WGS84 2.329908992646601 : SURFACE LATITUDE
SLON .WGS84 4.975112136590994 : SURFACE LONGITUDE
DATUM.F                2139.5 : DEPTH DATUM ELEV
~Curve Information -----------------------------------------
DEPT.F     : 1 MEASURED DEPTH
DTST.US/F  : DELTA-T STONELEY - MONOPOLE STONELEY
DTCO.US/F  : DELTA-T COMPRESSIONAL
DTSM.US/F  : DELTA-T SHEAR
GRS .GAPI  : GAMMA RAY FROM SONIC LOG
~Params ----------------------------------------------------
~Other -----------------------------------------------------
~ASCII -----------------------------------------------------
# ...
 7691.00000  199.36210   51.72330   84.61690   23.82950
 7691.50000  198.37400   53.64540   84.07230   23.56860
 7692.00000  198.18420   54.42000   84.77330   24.07160
 7692.50000  198.17940   53.84960   85.26460   25.00350
 7693.00000  198.18710   51.54810   85.38820   26.40070
 7693.50000  198.19480   49.99240   85.48530   28.10600
 7694.00000  198.53000   49.37380   85.45600   30.13790
 7694.50000  199.44650   48.72870   85.34950   33.53230
 7695.00000  199.70370   48.16340   85.50360   36.92680
 7695.50000  199.48230   47.77590   85.72180   39.83200
 7696.00000  198.51290   47.39070   85.14220   38.49100
 7696.50000  197.72850   47.29550   84.44790   34.82650
 7697.00000  198.09790   47.79480   84.37620   34.34600
 7697.50000  198.18120   49.02990   84.95970   36.02380
 7698.00000  198.22930   50.89880   85.40090   37.01960
 7698.50000  198.26040   51.68020   85.06020   42.02710
 7699.00000  199.12890   50.84980   83.73780   46.12240
 7699.50000  196.95940   49.89160   83.60060   49.77440
 7700.00000  197.50790   49.34470   84.59460   54.28890
 7700.50000  198.22050   49.12150   87.33780   54.43470
 7701.00000  198.28180   49.06330   87.10280   53.08490
 7701.50000  198.54140   48.10350   86.21380   51.73510
 7702.00000  198.06090   47.69090   85.52130   51.75100
 7702.50000  197.52310   48.04620   85.29270   53.22900
 7703.00000  198.09180   49.53980   85.48260   54.70700
 7703.50000  198.19220   50.00040   85.95580   55.97150
 7704.00000  198.17640   49.08040   85.35550   55.35580
 7704.50000  198.03220   47.65030   86.00610   51.30010
 7705.00000  197.43330   47.66400   84.83630   47.69840
 7705.50000  198.15120   48.90620   86.04580   44.45610
 7706.00000  198.26040   50.49070   86.19410   43.80200
 7706.50000  198.26190   51.84510   86.31980   43.40060
 7707.00000  198.29910   52.13150   86.37320   42.40080
 7707.50000  198.65070   51.45350   86.66100   39.18610
 7708.00000  199.37430   49.31120   87.33250   34.94170
 7708.50000  200.52400   48.84220   87.41290   31.00940
 7709.00000  201.65620   51.35250   87.38220   28.37110
 7709.50000  202.14880   53.65970   88.46810   26.26580
 7710.00000  202.34210   55.19210   89.57740   25.02860
 7710.50000  202.10420   56.04220   89.36100   25.60130
 7711.00000  201.25470   57.22720   89.57420   27.47530
 7711.50000  200.83460   58.68540   89.23120   29.51710
 7712.00000  199.25160   58.12050   87.60240   29.85820
 7712.50000  199.15860   55.73640   86.82430   28.98580
 7713.00000  199.10570   54.38480   86.87270   27.84810
 7713.50000  198.44940   53.49770   86.11720   26.71040
 7714.00000  198.89760   52.90480   85.10730   25.57280
 7714.50000  199.11490   52.29220   84.09480   24.99370
 7715.00000  199.14540   52.05770   83.45570   25.48820
 7715.50000  199.13830   51.91680   82.83550   31.15800
 7716.00000  199.11450   50.47390   82.21520   36.71520
 7716.50000  199.17180   49.47000   82.12680   41.66410
 7717.00000  199.29210   49.00770   82.40040   46.61300
 7717.50000  198.28630   49.10700   84.05230   49.56580
 7718.00000  198.25010   50.01720   85.55760   50.24650
 7718.50000  198.23330   50.58350   85.82570   48.06260
 7719.00000  198.24690   50.51380   85.42420   43.53950
 7719.50000  198.30200   50.98780   85.32200   38.40600
 7720.00000  198.25130   51.63920   85.32720   33.42110
 7720.50000  198.28890   52.17800   85.35970   29.74970
 7721.00000  199.07090   52.58950   85.22430   28.52790
 7721.50000  200.87210   50.89660   83.80170   28.01850
 7722.00000  200.00130   49.12570   82.18150   27.13200
 7722.50000  197.62930   48.44890   82.42050   26.04790
 7723.00000  196.57230   49.64410   83.63650   26.04790
 7723.50000  197.85160   50.66780   84.39350   26.69970
 7724.00000  198.99370   50.17520   84.11590   27.19800
 7724.50000  199.30330   48.37700   83.44690   27.16900
 7725.00000  199.33780   46.97900   83.33300   26.70510
 7725.50000  199.32190   46.56460   82.84880   26.39170
 7726.00000  198.91100   46.55930   82.19370   27.02560
 7726.50000  197.82460   46.70340   83.26630   28.62050
 7727.00000  197.54290   46.79660   83.63300   29.97780
 7727.50000  197.98700   46.91940   84.63530   31.33500
 7728.00000  197.79080   46.42140   83.46170   32.69230
 7728.50000  197.88110   46.29640   83.55450   31.78450
 7729.00000  196.94410   46.27200   83.70850   30.10840
 7729.50000  199.07290   46.44670   84.71220   28.43110
 7730.00000  203.04230   46.64310   85.99600   27.04320
 7730.50000  203.22930   46.86490   86.07430   27.68940
 7731.00000  203.00830   47.22980   86.49250   31.17230
 7731.50000  201.77090   48.57420   89.67550   33.38890
 7732.00000  198.83640   51.54190   93.80000   32.56230
 7732.50000  198.52350   52.73560   91.88830   29.89850
 7733.00000  198.75660   50.34580   89.28430   28.00200
 7733.50000  198.32410   49.05240   86.65080   26.30720
 7734.00000  198.25930   47.80880   85.03640   24.83060
 7734.50000  198.24890   47.88270   83.85950   24.53190
 7735.00000  198.54900   48.31790   81.92550   25.33460
 7735.50000  199.30540   47.80800   80.39290   26.13720
 7736.00000  200.03170   48.93940   82.33470   28.78440
 7736.50000  201.13990   52.03690   86.44860   32.81280
 7737.00000  201.35750   53.47680   87.61620   35.66200
 7737.50000  199.74750   52.65230   87.48280   36.33900
 7738.00000  198.51340   52.04570   88.42600   35.51830
 7738.50000  198.00620   52.21460   90.69960   34.26680
 7739.00000  197.54810   52.66430   90.34310   32.96970
 7739.50000  198.40900   52.45580   88.02860   31.87810
 7740.00000  199.60420   52.17930   86.16340   31.84870
 7740.50000  199.11290   51.89040   86.47660   33.30680
 7741.00000  199.63400   50.74440   87.45710   35.21450
 7741.50000  200.01620   50.26020   88.51470   38.20940
 7742.00000  199.67500   50.39950   88.44170   39.52950
 7742.50000  201.42730   50.74220   88.24580   40.43040
 7743.00000  200.90790   50.89870   88.41870   41.16150
 7743.50000  199.42600   51.09750   87.14250   40.87570
 7744.00000  199.17090   50.74530   87.30540   38.69900
 7744.50000  199.17010   50.05810   87.28310   37.83300
 7745.00000  199.23970   49.47310   85.49430   37.70050
 7745.50000  198.25020   49.08980   85.34800   37.57180
 7746.00000  198.22750   48.64450   86.69510   37.44300
 7746.50000  198.20650   47.65600   87.24510   37.56570
 7747.00000  198.09160   47.46820   86.30740   38.61370
 7747.50000  199.35080   48.53090   85.57350   39.82240
 7748.00000  198.12050   50.02660   85.82480   41.07540
 7748.50000  199.44470   50.85480   86.92980   42.08350
 7749.00000  200.58660   51.78150   86.32470   42.93930
 7749.50000  201.17820   52.64730   85.16680   44.52040
 7750.00000  199.02230   53.12130   86.44450   50.17420
 7750.50000  198.15520   52.68270   86.75520   49.78110
 7751.00000  198.23670   51.46890   88.98550   47.91770
 7751.50000  198.41760   49.43800   90.46800   46.45980
 7752.00000  199.12320   47.25170   89.74200   48.11350
 7752.50000  199.43710   46.33510   88.03750   48.24750
 7753.00000  199.49070   47.37790   88.81890   42.09210
 7753.50000  199.50050   47.71560   89.39620   35.39340
 7754.00000  199.50640   46.86210   88.45470   30.45150
 7754.50000  199.50810   46.08020   88.90300   30.16450
 7755.00000  199.50970   45.52620   90.15010   30.44320
 7755.50000  199.51140   45.09080   89.92140   31.87440
 7756.00000  199.61650   44.83850   89.14470   35.04140
 7756.50000  199.70720   46.00490   89.59080   39.77390
 7757.00000  199.66680   46.31970   88.39590   42.96120
 7757.50000  199.00450   46.37880   87.35640   39.51850
 7758.00000  198.16480   46.10780   87.36900   33.24310
 7758.50000  198.60460   46.50960   87.61350   26.95480
 7759.00000  199.46420   47.00490   89.39840   25.50290
 7759.50000  198.49020   46.89840   88.48450   24.83690
 7760.00000  198.19850   46.53410   91.70630   24.17080
 7760.50000  198.38050   46.32080   90.49340   23.49910
 7761.00000  198.62010   46.41870   88.90100   22.96290
 7761.50000  198.27380   46.07160   87.06510   23.24550
 7762.00000  197.82370   45.19510   82.50470   23.53730
