~Version ---------------------------------------------------
VERS.   2.0 : CWLS log ASCII Standard -VERSION 2.0
WRAP.    NO : One line per depth step
DLM . SPACE : Column Data Section Delimiter
~Well ------------------------------------------------------
STRT .F                6404.0 : START DEPTH
STOP .F                9957.0 : STOP DEPTH
STEP .F                   0.5 : STEP
NULL .               -9999.25 : NULL VALUE
COMP .                        : COMPANY
WELL .                        : WELL
FLD  .                        : FIELD
LOC  .                        : LOCATION
PROV .                        : PROVINCE
CNTY .                        : COUNTY
STAT .                        : STATE
CTRY .                        : COUNTRY
SRVC .                        : SERVICE COMPANY
DATE .                        : DATE
UWI  .                        : UNIQUE WELL ID
API  .                        : API NUMBER
SLAT .WGS84 2.329908992646601 : SURFACE LATITUDE
SLON .WGS84 4.975112136590994 : SURFACE LONGITUDE
DATUM.F                2139.5 : DEPTH DATUM ELEV
~Curve Information -----------------------------------------
DEPT.F     : 1 MEASURED DEPTH
DTST.US/F  : DELTA-T STONELEY - MONOPOLE STONELEY
DTCO.US/F  : DELTA-T COMPRESSIONAL
DTSM.US/F  : DELTA-T SHEAR
GRS .GAPI  : GAMMA RAY FROM SONIC LOG
~Params ----------------------------------------------------
~Other -----------------------------------------------------
~ASCII -----------------------------------------------------
# ...
 7119.00000  202.55700   57.80750   97.12850   19.37200
 7119.50000  200.98710   55.91240   91.55080   17.80170
 7120.00000  199.81820   52.73830   87.66290   15.36450
 7120.50000  198.71010   49.83390   86.42980   12.85740
 7121.00000  198.32330   47.38810   85.75770   12.45310
 7121.50000  198.37660   46.91160   85.42000   13.68160
 7122.00000  198.36120   45.41990   85.03450   16.71130
 7122.50000  198.58530   44.80720   84.47000   23.70360
 7123.00000  198.95880   44.35180   84.39540   30.45100
 7123.50000  199.00410   44.86650   84.52840   39.11210
 7124.00000  198.47670   45.48770   84.90720   50.06680
 7124.50000  198.63750   46.56360   85.63890   64.12130
 7125.00000  198.64840   47.10710   86.87910   74.17490
 7125.50000  198.43020   47.42860   87.22160   74.92420
 7126.00000  198.86230   46.05200   87.27780   66.51790
 7126.50000  198.88780   44.70620   87.14000   49.96350
 7127.00000  197.46550   44.62230   85.77640   40.48640
 7127.50000  196.21270   46.01090   82.33670   34.74670
 7128.00000  196.30300   46.97780   78.32770   28.51870
 7128.50000  196.54760   46.49490   75.36800   23.48130
 7129.00000  195.61060   46.18560   79.61700   20.19830
 7129.50000  195.57200   47.66360   83.97570   18.90700
 7130.00000  196.72650   48.68190   85.18920   18.27630
 7130.50000  197.04670   48.63070   83.50820   17.75230
 7131.00000  197.37860   48.54720   80.63130   16.67340
 7131.50000  197.34070   50.12920   83.08200   15.84670
 7132.00000  196.49310   53.49190   88.39710   16.26160
 7132.50000  196.27240   57.27730   93.78150   17.09800
 7133.00000  196.40840   60.48490   99.59790   17.86490
 7133.50000  198.23800   63.93630  105.72460   17.26860
 7134.00000  200.53200   69.43610  116.11810   14.24810
 7134.50000  203.19530   76.13000  128.28890   11.10500
 7135.00000  206.77930   79.58570  134.08480    9.94500
 7135.50000  207.81420   78.77010  134.91890   10.67730
 7136.00000  208.60530   79.13270  139.22200   12.28040
 7136.50000  210.56600   80.87070  142.69490   13.60870
 7137.00000  209.63110   78.55010  143.95080   14.47160
 7137.50000  205.07950   73.97660  138.21570   15.50250
 7138.00000  200.25950   68.23690  130.04990   16.41470
 7138.50000  197.39570   66.33500  119.91250   16.31500
 7139.00000  197.77880   68.98650  122.41040   15.53490
 7139.50000  197.76550   80.26920  137.97840   14.36390
 7140.00000  196.22080   87.08390  147.38630   12.97800
 7140.50000  196.35860   85.03250  144.60710   12.25380
 7141.00000  196.79330   76.66990  131.36510   13.95350
 7141.50000  196.26670   69.34580  118.58030   18.27570
 7142.00000  196.24250   67.01430  112.47140   27.66590
 7142.50000  196.38030   65.93110  106.56280   45.29760
 7143.00000  196.95650   64.71270  102.29590   62.84680
 7143.50000  196.08490   63.18600   98.98890   76.72290
 7144.00000  196.18930   61.24400   94.99270   85.47240
 7144.50000  194.69630   57.95190   90.19230   90.84680
 7145.00000  196.99080   54.88710   85.46740   94.37280
 7145.50000  195.66490   51.73090   80.45830   95.71240
 7146.00000  193.64690   50.48360   76.72340   93.45450
 7146.50000  194.09600   52.60950   80.48220   85.75620
 7147.00000  193.97420   57.01780   87.02560   73.42270
 7147.50000  192.71070   59.67590   94.72710   58.10370
 7148.00000  193.86280   55.85760  101.27670   44.60330
 7148.50000  195.74590   50.29010  100.32540   37.86300
 7149.00000  196.31210   49.54560  103.02610   36.18440
 7149.50000  198.38420   49.95430  105.56590   34.21670
 7150.00000  201.69560   47.87170   99.68580   27.06150
 7150.50000  203.91750   45.97570   91.57770   21.34860
 7151.00000  204.45110   45.30420   86.20100   17.73110
 7151.50000  202.04540   45.10730   84.45640   17.15990
 7152.00000  199.20970   49.33800   98.90860   19.45950
 7152.50000  199.48790   58.82050  114.56320   24.00210
 7153.00000  200.85220   63.98480  120.94170   26.59590
 7153.50000  202.83550   62.74810  117.03470   28.36690
 7154.00000  206.15790   61.24860  113.27720   27.80140
 7154.50000  212.03100   60.21370  110.07130   26.75600
 7155.00000  215.56880   57.54270  105.48390   25.26520
 7155.50000  218.18420   53.27880   98.65050   25.74720
 7156.00000  212.68030   48.57860   91.81720   30.91430
 7156.50000  202.41480   46.06040   84.98380   40.54690
 7157.00000  195.80110   46.01680   84.62670   47.57310
 7157.50000  193.34740   49.85730   93.83580   51.63390
 7158.00000  194.48410   57.65170  110.88030   49.57260
 7158.50000  196.03510   60.06590  117.67930   42.35700
 7159.00000  197.08360   62.04710  119.81810   38.30320
 7159.50000  195.97670   63.66490  123.90640   37.91720
 7160.00000  198.06580   76.32940  139.74710   41.89150
 7160.50000  197.33170   82.34190  147.66840   48.45410
 7161.00000  196.34860   75.67700  145.83180   53.00990
 7161.50000  197.32050   69.34630  144.75250   58.09500
 7162.00000  197.40120   63.75340  134.60650   63.44220
 7162.50000  198.04060   51.42150  107.09110   65.62800
 7163.00000  198.68840   46.96840   92.40280   66.21560
 7163.50000  200.85550   47.37660   91.72760   68.60320
 7164.00000  202.16630   47.38520   90.53030   73.21730
 7164.50000  200.28390   46.37840   89.41690   72.02940
 7165.00000  199.22250   46.92750   89.81690   69.18260
 7165.50000  199.29880   47.32720   91.46010   66.63270
 7166.00000  198.83710   46.75260   92.25920   71.84800
 7166.50000  198.27020   46.28960   92.29920   75.43420
 7167.00000  199.02110   48.53070   95.44870   69.88120
 7167.50000  199.42780   49.98600   97.29990   53.68970
 7168.00000  199.48690   48.86370   93.61340   31.37350
 7168.50000  199.45810   47.86860   89.78080   15.56720
 7169.00000  199.08060   51.94060   89.16970   11.86550
 7169.50000  198.30330   52.45480   88.18690   10.51030
 7170.00000  198.20510   50.65600   85.30340   12.64350
 7170.50000  198.31350   48.68520   85.34170   16.23280
 7171.00000  198.59650   48.41330   85.12410   19.23780
 7171.50000  198.72010   47.79320   84.24310   19.85310
 7172.00000  199.32170   47.14850   86.00530   17.95020
 7172.50000  199.29000   48.41390   90.44580   14.51200
 7173.00000  199.08850   48.54670   93.68490   11.65520
 7173.50000  199.29950   47.45590   93.33490   10.31530
 7174.00000  199.32840   46.36510   89.08070    9.96990
 7174.50000  198.93210   45.82460   88.60530    9.93750
 7175.00000  198.35430   46.18670   89.61600    9.96830
 7175.50000  199.37500   48.39670   88.71870   10.07690
 7176.00000  198.82500   50.60660   84.97430   10.86350
 7176.50000  198.22160   52.81650   84.44310   13.48520
 7177.00000  198.23780   54.04680   84.61900   15.92510
 7177.50000  198.33540   53.98860   85.39100   17.63880
 7178.00000  199.05200   53.99160   86.09500   16.96920
 7178.50000  199.46340   53.90330   86.52400   15.24280
 7179.00000  199.29580   53.86010   87.25380   14.81810
 7179.50000  199.09320   53.77740   87.38160   17.04060
 7180.00000  198.05490   54.99360   87.64140   23.96120
 7180.50000  198.08690   56.85250   88.06370   31.13900
 7181.00000  199.06220   57.65440   86.89060   33.63950
 7181.50000  197.97310   57.70920   86.12850   29.59630
 7182.00000  199.78980   58.50280   88.54150   21.67830
 7182.50000  199.78580   60.27870   92.74760   15.23580
 7183.00000  198.87240   57.85860   89.20490   12.83600
 7183.50000  197.85270   52.42140   79.18790   11.46760
 7184.00000  197.14170   48.30260   81.56370   10.21880
 7184.50000  198.04810   46.44640   86.85980    9.99620
 7185.00000  200.35400   46.14790   86.84150   11.16510
 7185.50000  200.90350   45.85650   86.03840   12.92470
 7186.00000  198.06190   46.80660   86.00580   15.18420
 7186.50000  197.30700   50.62170   86.12550   15.78990
 7187.00000  198.53170   53.29130   86.24520   15.24160
 7187.50000  200.04960   54.45990   87.45800   14.24140
 7188.00000  197.91200   53.79850   86.20220   13.32610
 7188.50000  196.43190   52.80570   82.37740   13.21100
 7189.00000  196.26420   52.92550   80.28620   14.31590
 7189.50000  196.17470   53.92180   80.23970   16.21100
 7190.00000  196.74780   53.63260   79.74050   21.28830
