~Version ---------------------------------------------------
VERS.   2.0 : CWLS log ASCII Standard -VERSION 2.0
WRAP.    NO : One line per depth step
DLM . SPACE : Column Data Section Delimiter
~Well ------------------------------------------------------
STRT .F                6404.0 : START DEPTH
STOP .F                9957.0 : STOP DEPTH
STEP .F                   0.5 : STEP
NULL .               -9999.25 : NULL VALUE
COMP .                        : COMPANY
WELL .                        : WELL
FLD  .                        : FIELD
LOC  .                        : LOCATION
PROV .                        : PROVINCE
CNTY .                        : COUNTY
STAT .                        : STATE
CTRY .                        : COUNTRY
SRVC .                        : SERVICE COMPANY
DATE .                        : DATE
UWI  .                        : UNIQUE WELL ID
API  .                        : API NUMBER
SLAT .WGS84 2.329908992646601 : SURFACE LATITUDE
SLON .WGS84 4.975112136590994 : SURFACE LONGITUDE
DATUM.F                2139.5 : DEPTH DATUM ELEV
~Curve Information -----------------------------------------
DEPT.F     : 1 MEASURED DEPTH
DTST.US/F  : DELTA-T STONELEY - MONOPOLE STONELEY
DTCO.US/F  : DELTA-T COMPRESSIONAL
DTSM.US/F  : DELTA-T SHEAR
GRS .GAPI  : GAMMA RAY FROM SONIC LOG
~Params ----------------------------------------------------
~Other -----------------------------------------------------
~ASCII -----------------------------------------------------
# ...
 6904.50000  208.92030   51.07100   90.58340   55.08230
 6905.00000  209.26340   51.10050   90.60430   59.09850
 6905.50000  209.54530   50.74030   90.30400   59.54140
 6906.00000  209.89250   50.20310   90.03700   52.82540
 6906.50000  210.39740   49.67400   90.01040   44.34040
 6907.00000  211.36950   49.28880   89.82510   35.78940
 6907.50000  212.30530   49.12150   89.64340   28.56740
 6908.00000  212.36280   49.49810   89.52470   23.70070
 6908.50000  212.09170   49.90970   89.40790   23.23350
 6909.00000  211.87040   49.92860   89.40660   24.15140
 6909.50000  211.71750   49.52170   89.40530   24.52430
 6910.00000  208.55470   49.42970   89.61100   25.36840
 6910.50000  207.40410   49.72280   89.87270   26.91970
 6911.00000  207.52170   51.14820   91.28700   29.51280
 6911.50000  207.05480   52.32450   92.59540   30.73100
 6912.00000  206.26450   52.20270   92.77980   29.64830
 6912.50000  205.98860   51.26050   92.26870   26.07600
 6913.00000  205.95740   50.57830   91.69080   24.12040
 6913.50000  206.08700   50.40050   91.25190   23.09740
 6914.00000  206.58950   50.23910   90.92060   22.77130
 6914.50000  207.12330   50.24160   90.47150   23.60790
 6915.00000  207.15980   50.46580   90.33260   25.06870
 6915.50000  207.46800   50.84000   90.19360   26.23230
 6916.00000  208.03830   51.73440   90.19810   27.25490
 6916.50000  208.17620   52.90850   90.46160   28.52540
 6917.00000  207.75500   54.01520   90.54900   29.33990
 6917.50000  207.40690   54.92510   90.44680   29.03430
 6918.00000  209.07990   55.12550   90.45150   28.18570
 6918.50000  209.78490   55.17150   93.14610   27.46180
 6919.00000  209.62940   55.16030   93.82070   26.81750
 6919.50000  209.38510   55.13650   94.44430   26.05250
 6920.00000  209.22830   54.82650   94.38110   25.84280
 6920.50000  209.26780   52.67400   92.59180   26.24620
 6921.00000  209.50100   50.28810   91.08680   28.76100
 6921.50000  209.86940   49.76460   94.12880   30.39640
 6922.00000  210.13620   48.96240   93.64650   30.91830
 6922.50000  210.20020   48.32990   92.57320   30.47950
 6923.00000  210.04250   48.74730   91.99590   30.12150
 6923.50000  209.48090   49.45260   91.04760   29.89620
 6924.00000  208.28150   50.27990   87.99940   28.90480
 6924.50000  207.32910   51.64800   84.98030   27.97930
 6925.00000  207.40080   51.82570   84.38830   27.87260
 6925.50000  208.58890   51.75830   84.30220   28.71420
 6926.00000  209.16160   51.30660   84.54190   29.87150
 6926.50000  209.22460   50.02440   85.16090   30.35390
 6927.00000  209.17490   50.02430   85.65110   30.46780
 6927.50000  209.47630   50.79140   87.04040   31.13410
 6928.00000  209.76830   50.94350   88.60860   33.62730
 6928.50000  209.93150   50.52440   90.15150   36.14540
 6929.00000  209.50930   50.65980   90.05600   37.00410
 6929.50000  209.26180   50.83920   90.31910   37.05390
 6930.00000  209.18340   50.11510   89.77330   35.53050
 6930.50000  209.24700   50.03120   89.92580   33.33990
 6931.00000  209.13830   50.08290   91.15480   31.12360
 6931.50000  208.82590   50.13450   91.05190   29.52380
 6932.00000  208.47540   50.74880   91.23200   29.09440
 6932.50000  207.66000   51.26980   90.89980   30.01630
 6933.00000  206.74600   50.68770   90.49510   29.85240
 6933.50000  206.23380   50.18840   91.05770   27.86990
 6934.00000  206.36040   50.69240   93.59300   25.64340
 6934.50000  206.74050   51.21700   94.52850   25.75890
 6935.00000  207.78930   50.69460   94.01810   26.43040
 6935.50000  209.12220   48.24980   91.99200   25.70220
 6936.00000  209.35950   47.79440   90.09260   22.15360
 6936.50000  209.31900   46.96680   89.82980   17.49470
 6937.00000  209.27860   46.26060   89.99530   14.91580
 6937.50000  209.27350   45.55360   88.33090   14.53840
 6938.00000  209.27920   46.06580   89.08820   15.68410
 6938.50000  209.41790   46.37790   88.33420   16.82990
 6939.00000  209.67060   46.91730   86.29000   18.78610
 6939.50000  210.58970   46.47630   87.24940   20.65230
 6940.00000  211.61830   48.10970   89.50770   22.27920
 6940.50000  211.82040   49.10340   88.36510   22.80140
 6941.00000  211.18020   47.63230   90.54930   22.37310
 6941.50000  209.92700   49.46340   91.30340   21.48150
 6942.00000  209.64830   50.03880   89.87800   21.47250
 6942.50000  209.81470   50.45730   89.13000   21.90860
 6943.00000  210.23430   50.51820   88.53450   22.62620
 6943.50000  210.24170   50.51320   89.60290   23.36890
 6944.00000  208.79410   50.71680   91.35070   24.23880
 6944.50000  206.14520   51.28260   92.97210   26.23200
 6945.00000  209.88600   52.02180   94.02540   28.29830
 6945.50000  211.25430   52.86750   93.32590   30.54390
 6946.00000  210.30720   53.64770   92.60010   32.37170
 6946.50000  209.40080   54.20070   89.78080   30.35850
 6947.00000  209.45930   54.38390   88.23180   27.24910
 6947.50000  209.64040   49.94130   83.40280   24.81700
 6948.00000  209.79140   50.49020   84.03810   23.74090
 6948.50000  209.76630   55.67360   89.99160   24.01540
 6949.00000  208.90000   57.66170   94.70760   26.42400
 6949.50000  207.94340   56.62730   95.27460   30.30370
 6950.00000  206.59910   56.34300   95.44100   33.00880
 6950.50000  206.15870   57.08680   95.81580   35.01690
 6951.00000  206.35440   57.25230   98.13250   34.45750
 6951.50000  207.22530   57.26920  100.25460   33.36880
 6952.00000  208.45570   57.09880   98.27190   31.90090
 6952.50000  209.25360   56.87350   93.54070   29.54770
 6953.00000  208.42000   54.64860   88.38050   25.33130
 6953.50000  208.15980   54.19690   86.03190   21.62350
 6954.00000  208.32240   54.77110   85.45870   20.21020
 6954.50000  208.32240   56.05240   85.06290   23.60940
 6955.00000  207.92530   56.90070   84.66710   28.06050
 6955.50000  205.97590   56.79500   84.04270   30.48420
 6956.00000  206.87150   56.45040   83.47230   31.98260
 6956.50000  207.82750   56.26320   83.12040   32.56030
 6957.00000  207.87150   56.21190   83.28010   33.05030
 6957.50000  207.91640   55.90950   83.07650   33.19500
 6958.00000  209.64440   55.34270   82.81420   31.71030
 6958.50000  211.07400   55.35020   82.70090   29.73850
 6959.00000  208.43030   55.95930   83.30690   28.81250
 6959.50000  206.20620   55.82500   83.12150   28.19760
 6960.00000  206.53410   53.76220   81.71650   29.70830
 6960.50000  208.33520   53.06080   80.35390   31.21890
 6961.00000  210.93900   52.39450   79.21040   32.50100
 6961.50000  212.55680   52.52490   79.49640   32.47000
 6962.00000  214.02610   53.40110   80.51680   31.10420
 6962.50000  215.86770   54.42920   82.47540   29.12970
 6963.00000  216.93350   56.27360   84.64850   26.72060
 6963.50000  218.48300   57.07230   86.03700   23.09510
 6964.00000  223.80480   57.11050   85.86010   18.11260
 6964.50000  229.35030   56.75770   84.87000   14.40040
 6965.00000  229.06780   54.95290   83.03370   12.15450
 6965.50000  228.08110   53.40470   80.99250   12.23780
 6966.00000  227.63310   53.20790   81.03340   16.11920
 6966.50000  226.47770   54.94570   82.98240   21.92400
 6967.00000  224.31470   55.86760   84.45700   34.78840
 6967.50000  222.30610   55.54100   85.18290   51.42560
 6968.00000  222.51930   57.48720   87.47650   67.07770
 6968.50000  223.18880   56.53250   91.61830   74.38600
 6969.00000  222.74760   53.68030   93.39430   72.92340
 6969.50000  219.45300   51.59250   94.16770   68.53720
 6970.00000  216.20630   51.50180   92.91410   63.16490
 6970.50000  213.52800   51.54360   92.16490   59.48680
 6971.00000  211.95180   50.98120   92.20260   56.60020
 6971.50000  210.48280   49.89070   87.75960   56.55570
 6972.00000  207.06960   47.55440   85.02570   61.74410
 6972.50000  206.96030   46.18330   85.47620   69.77350
 6973.00000  206.59800   47.07920   85.83540   76.23840
 6973.50000  206.04050   48.05130   88.50680   80.86450
 6974.00000  206.32290   50.93450   91.48070   81.31040
 6974.50000  207.02620   52.54070   92.98210   79.90870
 6975.00000  207.03100   51.58200   93.39010   79.65150
 6975.50000  207.12380   50.03850   98.04600   81.14080
