~Version ---------------------------------------------------
VERS.   2.0 : CWLS log ASCII Standard -VERSION 2.0
WRAP.    NO : One line per depth step
DLM . SPACE : Column Data Section Delimiter
~Well ------------------------------------------------------
STRT .F                6404.0 : START DEPTH
STOP .F                9957.0 : STOP DEPTH
STEP .F                   0.5 : STEP
NULL .               -9999.25 : NULL VALUE
COMP .                        : COMPANY
WELL .                        : WELL
FLD  .                        : FIELD
LOC  .                        : LOCATION
PROV .                        : PROVINCE
CNTY .                        : COUNTY
STAT .                        : STATE
CTRY .                        : COUNTRY
SRVC .                        : SERVICE COMPANY
DATE .                        : DATE
UWI  .                        : UNIQUE WELL ID
API  .                        : API NUMBER
SLAT .WGS84 2.329908992646601 : SURFACE LATITUDE
SLON .WGS84 4.975112136590994 : SURFACE LONGITUDE
DATUM.F                2139.5 : DEPTH DATUM ELEV
~Curve Information -----------------------------------------
DEPT.F     : 1 MEASURED DEPTH
DTST.US/F  : DELTA-T STONELEY - MONOPOLE STONELEY
DTCO.US/F  : DELTA-T COMPRESSIONAL
DTSM.US/F  : DELTA-T SHEAR
GRS .GAPI  : GAMMA RAY FROM SONIC LOG
~Params ----------------------------------------------------
~Other -----------------------------------------------------
~ASCII -----------------------------------------------------
# ...
 8406.00000  211.81040   58.30720   88.17810   22.13430
 8406.50000  213.11160   55.84750   85.73590   28.79770
 8407.00000  211.96820   53.65680   85.70260   35.46110
 8407.50000  208.98020   50.66010   82.97490   41.39010
 8408.00000  204.97700   51.02220   83.74540   46.85970
 8408.50000  203.95940   58.50590   92.22370   47.68450
 8409.00000  203.93120   63.42410   99.45210   43.17020
 8409.50000  204.00540   65.51730  103.82490   36.88870
 8410.00000  203.26420   67.97190  101.59090   28.27330
 8410.50000  202.00080   68.88740  101.75340   21.75240
 8411.00000  201.25530   68.10420   99.29280   18.99660
 8411.50000  201.07790   63.97410   94.78700   18.38690
 8412.00000  198.18740   56.69530   89.58850   18.19330
 8412.50000  199.47430   49.99510   89.30490   18.19080
 8413.00000  199.79810   46.96360   89.47210   18.67670
 8413.50000  199.47690   45.18510   89.86570   19.59360
 8414.00000  200.66900   45.34890   89.14630   20.51040
 8414.50000  201.08240   46.10560   88.17810   21.18130
 8415.00000  201.91690   46.06740   87.36300   20.56770
 8415.50000  202.29730   46.43760   88.14310   19.11390
 8416.00000  202.60670   49.87710   97.84630   17.66010
 8416.50000  202.22640   52.42430  103.39120   16.42080
 8417.00000  202.01850   50.59820  100.70100   15.49700
 8417.50000  200.92870   47.79360   94.23910   15.49450
 8418.00000  200.41670   46.76750   92.19000   15.72420
 8418.50000  200.16400   47.02070   93.09190   15.95760
 8419.00000  200.73510   49.92390   97.77240   16.19100
 8419.50000  201.06420   51.29820  102.23840   16.42430
 8420.00000  201.12960   49.61600  101.03960   16.59440
 8420.50000  201.38220   46.57920   98.42340   16.04420
 8421.00000  201.98630   46.27710   97.87650   15.31150
 8421.50000  202.04390   46.74730   96.98890   14.38640
 8422.00000  201.31910   47.91650   95.87880   14.06610
 8422.50000  201.25640   48.73380   94.72390   14.43910
 8423.00000  201.18480   49.19100   92.43280   14.98120
 8423.50000  200.49640   49.61030   91.33370   15.47630
 8424.00000  199.22180   49.06320   90.56220   16.23230
 8424.50000  197.43580   49.00760   93.81630   17.56290
 8425.00000  198.18890   49.34390   96.76400   19.95220
 8425.50000  198.57020   47.82160   96.21150   19.66500
 8426.00000  197.72920   45.85690   94.59970   18.25810
 8426.50000  198.53880   45.82470   93.77150   18.80410
 8427.00000  202.62370   46.90820   92.90210   20.36720
 8427.50000  197.86480   47.79400   91.82840   21.08790
 8428.00000  197.79630   47.78330   90.79610   19.31900
 8428.50000  199.29620   48.15970   90.10110   18.22810
 8429.00000  199.44040   49.08920   92.75250   18.22260
 8429.50000  199.18680   48.91120   91.88250   18.00200
 8430.00000  198.73990   47.99940   90.57580   16.17160
 8430.50000  198.45100   46.83280   89.26900   15.07680
 8431.00000  199.20340   46.95670   88.46720   15.07520
 8431.50000  199.24060   47.07260   89.17460   15.44870
 8432.00000  199.27880   47.49020   90.35690   16.28160
 8432.50000  199.32100   48.48340   93.98280   16.38480
 8433.00000  199.28280   50.05500   96.89620   14.90880
 8433.50000  200.61240   51.57900   96.90180   12.94180
 8434.00000  201.64470   53.63980   94.53410   12.08330
 8434.50000  202.13250   54.09110   92.28160   12.27110
 8435.00000  202.57310   53.62820   92.65560   13.13120
 8435.50000  202.80240   53.17720   94.70330   14.21570
 8436.00000  201.82980   52.81540   97.16760   15.23830
 8436.50000  200.10220   52.62120   98.58360   16.21220
 8437.00000  199.21280   53.11300   97.98400   16.48980
 8437.50000  197.58590   52.83850   95.30420   17.79830
 8438.00000  195.37010   52.50260   92.09650   18.00310
 8438.50000  195.15770   53.24710   88.88890   17.77440
 8439.00000  196.83280   53.60830   85.73340   16.79330
 8439.50000  198.93250   53.91710   82.67730   15.79000
 8440.00000  201.04900   53.79540   79.62120   15.82900
 8440.50000  201.51080   50.49080   76.03940   16.35570
 8441.00000  199.12770   49.33220   72.63980   18.47040
 8441.50000  198.41970   48.54520   72.64320   21.85680
 8442.00000  199.41020   49.44840   78.22500   25.00270
 8442.50000  199.97190   51.18000   86.13750   28.06510
 8443.00000  200.68790   55.68060   94.05000   30.87150
 8443.50000  201.36630   63.64570  101.96250   40.44770
 8444.00000  201.31660   66.25340  106.51540   46.74710
 8444.50000  197.95470   68.24130  114.88840   45.60230
 8445.00000  206.51190   77.91030  129.55550   36.89550
 8445.50000  212.56180   77.93450  130.37540   28.18860
 8446.00000  220.23340   68.59500  111.06990   23.16130
 8446.50000  221.82620   62.33480   96.01530   21.10690
 8447.00000  219.68280   62.12310   95.89080   21.10690
 8447.50000  213.57140   61.93070   97.75470   22.18260
 8448.00000  208.63490   60.57780   99.86120   23.58090
 8448.50000  204.86430   59.00140   98.25050   23.45910
 8449.00000  202.04640   55.78720   93.40660   21.68310
 8449.50000  201.78650   54.69170   89.66510   19.27770
 8450.00000  200.75520   54.91730   90.56840   16.22770
 8450.50000  198.81430   55.02620   92.91800   15.80920
 8451.00000  198.83720   54.50050   94.94850   16.08580
 8451.50000  201.24870   52.64040   92.08020   16.15900
 8452.00000  201.65750   49.57210   88.64500   16.28150
 8452.50000  198.78060   49.41930   93.91680   17.94410
 8453.00000  198.12610   51.26080   99.09640   21.45780
 8453.50000  196.65630   50.98570   99.50500   33.62390
 8454.00000  197.97660   48.05910   95.47560   50.43370
 8454.50000  199.08870   46.79600   95.24750   54.69370
 8455.00000  198.27200   46.97100   97.22880   51.15250
 8455.50000  198.54550   48.89840  103.11550   42.60230
 8456.00000  201.05000   52.49290  112.92290   32.64560
 8456.50000  209.57660   59.48240  124.73530   26.52470
 8457.00000  216.38040   64.42400  136.74990   24.35940
 8457.50000  214.75300   67.46590  140.65730   23.27640
 8458.00000  213.80080   71.89680  139.46230   22.92150
 8458.50000  213.00460   72.32200  129.21200   22.99630
 8459.00000  211.95260   68.84370  113.73850   23.79200
 8459.50000  209.12530   59.41460  105.82490   26.68720
 8460.00000  205.42210   58.74150  101.78660   32.20190
 8460.50000  202.05410   58.12850   99.18920   36.38150
 8461.00000  201.30820   58.10790   98.06450   36.32140
 8461.50000  201.70830   59.38680   97.30430   33.96100
 8462.00000  200.75810   59.24410   98.31570   31.59690
 8462.50000  200.07590   57.28070   99.96420   29.23290
 8463.00000  206.57760   56.11290  100.41480   26.34000
 8463.50000  204.29050   54.98590   99.07070   22.40610
 8464.00000  203.74680   54.87630   97.52860   19.49220
 8464.50000  203.46360   54.71640   93.72700   17.91430
 8465.00000  204.28930   53.13490   87.44950   16.70180
 8465.50000  202.67550   53.51450   88.61590   15.68710
 8466.00000  202.64450   54.31960   90.28770   15.34260
 8466.50000  202.14360   55.05090   90.48120   15.51070
 8467.00000  200.97770   55.13240   90.38230   16.54180
 8467.50000  202.05280   53.89620   85.46840   18.24420
 8468.00000  201.78810   53.56020   84.77860   21.33740
 8468.50000  201.20770   53.72890   88.67080   24.14720
 8469.00000  201.17780   55.10780   91.18820   26.06690
 8469.50000  200.78970   55.21150   93.16580   24.93140
 8470.00000  199.38270   53.27500   92.47600   21.72370
 8470.50000  199.38550   51.08010   91.17790   18.62070
 8471.00000  200.75780   50.61130   90.41170   16.38500
 8471.50000  201.08270   50.92120   90.06630   15.62230
 8472.00000  201.19940   50.79270   89.80260   16.27410
 8472.50000  201.26270   52.54180   89.53900   16.60500
 8473.00000  202.27760   53.56900   89.27530   16.60120
 8473.50000  201.19050   52.64730   88.61700   16.59740
 8474.00000  200.31210   49.13160   87.00890   16.12030
 8474.50000  199.29440   49.94430   85.97650   15.47260
 8475.00000  199.63670   52.68880   86.07780   14.93320
 8475.50000  199.62920   52.97550   85.64160   14.91490
 8476.00000  199.43510   52.00270   84.92810   18.20550
 8476.50000  200.37950   51.49510   85.37360   22.09690
 8477.00000  201.06050   51.17420   88.34870   24.38370
