~Version ---------------------------------------------------
VERS.   2.0 : CWLS log ASCII Standard -VERSION 2.0
WRAP.    NO : One line per depth step
DLM . SPACE : Column Data Section Delimiter
~Well ------------------------------------------------------
STRT .F                6404.0 : START DEPTH
STOP .F                9957.0 : STOP DEPTH
STEP .F                   0.5 : STEP
NULL .               -9999.25 : NULL VALUE
COMP .                        : COMPANY
WELL .                        : WELL
FLD  .                        : FIELD
LOC  .                        : LOCATION
PROV .                        : PROVINCE
CNTY .                        : COUNTY
STAT .                        : STATE
CTRY .                        : COUNTRY
SRVC .                        : SERVICE COMPANY
DATE .                        : DATE
UWI  .                        : UNIQUE WELL ID
API  .                        : API NUMBER
SLAT .WGS84 2.329908992646601 : SURFACE LATITUDE
SLON .WGS84 4.975112136590994 : SURFACE LONGITUDE
DATUM.F                2139.5 : DEPTH DATUM ELEV
~Curve Information -----------------------------------------
DEPT.F     : 1 MEASURED DEPTH
DTST.US/F  : DELTA-T STONELEY - MONOPOLE STONELEY
DTCO.US/F  : DELTA-T COMPRESSIONAL
DTSM.US/F  : DELTA-T SHEAR
GRS .GAPI  : GAMMA RAY FROM SONIC LOG
~Params ----------------------------------------------------
~Other -----------------------------------------------------
~ASCII -----------------------------------------------------
# ...
 7262.00000  203.52420   47.68690   96.72270   15.83330
 7262.50000  207.48450   51.74340  104.30080   15.02630
 7263.00000  210.72310   52.73360  106.09530   14.53610
 7263.50000  210.66610   53.00740  106.13880   13.89670
 7264.00000  209.10720   54.87700  106.85280   13.01310
 7264.50000  208.19670   56.86800  107.74880   12.71060
 7265.00000  206.68530   55.18670  102.19230   12.41150
 7265.50000  202.98570   53.59470   97.72040   12.10750
 7266.00000  201.08220   52.90090   96.53650   12.69520
 7266.50000  201.25670   52.44250   95.45810   14.77190
 7267.00000  201.45030   50.66620   94.06180   17.89290
 7267.50000  201.12820   48.96240   92.17360   21.85300
 7268.00000  198.76310   48.78910   90.47810   28.64230
 7268.50000  199.62190   48.96470   89.77550   40.38130
 7269.00000  199.77490   48.82900   89.45460   52.77830
 7269.50000  199.35930   48.70510   88.92120   62.14450
 7270.00000  200.83210   49.91930   91.57200   61.77360
 7270.50000  201.21390   50.96790   91.85520   50.61050
 7271.00000  201.38270   50.85060   92.02400   38.66280
 7271.50000  202.38960   50.64040   92.26290   28.81910
 7272.00000  201.30150   50.82920   94.42390   23.14680
 7272.50000  201.70060   51.86310   96.52990   21.75650
 7273.00000  201.24970   52.89700   98.49470   21.68600
 7273.50000  202.04780   53.52650  100.56990   21.15490
 7274.00000  202.50340   51.97820  102.90370   20.37190
 7274.50000  203.02580   51.80790  103.82890   19.38060
 7275.00000  203.18540   53.29980  103.26510   18.51000
 7275.50000  203.16670   54.68870  102.72170   17.16970
 7276.00000  202.86530   55.13460  101.46430   16.31230
 7276.50000  200.03360   54.74990   99.14370   15.75370
 7277.00000  198.77210   53.00620   95.91890   17.21370
 7277.50000  200.59270   51.13470   94.57360   19.46330
 7278.00000  199.39180   50.43360   91.71530   21.02240
 7278.50000  197.91600   50.10970   88.97880   22.41350
 7279.00000  197.62180   49.52990   87.28860   23.75710
 7279.50000  198.60900   47.80520   86.80660   24.98190
 7280.00000  197.75780   46.71810   87.54900   26.19010
 7280.50000  197.41050   47.16970   87.94090   27.26380
 7281.00000  200.14310   47.54210   85.26620   30.59260
 7281.50000  200.84080   47.08440   83.22900   38.91030
 7282.00000  198.16620   47.59480   83.71920   48.65960
 7282.50000  198.70510   48.86340   85.06370   53.40170
 7283.00000  199.52120   49.23760   86.02300   47.68390
 7283.50000  199.89500   48.68200   87.58880   39.77960
 7284.00000  200.09320   48.22460   90.38430   29.79060
 7284.50000  200.81600   48.88650   92.04650   24.81690
 7285.00000  201.88160   50.83850   91.79900   22.10380
 7285.50000  202.20000   51.98170   90.72400   19.29730
 7286.00000  202.59410   50.10690   91.20430   17.39130
 7286.50000  202.98810   48.68190   92.31720   17.62320
 7287.00000  203.15490   49.08690   93.40890   18.52280
 7287.50000  203.41610   50.59310   95.98210   19.38290
 7288.00000  203.88050   51.71970   96.82710   19.70280
 7288.50000  204.06610   52.85790   97.52350   19.41300
 7289.00000  204.21990   55.04740   99.26700   19.08600
 7289.50000  204.11130   57.51850   98.78390   18.97370
 7290.00000  202.86780   56.99650   95.95540   20.21490
 7290.50000  201.20130   54.12340   93.08500   23.60020
 7291.00000  201.59280   51.51540   88.97940   25.85270
 7291.50000  202.61410   47.54570   84.48910   26.96000
 7292.00000  199.02180   46.18400   80.82830   28.01960
 7292.50000  197.92100   48.51790   79.76340   31.89240
 7293.00000  198.26560   51.25210   79.50630   36.97170
 7293.50000  199.39910   54.06360   77.27370   37.13440
 7294.00000  199.32860   54.54490   79.00980   33.72000
 7294.50000  199.20550   53.52910   82.65940   30.01320
 7295.00000  198.77240   51.72770   83.24000   30.58850
 7295.50000  198.11410   47.42160   80.98170   34.46650
 7296.00000  197.78460   49.46310   87.28870   38.30250
 7296.50000  197.65930   58.03100  103.60060   40.27380
 7297.00000  197.56330   67.78060  124.64790   37.56000
 7297.50000  198.22400   73.25340  138.43550   32.55640
 7298.00000  198.17550   74.25180  142.48370   28.09530
 7298.50000  197.25990   73.72830  143.56260   27.96760
 7299.00000  195.84950   72.25720  141.97080   29.70130
 7299.50000  197.46710   69.78410  138.91940   30.45910
 7300.00000  197.70920   67.79790  135.98080   31.46060
 7300.50000  197.28740   66.29750  132.44440   32.40110
 7301.00000  197.17190   64.18680  124.18460   33.22860
 7301.50000  198.43280   61.92980  117.67700   33.76060
 7302.00000  200.02230   61.75170  121.53810   33.31890
 7302.50000  201.20190   61.79900  119.28250   32.77120
 7303.00000  201.98680   61.24250  111.14220   33.05180
 7303.50000  200.82850   62.18130  104.24110   33.10590
 7304.00000  197.39750   61.83320   99.40200   31.35910
 7304.50000  197.40540   59.49750   94.89540   29.65600
 7305.00000  198.03880   57.04340   89.74100   29.71940
 7305.50000  198.68470   54.33390   87.47670   31.78500
 7306.00000  199.81630   51.31700   90.29180   39.17590
 7306.50000  199.95470   50.61100   92.46030   47.45870
 7307.00000  199.49060   52.31330   92.47320   56.15940
 7307.50000  199.19510   51.62200   90.57680   65.92440
 7308.00000  198.60550   48.61400   86.66100   72.34880
 7308.50000  198.33250   46.35250   84.40790   75.23070
 7309.00000  198.15750   45.72490   83.91290   76.89450
 7309.50000  198.20840   45.67000   83.47150   78.35150
 7310.00000  198.75720   45.79710   84.69160   76.34810
 7310.50000  199.11390   47.69600   89.54480   69.36080
 7311.00000  198.93160   49.39260   94.49110   57.52950
 7311.50000  198.02090   49.59020   93.61980   43.64650
 7312.00000  198.14130   49.37630   89.30540   34.88670
 7312.50000  198.25690   48.14200   85.37050   26.34320
 7313.00000  197.96580   46.87560   83.28790   24.16490
 7313.50000  197.63440   45.91270   82.88320   24.41970
 7314.00000  199.20170   45.18000   82.30390   25.02460
 7314.50000  199.49420   45.66190   83.49710   23.23010
 7315.00000  198.67230   46.36520   84.72240   20.06540
 7315.50000  197.45590   46.79440   85.94760   17.68980
 7316.00000  196.87050   47.13590   87.34090   17.86960
 7316.50000  197.76250   47.28780   87.88240   20.07480
 7317.00000  199.23430   47.42150   87.47550   21.42420
 7317.50000  199.10570   48.50340   86.76160   22.29390
 7318.00000  198.28810   49.00180   84.96450   23.05580
 7318.50000  197.52550   49.69710   83.58710   23.82600
 7319.00000  197.80670   53.95300   86.27540   23.75180
 7319.50000  199.44020   63.52000   99.18860   23.33010
 7320.00000  200.33630   67.93760  108.11950   23.16160
 7320.50000  202.52100   63.71150  106.32770   23.25710
 7321.00000  204.02080   61.34990  102.45360   23.84880
 7321.50000  203.81900   63.13010  107.07260   25.04470
 7322.00000  203.25830   65.39260  110.19490   28.14440
 7322.50000  202.13610   62.89670  104.15770   30.16540
 7323.00000  200.93230   56.98020   92.78370   29.99680
 7323.50000  199.50850   51.90230   88.29780   28.18140
 7324.00000  198.83640   49.61900   86.34290   25.52140
 7324.50000  198.25180   48.69130   85.58280   23.19710
 7325.00000  198.17590   47.53560   84.80380   22.41450
 7325.50000  198.17240   46.64090   84.27140   23.88700
 7326.00000  198.17090   46.00300   85.45650   29.26880
 7326.50000  198.45410   45.94090   86.37800   37.76790
 7327.00000  199.29090   46.37730   89.06700   49.32000
 7327.50000  199.60840   47.38540   92.28570   66.40500
 7328.00000  199.69620   49.48270   92.68220   68.41650
 7328.50000  199.22190   51.84780   91.61500   60.09700
 7329.00000  199.20540   53.03170   89.71520   43.82230
 7329.50000  198.99640   52.95720   87.62420   31.71930
 7330.00000  198.15780   52.69860   86.60770   25.93860
 7330.50000  198.20780   52.40910   86.43340   23.04940
 7331.00000  198.20390   52.01960   86.44880   21.92760
 7331.50000  198.20000   50.65850   86.76470   21.00990
 7332.00000  198.19600   48.58020   87.40560   20.56890
 7332.50000  198.20180   46.96490   87.38480   21.31470
 7333.00000  198.20770   46.40850   87.24440   22.46860
