~Version ---------------------------------------------------
VERS.   2.0 : CWLS log ASCII Standard -VERSION 2.0
WRAP.    NO : One line per depth step
DLM . SPACE : Column Data Section Delimiter
~Well ------------------------------------------------------
STRT .F                6404.0 : START DEPTH
STOP .F                9957.0 : STOP DEPTH
STEP .F                   0.5 : STEP
NULL .               -9999.25 : NULL VALUE
COMP .                        : COMPANY
WELL .                        : WELL
FLD  .                        : FIELD
LOC  .                        : LOCATION
PROV .                        : PROVINCE
CNTY .                        : COUNTY
STAT .                        : STATE
CTRY .                        : COUNTRY
SRVC .                        : SERVICE COMPANY
DATE .                        : DATE
UWI  .                        : UNIQUE WELL ID
API  .                        : API NUMBER
SLAT .WGS84 2.329908992646601 : SURFACE LATITUDE
SLON .WGS84 4.975112136590994 : SURFACE LONGITUDE
DATUM.F                2139.5 : DEPTH DATUM ELEV
~Curve Information -----------------------------------------
DEPT.F     : 1 MEASURED DEPTH
DTST.US/F  : DELTA-T STONELEY - MONOPOLE STONELEY
DTCO.US/F  : DELTA-T COMPRESSIONAL
DTSM.US/F  : DELTA-T SHEAR
GRS .GAPI  : GAMMA RAY FROM SONIC LOG
~Params ----------------------------------------------------
~Other -----------------------------------------------------
~ASCII -----------------------------------------------------
# ...
 8692.00000  198.24030   46.21620   85.34400   10.75030
 8692.50000  198.30160   46.24840   86.28110   12.71620
 8693.00000  199.39240   46.24790   86.15360   15.30500
 8693.50000  198.25820   46.21330   85.27820   18.05070
 8694.00000  198.24180   46.12490   84.56750   21.26470
 8694.50000  198.23700   45.35420   84.24130   24.82050
 8695.00000  198.23840   43.97120   83.46350   26.78160
 8695.50000  198.30750   46.40180   83.36040   26.17000
 8696.00000  198.76170   44.96090   83.66500   22.90320
 8696.50000  199.31220   45.32970   84.22440   17.38090
 8697.00000  199.16160   46.19380   84.28720   15.24830
 8697.50000  198.31610   47.02640   84.36280   15.04880
 8698.00000  198.55460   46.91360   84.31150   15.04440
 8698.50000  199.28910   46.49830   84.27990   15.03990
 8699.00000  199.24930   47.01240   84.27360   15.03550
 8699.50000  198.24410   47.39470   84.33040   15.07560
 8700.00000  198.19700   49.47330   84.32890   15.81340
 8700.50000  198.29100   49.68060   84.30870   17.23430
 8701.00000  199.71110   48.79710   84.51330   18.73660
 8701.50000  198.66070   46.30620   85.13090   19.67150
 8702.00000  199.44450   46.58430   84.99780   20.20320
 8702.50000  199.44560   47.02600   84.77340   18.17460
 8703.00000  199.16370   46.55700   85.03730   15.27570
 8703.50000  198.51310   46.89370   84.74030   13.13620
 8704.00000  199.17300   46.16500   85.97350   12.84820
 8704.50000  199.48680   47.31700   87.51330   12.84520
 8705.00000  199.69580   48.37810   89.79870   13.33710
 8705.50000  199.94080   47.58760   86.65630   13.22500
 8706.00000  199.38650   46.07130   84.00420   10.79410
 8706.50000  199.47070   45.94890   84.09510    9.41770
 8707.00000  199.02570   46.94710   84.28850   10.15930
 8707.50000  198.29980   46.48120   84.65540   12.44950
 8708.00000  198.23160   47.38020   87.16120   14.51650
 8708.50000  198.23960   48.50240   88.68240   15.79050
 8709.00000  198.25910   47.22280   87.81060   16.16470
 8709.50000  198.28300   45.94320   85.91550   16.27940
 8710.00000  198.23560   45.79840   86.56570   15.97330
 8710.50000  198.27910   46.79400   87.60590   14.58370
 8711.00000  199.41600   47.00640   88.40280   13.10390
 8711.50000  199.41570   46.91850   88.25500   11.98770
 8712.00000  199.41400   45.72430   87.84290   11.92920
 8712.50000  198.86670   45.68450   87.88690   11.84320
 8713.00000  198.09320   45.92330   89.61380   11.98610
 8713.50000  200.12550   47.01240   89.85830   12.20070
 8714.00000  199.81120   48.30030   90.51940   12.41520
 8714.50000  199.11110   51.31440   91.83590   12.62980
 8715.00000  198.30760   51.18970   91.08490   12.79620
 8715.50000  198.25030   50.36640   90.55410   13.85570
 8716.00000  198.25660   48.35410   87.66360   15.01450
 8716.50000  198.33750   46.24490   87.72540   16.15280
 8717.00000  199.12720   45.74980   87.87620   17.27880
 8717.50000  199.19150   45.81270   87.72360   18.40470
 8718.00000  199.49740   46.02970   88.89330   19.11420
 8718.50000  200.15700   48.85560   93.59020   19.47860
 8719.00000  200.26840   51.12550   99.60490   19.44010
 8719.50000  200.66790   51.28020   99.41050   19.25730
 8720.00000  200.61810   50.63000   97.07410   19.99940
 8720.50000  200.61110   49.82900   94.13430   20.93980
 8721.00000  199.48940   48.65720   91.95610   23.05810
 8721.50000  196.42310   46.68100   89.19930   23.86270
 8722.00000  196.98270   46.41950   88.50230   22.97170
 8722.50000  200.77800   46.41260   91.67630   20.15610
 8723.00000  202.48320   48.48870   96.61790   17.59330
 8723.50000  202.23740   55.44370  104.78200   19.87760
 8724.00000  199.93800   69.26680  120.42700   28.32930
 8724.50000  197.49390   80.73450  139.76030   37.32050
 8725.00000  197.71910   87.26340  146.38300   39.89330
 8725.50000  199.72130   89.15830  151.76540   38.47570
 8726.00000  205.27280   90.86840  157.48080   33.08210
 8726.50000  205.15740   90.69860  155.27470   28.40560
 8727.00000  204.79290   86.98090  147.05950   24.19600
 8727.50000  204.67550   83.81680  141.93290   22.74680
 8728.00000  201.95490   79.29510  127.95120   22.81560
 8728.50000  200.49280   73.72790  112.89320   31.81180
 8729.00000  203.39970   68.18430   99.97310   48.37880
 8729.50000  203.82590   65.17590   95.19910   67.91230
 8730.00000  201.61160   62.00920   97.62090   83.34310
 8730.50000  198.64610   57.40890   98.61520   77.62770
 8731.00000  196.38720   52.36980   96.60480   56.48190
 8731.50000  195.05190   50.12640   93.20820   38.44490
 8732.00000  195.23200   49.92720   88.96970   20.40790
 8732.50000  197.23640   50.62460   86.41740   14.74660
 8733.00000  197.15690   51.98000   89.36640   14.25980
 8733.50000  196.96110   53.26900   92.75400   14.64510
 8734.00000  197.15390   52.37450   90.04350   16.80650
 8734.50000  197.19060   48.60960   86.01080   20.51160
 8735.00000  197.21210   48.20430   84.60620   24.37930
 8735.50000  197.21940   48.06990   83.98640   27.74460
 8736.00000  197.37220   48.12240   83.98870   27.77320
 8736.50000  198.17100   47.92170   87.12130   25.56330
 8737.00000  198.29060   47.15160   89.46410   22.41850
 8737.50000  199.16920   46.41200   87.77450   20.65240
 8738.00000  199.60960   46.23710   88.59630   19.16540
 8738.50000  201.20280   46.19310   90.19910   18.05170
 8739.00000  200.87670   46.67510   90.98560   16.93800
 8739.50000  199.42520   48.06680   91.95200   15.82430
 8740.00000  199.01870   51.08280   89.54480   15.93440
 8740.50000  199.08130   53.71530   87.76140   15.75690
 8741.00000  199.15100   54.95070   87.37010   15.29130
 8741.50000  199.22080   56.91730   87.28880   14.70380
 8742.00000  199.29060   59.54690   87.20740   14.42460
 8742.50000  199.51420   59.48720   87.12600   15.30110
 8743.00000  199.53770   58.17080   87.04460   17.71270
 8743.50000  199.46600   54.32500   84.67580   20.63850
 8744.00000  199.54180   49.86610   84.53960   23.24610
 8744.50000  201.16860   47.17170   86.76230   22.74760
 8745.00000  201.17360   47.00030   90.33030   20.51660
 8745.50000  201.12860   46.98340   92.36350   18.02930
 8746.00000  200.58420   46.80610   91.98080   16.58310
 8746.50000  199.51420   46.37960   89.63420   15.86460
 8747.00000  199.49830   46.09700   87.24340   15.53070
 8747.50000  199.50030   45.79640   87.43550   15.52330
 8748.00000  199.50240   45.54450   87.13080   16.72250
 8748.50000  199.50570   46.15540   86.68660   17.65290
 8749.00000  199.51060   46.54850   89.03550   17.60170
 8749.50000  199.51560   46.39300   90.12700   16.58850
 8750.00000  199.81510   47.21480   89.77470   15.43140
 8750.50000  200.06070   49.60820   89.07980   15.00000
 8751.00000  199.21690   52.01990   88.72730   16.60560
 8751.50000  197.63270   52.71180   88.19880   22.79560
 8752.00000  198.40390   53.18760   88.35550   28.98560
 8752.50000  199.98090   53.90090   90.16150   33.33540
 8753.00000  201.27040   55.86660   94.81880   36.14250
 8753.50000  202.82410   58.21040   96.80680   35.88190
 8754.00000  203.01620   58.27500   96.93270   33.08280
 8754.50000  203.04510   57.55140   95.40490   30.84220
 8755.00000  202.32110   57.27660   94.50110   32.59990
 8755.50000  202.35520   57.29310   96.03220   34.43470
 8756.00000  203.21690   60.46030   97.64700   36.29610
 8756.50000  203.99210   61.33400   98.12050   38.04460
 8757.00000  204.41390   57.72810   96.69550   40.59190
 8757.50000  205.35610   54.25880   94.63290   43.99620
 8758.00000  204.20520   55.24690   96.69610   48.15460
 8758.50000  205.42160   57.40220  100.33850   48.38070
 8759.00000  204.26590   59.55740  100.05560   46.62810
 8759.50000  204.48370   61.71270   99.60440   43.48940
 8760.00000  205.03070   63.86790   98.85620   40.35080
 8760.50000  200.59860   64.39670   97.39300   37.18230
 8761.00000  156.83530   44.85570   76.91520   33.96030
 8761.50000   -9999.25   -9999.25   -9999.25   34.04200
 8762.00000   -9999.25   -9999.25   -9999.25   36.17680
 8762.50000   -9999.25   -9999.25   -9999.25   37.62420
 8763.00000   -9999.25   -9999.25   -9999.25   33.67970
