~Version ---------------------------------------------------
VERS.   2.0 : CWLS log ASCII Standard -VERSION 2.0
WRAP.    NO : One line per depth step
DLM . SPACE : Column Data Section Delimiter
~Well ------------------------------------------------------
STRT .F                6404.0 : START DEPTH
STOP .F                9957.0 : STOP DEPTH
STEP .F                   0.5 : STEP
NULL .               -9999.25 : NULL VALUE
COMP .                        : COMPANY
WELL .                        : WELL
FLD  .                        : FIELD
LOC  .                        : LOCATION
PROV .                        : PROVINCE
CNTY .                        : COUNTY
STAT .                        : STATE
CTRY .                        : COUNTRY
SRVC .                        : SERVICE COMPANY
DATE .                        : DATE
UWI  .                        : UNIQUE WELL ID
API  .                        : API NUMBER
SLAT .WGS84 2.329908992646601 : SURFACE LATITUDE
SLON .WGS84 4.975112136590994 : SURFACE LONGITUDE
DATUM.F                2139.5 : DEPTH DATUM ELEV
~Curve Information -----------------------------------------
DEPT.F     : 1 MEASURED DEPTH
DTST.US/F  : DELTA-T STONELEY - MONOPOLE STONELEY
DTCO.US/F  : DELTA-T COMPRESSIONAL
DTSM.US/F  : DELTA-T SHEAR
GRS .GAPI  : GAMMA RAY FROM SONIC LOG
~Params ----------------------------------------------------
~Other -----------------------------------------------------
~ASCII -----------------------------------------------------
# ...
 7762.50000  197.74430   44.31870   82.36600   26.47640
 7763.00000  197.76660   44.05540   82.71000   30.88880
 7763.50000  198.20850   47.09110   83.25710   34.02130
 7764.00000  198.88270   49.74730   85.21300   31.49940
 7764.50000  199.66110   52.65240   87.45740   25.62950
 7765.00000  200.72420   53.17570   87.15060   22.09430
 7765.50000  200.74060   53.33970   86.97530   19.52440
 7766.00000  200.01640   53.47780   86.84670   19.80500
 7766.50000  199.47860   52.08590   85.62000   20.32160
 7767.00000  199.02810   49.16770   83.61980   22.20520
 7767.50000  198.28340   47.56400   81.41410   25.13230
 7768.00000  198.33810   46.24150   79.65190   27.89910
 7768.50000  199.06310   46.13240   80.99700   30.34090
 7769.00000  201.08310   45.97130   85.19730   28.57650
 7769.50000  203.00600   45.36960   87.14840   24.87750
 7770.00000  203.41290   45.54150   87.39620   21.64750
 7770.50000  202.76530   46.89850   87.41360   19.31400
 7771.00000  202.46080   47.94090   87.44810   18.64210
 7771.50000  202.91230   48.75190   88.10240   18.63490
 7772.00000  200.54860   50.34350   90.30220   22.59060
 7772.50000  200.79810   49.89280   91.47720   27.58480
 7773.00000  201.42790   48.82280   88.32730   30.07920
 7773.50000  200.51300   49.14740   89.98610   30.49560
 7774.00000  199.62400   49.41950   88.41410   29.06790
 7774.50000  200.91210   47.44810   88.65820   25.92400
 7775.00000  200.61240   48.75790   88.12020   22.83220
 7775.50000  199.89850   45.79700   89.58280   20.20540
 7776.00000  198.62680   45.71440   90.33110   18.12470
 7776.50000  198.25030   47.10800   91.45650   16.92770
 7777.00000  198.34280   47.80910   91.80010   17.95350
 7777.50000  198.75600   47.86220   92.08590   18.95080
 7778.00000  199.31760   47.01660   92.33440   19.02070
 7778.50000  199.60370   46.29770   92.25100   18.65390
 7779.00000  199.57020   45.78670   89.83430   18.72570
 7779.50000  199.05670   44.24060   85.52590   19.65660
 7780.00000  199.00380   43.44260   85.74630   20.36820
 7780.50000  200.06830   46.10490   92.10540   20.18960
 7781.00000  202.49380   49.05450  101.42430   19.96820
 7781.50000  204.23550   49.67710  105.46830   20.04590
 7782.00000  205.08190   48.56180  103.32130   20.70920
 7782.50000  204.92890   49.77940  101.76620   20.69560
 7783.00000  204.48250   53.45970  100.28090   19.57160
 7783.50000  204.04370   55.26750   97.94780   16.04590
 7784.00000  203.21650   55.60290   95.66780   12.44360
 7784.50000  202.49120   55.29270   93.10550   11.71360
 7785.00000  201.60740   55.21720   93.89520   13.74580
 7785.50000  200.53280   55.32710   92.87640   17.76460
 7786.00000  198.60320   54.58020   88.91130   20.95620
 7786.50000  198.52810   53.12850   88.96500   21.23430
 7787.00000  199.27710   52.47070   88.65870   19.39480
 7787.50000  199.44040   52.79220   87.61160   15.93560
 7788.00000  199.43950   52.27460   87.23400   13.23890
 7788.50000  199.28840   52.08680   87.17790   15.94060
 7789.00000  199.21110   52.05780   86.97920   24.83640
 7789.50000  199.15300   52.38870   85.30140   37.88600
 7790.00000  199.10070   52.54690   87.42400   56.89210
 7790.50000  199.04150   51.92340   87.04430   64.22430
 7791.00000  198.57370   48.83880   85.39870   61.32890
 7791.50000  198.00150   46.47130   83.22680   54.10860
 7792.00000  198.47210   46.15710   81.02360   46.02920
 7792.50000  199.22100   46.00380   79.43680   40.75530
 7793.00000  198.10960   45.88730   83.45870   38.26640
 7793.50000  199.17880   45.04750   87.53330   35.77750
 7794.00000  198.38290   44.55530   87.39660   33.28860
 7794.50000  199.09070   45.83860   85.64680   33.08660
 7795.00000  199.21080   46.89000   84.35790   35.48030
 7795.50000  199.21210   46.87790   84.34650   38.59240
 7796.00000  199.24110   45.68040   84.36360   40.88690
 7796.50000  199.39310   45.31120   84.36440   36.23700
 7797.00000  199.44710   47.97580   84.95770   30.10390
 7797.50000  199.46350   51.38900   87.44790   25.48100
 7798.00000  199.51250   50.74930   87.40640   24.31680
 7798.50000  199.44370   49.46690   86.58770   23.46230
 7799.00000  199.46030   48.96180   86.62090   22.73090
 7799.50000  199.48720   49.39110   87.06940   21.52840
 7800.00000  201.44430   50.77280   85.85450   19.39230
 7800.50000  202.43970   53.31550   86.38750   18.14460
 7801.00000  201.02580   55.49100   87.90570   17.59660
 7801.50000  202.23680   55.59970   87.30200   17.54370
 7802.00000  200.61260   55.30420   86.23980   18.06990
 7802.50000  199.10820   55.33560   86.69950   18.46430
 7803.00000  201.36650   54.90540   87.31070   19.07600
 7803.50000  201.17500   53.88100   91.54180   19.31070
 7804.00000  200.11480   53.89410   91.84330   18.25180
 7804.50000  199.11850   53.74050   91.17700   16.02200
 7805.00000  200.88530   52.74800   91.02680   15.20980
 7805.50000  201.19120   52.87840   89.73570   14.92450
 7806.00000  200.95780   51.64740   87.29060   14.95180
 7806.50000  198.80450   50.03690   86.15940   17.80910
 7807.00000  199.05230   49.04910   86.02690   22.56070
 7807.50000  198.23820   47.90000   85.53610   27.38990
 7808.00000  198.97970   47.05660   86.75990   32.24940
 7808.50000  200.10690   46.65070   86.24840   34.89600
 7809.00000  200.47960   48.05160   86.19240   36.19170
 7809.50000  199.69280   52.25100   86.19050   33.48500
 7810.00000  199.09790   53.92560   86.04570   31.63300
 7810.50000  199.23740   52.21860   85.89610   34.69320
 7811.00000  199.12500   52.09980   85.62520   38.43010
 7811.50000  199.11520   52.33270   84.87330   45.67550
 7812.00000  199.81800   50.24140   81.72320   48.53090
 7812.50000  199.17210   47.51900   79.69670   48.43310
 7813.00000  199.49170   47.60300   80.49570   47.04210
 7813.50000  199.77050   50.10040   83.94600   45.90030
 7814.00000  198.77330   51.44520   84.59990   45.87290
 7814.50000  198.28200   50.56390   84.46650   45.42320
 7815.00000  197.86440   49.54780   84.69650   44.97360
 7815.50000  197.26960   49.29800   84.83370   44.73370
 7816.00000  198.62190   49.33040   81.92770   44.72980
 7816.50000  198.53640   49.50370   80.52160   44.72580
 7817.00000  198.42030   49.50370   82.43170   44.23900
 7817.50000  198.65690   49.50570   86.74600   41.68750
 7818.00000  197.01260   50.03660   90.96600   39.10080
 7818.50000  197.27160   50.00110   92.26980   39.10490
 7819.00000  199.79920   48.73940   91.22580   40.66590
 7819.50000  203.44470   48.30570   91.73370   42.07020
 7820.00000  204.81530   50.90710   98.90080   40.71380
 7820.50000  204.53710   53.64870  106.12700   38.54180
 7821.00000  204.42580   56.26100  107.10950   37.12430
 7821.50000  203.96580   55.85820  101.53310   35.60430
 7822.00000  202.80260   51.21890   95.22760   30.43800
 7822.50000  201.59170   48.78220   91.85280   24.29230
 7823.00000  201.13640   50.68280   90.29090   18.14670
 7823.50000  199.71080   51.29460   88.85250   16.18710
 7824.00000  199.64250   50.46230   86.97640   16.20720
 7824.50000  201.30730   49.45490   86.49100   16.66140
 7825.00000  201.93100   48.93520   87.22900   17.75360
 7825.50000  200.96030   48.68020   87.36530   20.68530
 7826.00000  198.80570   48.96080   88.69450   28.54300
 7826.50000  198.34810   50.52420   91.15890   41.22040
 7827.00000  198.92680   50.58460   88.71720   53.89790
 7827.50000  200.68490   49.33720   89.10020   66.57530
 7828.00000  202.00400   46.78530   90.57630   79.32490
 7828.50000  202.17270   45.91790   91.28790   82.45250
 7829.00000  201.55290   45.09680   88.71680   74.57360
 7829.50000  199.67940   44.41420   85.75610   59.70120
 7830.00000  198.40340   44.10170   83.74390   44.13190
 7830.50000  198.02700   44.03910   83.33200   34.06210
 7831.00000  198.14220   44.32030   83.92070   29.57840
 7831.50000  198.33450   44.69620   84.10320   25.09470
 7832.00000  198.42420   45.10100   83.64990   20.61100
 7832.50000  198.38000   44.73430   83.06390   16.70470
 7833.00000  198.57040   44.35660   83.28120   15.24830
 7833.50000  198.56650   44.01740   83.30740   16.15030
