~Version ---------------------------------------------------
VERS.   2.0 : CWLS log ASCII Standard -VERSION 2.0
WRAP.    NO : One line per depth step
DLM . SPACE : Column Data Section Delimiter
~Well ------------------------------------------------------
STRT .F                6404.0 : START DEPTH
STOP .F                9957.0 : STOP DEPTH
STEP .F                   0.5 : STEP
NULL .               -9999.25 : NULL VALUE
COMP .                        : COMPANY
WELL .                        : WELL
FLD  .                        : FIELD
LOC  .                        : LOCATION
PROV .                        : PROVINCE
CNTY .                        : COUNTY
STAT .                        : STATE
CTRY .                        : COUNTRY
SRVC .                        : SERVICE COMPANY
DATE .                        : DATE
UWI  .                        : UNIQUE WELL ID
API  .                        : API NUMBER
SLAT .WGS84 2.329908992646601 : SURFACE LATITUDE
SLON .WGS84 4.975112136590994 : SURFACE LONGITUDE
DATUM.F                2139.5 : DEPTH DATUM ELEV
~Curve Information -----------------------------------------
DEPT.F     : 1 MEASURED DEPTH
DTST.US/F  : DELTA-T STONELEY - MONOPOLE STONELEY
DTCO.US/F  : DELTA-T COMPRESSIONAL
DTSM.US/F  : DELTA-T SHEAR
GRS .GAPI  : GAMMA RAY FROM SONIC LOG
~Params ----------------------------------------------------
~Other -----------------------------------------------------
~ASCII -----------------------------------------------------
# ...
 7405.00000  196.77860   65.75250  109.75590  133.53690
 7405.50000  198.61960   64.35100  111.66580  164.61520
 7406.00000  200.42390   64.05500  113.77840  191.86870
 7406.50000  202.22820   64.85850  117.49740  192.64600
 7407.00000  203.29060   65.10230  119.90670  182.68390
 7407.50000  204.73530   65.18550  119.49770  167.89270
 7408.00000  204.57570   64.86820  115.35860  151.42550
 7408.50000  203.37860   64.45770  113.44940  130.86630
 7409.00000  202.87870   64.02510  112.86450  113.24310
 7409.50000  203.34360   62.27420  110.73970   99.58560
 7410.00000  203.31800   60.36740  107.28220   86.43910
 7410.50000  203.34900   62.37180  104.89820   85.81080
 7411.00000  204.39350   64.78370  105.95760   86.99340
 7411.50000  203.65300   67.19560  107.89750   91.59700
 7412.00000  203.76690   68.33270  106.62250   95.61650
 7412.50000  203.33350   67.22720  104.46070   94.28390
 7413.00000  202.43650   62.60010  102.95170   91.82520
 7413.50000  202.44620   58.63960  101.59620   89.36660
 7414.00000  202.72920   55.60130  100.43730   86.90800
 7414.50000  202.12410   55.86130  100.95250   84.30310
 7415.00000  202.20230   57.49170  101.10610   81.69030
 7415.50000  202.48940   57.00120   99.14200   74.85910
 7416.00000  203.40320   55.36830   95.80850   64.85130
 7416.50000  203.00140   57.15190   97.01880   59.97110
 7417.00000  202.31370   57.52840   98.19100   60.55080
 7417.50000  202.23500   56.22680   97.00560   61.80380
 7418.00000  202.21130   54.12760   94.88780   58.68070
 7418.50000  202.16470   51.22730   92.64010   51.38560
 7419.00000  200.95350   48.53400   90.39250   46.76500
 7419.50000  199.03180   46.63570   88.81940   44.40780
 7420.00000  198.20040   45.83770   87.00900   42.16660
 7420.50000  198.14620   45.95940   85.46710   40.03970
 7421.00000  198.11210   46.08260   85.44020   38.00430
 7421.50000  197.55180   46.18980   85.73290   38.71580
 7422.00000  197.36420   45.89790   85.82810   41.60130
 7422.50000  198.24100   45.54430   85.38470   44.49100
 7423.00000  199.13470   45.75220   85.05610   46.50750
 7423.50000  201.11670   46.12850   84.43760   43.65560
 7424.00000  201.59140   46.56750   87.11930   39.27480
 7424.50000  200.80140   47.64080   90.03380   34.26630
 7425.00000  199.86370   49.98060   90.86200   28.43480
 7425.50000  198.92410   49.37210   89.54920   21.40030
 7426.00000  197.95480   47.79360   86.86630   17.56810
 7426.50000  197.39410   47.65760   84.24340   16.37070
 7427.00000  198.12740   47.47420   84.20780   16.01280
 7427.50000  199.12790   45.92720   84.34450   16.40920
 7428.00000  199.44200   45.46300   84.37110   17.67230
 7428.50000  199.48790   45.28300   84.65260   19.65410
 7429.00000  199.48790   45.34030   85.39250   22.01740
 7429.50000  199.28750   45.41740   84.95670   24.50870
 7430.00000  199.17890   45.52250   83.29150   28.78930
 7430.50000  198.89330   45.67850   82.88040   31.24150
 7431.00000  198.26240   45.82840   84.50320   31.28310
 7431.50000  199.11340   46.25010   85.59570   27.86660
 7432.00000  198.73070   46.95260   86.24960   22.21740
 7432.50000  198.71170   47.33660   86.78980   17.98590
 7433.00000  198.23290   47.14980   88.28360   18.36100
 7433.50000  198.15080   46.84990   89.83450   19.54300
 7434.00000  198.50310   46.16640   88.22320   21.02730
 7434.50000  199.28900   45.81550   87.28490   21.43630
 7435.00000  199.44040   46.81250   87.34800   20.98810
 7435.50000  199.46940   46.88410   87.41570   20.45040
 7436.00000  199.48050   47.13700   87.04310   20.64430
 7436.50000  199.48540   48.99420   87.43540   21.58050
 7437.00000  199.48740   50.96620   87.85960   22.15910
 7437.50000  199.47890   51.85420   87.45570   22.15070
 7438.00000  199.47030   51.13510   85.97350   20.99090
 7438.50000  199.88460   49.59410   83.21060   18.95520
 7439.00000  201.17530   47.45660   82.01960   17.83190
 7439.50000  202.34180   50.40580   81.58440   17.42750
 7440.00000  203.25790   56.62960   92.75320   17.33370
 7440.50000  203.08130   59.67090   92.80960   18.43230
 7441.00000  202.33190   58.58130   90.17710   19.93020
 7441.50000  202.25660   56.76320   89.85460   21.65850
 7442.00000  202.04390   54.55330   90.60030   23.69550
 7442.50000  198.76660   52.12990   88.84660   26.07550
 7443.00000  199.10810   50.15310   84.00460   28.45550
 7443.50000  200.42790   47.55080   78.84110   28.78840
 7444.00000  199.79210   47.03550   78.55420   28.94540
 7444.50000  198.90680   48.24130   81.23070   30.87910
 7445.00000  201.10350   48.60150   83.52520   34.85300
 7445.50000  204.31370   48.70580   86.37240   40.36730
 7446.00000  205.43370   51.66860   90.75910   47.38650
 7446.50000  205.93100   54.67090   95.56300   50.62460
 7447.00000  207.02280   53.30820   92.75600   53.41190
 7447.50000  211.28720   49.87630   88.10800   53.74680
 7448.00000  214.20230   46.44450   82.91260   53.28050
 7448.50000  213.03640   44.08350   78.67870   52.40530
 7449.00000  211.24870   45.88060   83.73550   53.37530
 7449.50000  208.29920   53.57870   94.22190   58.74780
 7450.00000  201.58100   61.83320  101.48220   63.56980
 7450.50000  194.24470   62.02860  100.55700   64.67530
 7451.00000  193.34030   62.02900  100.20390   63.18560
 7451.50000  194.61770   64.93430  101.21490   63.17520
 7452.00000  195.78170   66.61220   99.85020   63.32920
 7452.50000  196.41460   65.98300   97.76750   62.58300
 7453.00000  197.60210   64.00280   93.71970   60.27480
 7453.50000  198.13260   62.29880   90.88620   58.53140
 7454.00000  198.82240   61.19260   88.15930   60.61510
 7454.50000  199.83980   58.61140   85.40760   67.46070
 7455.00000  198.35580   57.38770   85.18770   77.40360
 7455.50000  195.64330   56.49040   87.44390   90.71780
 7456.00000  197.93280   55.46200   91.18090  103.23630
 7456.50000  201.19960   54.12430   93.35010  105.97120
 7457.00000  202.05300   50.34880   88.52750  105.77790
 7457.50000  204.07290   47.10710   85.41970  104.56200
 7458.00000  204.28910   49.65380   91.04200  101.58440
 7458.50000  203.66190   54.49590   96.73860   98.87700
 7459.00000  202.72230   57.21610  102.24030   97.25610
 7459.50000  201.86810   59.28700  104.53130   91.31770
 7460.00000  201.42310   57.72270   98.11730   82.62140
 7460.50000  200.97810   54.97030   90.57790   53.80750
 7461.00000  200.57430   54.39790   86.88200   40.43480
 7461.50000  200.36180   55.12880   91.33060   27.06200
 7462.00000  199.28590   54.25430   91.87830   23.92490
 7462.50000  197.23260   48.69580   90.20860   21.72860
 7463.00000  197.21210   46.84580   85.28870   21.47430
 7463.50000  198.44070   46.78410   84.65400   22.50940
 7464.00000  201.23040   46.97570   84.00460   27.73550
 7464.50000  202.77430   47.11650   80.82600   36.93070
 7465.00000  202.62520   48.63940   77.58480   46.12590
 7465.50000  203.47280   51.45970   80.08630   53.57880
 7466.00000  204.07250   53.55980   83.93550   53.43340
 7466.50000  204.63450   55.90200   87.87760   48.27860
 7467.00000  204.42380   56.35270   90.55420   42.60130
 7467.50000  204.15310   56.13480   91.89970   37.41220
 7468.00000  204.65250   58.83790   95.04360   33.31750
 7468.50000  204.53300   60.73600   94.64510   31.69120
 7469.00000  204.24050   60.04650   92.72880   30.71720
 7469.50000  204.03150   60.32490   92.04210   29.38930
 7470.00000  202.66950   58.84780   90.65530   25.89810
 7470.50000  201.09870   53.88040   85.89230   21.48170
 7471.00000  202.19900   52.10390   84.79870   20.61260
 7471.50000  202.22840   53.66780   93.60370   23.10030
 7472.00000  202.17060   54.25670   97.83630   34.73930
 7472.50000  201.90990   54.63190   97.83620   51.14300
 7473.00000  200.77880   55.94410   97.17300   64.36010
 7473.50000  199.43080   55.55720   92.01140   66.95620
 7474.00000  198.56670   53.81130   83.80310   57.60570
 7474.50000  198.92040   51.29630   75.59750   48.38390
 7475.00000  199.43350   49.20680   73.88640   49.99060
 7475.50000  198.52490   47.16460   72.58830   57.22400
 7476.00000  199.05430   45.20910   72.23010   65.45460
