~Version ---------------------------------------------------
VERS.   2.0 : CWLS log ASCII Standard -VERSION 2.0
WRAP.    NO : One line per depth step
DLM . SPACE : Column Data Section Delimiter
~Well ------------------------------------------------------
STRT .F                6404.0 : START DEPTH
STOP .F                9957.0 : STOP DEPTH
STEP .F                   0.5 : STEP
NULL .               -9999.25 : NULL VALUE
COMP .                        : COMPANY
WELL .                        : WELL
FLD  .                        : FIELD
LOC  .                        : LOCATION
PROV .                        : PROVINCE
CNTY .                        : COUNTY
STAT .                        : STATE
CTRY .                        : COUNTRY
SRVC .                        : SERVICE COMPANY
DATE .                        : DATE
UWI  .                        : UNIQUE WELL ID
API  .                        : API NUMBER
SLAT .WGS84 2.329908992646601 : SURFACE LATITUDE
SLON .WGS84 4.975112136590994 : SURFACE LONGITUDE
DATUM.F                2139.5 : DEPTH DATUM ELEV
~Curve Information -----------------------------------------
DEPT.F     : 1 MEASURED DEPTH
DTST.US/F  : DELTA-T STONELEY - MONOPOLE STONELEY
DTCO.US/F  : DELTA-T COMPRESSIONAL
DTSM.US/F  : DELTA-T SHEAR
GRS .GAPI  : GAMMA RAY FROM SONIC LOG
~Params ----------------------------------------------------
~Other -----------------------------------------------------
~ASCII -----------------------------------------------------
# ...
 6761.50000  207.75030   44.48450   85.07720   21.96020
 6762.00000  207.86980   46.51170   84.63520   21.08880
 6762.50000  207.43890   45.97310   85.04770   20.04500
 6763.00000  207.16630   45.00060   85.62600   18.64990
 6763.50000  207.11830   44.45510   85.48570   16.17880
 6764.00000  206.75510   44.92020   86.56800   14.91870
 6764.50000  205.97060   45.23130   86.38630   16.00750
 6765.00000  205.02840   45.33380   86.07860   18.03850
 6765.50000  205.05500   45.34100   86.69320   18.51470
 6766.00000  206.21020   45.26270   87.20140   18.21970
 6766.50000  206.53230   45.34650   87.48700   17.65150
 6767.00000  206.50760   46.29280   89.68920   17.53080
 6767.50000  206.87960   45.43700   89.74900   16.59410
 6768.00000  207.07090   47.37390   90.94660   14.95400
 6768.50000  207.16270   46.11460   90.47360   13.36850
 6769.00000  207.25980   47.16040   93.46970   12.78160
 6769.50000  207.39610   50.48110   95.16320   12.27320
 6770.00000  205.06660   52.82930   96.44070   12.01920
 6770.50000  205.24390   53.57730   96.68980   12.07730
 6771.00000  205.68550   53.20110   95.24210   14.09940
 6771.50000  205.18950   52.68050   94.18050   16.59410
 6772.00000  205.13650   54.00940   94.28540   18.95150
 6772.50000  206.00350   55.24620   94.13590   18.50420
 6773.00000  206.85750   54.42020   92.95700   17.96440
 6773.50000  207.22540   55.17930   93.88170   17.65180
 6774.00000  206.71980   55.53200   96.44890   17.79390
 6774.50000  205.65710   56.53540   95.32460   18.24360
 6775.00000  204.46390   56.83450   92.29580   18.04770
 6775.50000  204.18280   56.93940   89.10400   17.13450
 6776.00000  204.30630   57.32490   88.81070   16.11570
 6776.50000  204.24780   58.68800   90.91560   15.09690
 6777.00000  203.98730   57.45470   92.14570   14.07810
 6777.50000  203.45030   54.90330   89.46390   13.05920
 6778.00000  201.89430   54.70420   88.76040   12.72990
 6778.50000  197.09940   54.67500   88.22650   13.52840
 6779.00000  195.24830   53.11700   86.42220   14.49710
 6779.50000  198.83690   51.68800   84.39230   15.46580
 6780.00000  204.57570   52.09580   84.23060   16.26570
 6780.50000  207.05470   54.53510   85.25380   13.49800
 6781.00000  207.16230   56.11620   86.68520   10.25360
 6781.50000  206.88380   56.01320   88.85120    9.35620
 6782.00000  205.74310   55.13160   91.33100   10.01600
 6782.50000  205.35010   54.04800   94.65700   11.11430
 6783.00000  206.57440   53.45320   99.88430   11.84380
 6783.50000  210.13200   52.14830  101.25550   12.04520
 6784.00000  212.15980   50.48600  102.87830   11.32760
 6784.50000  211.64610   49.91370  106.07280   10.21040
 6785.00000  208.46560   51.81110  108.53220    9.74300
 6785.50000  207.01120   51.45830  108.48900   10.57320
 6786.00000  206.84330   53.52790  105.34120   14.78060
 6786.50000  207.00810   53.74800  100.28830   22.01650
 6787.00000  206.93030   53.43150   94.56470   30.64490
 6787.50000  206.24170   54.57110   87.60930   40.41890
 6788.00000  206.16960   56.64390   86.26850   41.53220
 6788.50000  206.14600   58.01030   85.47390   34.17210
 6789.00000  205.97780   57.59940   84.87300   28.02640
 6789.50000  205.25000   55.36040   84.44130   24.43030
 6790.00000  205.17920   52.18110   83.87060   22.68960
 6790.50000  205.17550   52.09150   83.13700   26.42430
 6791.00000  205.20150   52.16440   82.40340   30.76960
 6791.50000  205.50950   52.01740   83.70750   32.39450
 6792.00000  207.48610   51.70810   85.14770   28.92940
 6792.50000  209.07100   51.94190   86.85580   22.80710
 6793.00000  209.69300   51.73200   87.56980   16.83400
 6793.50000  209.67800   53.71070   87.28500   15.14100
 6794.00000  209.46110   54.20930   90.15520   14.38710
 6794.50000  209.46110   52.68720   90.20420   13.23480
 6795.00000  209.46110   52.40370   89.35130   11.56390
 6795.50000  209.45890   52.46600   86.11780   10.15050
 6796.00000  209.26950   52.06440   85.10030    9.70470
 6796.50000  208.66180   51.18450   85.68710    9.83730
 6797.00000  207.45630   50.79850   85.66850   10.42150
 6797.50000  207.18620   51.03810   85.64080   11.26850
 6798.00000  207.21490   49.34490   85.61320   12.14450
 6798.50000  207.20560   47.79570   85.69930   13.44740
 6799.00000  207.16770   50.74600   86.05000   14.69550
 6799.50000  207.22390   48.16280   85.64690   15.67700
 6800.00000  207.25790   49.01560   86.04270   17.60210
 6800.50000  207.23140   50.89020   86.44640   19.52630
 6801.00000  207.09470   51.05220   86.52690   19.97030
 6801.50000  206.31510   52.33960   87.73020   20.56670
 6802.00000  206.14810   50.41280   87.77970   21.54100
 6802.50000  206.16900   50.68310   87.26860   23.56380
 6803.00000  206.16320   51.65270   88.66360   23.60780
 6803.50000  206.17820   50.49400   90.33320   21.99160
 6804.00000  206.18270   49.47710   90.06330   19.73230
 6804.50000  206.19360   51.24490   88.76820   19.01000
 6805.00000  206.29060   49.55990   87.31080   19.32690
 6805.50000  206.48100   49.20840   85.75850   19.42970
 6806.00000  206.19970   48.60270   84.41840   19.44530
 6806.50000  206.21680   48.51970   83.91350   19.36900
 6807.00000  206.23390   48.02880   85.12400   19.07900
 6807.50000  206.24850   50.47170   85.79060   18.36060
 6808.00000  205.80920   51.04770   88.03320   17.05050
 6808.50000  205.14210   51.27930   89.08900   15.38490
 6809.00000  205.13780   52.21800   88.88460   14.51570
 6809.50000  205.80340   53.02140   86.96740   15.05700
 6810.00000  206.16170   53.37350   88.73110   18.04760
 6810.50000  205.72450   53.28170   87.04350   20.40280
 6811.00000  205.39730   53.37470   85.59120   20.08020
 6811.50000  204.90660   54.08510   85.29480   18.45980
 6812.00000  204.65260   54.88390   85.11880   17.61580
 6812.50000  204.87890   55.73340   85.61390   17.24630
 6813.00000  205.24850   56.68160   86.13990   17.03970
 6813.50000  205.78830   57.56160   86.35520   17.01080
 6814.00000  206.07800   57.35840   87.46360   16.90110
 6814.50000  205.74870   57.22660   90.67210   15.92170
 6815.00000  205.30530   57.09830   92.89620   13.80460
 6815.50000  205.68230   55.91400   94.50640   11.72480
 6816.00000  205.93120   53.09740   96.04320   10.89030
 6816.50000  206.07470   52.11150   97.78900   12.11200
 6817.00000  206.17030   52.95750   98.60490   13.74530
 6817.50000  206.66650   52.96450   98.45890   15.27250
 6818.00000  207.36000   52.39960   98.24660   15.26110
 6818.50000  207.52460   52.34300   98.37150   15.89920
 6819.00000  208.77960   52.97230   99.69130   17.74030
 6819.50000  209.23740   53.65790   98.00880   19.58130
 6820.00000  209.97830   54.74850   99.60470   20.59790
 6820.50000  211.23830   54.86900   96.98380   20.41230
 6821.00000  211.52050   54.08010   98.63900   18.59710
 6821.50000  211.21880   53.63340   97.42730   16.14640
 6822.00000  209.91120   55.25780   97.47170   14.85960
 6822.50000  208.13710   55.63660   98.14850   16.27450
 6823.00000  207.28720   54.47300   98.00490   19.83970
 6823.50000  206.88730   50.94830   97.64340   23.97420
 6824.00000  207.34210   50.24850   95.69630   29.84090
 6824.50000  208.64230   50.90220   96.91620   35.16320
 6825.00000  209.94250   52.09630   99.09720   37.23380
 6825.50000  210.44980   52.46290   98.44760   36.91370
 6826.00000  210.29500   50.56130   98.13510   34.10080
 6826.50000  209.12850   51.71710   98.57830   31.73920
 6827.00000  208.07820   52.16430   98.74500   30.65580
 6827.50000  207.02210   49.45100   97.82130   29.71140
 6828.00000  206.23030   49.27690   96.28670   28.09630
 6828.50000  206.08710   52.09920   95.37350   26.71210
 6829.00000  206.06130   53.57270   95.47100   27.05180
 6829.50000  205.64560   49.59810   95.04150   28.15000
 6830.00000  205.52120   52.02360   93.98680   29.48990
 6830.50000  205.64900   51.72700   93.13670   29.87330
 6831.00000  206.21540   50.87970   93.42620   29.02720
 6831.50000  206.41490   50.01400   92.92570   27.62270
 6832.00000  206.35620   50.07550   91.93640   26.22890
 6832.50000  206.35320   51.42230   90.74420   24.95220
