~Version ---------------------------------------------------
VERS.   2.0 : CWLS log ASCII Standard -VERSION 2.0
WRAP.    NO : One line per depth step
DLM . SPACE : Column Data Section Delimiter
~Well ------------------------------------------------------
STRT .F                    0.0 : START DEPTH
STOP .F                 4553.0 : STOP DEPTH
STEP .F                    0.5 : STEP
NULL .                -9999.25 : NULL VALUE
COMP .                         : COMPANY
WELL .                         : WELL
FLD  .                         : FIELD
LOC  .                         : LOCATION
PROV .                         : PROVINCE
CNTY .                         : COUNTY
STAT .                         : STATE
CTRY .                         : COUNTRY
SRVC .                         : SERVICE COMPANY
DATE .                         : DATE
UWI  .                         : UNIQUE WELL ID
API  .                         : API NUMBER
SLAT .WGS84 1.7374410804454996 : SURFACE LATITUDE
SLON .WGS84  7.237560879542016 : SURFACE LONGITUDE
DATUM.F                2644.42 : DEPTH DATUM ELEV
~Curve Information -----------------------------------------
DEPT   .F     : 
SPHI_LS.DEC   : SONIC POROSITY [LIMESTONE]
TENS   .LB    : TENSION FROM SONIC LOG
GRN    .GAPI  : GAMMA RAY FROM GRN LOG
NEUT   .NAPI  : NEUTRON
GRS    .GAPI  : GAMMA RAY FROM SONIC LOG
DTCO   .US/F  : DELTA-T COMPRESSIONAL
DTSM   .US/F  : DELTA-T SHEAR
~Params ----------------------------------------------------
~Other -----------------------------------------------------
~ASCII -----------------------------------------------------
# ...
 3375.00000    0.02250 1310.84880    7.01960  270.43920   14.90290   50.45790   92.76700
 3375.50000    0.01880 1322.24840    7.56320  255.82640   14.83340   50.27950   92.93300
 3376.00000    0.01970 1319.08940    8.08330  238.81900   14.71560   50.54030   93.09900
 3376.50000    0.02000 1324.00040    8.49210  230.01660   14.34550   50.67150   93.17630
 3377.00000    0.02110 1328.91140    8.75800  232.12820   14.27860   50.68230   93.21730
 3377.50000    0.02430 1333.82240    8.91700  236.99780   15.29700   51.20320   93.25820
 3378.00000    0.02870 1329.25170    8.98380  243.22190   16.26750   51.84820   93.29920
 3378.50000    0.02870 1316.26500    8.65030  249.86280   16.92060   51.50860   93.34020
 3379.00000    0.01960 1301.20480    8.29180  256.50370   16.87910   50.13800   93.38120
 3379.50000    0.01210 1294.41110    7.93360  263.14460   16.87200   49.31720   93.23010
 3380.00000    0.01330 1293.12850    7.57520  268.79730   16.72770   49.47520   92.99820
 3380.50000    0.01620 1285.63640    7.39850  268.57790   16.23040   49.79870   92.70990
 3381.00000    0.01100 1297.58500    7.96980  265.03280   15.34450   49.07350   92.42160
 3381.50000    0.00580 1309.53340    8.76580  247.10970   14.37670   48.28830   92.13330
 3382.00000    0.00290 1321.48180    9.56120  241.68450   13.93810   48.15370   91.84620
 3382.50000    0.00330 1327.51450   10.35670  236.25930   14.07050   48.15730   91.56040
 3383.00000    0.00380 1309.88390   11.69090  230.82670   14.59930   48.18620   91.57250
 3383.50000    0.00600 1292.25340   12.86650  225.28990   15.18190   48.38210   91.98320
 3384.00000    0.00780 1307.19820   13.29650  219.29760   16.74580   48.73080   92.52210
 3384.50000    0.01010 1323.09170   13.56310  211.97430   19.89830   49.14350   93.70070
 3385.00000    0.01220 1329.16810   13.57190  203.99860   23.07520   49.36650   94.90740
 3385.50000    0.01670 1327.91350   13.50000  196.31980   23.27420   49.95160   95.62440
 3386.00000    0.02120 1324.82630   13.32500  188.64110   21.36440   50.63530   95.75420
 3386.50000    0.02290 1321.73900   13.15010  184.62630   18.46680   51.09400   95.62820
 3387.00000    0.02460 1327.81540   13.02090  188.15110   17.56160   51.15350   95.29840
 3387.50000    0.02350 1332.15860   13.00780  202.30090   17.91650   51.13070   94.69290
 3388.00000    0.02210 1329.56920   12.99460  226.53770   18.41760   50.92440   93.91810
 3388.50000    0.01860 1326.97990   13.02260  242.37160   18.45920   50.26170   93.09140
 3389.00000    0.01290 1340.68250   13.03410  258.20560   18.68960   49.52680   92.26460
 3389.50000    0.01160 1372.73560   12.96010  266.64110   19.16760   49.21160   92.14210
 3390.00000    0.01060 1361.39810   12.88650  273.39650   19.91020   49.17970   92.10120
 3390.50000    0.01010 1344.10220   12.81690  280.15190   20.88920   49.17630   91.65140
 3391.00000    0.00830 1329.91890   12.74730  286.90730   22.08010   48.92630   90.63570
 3391.50000    0.00650 1316.28850   12.70530  289.34020   22.52850   48.50650   89.81590
 3392.00000    0.00440 1315.98710   12.85530  287.77280   21.81070   48.23340   89.74610
 3392.50000    0.00380 1313.22520   13.15190  276.17410   20.55670   48.19610   89.73140
 3393.00000    0.00530 1300.62130   14.49520  264.57540   19.21040   48.35950   89.76260
 3393.50000    0.00730 1288.01730   16.26890  253.61330   18.59930   48.73780   89.99990
 3394.00000    0.01000 1295.92460   17.53420  243.43320   18.86170   49.10240   90.65580
 3394.50000    0.01220 1295.92460   18.00390  233.21830   19.39480   49.36470   91.35770
 3395.00000    0.01520 1295.92460   18.26920  223.00340   20.45240   49.70290   92.05960
 3395.50000    0.01630 1295.92460   18.36690  214.78050   21.61640   50.04250   92.19970
 3396.00000    0.01710 1304.91630   18.46450  209.80620   22.38050   50.10680   92.20470
 3396.50000    0.01710 1310.83790   18.57770  215.29740   22.39410   50.10190   92.20970
 3397.00000    0.01670 1321.72780   18.73000  221.50660   21.19850   50.08050   91.98640
 3397.50000    0.01610 1329.96630   19.37310  232.12930   19.04730   49.93860   91.75850
 3398.00000    0.01190 1295.69070   20.14980  243.92780   17.56910   49.33990   91.53070
 3398.50000    0.00710 1271.80370   20.80880  255.73750   16.86560   48.60130   91.30280
 3399.00000    0.00480 1289.47120   21.46770  265.82470   16.30650   48.22220   91.07490
 3399.50000    0.00380 1307.13880   22.01850  274.67380   16.19760   48.16730   90.61810
 3400.00000    0.00380 1307.13880   22.09510  275.58690   17.75090   48.16650   90.14770
 3400.50000    0.00380 1307.13880   21.32270  275.37490   21.08640   48.16880   90.43700
 3401.00000    0.00380 1308.32080   20.13100  268.11330   25.31170   48.17010   91.18590
 3401.50000    0.00370 1315.48100   18.93930  260.85160   27.95490   48.17140   91.23600
 3402.00000    0.00360 1314.99020   17.74750  254.09990   27.68430   48.17270   91.28600
 3402.50000    0.00370 1314.16490   16.55580  245.71290   24.82570   48.17010   91.33600
 3403.00000    0.00380 1313.33960   15.26010  236.27680   21.58050   48.17690   91.38610
 3403.50000    0.00380 1312.51430   13.88720  227.40040   18.91070   48.17600   91.56750
 3404.00000    0.00380 1311.68900   12.51420  220.46510   17.46240   48.18860   91.78390
 3404.50000    0.00380 1310.86360   11.17950  213.87030   16.65930   48.19610   92.43440
 3405.00000    0.00400 1302.99580   11.18120  215.62620   17.28900   48.20290   95.45380
 3405.50000    0.00550 1295.12780   11.29200  217.82450   18.41820   48.33690   95.27420
 3406.00000    0.00910 1300.02880   12.38100  221.15040   19.33320   48.89830   94.59910
 3406.50000    0.01330 1305.93400   13.61890  224.47620   20.09640   49.43270   94.26140
 3407.00000    0.01230 1304.81080   14.85680  226.83480   20.87190   49.43690   94.80680
 3407.50000    0.01070 1300.67590   16.08310  227.00110   21.97890   49.24560   95.82420
 3408.00000    0.01160 1299.02190   17.42060  227.16750   22.24900   49.30080   96.28490
 3408.50000    0.01310 1299.02190   19.14380  226.51250   21.65340   49.55040   95.63630
 3409.00000    0.01370 1299.02190   20.86700  223.01380   20.86860   49.64050   95.64250
 3409.50000    0.01690 1299.02190   22.59030  218.96320   20.73420   49.94090   95.91990
 3410.00000    0.02100 1299.02190   23.69070  214.91260   21.57120   50.62950   95.41900
 3410.50000    0.02160 1305.32670   23.62990  210.96350   22.40740   50.93480   94.86070
 3411.00000    0.01980 1309.42490   22.01160  211.15740   22.79570   50.49340   95.28100
 3411.50000    0.01790 1313.52320   20.04670  211.35130   23.22800   50.15310   95.97450
 3412.00000    0.01720 1313.94150   18.09950  211.59650   25.19140   50.10320   96.11990
 3412.50000    0.01680 1308.84010   15.56790  213.77130   28.90830   50.07600   95.94680
 3413.00000    0.01540 1306.82280   14.08440  219.27580   31.69930   49.88810   94.93120
 3413.50000    0.01320 1311.94120   13.35100  224.40600   31.32030   49.50820   93.78660
 3414.00000    0.01220 1321.07580   12.37010  229.01070   28.71550   49.45450   93.39470
 3414.50000    0.01490 1331.21940   11.36180  231.40270   26.08680   49.69540   93.64940
 3415.00000    0.01800 1318.77990   10.47560  233.04910   24.68170   50.21850   94.32140
 3415.50000    0.02210 1321.69980   10.27400  234.00610   24.04570   50.96710   94.99340
 3416.00000    0.02800 1330.67990   10.08470  227.45900   23.33380   51.57530   95.87010
 3416.50000    0.03120 1339.65990    9.79740  218.18700   22.50310   52.00780   96.94010
 3417.00000    0.03150 1326.92930    9.50400  207.22730   21.52650   52.15410   97.23120
 3417.50000    0.03140 1316.76450    8.85230  196.37890   20.83160   52.11960   96.99650
 3418.00000    0.02980 1338.63500    8.16220  185.53050   20.49040   51.90650   96.57750
 3418.50000    0.02790 1370.79080    7.47280  175.14920   19.67860   51.72040   96.34120
 3419.00000    0.02800 1377.30070    6.78300  173.32440   18.50020   51.66460   96.10490
 3419.50000    0.02850 1363.07010    6.09360  178.14750   17.23770   51.67060   96.02560
