~Version ---------------------------------------------------
VERS.   2.0 : CWLS log ASCII Standard -VERSION 2.0
WRAP.    NO : One line per depth step
DLM . SPACE : Column Data Section Delimiter
~Well ------------------------------------------------------
STRT .F                    0.0 : START DEPTH
STOP .F                 4553.0 : STOP DEPTH
STEP .F                    0.5 : STEP
NULL .                -9999.25 : NULL VALUE
COMP .                         : COMPANY
WELL .                         : WELL
FLD  .                         : FIELD
LOC  .                         : LOCATION
PROV .                         : PROVINCE
CNTY .                         : COUNTY
STAT .                         : STATE
CTRY .                         : COUNTRY
SRVC .                         : SERVICE COMPANY
DATE .                         : DATE
UWI  .                         : UNIQUE WELL ID
API  .                         : API NUMBER
SLAT .WGS84 1.7374410804454996 : SURFACE LATITUDE
SLON .WGS84  7.237560879542016 : SURFACE LONGITUDE
DATUM.F                2644.42 : DEPTH DATUM ELEV
~Curve Information -----------------------------------------
DEPT   .F     : 
SPHI_LS.DEC   : SONIC POROSITY [LIMESTONE]
TENS   .LB    : TENSION FROM SONIC LOG
GRN    .GAPI  : GAMMA RAY FROM GRN LOG
NEUT   .NAPI  : NEUTRON
GRS    .GAPI  : GAMMA RAY FROM SONIC LOG
DTCO   .US/F  : DELTA-T COMPRESSIONAL
DTSM   .US/F  : DELTA-T SHEAR
~Params ----------------------------------------------------
~Other -----------------------------------------------------
~ASCII -----------------------------------------------------
# ...
 3510.00000    0.02810 1294.87430   28.43020  315.52780   -9999.25   51.79010   91.46700
 3510.50000    0.03280 1305.46410   27.06400  298.83950   -9999.25   52.31160   93.32630
 3511.00000    0.03820 1305.46410   25.62240  282.15130   -9999.25   53.00320   95.54870
 3511.50000    0.04300 1310.08910   24.18070  278.70950   -9999.25   53.72330   97.61520
 3512.00000    0.04420 1318.94760   22.90850  278.34090   -9999.25   54.06450   98.27320
 3512.50000    0.04580 1327.80620   22.99560  278.90520   -9999.25   54.13550   99.05120
 3513.00000    0.04370 1325.94680   25.60630  281.43570   -9999.25   53.94150   99.92250
 3513.50000    0.04130 1332.21370   29.02960  284.02470   -9999.25   53.45850  101.00370
 3514.00000    0.03960 1364.45120   32.38640  283.06390   -9999.25   53.11700  101.40970
 3514.50000    0.03670 1386.88730   35.04050  279.33220   -9999.25   52.76220  100.66600
 3515.00000    0.02710 1387.25700   38.86700  271.51900   -9999.25   51.51370   98.05930
 3515.50000    0.01790 1354.28150   42.69360  263.24090   -9999.25   50.17940   95.39890
 3516.00000    0.01410 1331.50700   46.52010  254.77220   -9999.25   49.62770   93.96090
 3516.50000    0.01180 1330.33200   49.99940  246.30360   -9999.25   49.42820   93.41170
 3517.00000    0.00900 1357.17900   48.78690  240.84450   -9999.25   49.01020   93.22940
 3517.50000    0.01720 1364.09720   44.22520  241.53430   -9999.25   50.06520   97.11510
 3518.00000    0.04540 1366.03330   39.68480  250.57620   -9999.25   54.49260  105.36220
 3518.50000    0.08020 1367.96940   35.67350  262.63830   -9999.25   60.30140  113.27750
 3519.00000    0.12160 1369.90550   31.66230  284.32040   -9999.25   64.40090  118.36510
 3519.50000    0.14180 1371.84160   27.67330  326.33000   -9999.25   67.10050  122.45510
 3520.00000    0.13640 1378.21770   25.63870  348.36380   -9999.25   65.63680  122.26270
 3520.50000    0.09860 1387.55380   23.27510  368.28300   -9999.25   57.74680  115.29950
 3521.00000    0.02910 1395.02270   22.81870  368.83280   -9999.25   52.03280  100.28830
 3521.50000    0.02180 1395.02270   22.69430  369.31390   -9999.25   50.92740   96.96370
 3522.00000    0.02210 1393.84610   22.84790  369.31170   -9999.25   50.92610   94.98590
 3522.50000   -9999.25 1386.31070   23.99710  370.14470   -9999.25   -9999.25   -9999.25
 3523.00000   -9999.25 1387.34390   25.20580  374.01240   -9999.25   -9999.25   -9999.25
 3523.50000   -9999.25 1388.37710   25.73210  388.94840   -9999.25   -9999.25   -9999.25
 3524.00000   -9999.25 1389.41030   26.23390  402.82860   -9999.25   -9999.25   -9999.25
 3524.50000   -9999.25 1390.44350   26.71180  404.05620   -9999.25   -9999.25   -9999.25
 3525.00000   -9999.25 1391.47670   27.18960  391.18330   -9999.25   -9999.25   -9999.25
 3525.50000   -9999.25 1397.80040   27.97460  369.43250   -9999.25   -9999.25   -9999.25
 3526.00000   -9999.25 1416.15410   28.91090  367.18770   -9999.25   -9999.25   -9999.25
 3526.50000   -9999.25 1428.41970   30.18860  371.24150   -9999.25   -9999.25   -9999.25
 3527.00000   -9999.25 1393.88670   31.87930  378.20800   -9999.25   -9999.25   -9999.25
 3527.50000   -9999.25 1360.22960   33.87870  385.17440   -9999.25   -9999.25   -9999.25
 3528.00000   -9999.25 1358.63760   35.97870  392.14090   -9999.25   -9999.25   -9999.25
 3528.50000   -9999.25 1375.86670   38.02500  395.61280   -9999.25   -9999.25   -9999.25
 3529.00000   -9999.25 1384.69860   38.45200  395.61060   -9999.25   -9999.25   -9999.25
 3529.50000   -9999.25 1385.14230   38.87900  383.95470   -9999.25   -9999.25   -9999.25
 3530.00000   -9999.25 1361.16060   39.30590  370.48370   -9999.25   -9999.25   -9999.25
 3530.50000   -9999.25 1351.58390   39.43470  357.02330   -9999.25   -9999.25   -9999.25
 3531.00000   -9999.25 1373.65430   39.38570  343.63540   -9999.25   -9999.25   -9999.25
 3531.50000   -9999.25 1391.70860   39.33670  330.24740   -9999.25   -9999.25   -9999.25
 3532.00000   -9999.25 1380.31190   37.84040  316.85950   -9999.25   -9999.25   -9999.25
 3532.50000   -9999.25 1359.99060   36.28030  303.25940   -9999.25   -9999.25   -9999.25
 3533.00000   -9999.25 1362.64760   35.88230  295.88280   -9999.25   -9999.25   -9999.25
 3533.50000   -9999.25 1390.28330   36.48450  290.77000   -9999.25   -9999.25   -9999.25
 3534.00000   -9999.25 1417.91890   37.38000  285.65720   -9999.25   -9999.25   -9999.25
 3534.50000   -9999.25 1445.55470   38.70410  281.41960   -9999.25   -9999.25   -9999.25
 3535.00000   -9999.25 1473.19040   40.41860  282.63780   -9999.25   -9999.25   -9999.25
 3535.50000   -9999.25 1500.82600   42.40660  287.50600   -9999.25   -9999.25   -9999.25
 3536.00000   -9999.25 1528.46180   43.96580  295.89130   -9999.25   -9999.25   -9999.25
 3536.50000   -9999.25 1499.70610   45.03720  304.52900   -9999.25   -9999.25   -9999.25
 3537.00000   -9999.25 1417.40190   45.77300  322.98520   -9999.25   -9999.25   -9999.25
 3537.50000   -9999.25 1308.79710   45.44460  340.56690   -9999.25   -9999.25   -9999.25
 3538.00000   -9999.25 1200.19230   44.84150  357.50200   -9999.25   -9999.25   -9999.25
 3538.50000   -9999.25 1091.58760   43.86610  371.20580   -9999.25   -9999.25   -9999.25
 3539.00000   -9999.25  982.98280   42.09270  379.23310   -9999.25   -9999.25   -9999.25
 3539.50000   -9999.25  913.59010   39.98400  387.26050   -9999.25   -9999.25   -9999.25
 3540.00000   -9999.25  858.35490   36.96670  395.28780   -9999.25   -9999.25   -9999.25
 3540.50000   -9999.25  857.14140   33.94990  399.95120   -9999.25   -9999.25   -9999.25
 3541.00000   -9999.25  847.04360   30.93030  399.85180   -9999.25   -9999.25   -9999.25
 3541.50000   -9999.25  836.94580   29.29890  397.66300   -9999.25   -9999.25   -9999.25
 3542.00000   -9999.25  826.84800   28.31790  391.43160   -9999.25   -9999.25   -9999.25
 3542.50000   -9999.25  816.75020   27.33640  378.97080   -9999.25   -9999.25   -9999.25
 3543.00000   -9999.25  796.30850   26.35540  363.79590   -9999.25   -9999.25   -9999.25
 3543.50000   -9999.25  758.31610   27.02500  345.45940   -9999.25   -9999.25   -9999.25
 3544.00000   -9999.25  720.32380   28.08490  327.12290   -9999.25   -9999.25   -9999.25
 3544.50000   -9999.25  710.96450   29.37830  308.78640   -9999.25   -9999.25   -9999.25
 3545.00000   -9999.25  732.38750   30.75080  289.50000   -9999.25   -9999.25   -9999.25
 3545.50000   -9999.25   -9999.25   32.00610  272.79990   -9999.25   -9999.25   -9999.25
 3546.00000   -9999.25   -9999.25   34.28770  256.49440   -9999.25   -9999.25   -9999.25
 3546.50000   -9999.25   -9999.25   36.24110  242.84640   -9999.25   -9999.25   -9999.25
 3547.00000   -9999.25   -9999.25   38.19460  226.19790   -9999.25   -9999.25   -9999.25
 3547.50000   -9999.25   -9999.25   39.75960  209.35900   -9999.25   -9999.25   -9999.25
 3548.00000   -9999.25   -9999.25   39.19140  196.67730   -9999.25   -9999.25   -9999.25
 3548.50000   -9999.25   -9999.25   37.33780  191.46970   -9999.25   -9999.25   -9999.25
 3549.00000   -9999.25   -9999.25   35.48430  195.54890   -9999.25   -9999.25   -9999.25
 3549.50000   -9999.25   -9999.25   33.63070  211.98700   -9999.25   -9999.25   -9999.25
 3550.00000   -9999.25   -9999.25   31.68380  228.42520   -9999.25   -9999.25   -9999.25
 3550.50000   -9999.25   -9999.25   30.16270  236.15610   -9999.25   -9999.25   -9999.25
 3551.00000   -9999.25   -9999.25   30.55760  233.27960   -9999.25   -9999.25   -9999.25
 3551.50000   -9999.25   -9999.25   31.90850  221.74550   -9999.25   -9999.25   -9999.25
 3552.00000   -9999.25   -9999.25   33.25940  204.76640   -9999.25   -9999.25   -9999.25
 3552.50000   -9999.25   -9999.25   34.61030  204.76640   -9999.25   -9999.25   -9999.25
 3553.00000   -9999.25   -9999.25   35.96180  213.31770   -9999.25   -9999.25   -9999.25
 3553.50000   -9999.25   -9999.25   37.40420  223.56520   -9999.25   -9999.25   -9999.25
 3554.00000   -9999.25   -9999.25   38.92560  233.81280   -9999.25   -9999.25   -9999.25
 3554.50000   -9999.25   -9999.25   40.02290  229.88120   -9999.25   -9999.25   -9999.25
