~Version ---------------------------------------------------
VERS.   2.0 : CWLS log ASCII Standard -VERSION 2.0
WRAP.    NO : One line per depth step
DLM . SPACE : Column Data Section Delimiter
~Well ------------------------------------------------------
STRT .F                    0.0 : START DEPTH
STOP .F                 4553.0 : STOP DEPTH
STEP .F                    0.5 : STEP
NULL .                -9999.25 : NULL VALUE
COMP .                         : COMPANY
WELL .                         : WELL
FLD  .                         : FIELD
LOC  .                         : LOCATION
PROV .                         : PROVINCE
CNTY .                         : COUNTY
STAT .                         : STATE
CTRY .                         : COUNTRY
SRVC .                         : SERVICE COMPANY
DATE .                         : DATE
UWI  .                         : UNIQUE WELL ID
API  .                         : API NUMBER
SLAT .WGS84 1.7374410804454996 : SURFACE LATITUDE
SLON .WGS84  7.237560879542016 : SURFACE LONGITUDE
DATUM.F                2644.42 : DEPTH DATUM ELEV
~Curve Information -----------------------------------------
DEPT   .F     : 
SPHI_LS.DEC   : SONIC POROSITY [LIMESTONE]
TENS   .LB    : TENSION FROM SONIC LOG
GRN    .GAPI  : GAMMA RAY FROM GRN LOG
NEUT   .NAPI  : NEUTRON
GRS    .GAPI  : GAMMA RAY FROM SONIC LOG
DTCO   .US/F  : DELTA-T COMPRESSIONAL
DTSM   .US/F  : DELTA-T SHEAR
~Params ----------------------------------------------------
~Other -----------------------------------------------------
~ASCII -----------------------------------------------------
# ...
 2970.00000    0.11010 1164.30960   11.54700  167.23030   16.36490   63.16080  113.17830
 2970.50000    0.11530 1167.21480   10.96450  157.89500   17.10430   64.09910  115.70640
 2971.00000    0.11870 1170.12000   10.76640  150.60970   17.52290   64.42200  117.04050
 2971.50000    0.11950 1172.51870   10.69730  143.56270   17.76310   64.41960  117.58580
 2972.00000    0.12200 1172.89170   10.64460  136.74910   18.32700   64.81350  118.25390
 2972.50000    0.12480 1173.26460   11.47840  129.93560   19.44550   65.30680  118.19620
 2973.00000    0.12330 1173.63770   12.60230  121.69970   20.36830   65.16010  117.78200
 2973.50000    0.12180 1174.01060   13.92070  110.21270   19.95940   64.89830  116.96810
 2974.00000    0.11940 1174.38350   14.81560   91.48470   19.26590   64.50420  116.15420
 2974.50000    0.11690 1174.75660   15.34660   89.49950   19.34130   64.13500  115.21480
 2975.00000    0.11530 1175.12960   15.81680   93.51600   19.86640   63.91990  114.30640
 2975.50000    0.11380 1175.50240   16.27520  101.84940   20.23380   63.72410  114.19940
 2976.00000    0.11670 1171.15910   16.58030  110.18280   19.70380   63.97220  114.19730
 2976.50000    0.12030 1164.65840   16.77100  117.88420   18.91050   64.67930  114.06380
 2977.00000    0.12200 1164.65840   16.78880  123.49860   17.43000   64.87590  113.58080
 2977.50000    0.12080 1170.62480   16.80670  129.34100   16.14390   64.49790  112.60590
 2978.00000    0.11560 1189.91020   16.82450  136.52150   15.87750   63.63870  110.90280
 2978.50000    0.10320 1201.05770   16.84230  145.30880   16.21350   61.96790  108.53650
 2979.00000    0.09070 1199.99870   16.86990  154.23970   16.72540   59.93010  106.83350
 2979.50000    0.07820 1198.93960   17.02540  164.95870   17.64240   58.64670  106.26120
 2980.00000    0.07530 1197.88050   17.18440  176.70860   19.04060   58.24810  106.17960
 2980.50000    0.07500 1196.82150   17.33760  188.45850   20.35710   58.31240  106.02660
 2981.00000    0.07340 1195.76250   17.32640  200.20850   21.04760   58.10590  105.66730
 2981.50000    0.07090 1194.70340   17.30210  204.35940   21.55180   57.32950  104.86700
 2982.00000    0.06070 1193.64430   17.21950  202.46100   21.96350   56.13900  102.76670
 2982.50000    0.05040 1192.58520   17.05750  196.35510   22.70590   54.63800  100.39180
 2983.00000    0.04010 1191.52620   16.89550  190.01750   23.29110   53.07430   98.48530
 2983.50000    0.02990 1207.31150   17.01730  180.46430   23.16390   51.96960   97.37420
 2984.00000    0.02970 1195.91060   17.27550  171.54900   21.98820   52.00860   96.73030
 2984.50000    0.03750 1186.60910   17.97020  167.32070   20.35640   53.14540   97.81060
 2985.00000    0.04680 1199.39540   19.37200  167.20210   19.14450   54.15990   99.46480
 2985.50000    0.05440 1212.18160   20.65480  172.87600   18.39050   55.56730  102.14680
 2986.00000    0.06910 1204.97950   21.81380  180.59480   18.44490   57.79900  104.93680
 2986.50000    0.08000 1189.01530   22.25070  189.29250   19.89340   59.03950  107.64530
 2987.00000    0.08480 1184.98670   22.36660  197.44850   21.73620   59.77160  108.00290
 2987.50000    0.08650 1198.58240   22.22580  204.82600   23.12880   60.08340  107.35240
 2988.00000    0.08680 1212.17820   22.05990  211.63730   23.89130   59.95890  106.13960
 2988.50000    0.08500 1223.05470   21.53700  218.52090   24.65340   59.67970  105.12980
 2989.00000    0.08300 1195.31770   21.00960  222.16910   25.89680   59.42190  104.18700
 2989.50000    0.08150 1192.39590   20.48230  219.23250   26.88880   59.00990  103.70390
 2990.00000    0.07980 1203.47080   19.95490  209.43190   26.91910   58.86380  102.98550
 2990.50000    0.07740 1214.54580   19.42760  189.06390   25.69220   58.65120  102.38780
 2991.00000    0.07430 1214.02620   18.90020  180.13380   23.42930   57.90000  102.35680
 2991.50000    0.06760 1213.50680   18.80930  176.71800   21.21970   57.08760  102.55870
 2992.00000    0.06290 1193.57930   19.51350  177.61230   19.79460   56.42520  102.84100
 2992.50000    0.06000 1208.93620   21.04990  182.72040   19.96640   55.96320  102.16650
 2993.00000    0.05510 1220.43100   21.73240  197.14840   21.92670   55.32800  100.96920
 2993.50000    0.04680 1216.47790   21.37970  212.68590   23.85580   54.42390   99.90720
 2994.00000    0.04190 1206.64940   20.67760  225.05910   25.16270   53.39170   98.65710
 2994.50000    0.03680 1189.72850   19.86730  234.27960   25.61430   52.79090   97.35160
 2995.00000    0.03870 1233.42400   18.85010  244.50170   25.11970   53.29600   98.20670
 2995.50000    0.05170 1248.78800   18.58340  267.77020   24.01960   55.23970  100.29210
 2996.00000    0.06720 1228.51000   18.87720  284.53610   22.34600   57.52480  104.07480
 2996.50000    0.07970 1212.24800   19.25360  305.54900   21.29930   59.11250  107.00530
 2997.00000    0.08620 1225.96580   19.79700  324.74630   21.57740   59.91370  108.50210
 2997.50000    0.08420 1239.68350   20.07040  348.43740   23.06730   59.48360  107.90320
 2998.00000    0.06940 1251.89480   20.19010  369.58520   25.59120   57.21860  105.09760
 2998.50000    0.05350 1251.89480   19.93730  370.55290   27.47820   55.05970  101.34660
 2999.00000    0.04380 1213.78930   19.60670  356.95520   27.64050   53.71980   97.74190
 2999.50000    0.03760 1230.84620   19.07510  332.82570   25.75220   52.91380   94.98870
 3000.00000    0.03200 1247.90310   18.52580  314.97830   23.01730   52.14230   93.80670
 3000.50000    0.03080 1247.44560   17.97580  297.13100   21.03480   51.89270   93.44820
 3001.00000    0.03290 1235.57070   17.42650  277.20630   19.73470   52.16270   94.05740
 3001.50000    0.03450 1251.34080   16.91390  257.20870   19.10790   52.57840   94.31240
 3002.00000    0.03540 1273.26220   16.41130  241.12050   18.92610   52.65630   94.58940
 3002.50000    0.03790 1290.65820   15.92190  234.31750   18.98990   52.94000   94.92420
 3003.00000    0.04450 1286.08440   15.75760  235.03330   19.15840   53.78720   96.52060
 3003.50000    0.04980 1281.51030   15.90220  249.11220   18.96750   54.82190   98.49750
 3004.00000    0.05570 1282.88920   16.26870  265.09260   18.43820   55.87870  100.75130
 3004.50000    0.06270 1288.29830   16.82190  282.39090   17.79520   56.67250  102.24760
 3005.00000    0.06520 1288.16110   17.44680  302.86690   17.44970   57.08460  101.85000
 3005.50000    0.06520 1279.70390   18.08960  305.81300   17.91080   56.67750  100.19190
 3006.00000    0.05650 1259.21740   18.52300  301.31160   19.05670   55.65140   99.57250
 3006.50000    0.04700 1244.67130   18.56940  288.23390   20.05780   54.41670   98.41120
 3007.00000    0.04250 1246.11490   18.55600  274.60320   20.77610   53.71670   97.05790
 3007.50000    0.04520 1253.00090   18.39950  263.21440   22.06710   54.00910   96.96070
 3008.00000    0.04990 1268.05040   18.21030  252.19280   23.27630   54.79200   98.30560
 3008.50000    0.06020 1281.15220   18.18340  243.82530   23.62390   56.22460  100.48160
 3009.00000    0.07090 1286.46330   19.16550  235.70830   22.85800   57.94840  102.87790
 3009.50000    0.08050 1291.77430   20.39330  233.09910   22.29750   59.24450  104.70450
 3010.00000    0.08380 1308.03960   21.62160  237.13710   23.47340   59.46700  105.75410
 3010.50000    0.08250 1314.34730   22.84980  241.17520   25.81110   58.73600  105.53480
 3011.00000    0.06460 1296.35030   24.07820  243.08130   28.65850   56.87770  104.40930
 3011.50000    0.05360 1297.67960   25.30640  242.22500   30.26790   54.90210  102.64570
 3012.00000    0.04390 1304.35280   26.25710  237.52980   30.61400   53.50910  100.47620
 3012.50000    0.03750 1317.70580   26.59320  229.01950   30.12050   52.97350   98.41290
 3013.00000    0.03640 1309.01450   26.91260  217.52460   29.60090   52.70310   96.81930
 3013.50000    0.03540 1275.12050   26.76510  202.19100   29.23190   52.66030   96.03990
 3014.00000    0.03800 1292.95650   26.61780  196.14400   28.90980   53.00260   96.94700
 3014.50000    0.04720 1307.22530   26.54750  189.42140   28.12770   54.24720   98.50060
