~Version ---------------------------------------------------
VERS.   2.0 : CWLS log ASCII Standard -VERSION 2.0
WRAP.    NO : One line per depth step
DLM . SPACE : Column Data Section Delimiter
~Well ------------------------------------------------------
STRT .F                    0.0 : START DEPTH
STOP .F                 4553.0 : STOP DEPTH
STEP .F                    0.5 : STEP
NULL .                -9999.25 : NULL VALUE
COMP .                         : COMPANY
WELL .                         : WELL
FLD  .                         : FIELD
LOC  .                         : LOCATION
PROV .                         : PROVINCE
CNTY .                         : COUNTY
STAT .                         : STATE
CTRY .                         : COUNTRY
SRVC .                         : SERVICE COMPANY
DATE .                         : DATE
UWI  .                         : UNIQUE WELL ID
API  .                         : API NUMBER
SLAT .WGS84 1.7374410804454996 : SURFACE LATITUDE
SLON .WGS84  7.237560879542016 : SURFACE LONGITUDE
DATUM.F                2644.42 : DEPTH DATUM ELEV
~Curve Information -----------------------------------------
DEPT   .F     : 
SPHI_LS.DEC   : SONIC POROSITY [LIMESTONE]
TENS   .LB    : TENSION FROM SONIC LOG
GRN    .GAPI  : GAMMA RAY FROM GRN LOG
NEUT   .NAPI  : NEUTRON
GRS    .GAPI  : GAMMA RAY FROM SONIC LOG
DTCO   .US/F  : DELTA-T COMPRESSIONAL
DTSM   .US/F  : DELTA-T SHEAR
~Params ----------------------------------------------------
~Other -----------------------------------------------------
~ASCII -----------------------------------------------------
# ...
 2925.00000    0.07540 1127.68850   22.50940  197.97100   17.49070   58.39270  101.92530
 2925.50000    0.07210 1125.70340   26.44370  188.27210   19.03810   57.73490  101.95990
 2926.00000    0.06860 1134.84590   28.53660  175.59740   21.73720   57.37220  101.95990
 2926.50000    0.06530 1143.98840   29.21680  163.87710   24.02110   56.91260  101.82910
 2927.00000    0.06090 1133.88130   29.30160  151.12130   29.03100   56.45300  100.94740
 2927.50000    0.05730 1127.79610   29.26890  138.43730   34.20870   55.86920   99.99330
 2928.00000    0.05580 1130.32590   29.26290  128.85850   39.22380   55.55260   99.34890
 2928.50000    0.05840 1130.58170   28.96660  117.13620   39.86870   55.93540   99.79730
 2929.00000    0.06530 1129.32170   28.22940  105.06610   36.31040   57.02420  100.79620
 2929.50000    0.07570 1106.72310   26.85090   96.44880   30.16360   58.60310  103.09140
 2930.00000    0.08590 1116.28410   24.82840   89.15650   25.20020   60.18650  106.36490
 2930.50000    0.09610 1125.80330   22.90650   85.55540   22.66740   61.14550  108.84570
 2931.00000    0.09430 1135.15640   23.06410   99.43150   22.35590   61.15110  108.68560
 2931.50000    0.08900 1137.70190   23.21390  117.22950   24.49990   60.39020  107.82080
 2932.00000    0.08050 1122.55070   23.33780  127.58830   28.44000   59.17330  106.68460
 2932.50000    0.07130 1121.70010   22.98060  136.70030   31.80240   57.64050  105.54850
 2933.00000    0.06200 1137.27110   22.11840  139.01050   32.58440   56.11080  104.77280
 2933.50000    0.05730 1125.83250   21.24630  137.62570   30.02590   55.70750  104.20440
 2934.00000    0.05700 1118.86730   20.73480  134.58950   25.06760   55.82160  103.84850
 2934.50000    0.05690 1118.61210   21.52620  132.75340   20.78480   55.87890  103.29910
 2935.00000    0.05660 1118.35680   23.85720  136.59700   19.16760   55.74120  102.09980
 2935.50000    0.05860 1137.04790   26.72050  145.09330   19.66430   55.86560  101.30540
 2936.00000    0.06050 1126.23100   28.12830  153.59520   20.76410   56.22690  101.41210
 2936.50000    0.06390 1115.41410   29.91210  162.32240   21.90640   56.68170  102.28480
 2937.00000    0.06740 1115.41410   30.87050  171.79040   24.56490   57.15450  103.25070
 2937.50000    0.07060 1127.69800   31.82740  183.07270   31.11630   57.65760  104.43800
 2938.00000    0.07510 1140.43770   31.81880  192.14920   39.39210   58.13730  105.92040
 2938.50000    0.08020 1139.13650   30.16640  197.94610   48.24740   58.89300  107.08560
 2939.00000    0.08430 1125.57680   28.51320  203.74290   51.14100   59.60700  107.61340
 2939.50000    0.08760 1121.81050   26.46670  207.70950   46.86680   60.11390  106.86050
 2940.00000    0.09100 1141.05920   24.30210  206.96880   38.29650   60.37780  108.03110
 2940.50000    0.09400 1148.44600   22.13760  200.45310   30.71360   60.84530  109.39370
 2941.00000    0.09850 1138.38020   19.97300  194.15700   25.46530   61.60730  109.13880
 2941.50000    0.10060 1124.81490   17.80840  191.55220   21.71880   61.85750  108.76740
 2942.00000    0.09910 1121.84060   17.02550  194.41460   18.95540   61.56860  108.54500
 2942.50000    0.09810 1118.86620   16.67120  201.99990   17.07520   61.43910  108.35990
 2943.00000    0.09930 1115.89180   16.26760  209.63150   16.69400   61.70770  108.27300
 2943.50000    0.10280 1151.81620   15.68830  217.57690   18.05920   62.16330  108.48890
 2944.00000    0.10630 1150.56950   15.01110  224.76090   19.73810   62.73020  108.90990
 2944.50000    0.10860 1149.32260   14.34870  227.25330   20.60990   63.07290  109.13630
 2945.00000    0.10740 1148.07580   14.83540  228.29470   20.39780   62.78230  108.70290
 2945.50000    0.10100 1146.82900   15.37030  228.02680   20.03840   61.78540  107.66590
 2946.00000    0.09190 1145.58220   16.06050  229.97980   19.55590   60.24410  106.65930
 2946.50000    0.08280 1145.97800   16.52170  232.98570   18.77440   59.24920  106.39160
 2947.00000    0.07940 1147.46880   16.71560  239.97720   18.14960   58.93020  106.73730
 2947.50000    0.08100 1146.57280   16.75830  246.96880   17.99900   59.39170  107.91350
 2948.00000    0.08920 1136.12810   16.50680  248.51260   18.47210   60.68880  110.11220
 2948.50000    0.10570 1132.24690   16.11090  244.52040   19.41670   62.81900  112.56530
 2949.00000    0.12220 1154.61870   15.40330  234.33920   20.90250   65.30210  114.31540
 2949.50000    0.13370 1176.99020   14.52920  222.76730   22.26180   66.81920  114.39980
 2950.00000    0.13840 1164.13430   13.82190  214.50950   22.52120   66.86060  114.03570
 2950.50000    0.13130 1151.27840   13.89410  213.41650   21.36430   65.71080  112.70040
 2951.00000    0.11370 1143.56480   13.96610  219.60570   19.47250   63.92510  111.35410
 2951.50000    0.10220 1147.19850   14.04680  227.03300   18.01500   61.76420  109.53140
 2952.00000    0.09010 1152.18400   14.19110  234.46040   17.19620   59.86480  107.26180
 2952.50000    0.07800 1157.16960   14.23100  241.57730   16.46810   58.27460  104.99980
 2953.00000    0.07110 1130.91990   14.27090  245.39510   15.77790   57.68030  103.61990
 2953.50000    0.06790 1133.41700   14.32730  245.54410   16.00860   57.27340  103.94880
 2954.00000    0.06530 1140.44600   14.50010  243.47430   17.22950   56.81350  105.03270
 2954.50000    0.06700 1139.19020   14.67380  239.30120   18.88880   57.20770  106.89460
 2955.00000    0.07900 1141.42070   15.02240  232.25910   20.44710   58.71940  108.39730
 2955.50000    0.08970 1145.53250   15.37750  224.20990   21.35860   60.57730  109.76700
 2956.00000    0.09970 1147.46090   15.31040  215.64960   21.39370   61.84850  110.84530
 2956.50000    0.10410 1159.57300   15.17000  215.11590   21.05030   62.38150  111.05490
 2957.00000    0.10300 1148.68540   14.90100  217.27750   20.98790   62.19350  110.56890
 2957.50000    0.10060 1146.51340   15.07810  223.02670   21.38340   62.12320  109.53200
 2958.00000    0.10030 1145.21020   15.55260  228.77600   20.96980   61.75320  108.36710
 2958.50000    0.09450 1151.91260   16.24540  233.87160   20.31490   60.98320  106.84570
 2959.00000    0.08810 1170.14660   16.93810  237.60850   20.23960   60.11560  105.52710
 2959.50000    0.08080 1170.21640   17.11080  237.06880   21.33010   58.96960  104.20860
 2960.00000    0.07250 1154.10490   16.24740  233.07210   23.23800   57.58230  102.92920
 2960.50000    0.06500 1147.09810   15.38370  223.93320   24.69290   56.69460  101.83750
 2961.00000    0.06190 1160.59480   14.52020  214.79430   24.67290   56.40140  101.08040
 2961.50000    0.06230 1174.09160   13.83130  206.93700   22.60380   56.17310  100.93930
 2962.00000    0.06330 1168.43190   13.79920  199.29370   19.48440   56.16170  101.04380
 2962.50000    0.06430 1155.47310   13.76710  191.35530   17.24270   56.52040  101.20660
 2963.00000    0.06690 1152.78990   13.73500  170.22840   16.59890   57.18440  101.55520
 2963.50000    0.07140 1165.52010   13.61460  157.64590   17.69590   57.79000  103.17610
 2964.00000    0.07760 1178.10080   13.46400  148.44720   18.69740   58.79900  105.74650
 2964.50000    0.08860 1177.17200   13.22770  141.92860   18.46470   60.39930  109.16940
 2965.00000    0.10290 1167.38670   13.27630  144.11660   17.62450   62.25930  111.85010
 2965.50000    0.11680 1172.53650   13.57450  152.21710   17.06630   64.10130  115.21380
 2966.00000    0.12520 1172.53650   13.86050  160.87400   17.20790   65.82080  116.56340
 2966.50000    0.13530 1172.53650   14.07500  170.10830   17.30440   66.66880  116.57300
 2967.00000    0.13080 1172.53650   14.14050  180.58090   16.95840   66.07930  114.95850
 2967.50000    0.11970 1172.53650   13.94520  191.98530   16.33630   64.47230  113.16290
 2968.00000    0.10870 1172.53650   13.68990  204.53010   16.03030   62.76300  111.63920
 2968.50000    0.10130 1172.53650   13.28500  204.84330   15.80330   62.00540  110.53860
 2969.00000    0.10090 1171.09810   12.71190  198.97290   15.71290   61.94810  109.78820
 2969.50000    0.10320 1166.12900   12.12940  183.10160   15.99160   62.11850  110.98180
