~Version ---------------------------------------------------
VERS.   2.0 : CWLS log ASCII Standard -VERSION 2.0
WRAP.    NO : One line per depth step
DLM . SPACE : Column Data Section Delimiter
~Well ------------------------------------------------------
STRT .F                    0.0 : START DEPTH
STOP .F                 4553.0 : STOP DEPTH
STEP .F                    0.5 : STEP
NULL .                -9999.25 : NULL VALUE
COMP .                         : COMPANY
WELL .                         : WELL
FLD  .                         : FIELD
LOC  .                         : LOCATION
PROV .                         : PROVINCE
CNTY .                         : COUNTY
STAT .                         : STATE
CTRY .                         : COUNTRY
SRVC .                         : SERVICE COMPANY
DATE .                         : DATE
UWI  .                         : UNIQUE WELL ID
API  .                         : API NUMBER
SLAT .WGS84 1.7374410804454996 : SURFACE LATITUDE
SLON .WGS84  7.237560879542016 : SURFACE LONGITUDE
DATUM.F                2644.42 : DEPTH DATUM ELEV
~Curve Information -----------------------------------------
DEPT   .F     : 
SPHI_LS.DEC   : SONIC POROSITY [LIMESTONE]
TENS   .LB    : TENSION FROM SONIC LOG
GRN    .GAPI  : GAMMA RAY FROM GRN LOG
NEUT   .NAPI  : NEUTRON
GRS    .GAPI  : GAMMA RAY FROM SONIC LOG
DTCO   .US/F  : DELTA-T COMPRESSIONAL
DTSM   .US/F  : DELTA-T SHEAR
~Params ----------------------------------------------------
~Other -----------------------------------------------------
~ASCII -----------------------------------------------------
# ...
 3330.00000    0.02450 1287.28720    9.36860  250.92540   18.82140   51.12550   94.93770
 3330.50000    0.02130 1301.72950    8.93840  242.26830   19.52640   50.79110   94.56700
 3331.00000    0.01590 1312.26260    8.50810  233.20910   19.29200   49.90460   94.19500
 3331.50000    0.01340 1316.47600    8.07760  224.14990   18.34240   49.66470   93.96950
 3332.00000    0.01630 1316.47600    7.69430  215.09070   16.96090   50.06580   94.51840
 3332.50000    0.01960 1316.47600    7.37580  216.38620   16.00110   50.56510   95.02160
 3333.00000    0.02200 1316.47600    7.07710  237.42460   15.42700   50.89610   95.04800
 3333.50000    0.02270 1316.47600    6.80380  256.75350   14.78320   51.06720   94.91630
 3334.00000    0.02270 1316.47600    6.59120  267.08440   14.39150   51.02410   94.19740
 3334.50000    0.01720 1316.47600    6.53250  277.21070   14.33070   50.36970   93.35030
 3335.00000    0.01180 1320.32210    6.49010  287.79090   14.55420   49.50960   92.50320
 3335.50000    0.00700 1315.84080    6.52910  297.13030   14.81020   48.64240   92.23070
 3336.00000    0.00460 1311.35950    6.87040  297.85090   14.92250   48.41630   92.35250
 3336.50000    0.00800 1306.87820    7.21160  293.15990   14.93230   48.68150   92.59770
 3337.00000    0.00980 1302.39690    7.50700  287.68210   14.87830   49.08560   92.84280
 3337.50000    0.01190 1297.91560    7.70220  282.20430   15.18650   49.34430   92.99790
 3338.00000    0.01390 1293.43430    7.77810  277.52650   15.89630   49.69340   93.37200
 3338.50000    0.01630 1288.95300    7.85390  272.86060   16.61830   50.03450   93.90650
 3339.00000    0.01880 1276.03940    8.25610  268.19470   16.25470   50.25660   93.96900
 3339.50000    0.02120 1257.50430    8.69030  263.52880   15.20710   50.66570   94.19640
 3340.00000    0.02280 1238.96920    9.12450  258.86290   14.80770   51.10040   94.54600
 3340.50000    0.02410 1287.64180    9.55870  257.20250   15.08000   51.16990   94.89560
 3341.00000    0.02450 1313.86950    9.84710  256.70000   15.43270   51.16710   95.24230
 3341.50000    0.02440 1318.60390    9.99910  259.38260   15.06280   51.16420   95.25240
 3342.00000    0.02410 1309.35420   10.19600  265.53910   14.61390   51.14770   95.26240
 3342.50000    0.02250 1303.55410   10.37700  272.53780   14.30870   50.94420   95.23030
 3343.00000    0.01940 1306.26870   10.38940  280.63280   14.27410   50.51280   94.85810
 3343.50000    0.01630 1315.82680   10.23720  289.42040   14.67530   49.96980   94.48600
 3344.00000    0.01320 1298.41300    9.93570  298.20810   15.26870   49.51300   94.11380
 3344.50000    0.01010 1290.03230    9.17420  301.47400   16.40410   49.06550   93.47280
 3345.00000    0.00700 1295.20140    8.45210  297.93120   17.45310   48.59870   92.47900
 3345.50000    0.00400 1300.37050    7.79130  283.20760   17.39580   48.34630   91.74580
 3346.00000    0.00400 1301.69730    7.25110  256.67940   16.56190   48.23880   91.48290
 3346.50000    0.00550 1300.46260    6.80510  241.49420   15.18280   48.36910   91.94280
 3347.00000    0.00840 1299.22810    6.21360  232.01560   14.00100   48.75230   92.44680
 3347.50000    0.01300 1297.99350    5.72030  224.92820   13.89110   49.40010   93.24810
 3348.00000    0.02010 1283.53440    5.33690  217.84080   14.05380   50.26280   94.30260
 3348.50000    0.02490 1269.81600    5.21430  215.84990   14.43990   51.14380   95.64190
 3349.00000    0.02720 1269.81600    5.09180  218.24220   14.91810   51.57240   96.64430
 3349.50000    0.02560 1269.81600    5.16390  234.26090   15.45970   51.47480   96.28780
 3350.00000    0.02160 1269.81600    5.37710  251.63610   15.55890   50.88050   95.21960
 3350.50000    0.01510 1269.81600    5.59010  253.98670   15.57480   50.04620   94.15140
 3351.00000    0.01010 1269.81600    5.78970  249.75620   15.65750   49.22510   93.38920
 3351.50000    0.00560 1269.81600    5.81880  241.75600   15.78680   48.55290   92.79590
 3352.00000    0.00610 1269.81600    5.84390  234.96350   15.42130   48.45010   92.22530
 3352.50000    0.00700 1269.81600    5.96180  231.30010   13.97020   48.72210   92.23030
 3353.00000    0.00880 1269.81600    6.16410  229.63560   12.09370   49.07290   92.85490
 3353.50000    0.01010 1269.81600    6.36670  230.49090   10.83910   49.17070   93.93490
 3354.00000    0.01220 1274.48490    6.60000  231.66050   10.94310   49.34940   94.73160
 3354.50000    0.01440 1271.41700    6.83450  233.61060   11.34120   49.70120   95.49990
 3355.00000    0.01800 1268.34920    7.07530  235.56080   11.80270   50.17250   96.15490
 3355.50000    0.02100 1265.28140    7.67470  237.74650   12.00100   50.69700   96.64710
 3356.00000    0.02320 1262.21350    7.99860  240.71090   11.87310   51.10840   96.65210
 3356.50000    0.02540 1259.14580    7.86240  247.18340   12.42240   51.17800   96.43800
 3357.00000    0.02450 1256.07790    7.71520  257.33700   12.88470   51.17180   96.14360
 3357.50000    0.02330 1253.01010    7.53130  266.43430   12.97900   51.13920   95.50590
 3358.00000    0.02040 1249.94230    7.29150  276.17020   12.83690   50.83350   94.77030
 3358.50000    0.01740 1246.87440    7.26750  284.69220   12.89470   50.11000   94.47710
 3359.00000    0.01570 1243.80660    7.27340  295.22690   13.89590   49.89350   94.44170
 3359.50000    0.01730 1240.73880    7.31240  305.76160   15.15350   50.16980   94.57380
 3360.00000    0.02200 1238.28450    7.35140  316.29640   16.31920   50.68840   95.30030
 3360.50000    0.02480 1274.96660    7.39030  324.08350   17.09510   51.10480   95.39140
 3361.00000    0.02500 1274.35440    7.43820  329.83740   17.57110   51.15940   95.25020
 3361.50000    0.02200 1273.74220    7.50890  335.59130   18.11260   50.98220   95.10900
 3362.00000    0.01860 1273.13000    8.04950  342.52060   18.37660   50.52470   94.96780
 3362.50000    0.01520 1272.51780    8.68710  350.38040   18.37630   49.99700   94.57020
 3363.00000    0.01170 1271.90560    9.45620  353.94780   18.02640   49.55480   93.99380
 3363.50000    0.00930 1271.29350    9.86690  354.36200   17.51360   49.06820   93.16830
 3364.00000    0.00570 1270.68130   10.18920  341.54020   16.49150   48.57770   92.25000
 3364.50000    0.00390 1270.06910   10.51140  326.44520   15.16290   48.26440   91.33180
 3365.00000    0.00350 1283.07060   10.75240  312.13560   13.76060   48.18470   91.20580
 3365.50000    0.00300 1305.14760   10.76130  301.49470   13.68570   48.15260   91.20580
 3366.00000    0.00150 1322.80070   10.52540  293.63950   14.51380   47.98040   91.41950
 3366.50000    0.00030 1322.75740   10.18330  285.78430   14.66280   47.79600   92.00300
 3367.00000   -0.00050 1322.71420    9.63170  279.11400   14.47300   47.87450   92.08030
 3367.50000   -0.00040 1320.03980    9.04460  276.89120   14.42850   48.09780   92.15750
 3368.00000    0.00430 1306.84090    8.30040  276.31820   14.64250   48.16630   92.23480
 3368.50000    0.00370 1293.64220    7.55630  275.58050   14.97110   48.17120   92.31210
 3369.00000    0.00370 1297.59310    6.81200  272.62960   15.24440   48.17410   92.38930
 3369.50000    0.00770 1301.54390    6.06800  267.38640   15.67980   48.85670   92.39790
 3370.00000    0.01930 1311.16820    5.75500  265.52470   15.96790   50.43850   93.21350
 3370.50000    0.03100 1322.21080    5.75340  266.20360   16.05530   52.02150   94.35910
 3371.00000    0.03610 1300.26310    5.98620  276.65940   16.34170   52.86930   94.26860
 3371.50000    0.04260 1296.63280    6.26350  287.11510   17.09300   53.83480   94.85700
 3372.00000    0.04860 1307.22890    6.37590  294.19710   17.67410   54.71290   95.20250
 3372.50000    0.05050 1325.04920    6.12580  296.55630   17.63910   54.88460   95.26500
 3373.00000    0.04870 1324.41930    5.81880  296.67370   17.11890   54.48990   94.55050
 3373.50000    0.04450 1295.76440    5.74340  296.19820   16.64290   53.98750   93.68720
 3374.00000    0.04130 1294.27390    5.93300  291.40220   16.05860   53.15360   92.82400
 3374.50000    0.03190 1292.78340    6.47640  281.71620   15.39480   51.74520   92.63640
