~Version ---------------------------------------------------
VERS.   2.0 : CWLS log ASCII Standard -VERSION 2.0
WRAP.    NO : One line per depth step
DLM . SPACE : Column Data Section Delimiter
~Well ------------------------------------------------------
STRT .F                    0.0 : START DEPTH
STOP .F                 4553.0 : STOP DEPTH
STEP .F                    0.5 : STEP
NULL .                -9999.25 : NULL VALUE
COMP .                         : COMPANY
WELL .                         : WELL
FLD  .                         : FIELD
LOC  .                         : LOCATION
PROV .                         : PROVINCE
CNTY .                         : COUNTY
STAT .                         : STATE
CTRY .                         : COUNTRY
SRVC .                         : SERVICE COMPANY
DATE .                         : DATE
UWI  .                         : UNIQUE WELL ID
API  .                         : API NUMBER
SLAT .WGS84 1.7374410804454996 : SURFACE LATITUDE
SLON .WGS84  7.237560879542016 : SURFACE LONGITUDE
DATUM.F                2644.42 : DEPTH DATUM ELEV
~Curve Information -----------------------------------------
DEPT   .F     : 
SPHI_LS.DEC   : SONIC POROSITY [LIMESTONE]
TENS   .LB    : TENSION FROM SONIC LOG
GRN    .GAPI  : GAMMA RAY FROM GRN LOG
NEUT   .NAPI  : NEUTRON
GRS    .GAPI  : GAMMA RAY FROM SONIC LOG
DTCO   .US/F  : DELTA-T COMPRESSIONAL
DTSM   .US/F  : DELTA-T SHEAR
~Params ----------------------------------------------------
~Other -----------------------------------------------------
~ASCII -----------------------------------------------------
# ...
 2565.00000   -0.01090 1021.62160   18.96510  872.13660   18.13880   46.18430   85.99380
 2565.50000   -0.00830 1014.31000   16.76640  881.42050   19.45220   46.33700   85.80740
 2566.00000   -0.00320 1013.79100   14.98210  897.89420   21.82340   47.18460   85.97650
 2566.50000    0.00370 1032.07210   13.34150  924.68230   25.44540   48.30740   87.96980
 2567.00000    0.01060 1050.35350   11.13420  947.68480   29.32110   49.17910   89.81980
 2567.50000    0.01700 1068.63460    8.92790  973.24610   31.70000   49.88770   90.98090
 2568.00000    0.02180 1082.59840    6.72170 1044.26490   28.92480   50.62030   92.28570
 2568.50000    0.02360 1079.29160    6.09900 1065.57010   23.24270   51.08680   93.32340
 2569.00000    0.02360 1075.98470    6.00770 1077.21060   15.71790   50.78200   93.38460
 2569.50000    0.01860 1072.67810    5.99530 1077.65630   10.30760   50.25930   93.14680
 2570.00000    0.01590 1062.52620    6.32460 1063.01160    9.92960   50.00900   92.82660
 2570.50000    0.01370 1024.99460    7.04740 1038.35070   11.68050   49.47200   92.11200
 2571.00000    0.00480  995.11370    7.77010 1003.58390   15.39000   48.42650   90.56610
 2571.50000    0.00020  998.63660    8.49260  988.52880   17.42860   47.52240   88.96930
 2572.00000   -0.00340 1006.72230    9.70180  973.47370   17.15530   47.17180   87.84510
 2572.50000   -0.00570 1014.80810   11.12790  935.46660   15.66070   46.91660   87.35380
 2573.00000   -0.00810 1022.89380   12.55560  909.88440   14.03780   46.48400   87.54350
 2573.50000   -0.00830 1045.06370   14.05820  890.78000   13.65640   46.39490   88.09880
 2574.00000   -0.00640 1070.75480   15.86420  857.98330   14.58920   46.72880   88.82810
 2574.50000   -0.00420 1096.44560   17.67300  834.53820   16.11060   47.13100   90.08240
 2575.00000   -0.00140 1080.26290   18.38460  816.69710   19.49330   47.33920   90.07670
 2575.50000    0.00260 1073.12480   17.50800  801.08310   22.36170   47.95720   90.07650
 2576.00000    0.00700 1065.98650   16.55800  785.01950   23.31290   48.90720   90.46870
 2576.50000    0.01500 1058.84810   15.60870  773.13680   23.21440   49.89930   92.13410
 2577.00000    0.02170 1039.15390   14.65900  770.52250   23.96650   50.63110   94.33850
 2577.50000    0.02390 1016.32070   13.70910  781.30770   25.42580   51.11960   96.63940
 2578.00000    0.02640 1002.76510   12.75980  802.05950   25.12740   51.39880   97.71450
 2578.50000    0.02680 1003.34270   11.81010  823.19150   23.38760   51.56130   96.83450
 2579.00000    0.02450 1019.52090   10.86010  844.86600   21.38770   51.23170   95.44520
 2579.50000    0.01730 1046.00350    9.91080  866.61160   20.18350   50.13200   94.05840
 2580.00000    0.00940 1057.26730    8.96120  909.47530   19.43960   48.79110   92.84960
 2580.50000    0.00110 1058.38530    8.71970  952.30870   17.62080   48.04560   91.64080
 2581.00000   -0.00380 1059.50320    9.49940  963.98380   14.76080   47.28490   90.43200
 2581.50000   -0.00740 1060.62120   11.98540  975.65900   12.77150   46.78270   89.38150
 2582.00000   -0.00530 1061.73910   14.58060  985.53660   12.01020   46.86060   88.52980
 2582.50000   -0.00240 1060.90340   16.90010  977.14520   12.54110   47.25820   87.67820
 2583.00000   -0.00340 1052.25350   17.34780  963.45940   13.38510   47.35830   87.03070
 2583.50000   -0.00480 1043.60350   17.85180  950.80380   14.25040   46.99250   87.11490
 2584.00000   -0.00510 1034.95350   17.48990  937.75930   15.28550   46.94680   87.76450
 2584.50000   -0.00400 1026.30350   17.20760  916.16910   16.52350   47.28610   88.49540
 2585.00000   -0.00160 1017.65350   16.92520  889.54430   19.72590   47.64510   89.90930
 2585.50000   -0.00040 1016.66690   16.85980  866.95930   25.08930   47.45400   91.02770
 2586.00000   -0.00180 1027.17550   16.83550  868.02430   28.82090   47.43540   91.27190
 2586.50000   -0.00080 1037.68420   16.58510  876.16390   29.48360   47.61550   91.13940
 2587.00000   -0.00020 1048.19270   15.71470  883.37210   26.63180   47.69540   90.63850
 2587.50000    0.00040 1058.70140   15.24460  882.41360   23.02350   47.71070   89.61340
 2588.00000    0.00100 1069.21010   14.78200  879.40670   21.01660   47.74070   89.27090
 2588.50000    0.00160 1075.70350   14.67130  876.39980   20.75240   47.90910   89.09240
 2589.00000    0.00380 1043.43810   14.59680  873.68650   22.89940   48.25850   89.25570
 2589.50000    0.00720 1011.17270   15.08540  870.95390   25.05650   48.70790   90.49340
 2590.00000    0.00970 1020.88330   15.67580  870.05680   25.00700   49.10020   91.89960
 2590.50000    0.01160 1032.80100   16.26670  871.01860   21.89930   49.36500   93.04040
 2591.00000    0.01170 1035.91020   16.85660  882.82080   18.25710   49.55830   93.26040
 2591.50000    0.01110 1029.72340   17.39150  897.23360   17.23210   49.23270   92.95260
 2592.00000    0.00640 1039.00590   16.93920  911.64640   18.01970   48.50550   92.30720
 2592.50000    0.00400 1010.60850   15.95850  926.05910   18.74140   48.24650   91.71200
 2593.00000    0.00530 1039.79090   14.64650  940.47190   19.46410   48.33840   91.71050
 2593.50000    0.00790 1067.95010   13.43250  954.88540   21.71930   48.67340   92.75430
 2594.00000    0.00890 1070.27010   12.28480  969.29940   26.83140   48.97840   94.17790
 2594.50000    0.00990 1072.59010   11.13710  983.71340   31.83740   49.15970   94.23180
 2595.00000    0.01230 1059.57560    9.87020 1011.99300   32.09640   49.31420   94.16060
 2595.50000    0.01480 1046.56120    9.58220 1040.27260   28.10560   49.84010   94.21550
 2596.00000    0.01900 1033.54660    9.49120 1088.81650   22.17990   50.66840   94.83790
 2596.50000    0.02350 1020.53210    9.55680 1124.83150   15.79350   51.11050   96.11900
 2597.00000    0.02490 1007.51760    9.62240 1156.14420   12.21280   51.16870   98.33370
 2597.50000    0.02440  994.50310    9.68800 1148.01380   12.22920   51.17440   98.31070
 2598.00000    0.02210  969.35510    9.85290 1137.92930   15.31700   51.07470   97.78980
 2598.50000    0.01980  962.77490   10.09370 1127.84480   19.66830   50.82910   96.96790
 2599.00000    0.01780  988.53100   10.42710 1109.42920   21.41580   50.26310   96.14600
 2599.50000    0.01840 1014.28720   10.96070 1094.27980   19.27770   50.26370   95.28260
 2600.00000    0.01990 1040.04330   12.26520 1083.07730   15.05990   50.49420   94.41160
 2600.50000    0.02060 1065.79940   13.73930 1071.87460   11.82170   50.65480   94.15990
 2601.00000    0.02060 1051.20430   15.21580 1021.91080   10.96210   50.41480   94.17530
 2601.50000    0.01900 1018.29390   17.11460 1007.27220   12.39370   50.30490   93.44710
 2602.00000    0.01740  985.38350   19.12890  992.63370   15.34220   50.26070   92.71890
 2602.50000    0.01410  993.51010   20.62790  977.99520   18.28390   49.83520   91.99060
 2603.00000    0.01040 1003.39130   22.21760  962.50030   20.42560   49.26280   91.50730
 2603.50000    0.01130  970.72550   23.69470  947.00550   21.84830   49.17530   91.11400
 2604.00000    0.01240 1006.52590   24.93340  931.26670   23.79950   49.28310   90.47760
 2604.50000    0.01290  968.04570   26.17030  911.80220   25.28310   49.56480   90.02130
 2605.00000    0.01340  978.33370   25.94180  886.80280   25.46620   49.62420   90.13980
 2605.50000    0.01710  988.62160   24.41450  868.95890   24.79020   50.08930   91.57890
 2606.00000    0.02710  998.90960   22.82810  853.08280   25.77070   51.37180   93.82080
 2606.50000    0.03340 1009.19760   21.48580  839.04340   29.24530   52.24080   96.01130
 2607.00000    0.03740 1019.48550   21.37990  825.81490   30.99380   52.90910   97.30340
 2607.50000    0.03970 1029.77360   22.79490  812.58640   28.11110   53.70950   98.82150
 2608.00000    0.04510 1040.06150   24.20930  799.35790   23.19620   54.46630   99.91580
 2608.50000    0.05350 1029.11650   25.65730  781.26270   19.02170   55.39000  100.52410
 2609.00000    0.06020 1014.20250   27.21940  762.79940   19.39510   56.19350  101.05020
 2609.50000    0.06320 1014.56820   28.74870  744.33610   23.11020   56.75400  101.10360
