~Version ---------------------------------------------------
VERS.   2.0 : CWLS log ASCII Standard -VERSION 2.0
WRAP.    NO : One line per depth step
DLM . SPACE : Column Data Section Delimiter
~Well ------------------------------------------------------
STRT .F                    0.0 : START DEPTH
STOP .F                 4553.0 : STOP DEPTH
STEP .F                    0.5 : STEP
NULL .                -9999.25 : NULL VALUE
COMP .                         : COMPANY
WELL .                         : WELL
FLD  .                         : FIELD
LOC  .                         : LOCATION
PROV .                         : PROVINCE
CNTY .                         : COUNTY
STAT .                         : STATE
CTRY .                         : COUNTRY
SRVC .                         : SERVICE COMPANY
DATE .                         : DATE
UWI  .                         : UNIQUE WELL ID
API  .                         : API NUMBER
SLAT .WGS84 1.7374410804454996 : SURFACE LATITUDE
SLON .WGS84  7.237560879542016 : SURFACE LONGITUDE
DATUM.F                2644.42 : DEPTH DATUM ELEV
~Curve Information -----------------------------------------
DEPT   .F     : 
SPHI_LS.DEC   : SONIC POROSITY [LIMESTONE]
TENS   .LB    : TENSION FROM SONIC LOG
GRN    .GAPI  : GAMMA RAY FROM GRN LOG
NEUT   .NAPI  : NEUTRON
GRS    .GAPI  : GAMMA RAY FROM SONIC LOG
DTCO   .US/F  : DELTA-T COMPRESSIONAL
DTSM   .US/F  : DELTA-T SHEAR
~Params ----------------------------------------------------
~Other -----------------------------------------------------
~ASCII -----------------------------------------------------
# ...
 2700.00000    0.03490 1113.02620   38.75300  469.83000   26.15490   52.57170   95.98460
 2700.50000    0.03140 1104.42040   40.53910  476.66490   30.45710   52.16380   93.24400
 2701.00000    0.02880 1104.42040   42.32140  472.64040   42.01170   51.63010   91.08580
 2701.50000    0.02740 1106.93050   42.64830  465.57590   52.43150   51.58980   91.77650
 2702.00000    0.03330 1119.48070   39.48060  461.78620   64.23100   52.46570   93.76630
 2702.50000    0.04060 1132.03100   36.31340  465.05080   66.30580   53.58910   95.45550
 2703.00000    0.04660 1121.15410   33.14460  470.93460   56.00270   54.27280   96.68690
 2703.50000    0.04480 1104.42040   30.68110  478.46170   43.35200   54.10720   97.42190
 2704.00000    0.04190 1098.01310   28.54590  486.80380   32.93650   53.46880   97.41250
 2704.50000    0.03810 1107.09520   26.15530  495.14590   28.20980   52.85600   96.38330
 2705.00000    0.02910 1116.60310   27.43360  494.38560   25.36440   51.65660   94.01980
 2705.50000    0.01910 1127.81430   29.83080  491.40570   21.97260   50.14630   91.86480
 2706.00000    0.00920 1116.33970   35.86800  483.49080   19.44220   49.36350   89.86730
 2706.50000    0.01300 1100.11760   39.80520  468.34920   17.99160   49.44710   88.69810
 2707.00000    0.01830 1124.50090   43.84690  453.20760   17.52380   50.34290   89.63020
 2707.50000    0.02000 1118.04640   47.00020  438.06600   18.70380   50.41990   89.93960
 2708.00000    0.02450 1107.28890   49.62800  422.92440   25.03690   50.64070   89.83690
 2708.50000    0.03900 1096.53170   52.27680  418.22220   39.33750   53.01770   94.59690
 2709.00000    0.06370 1098.39620   54.92460  429.25550   60.40750   56.63550   99.94150
 2709.50000    0.07520 1103.41640   53.73360  446.88130   75.40840   58.18920  103.01290
 2710.00000    0.07150 1100.77090   50.49750  469.64390   72.97410   57.50080  102.66700
 2710.50000    0.05830 1096.20890   47.25710  497.49180   57.99220   55.89340  100.47250
 2711.00000    0.04720 1101.89480   44.01790  511.59750   44.65100   54.63900   98.27790
 2711.50000    0.04570 1103.47580   40.77740  521.46830   42.80000   54.17200   96.58780
 2712.00000    0.04670 1106.74600   38.14880  522.06970   45.89780   54.14190   95.18800
 2712.50000    0.04770 1112.55000   36.47760  523.69170   50.86240   54.48750   94.49400
 2713.00000    0.04860 1118.35420   38.10730  527.51280   51.47100   54.84740   93.80000
 2713.50000    0.04850 1096.31630   39.17300  529.93170   47.23840   54.45700   93.10600
 2714.00000    0.04690 1101.56880   40.59260  524.75090   43.02200   54.15780   92.76820
 2714.50000    0.04570 1106.82150   41.93100  497.76270   43.04190   54.10340   92.97900
 2715.00000    0.04380 1105.73190   44.37270  482.61170   45.78060   53.91780   93.77100
 2715.50000    0.04250 1104.64230   46.63840  467.21240   49.80560   53.64960   94.88540
 2716.00000    0.04480 1111.11780   49.23330  469.05500   55.14390   53.97150   96.07310
 2716.50000    0.04670 1119.48470   47.71590  473.97490   58.87690   54.42960   97.00390
 2717.00000    0.04660 1124.20940   45.93520  479.57090   54.99950   54.17800   96.23950
 2717.50000    0.04070 1123.47090   42.77610  479.57090   46.34820   53.29570   95.25980
 2718.00000    0.03460 1113.72610   40.79110  471.46770   41.47790   52.48940   94.28470
 2718.50000    0.02910 1105.14860   39.04130  464.89500   41.66010   51.73760   93.33260
 2719.00000    0.02950 1106.35580   37.29370  471.40680   42.17560   51.83950   92.47160
 2719.50000    0.03110 1118.75790   35.54470  480.21620   40.02880   51.97530   92.39720
 2720.00000    0.03140 1110.71440   33.79570  487.98310   39.14180   52.02600   93.52480
 2720.50000    0.03140 1104.23970   32.04680  495.75000   41.77590   52.07660   93.77260
 2721.00000    0.03140 1108.29520   30.29860  504.93450   44.51300   52.11770   93.35890
 2721.50000    0.03250 1112.35070   28.54880  512.78470   43.31620   52.33960   93.35960
 2722.00000    0.03400 1116.40630   26.79980  512.78470   36.84620   52.49550   93.22420
 2722.50000    0.03320 1120.46180   25.08050  508.07860   29.26510   52.18510   92.18580
 2723.00000    0.02990 1105.37480   24.20360  500.14580   24.69210   51.91060   91.31430
 2723.50000    0.03140 1104.27290   23.56210  492.21310   23.49270   51.96330   91.99630
 2724.00000    0.03580 1103.17100   22.61290  490.46230   26.35760   52.80800   93.20980
 2724.50000    0.04260 1099.87280   20.40320  501.89140   31.84500   53.87460   95.18800
 2725.00000    0.04820 1095.11040   17.21550  517.70680   34.00420   54.74470   96.18550
 2725.50000    0.05020 1093.84690   14.68050  518.54160   30.51830   54.88130   96.31120
 2726.00000    0.04770 1097.83170   12.70060  510.55340   24.39380   54.43090   96.26560
 2726.50000    0.04580 1101.81650   10.63440  502.56530   19.16490   54.13360   96.32220
 2727.00000    0.04370 1099.60990    8.56830  494.57720   17.97350   53.90210   96.30980
 2727.50000    0.03990 1097.40330    7.43110  482.84810   17.82990   53.30590   96.26880
 2728.00000    0.03670 1095.19670    7.33650  468.90850   17.24550   52.79170   96.18530
 2728.50000    0.03520 1092.99000    7.59810  454.81370   16.13740   52.68400   96.10190
 2729.00000    0.03700 1090.78330    8.38860  450.84910   14.82390   52.86620   96.62680
 2729.50000    0.04230 1104.92770    9.23200  451.18410   14.25010   53.60290   97.80880
 2730.00000    0.04810 1109.63130   10.07540  464.75010   14.58900   54.74890   98.67130
 2730.50000    0.05380 1112.25990   10.95940  475.02710   14.89160   55.32760   98.52370
 2731.00000    0.05100 1107.28450   13.57040  482.53550   14.59410   54.99720   98.17500
 2731.50000    0.04660 1102.30930   16.18140  488.19930   13.77980   54.29400   97.03660
 2732.00000    0.04400 1097.33410   18.89710  488.18280   14.71400   53.78020   96.26730
 2732.50000    0.04370 1092.35880   22.05200  487.62620   17.76240   53.94700   96.07220
 2733.00000    0.04700 1104.51510   24.76520  483.72830   23.98080   54.28910   96.12590
 2733.50000    0.04450 1110.43350   27.11270  482.06290   29.57760   53.99610   96.28530
 2734.00000    0.04110 1106.99480   28.18100  483.90540   30.67580   53.47140   96.36580
 2734.50000    0.03800 1103.55620   28.68710  491.07190   28.49480   52.96980   96.19350
 2735.00000    0.03340 1100.11760   27.60610  498.11540   25.33370   52.49400   95.88480
 2735.50000    0.03050 1096.67900   26.12400  506.69130   23.85240   51.94720   94.49720
 2736.00000    0.02580 1093.24020   24.57640  522.53850   22.23860   51.24570   92.52390
 2736.50000    0.01900 1089.80160   23.16990  525.46720   20.36880   50.31750   91.03030
 2737.00000    0.01350 1086.36290   21.50900  523.00590   19.65430   49.56610   90.73750
 2737.50000    0.01300 1082.92420   22.29710  514.46770   21.69830   49.57580   90.20910
 2738.00000    0.01870 1079.48560   23.19450  505.06850   25.57250   50.64220   89.94990
 2738.50000    0.02810 1076.04690   24.06820  495.66920   30.26850   51.62460   90.67030
 2739.00000    0.03290 1072.60830   24.60720  489.03250   34.72190   52.44970   93.89550
 2739.50000    0.03820 1069.16960   25.14390  491.10960   39.82500   53.24280   96.21420
 2740.00000    0.04380 1065.73100   23.36300  500.12010   42.58720   53.89250   96.95160
 2740.50000    0.04140 1062.29240   20.99500  503.85510   40.66430   53.53430   96.34780
 2741.00000    0.03460 1063.51990   18.50550  503.87120   33.82600   52.49070   95.21430
 2741.50000    0.03040 1067.85820   15.34430  503.38350   26.19770   51.95400   94.08080
 2742.00000    0.03010 1072.19650   12.52530  490.46240   21.47480   51.86880   93.65390
 2742.50000    0.03010 1076.53490   12.64450  475.77780   19.09340   51.91940   94.34570
 2743.00000    0.03510 1080.87320   13.37460  469.99330   17.89460   52.52380   95.01340
 2743.50000    0.04040 1084.21040   14.29230  476.62820   17.08490   53.54490   96.04050
 2744.00000    0.04610 1083.54320   15.21000  488.70390   16.87380   54.10970   97.99400
 2744.50000    0.05020 1082.87600   16.03840  501.99320   16.82950   54.95430   99.38630
