~Version ---------------------------------------------------
VERS.   2.0 : CWLS log ASCII Standard -VERSION 2.0
WRAP.    NO : One line per depth step
DLM . SPACE : Column Data Section Delimiter
~Well ------------------------------------------------------
STRT .F                    0.0 : START DEPTH
STOP .F                 4553.0 : STOP DEPTH
STEP .F                    0.5 : STEP
NULL .                -9999.25 : NULL VALUE
COMP .                         : COMPANY
WELL .                         : WELL
FLD  .                         : FIELD
LOC  .                         : LOCATION
PROV .                         : PROVINCE
CNTY .                         : COUNTY
STAT .                         : STATE
CTRY .                         : COUNTRY
SRVC .                         : SERVICE COMPANY
DATE .                         : DATE
UWI  .                         : UNIQUE WELL ID
API  .                         : API NUMBER
SLAT .WGS84 1.7374410804454996 : SURFACE LATITUDE
SLON .WGS84  7.237560879542016 : SURFACE LONGITUDE
DATUM.F                2644.42 : DEPTH DATUM ELEV
~Curve Information -----------------------------------------
DEPT   .F     : 
SPHI_LS.DEC   : SONIC POROSITY [LIMESTONE]
TENS   .LB    : TENSION FROM SONIC LOG
GRN    .GAPI  : GAMMA RAY FROM GRN LOG
NEUT   .NAPI  : NEUTRON
GRS    .GAPI  : GAMMA RAY FROM SONIC LOG
DTCO   .US/F  : DELTA-T COMPRESSIONAL
DTSM   .US/F  : DELTA-T SHEAR
~Params ----------------------------------------------------
~Other -----------------------------------------------------
~ASCII -----------------------------------------------------
# ...
 3195.00000    0.02100 1332.22840   13.52820  428.62080   16.48630   50.68290   94.49800
 3195.50000    0.02110 1328.91160   13.70480  421.43060   16.59620   50.71430   94.50440
 3196.00000    0.02260 1353.75590   13.83850  399.77160   16.83690   50.86860   94.58420
 3196.50000    0.02530 1378.60010   13.83290  384.29370   17.21100   51.40940   95.67940
 3197.00000    0.02920 1347.45920   13.58510  372.85810   17.65150   51.92940   97.32430
 3197.50000    0.03100 1347.70650   13.32900  365.15660   17.78540   52.06270   98.04510
 3198.00000    0.03140 1347.85510   13.12170  355.84230   18.03870   52.06290   97.62060
 3198.50000    0.03140 1360.19530   13.05850  347.32880   18.05000   52.06310   96.70510
 3199.00000    0.03140 1389.04980   13.31880  340.02170   17.64380   52.06340   95.60090
 3199.50000    0.03140 1350.56960   14.20720  332.95420   17.26330   52.06360   95.38390
 3200.00000    0.03140 1350.56960   15.09520  325.88660   17.27560   52.06390   95.24280
 3200.50000    0.03140 1350.56960   15.98290  318.81900   17.49290   52.06410   95.24570
 3201.00000    0.03140 1376.81670   16.42420  311.75140   17.84870   52.06440   95.24870
 3201.50000    0.03120 1404.68420   15.77240  304.68380   18.64880   52.06460   95.83970
 3202.00000    0.03080 1387.23440   15.06580  295.91330   19.88230   52.06170   95.84610
 3202.50000    0.03050 1360.88200   14.23750  286.82030   21.91680   51.91370   95.85250
 3203.00000    0.02950 1333.08020   13.78730  277.72740   22.84000   51.70950   96.08010
 3203.50000    0.02960 1343.27110   13.49700  270.03210   22.47570   51.82180   97.67760
 3204.00000    0.03140 1343.89860   13.33450  269.99780   21.60170   52.10510   98.77630
 3204.50000    0.03360 1330.14430   14.03230  269.96340   20.51010   52.44210   99.22590
 3205.00000    0.03650 1334.57810   15.42990  281.57530   19.64230   52.92830   99.45260
 3205.50000    0.03670 1350.07510   16.90590  296.70420   18.19510   52.79910   99.66090
 3206.00000    0.03360 1366.75330   18.27840  309.03600   16.47760   52.34550   99.42690
 3206.50000    0.03050 1383.43160   19.32350  316.44420   16.10770   51.96780   97.98490
 3207.00000    0.02740 1344.49690   20.34050  325.21390   17.02610   51.54420   96.50820
 3207.50000    0.02460 1313.19340   21.65160  334.88030   17.71520   51.21210   95.09110
 3208.00000    0.02440 1322.45540   22.96270  343.59870   17.23270   51.14850   95.00040
 3208.50000    0.02440 1334.22770   23.78310  352.21630   16.96560   51.14610   96.19630
 3209.00000    0.02440 1339.91300   23.86060  360.54600   18.34930   51.14510   97.09320
 3209.50000    0.02440 1336.46800   23.75080  379.09080   21.59450   51.14410   97.06700
 3210.00000    0.02440 1334.89440   21.91690  402.94890   25.72000   51.14310   96.98610
 3210.50000    0.02420 1352.65840   20.03800  426.80690   30.95810   51.14110   96.10280
 3211.00000    0.02400 1375.68620   18.16170  449.05940   34.77240   51.12420   95.07850
 3211.50000    0.02180 1367.77200   16.35320  462.54430   34.56620   50.96010   94.12760
 3212.00000    0.01960 1347.79000   14.54610  476.02910   30.26250   50.43620   93.45120
 3212.50000    0.01820 1340.30240   13.44990  487.69970   24.30510   50.13820   92.80810
 3213.00000    0.01710 1362.71220   13.13000  491.65730   21.24900   50.06700   93.18560
 3213.50000    0.01690 1368.09960   12.69590  495.61470   20.61050   50.08840   94.06700
 3214.00000    0.01650 1336.13900   12.08960  499.98970   20.76630   50.06280   93.60730
 3214.50000    0.01480 1311.14690   11.18340  506.52290   20.43570   49.87630   91.93880
 3215.00000    0.01210 1299.05960   10.39870  515.88780   19.07410   49.48420   91.60860
 3215.50000    0.01160 1306.32930    9.86110  521.94120   18.15280   49.40420   92.06420
 3216.00000    0.01090 1313.59920    9.36590  525.91970   18.37380   49.34410   92.59350
 3216.50000    0.00670 1322.59050    9.06160  525.51610   19.24310   48.74700   92.40420
 3217.00000    0.00580 1332.72890    8.75720  520.49430   18.96890   48.25980   90.97340
 3217.50000    0.00490 1334.10510    8.43810  512.95760   17.91950   48.37680   90.43530
 3218.00000    0.00840 1320.51230    8.09720  494.81760   16.79740   48.89380   90.05280
 3218.50000    0.01240 1306.91960    7.76870  477.35170   15.93090   49.49010   90.55270
 3219.00000    0.01220 1301.21660    7.48630  462.53430   15.00350   49.46740   91.41020
 3219.50000    0.01390 1295.51350    7.52270  447.71700   13.98140   49.60990   92.96700
 3220.00000    0.01580 1289.81050    7.80210  434.77070   12.99040   50.32970   94.23960
 3220.50000    0.01710 1281.97220    8.25630  432.00330   12.53630   51.04520   94.31400
 3221.00000    0.01850 1274.13390    8.71030  431.51120   13.91840   50.79840   94.32400
 3221.50000    0.01950 1266.29550    9.16420  431.48530   16.24160   50.24270   94.33410
 3222.00000    0.01950 1284.97880    9.61820  431.48570   17.72830   50.29520   94.34410
 3222.50000    0.01900 1294.66750    9.78690  430.53160   17.96170   50.28620   94.25010
 3223.00000    0.01540 1311.30070    9.86010  423.14830   17.02680   49.89570   93.77710
 3223.50000    0.01200 1312.80070    9.80430  403.26020   15.66060   49.45920   93.30420
 3224.00000    0.01200 1308.33480    9.71940  389.87340   14.65560   49.27810   92.83130
 3224.50000    0.01360 1303.86900    9.77630  375.88690   14.47110   49.62140   92.35840
 3225.00000    0.01890 1299.40320   10.18430  367.24410   14.67610   50.52420   92.21020
 3225.50000    0.02180 1294.93740   10.64540  358.56730   15.14690   50.86850   92.11270
 3226.00000    0.01880 1293.66110   11.14070  349.46250   15.20850   50.38710   92.03530
 3226.50000    0.01610 1293.18210   11.63880  341.34290   15.00760   49.89650   92.01770
 3227.00000    0.01540 1276.19270   12.26870  334.90710   15.27090   49.69130   92.89450
 3227.50000    0.01560 1288.64230   12.89860  328.87150   16.56830   49.84140   93.32690
 3228.00000    0.02110 1301.81800   13.52840  322.91480   18.82990   50.47980   93.75250
 3228.50000    0.02500 1306.01160   14.15830  316.95800   20.46400   51.20120   94.18420
 3229.00000    0.02570 1293.36080   14.78810  312.59510   20.65020   51.36430   94.40670
 3229.50000    0.02440 1309.50610   15.41830  312.59510   19.90280   51.20680   94.59350
 3230.00000    0.02430 1325.65140   16.04780  320.61590   19.38080   51.14350   94.45760
 3230.50000    0.02430 1328.65170   16.67770  328.09960   19.51810   51.14680   94.27870
 3231.00000    0.02510 1295.21680   17.30790  326.80380   20.71410   51.17540   94.19700
 3231.50000    0.02640 1274.81840   17.93740  322.57460   21.88880   51.32440   94.15960
 3232.00000    0.02780 1294.42710   18.56730  318.34530   21.97610   51.50270   94.13870
 3232.50000    0.02510 1316.66600   19.17950  314.11600   21.62120   51.25280   94.14370
 3233.00000    0.02040 1335.82230   19.61290  312.08840   21.73180   50.50860   94.50590
 3233.50000    0.01930 1342.64830   20.19300  311.57640   23.39320   50.35420   95.00840
 3234.00000    0.02090 1363.45100   19.93190  310.96410   25.70150   50.74950   95.22300
 3234.50000    0.02380 1377.68800   19.39290  310.22020   27.65730   51.09800   95.32190
 3235.00000    0.02440 1381.33590   17.60500  307.82750   28.19590   51.13590   95.26230
 3235.50000    0.02440 1354.76750   15.14410  303.19760   28.35830   51.16040   94.53200
 3236.00000    0.02420 1320.64510   13.76360  299.92110   28.26330   51.16400   94.09860
 3236.50000    0.02440 1314.29980   12.51110  297.09450   27.23690   51.14980   93.66520
 3237.00000    0.02440 1314.89890   11.55920  294.00330   24.32320   51.15580   93.23170
 3237.50000    0.02450 1325.29850   10.69870  292.94660   21.10350   51.16470   93.28740
 3238.00000    0.02520 1329.31450    9.83820  292.91640   18.68530   51.21190   94.00860
 3238.50000    0.02630 1319.27440    9.55770  292.88630   17.01780   51.37270   95.11760
 3239.00000    0.02930 1312.84880    9.70790  293.12820   15.36060   51.76340   95.27320
 3239.50000    0.03080 1308.83260   10.56410  290.96320   14.03080   52.06190   95.31900
