~Version ---------------------------------------------------
VERS.   2.0 : CWLS log ASCII Standard -VERSION 2.0
WRAP.    NO : One line per depth step
DLM . SPACE : Column Data Section Delimiter
~Well ------------------------------------------------------
STRT .F                    0.0 : START DEPTH
STOP .F                 4553.0 : STOP DEPTH
STEP .F                    0.5 : STEP
NULL .                -9999.25 : NULL VALUE
COMP .                         : COMPANY
WELL .                         : WELL
FLD  .                         : FIELD
LOC  .                         : LOCATION
PROV .                         : PROVINCE
CNTY .                         : COUNTY
STAT .                         : STATE
CTRY .                         : COUNTRY
SRVC .                         : SERVICE COMPANY
DATE .                         : DATE
UWI  .                         : UNIQUE WELL ID
API  .                         : API NUMBER
SLAT .WGS84 1.7374410804454996 : SURFACE LATITUDE
SLON .WGS84  7.237560879542016 : SURFACE LONGITUDE
DATUM.F                2644.42 : DEPTH DATUM ELEV
~Curve Information -----------------------------------------
DEPT   .F     : 
SPHI_LS.DEC   : SONIC POROSITY [LIMESTONE]
TENS   .LB    : TENSION FROM SONIC LOG
GRN    .GAPI  : GAMMA RAY FROM GRN LOG
NEUT   .NAPI  : NEUTRON
GRS    .GAPI  : GAMMA RAY FROM SONIC LOG
DTCO   .US/F  : DELTA-T COMPRESSIONAL
DTSM   .US/F  : DELTA-T SHEAR
~Params ----------------------------------------------------
~Other -----------------------------------------------------
~ASCII -----------------------------------------------------
# ...
 3105.00000    0.03200 1301.19780   13.28290  387.09300   22.41800   52.23150   93.78490
 3105.50000    0.03550 1310.84010   13.45590  382.44900   20.96190   52.70610   94.60940
 3106.00000    0.03910 1303.93070   13.95880  383.38550   20.46220   53.21090   95.37350
 3106.50000    0.04440 1295.39340   14.56100  385.97890   20.01620   53.90960   95.88520
 3107.00000    0.04960 1308.76560   15.16290  388.57220   19.22340   54.71250   96.85780
 3107.50000    0.05160 1296.36890   15.66240  391.16560   19.35530   55.09890   97.91920
 3108.00000    0.05340 1288.93090   14.56650  393.75890   21.15930   55.37750   98.72770
 3108.50000    0.05330 1288.93090   13.47370  393.89090   23.87130   55.43180   98.22870
 3109.00000    0.05180 1288.93090   12.38070  374.73950   25.53410   54.78090   97.79540
 3109.50000    0.04540 1289.94140   11.28790  349.61470   25.42310   54.04750   97.03960
 3110.00000    0.04090 1301.35630   10.19490  324.49000   24.66210   53.47310   95.89300
 3110.50000    0.03870 1312.77120    9.10190  299.36520   23.30860   53.18850   95.37740
 3111.00000    0.03860 1293.78020    8.65590  277.40520   21.87420   53.12930   95.51660
 3111.50000    0.03850 1274.78930    8.75080  259.22700   20.42500   53.10440   95.48000
 3112.00000    0.03770 1267.93960    9.14070  241.04890   19.67950   52.88350   95.33170
 3112.50000    0.03690 1261.09000    9.61430  234.42100   19.79850   52.74480   95.66410
 3113.00000    0.04050 1252.41850   10.72240  237.05020   19.59840   53.24560   96.80430
 3113.50000    0.04870 1241.01430   11.72430  244.00090   18.58940   55.04140  100.21800
 3114.00000    0.06150 1234.17180   12.80530  252.60240   17.62310   56.65070  103.44160
 3114.50000    0.06950 1236.54280   14.30680  252.45480   17.84680   57.67840  105.17010
 3115.00000    0.07580 1240.62700   16.09790  249.48250   18.80190   58.46090  106.08400
 3115.50000    0.07900 1243.89430   17.83990  245.35630   20.04360   59.00460  105.81330
 3116.00000    0.07640 1243.89430   19.22120  241.23010   21.24330   58.53030  105.06660
 3116.50000    0.07160 1243.67580   19.93890  240.25060   22.20670   57.69180  104.15760
 3117.00000    0.06900 1249.20430   20.52780  248.65240   23.32250   57.38830  103.04560
 3117.50000    0.06430 1254.73280   20.75450  260.74700   25.09720   56.71690  102.01600
 3118.00000    0.06360 1260.26140   20.70090  264.06560   27.54550   56.28740  103.05080
 3118.50000    0.06270 1265.78980   20.18890  263.38230   28.49690   56.18710  104.72870
 3119.00000    0.06190 1255.74870   19.63540  261.73060   28.67020   56.37090  106.49150
 3119.50000    0.06340 1247.79350   19.08210  260.16490   28.80990   56.80820  108.12080
 3120.00000    0.06460 1243.02010   18.52890  263.09920   28.95460   56.84320  107.51010
 3120.50000    0.06350 1243.02010   17.97560  271.07890   28.73010   56.62290  106.16760
 3121.00000    0.06070 1243.02010   17.42230  279.05870   28.19090   56.41990  104.83600
 3121.50000    0.05920 1243.02010   17.29240  285.95140   27.75550   56.00670  103.50450
 3122.00000    0.05870 1243.02010   17.47070  291.41560   26.97210   55.97180  103.35100
 3122.50000    0.05880 1243.02010   17.89520  298.55940   25.39740   56.10560  103.29390
 3123.00000    0.05670 1249.72620   18.36260  309.57190   24.49780   55.92360  103.39770
 3123.50000    0.05120 1253.04350   18.87560  318.46210   25.59040   55.07610  103.61150
 3124.00000    0.04150 1256.36070   19.59200  316.35420   28.06730   53.79400  103.36950
 3124.50000    0.03670 1259.67800   20.87700  310.95720   29.50000   52.87290  100.96860
 3125.00000    0.03080 1263.80400   22.20760  301.26520   29.54370   51.99800   98.46430
 3125.50000    0.03020 1280.02830   24.46360  294.27220   28.53610   52.15100   97.15310
 3126.00000    0.03460 1285.90480   25.56340  295.94250   26.49540   52.79260   97.20700
 3126.50000    0.03910 1270.15690   26.40270  308.98690   25.13530   53.50780   98.96300
 3127.00000    0.04820 1270.15690   27.21790  332.11280   25.57480   54.76120  100.71890
 3127.50000    0.05740 1274.75650   28.13520  350.39930   28.26360   55.92980  102.47490
 3128.00000    0.06190 1293.40660   29.05250  375.55940   32.55080   56.69460  103.39200
 3128.50000    0.06430 1312.05680   29.96980  403.01500   36.96210   57.13510  103.63410
 3129.00000    0.06540 1314.58260   30.71620  430.49780   40.66430   57.19220  103.61200
 3129.50000    0.06540 1317.10850   30.79180  462.01220   42.27280   57.17310  103.57060
 3130.00000    0.06540 1321.68840   29.96170  495.09670   42.45700   57.15130  103.08760
 3130.50000    0.06540 1327.63720   28.63460  520.49390   42.14350   57.13800  102.44080
 3131.00000    0.06540 1333.58620   27.30750  545.27490   41.09030   57.13280  102.29580
 3131.50000    0.06670 1331.31840   25.99470  570.05590   38.74680   57.10390  102.16470
 3132.00000    0.06380 1322.37670   25.15630  594.50960   35.33740   56.89700  101.84090
 3132.50000    0.05870 1302.46720   24.38280  617.58090   32.54640   56.08410  100.80530
 3133.00000    0.04910 1306.14860   23.00050  631.31410   30.15810   54.57370   99.07640
 3133.50000    0.03520 1307.09160   21.70430  631.92360   28.62500   52.70160   97.52390
 3134.00000    0.02670 1297.08150   20.07380  624.19110   27.34580   51.19820   96.05840
 3134.50000    0.01640 1287.07150   18.03100  598.27470   27.62080   49.96650   94.36480
 3135.00000    0.01170 1281.62540   16.34880  572.70640   28.63760   49.30210   92.43240
 3135.50000    0.00970 1276.17920   15.55270  556.02870   29.22090   48.95930   90.60510
 3136.00000    0.00760 1277.20230   15.20360  539.32200   28.58590   48.53380   90.52980
 3136.50000    0.00710 1279.84270   16.19100  522.61530   27.15650   48.42620   91.21390
 3137.00000    0.00850 1282.48300   17.18980  505.90850   25.41600   48.71230   91.42100
 3137.50000    0.01140 1274.42900   18.79300  489.20180   23.50560   49.10300   91.95290
 3138.00000    0.01290 1274.69380   20.40630  478.92430   21.81710   49.16780   92.92250
 3138.50000    0.01460 1280.18850   22.01970  470.58290   21.24160   49.35890   93.37770
 3139.00000    0.01760 1280.18850   21.86050  462.24140   22.80090   49.81690   94.14420
 3139.50000    0.02030 1269.92700   20.12730  456.50970   25.55570   50.44860   94.97200
 3140.00000    0.01880 1267.46230   18.09600  457.38670   28.60730   50.37000   94.89500
 3140.50000    0.01800 1264.99760   16.09290  466.14430   31.11450   50.16890   94.71150
 3141.00000    0.01860 1262.53300   15.51600  479.67750   34.07890   50.27250   95.92550
 3141.50000    0.02090 1260.06840   14.97230  493.21070   36.33290   50.68110   97.31190
 3142.00000    0.02080 1250.95070   14.42820  509.93830   35.52130   50.76700   97.30150
 3142.50000    0.01560 1263.08890   13.94960  525.64580   30.80380   49.91590   97.13180
 3143.00000    0.01090 1272.71890   14.50880  541.35320   25.12410   49.31130   96.68950
 3143.50000    0.00850 1247.21520   15.20640  556.47710   22.52950   48.95910   95.92770
 3144.00000    0.00650 1234.76460   16.10190  556.45830   22.44780   48.54590   95.13370
 3144.50000    0.00440 1239.38070   17.04070  543.72220   23.15410   48.24490   94.38500
 3145.00000    0.00350 1259.05770   18.32960  530.66780   23.27440   48.19210   94.24870
 3145.50000    0.00350 1275.72280   19.77730  520.77330   23.13590   48.18760   94.25370
 3146.00000    0.00350 1287.86980   20.72310  514.68340   22.89440   48.18690   94.25870
 3146.50000    0.00350 1300.01660   21.46930  510.44100   22.58900   48.18790   94.26380
 3147.00000    0.00350 1300.01660   21.68420  507.26750   22.81590   48.18900   93.89200
 3147.50000    0.00370 1300.01660   21.89550  504.59990   23.57810   48.19000   93.18490
 3148.00000    0.00410 1292.11360   22.42380  501.93230   25.09860   48.22310   92.52610
 3148.50000    0.00480 1274.97680   23.29220  499.26460   27.03470   48.34390   92.53110
 3149.00000    0.00520 1272.56880   24.24480  499.46080   28.92230   48.57800   93.09840
 3149.50000    0.00530 1283.88700   24.24490  512.91360   30.27300   48.46530   93.38680
