~Version ---------------------------------------------------
VERS.   2.0 : CWLS log ASCII Standard -VERSION 2.0
WRAP.    NO : One line per depth step
DLM . SPACE : Column Data Section Delimiter
~Well ------------------------------------------------------
STRT .F                    0.0 : START DEPTH
STOP .F                 4553.0 : STOP DEPTH
STEP .F                    0.5 : STEP
NULL .                -9999.25 : NULL VALUE
COMP .                         : COMPANY
WELL .                         : WELL
FLD  .                         : FIELD
LOC  .                         : LOCATION
PROV .                         : PROVINCE
CNTY .                         : COUNTY
STAT .                         : STATE
CTRY .                         : COUNTRY
SRVC .                         : SERVICE COMPANY
DATE .                         : DATE
UWI  .                         : UNIQUE WELL ID
API  .                         : API NUMBER
SLAT .WGS84 1.7374410804454996 : SURFACE LATITUDE
SLON .WGS84  7.237560879542016 : SURFACE LONGITUDE
DATUM.F                2644.42 : DEPTH DATUM ELEV
~Curve Information -----------------------------------------
DEPT   .F     : 
SPHI_LS.DEC   : SONIC POROSITY [LIMESTONE]
TENS   .LB    : TENSION FROM SONIC LOG
GRN    .GAPI  : GAMMA RAY FROM GRN LOG
NEUT   .NAPI  : NEUTRON
GRS    .GAPI  : GAMMA RAY FROM SONIC LOG
DTCO   .US/F  : DELTA-T COMPRESSIONAL
DTSM   .US/F  : DELTA-T SHEAR
~Params ----------------------------------------------------
~Other -----------------------------------------------------
~ASCII -----------------------------------------------------
# ...
 3060.00000    0.01380 1244.70870   12.34400  665.12910   23.13300   49.60940   91.10390
 3060.50000    0.01140 1254.93520   12.77350  655.25570   20.01140   49.26180   91.23710
 3061.00000    0.01400 1254.93520   13.20290  645.38240   17.79080   49.66540   91.36600
 3061.50000    0.01550 1248.93980   13.63250  635.50920   17.09190   50.03900   91.49120
 3062.00000    0.01050 1235.04910   14.06180  625.63590   18.70480   49.35350   91.93580
 3062.50000    0.00850 1223.12430   14.49120  616.72060   20.52950   48.96960   91.99860
 3063.00000    0.01210 1219.06310   14.92070  607.92400   21.63310   49.44400   92.43350
 3063.50000    0.01520 1215.00180   15.40560  599.10440   21.49300   49.75080   92.43850
 3064.00000    0.01230 1213.37730   16.24100  591.87690   21.48270   49.29440   92.44350
 3064.50000    0.00970 1213.37730   16.77330  582.34500   22.14540   48.96740   92.44850
 3065.00000    0.01010 1217.87840   17.03610  566.50260   23.98300   49.08740   93.19140
 3065.50000    0.01070 1242.77920   17.07900  549.65880   25.86900   49.19030   93.92140
 3066.00000    0.01250 1252.69950   16.89060  533.01740   26.39960   49.35400   93.70910
 3066.50000    0.01410 1246.93470   16.43330  530.67540   25.53350   49.71930   93.18780
 3067.00000    0.01850 1233.02190   15.60370  539.66000   23.83080   50.19570   93.18990
 3067.50000    0.02200 1253.68320   15.18210  560.42370   22.86070   50.72020   93.23100
 3068.00000    0.02330 1261.79520   14.77290  581.18740   23.31430   51.04300   93.27210
 3068.50000    0.02180 1269.90710   14.36380  610.90540   24.37940   50.95010   93.31320
 3069.00000    0.02040 1271.41800   14.13080  645.03520   25.10030   50.48560   93.35430
 3069.50000    0.01710 1271.27860   14.16770  668.52390   24.84770   49.94160   93.30460
 3070.00000    0.01290 1277.70980   14.20460  675.35760   23.38510   49.50110   93.28970
 3070.50000    0.01080 1288.52150   14.24150  675.17500   21.46460   49.23550   92.52600
 3071.00000    0.01040 1292.48010   14.27830  669.88290   19.85060   49.18850   93.08340
 3071.50000    0.01010 1279.93770   14.31520  664.31180   19.14460   49.17100   94.15820
 3072.00000    0.01010 1263.49100   14.35210  658.74070   20.06190   49.19640   94.67890
 3072.50000    0.01010 1254.56960   14.38900  657.99220   22.18870   49.19180   94.77670
 3073.00000    0.01010 1259.41760   14.17250  661.12670   24.70350   49.19060   94.78170
 3073.50000    0.01010 1272.81680   13.66220  669.05330   26.61950   49.17650   94.54750
 3074.00000    0.01010 1278.52480   13.19640  676.97990   27.52470   49.18560   94.03180
 3074.50000    0.01020 1284.23290   13.55810  684.90660   27.12430   49.18230   93.15420
 3075.00000    0.01010 1277.58540   14.38840  693.64240   24.69820   49.18110   92.25900
 3075.50000    0.00990 1270.93820   15.56360  703.41250   21.56980   49.17210   91.79230
 3076.00000    0.00900 1264.29080   16.52640  715.74760   18.35300   49.18120   91.79730
 3076.50000    0.01020 1257.64360   17.16540  728.08270   17.02530   49.16370   91.88490
 3077.00000    0.00950 1253.61540   17.99460  740.41780   17.06660   48.94910   92.09990
 3077.50000    0.00910 1285.07070   18.82370  746.09610   18.95240   48.90030   92.10000
 3078.00000    0.01140 1297.98470   19.00150  727.73470   23.19250   49.17070   91.68590
 3078.50000    0.01220 1271.99300   17.81060  714.71820   26.87820   49.43730   91.16720
 3079.00000    0.01130 1254.09940   16.26060  703.11850   27.72500   49.26710   90.64840
 3079.50000    0.01030 1289.91210   14.71050  674.74760   26.24470   49.21970   90.44280
 3080.00000    0.01160 1315.02400   13.16050  643.67660   24.30560   49.50040   90.78910
 3080.50000    0.01740 1331.30330   11.78020  615.85960   22.99370   50.58040   91.42290
 3081.00000    0.02820 1312.25180   11.68390  593.09810   22.24120   51.66510   92.05670
 3081.50000    0.03090 1293.20030   11.78280  570.33670   21.62130   51.93250   92.69050
 3082.00000    0.02730 1280.03860   12.69300  547.57530   20.60340   51.46220   93.22120
 3082.50000    0.02350 1282.13710   13.81280  526.79730   19.32940   51.06470   93.66220
 3083.00000    0.02210 1278.72510   15.01200  496.56250   18.21750   50.76360   93.58900
 3083.50000    0.02080 1268.29270   16.64500  475.25530   17.17060   50.67830   93.28550
 3084.00000    0.01910 1257.86040   18.25040  452.72500   16.82460   50.45530   92.41390
 3084.50000    0.01720 1259.46040   19.69960  430.06790   18.44930   50.16840   91.28540
 3085.00000    0.01720 1279.10930   21.15220  400.64220   22.16940   50.09860   91.12900
 3085.50000    0.01940 1285.26530   20.85090  374.53380   25.70150   50.29130   91.94530
 3086.00000    0.02280 1271.18210   20.54960  349.33240   27.82920   51.09500   92.68090
 3086.50000    0.03260 1259.83700   20.24850  328.65890   27.13330   52.23830   93.89710
 3087.00000    0.03960 1275.77590   20.03110  307.66980   24.74290   53.28130   95.70450
 3087.50000    0.04660 1291.71470   20.04030  290.52470   22.70730   54.29320   97.61020
 3088.00000    0.05130 1281.49540   20.33460  279.17520   21.90460   54.84510   99.79610
 3088.50000    0.05130 1264.73650   20.76810  267.82580   22.01550   54.93820  100.52270
 3089.00000    0.04980 1262.25980   21.20170  257.30510   22.77640   54.68900  100.23250
 3089.50000    0.04890 1273.02330   21.04240  248.99210   24.08760   54.61970  100.06440
 3090.00000    0.04890 1290.80220   20.49400  240.67900   25.92670   54.61270  100.45340
 3090.50000    0.04890 1292.34590   19.94530  231.77190   27.92560   54.61340  101.02640
 3091.00000    0.05190 1287.26710   19.60520  222.32400   29.21230   54.97700  101.59930
 3091.50000    0.05890 1289.51920   19.60470  212.87610   28.92460   56.17500  102.37580
 3092.00000    0.06810 1293.60400   19.92690  204.52570   26.61520   57.21790  103.85470
 3092.50000    0.07250 1297.68870   21.14780  211.15450   23.98490   57.89270  105.46430
 3093.00000    0.07780 1292.60970   21.62380  230.91570   22.71430   58.79250  107.01970
 3093.50000    0.08240 1281.74870   21.22120  250.67700   23.89660   59.31620  108.53130
 3094.00000    0.07820 1260.92180   20.42080  269.15910   26.08660   58.72830  108.54200
 3094.50000    0.07280 1259.83980   20.04980  278.17400   27.35280   57.79560  106.36020
 3095.00000    0.06420 1270.06300   20.37770  301.66530   27.31260   56.52860  103.58490
 3095.50000    0.05850 1262.19510   20.81050  326.22190   26.44340   55.71790  101.14500
 3096.00000    0.05600 1254.32710   21.39580  352.00310   25.48860   55.29680   99.68540
 3096.50000    0.05350 1256.49960   21.45100  373.84980   24.45880   55.11930   98.30360
 3097.00000    0.05110 1269.54900   20.94590  390.44900   23.64040   54.97390   97.85200
 3097.50000    0.04850 1259.62260   20.02470  402.16180   24.45580   54.53690   97.49700
 3098.00000    0.04340 1243.95210   18.82830  414.62190   26.22300   53.74970   96.61180
 3098.50000    0.03830 1228.28160   17.65500  427.28220   28.58850   52.88500   95.23950
 3099.00000    0.02900 1240.23240   16.15590  437.23340   29.55470   51.72140   93.86730
 3099.50000    0.02560 1252.18330   15.79380  447.18970   29.17100   51.22910   92.95510
 3100.00000    0.02440 1254.57340   15.43200  457.14620   27.03940   51.15320   93.03360
 3100.50000    0.02430 1254.57340   15.07110  467.10270   23.84830   51.14430   93.19240
 3101.00000    0.02310 1259.91530   14.70920  476.36660   21.89470   50.99710   93.31710
 3101.50000    0.02160 1288.20370   14.43070  476.33340   20.93310   50.75860   93.20820
 3102.00000    0.02090 1303.50320   14.16570  467.95130   21.17160   50.68430   92.93700
 3102.50000    0.02160 1301.76480   13.91210  457.20730   22.13170   50.68900   92.94200
 3103.00000    0.02310 1296.57890   13.66430  446.01910   23.74600   50.93750   92.84940
 3103.50000    0.02590 1292.43010   13.41940  430.36430   25.39230   51.41740   92.75700
 3104.00000    0.02830 1292.43010   13.31190  413.90190   25.55530   51.66270   92.76210
 3104.50000    0.02980 1291.55520   13.21850  398.11400   24.35850   51.82280   93.07030
