~Version ---------------------------------------------------
VERS.   2.0 : CWLS log ASCII Standard -VERSION 2.0
WRAP.    NO : One line per depth step
DLM . SPACE : Column Data Section Delimiter
~Well ------------------------------------------------------
STRT .F                    0.0 : START DEPTH
STOP .F                 4553.0 : STOP DEPTH
STEP .F                    0.5 : STEP
NULL .                -9999.25 : NULL VALUE
COMP .                         : COMPANY
WELL .                         : WELL
FLD  .                         : FIELD
LOC  .                         : LOCATION
PROV .                         : PROVINCE
CNTY .                         : COUNTY
STAT .                         : STATE
CTRY .                         : COUNTRY
SRVC .                         : SERVICE COMPANY
DATE .                         : DATE
UWI  .                         : UNIQUE WELL ID
API  .                         : API NUMBER
SLAT .WGS84 1.7374410804454996 : SURFACE LATITUDE
SLON .WGS84  7.237560879542016 : SURFACE LONGITUDE
DATUM.F                2644.42 : DEPTH DATUM ELEV
~Curve Information -----------------------------------------
DEPT   .F     : 
SPHI_LS.DEC   : SONIC POROSITY [LIMESTONE]
TENS   .LB    : TENSION FROM SONIC LOG
GRN    .GAPI  : GAMMA RAY FROM GRN LOG
NEUT   .NAPI  : NEUTRON
GRS    .GAPI  : GAMMA RAY FROM SONIC LOG
DTCO   .US/F  : DELTA-T COMPRESSIONAL
DTSM   .US/F  : DELTA-T SHEAR
~Params ----------------------------------------------------
~Other -----------------------------------------------------
~ASCII -----------------------------------------------------
# ...
 2790.00000    0.14110 1090.92980    3.38520  242.51240    9.89030   67.69010  118.36040
 2790.50000    0.14270 1092.30090    2.90040  261.54890    9.81290   67.85490  118.96440
 2791.00000    0.14250 1093.67190    2.41560  280.81740   10.61630   67.89950  118.93450
 2791.50000    0.14150 1095.04280    1.93080  285.73260   11.56870   67.74110  118.56130
 2792.00000    0.13960 1096.41390    1.44600  285.08440   11.99120   67.45410  118.24760
 2792.50000    0.13690 1097.78500    1.09330  283.84740   11.38360   67.01870  117.95130
 2793.00000    0.13140 1099.15610    0.79060  282.00820   10.09410   66.09680  117.80160
 2793.50000    0.12620 1100.52710    0.79390  280.07090    9.85540   65.30880  117.31400
 2794.00000    0.12380 1101.89820    0.96280  278.23890   10.24790   65.13190  116.46330
 2794.50000    0.12470 1103.26920    1.07040  280.27130    9.65780   65.16460  115.54580
 2795.00000    0.13000 1104.64030    1.19870  290.58510    9.01060   66.00470  114.62830
 2795.50000    0.14020 1099.76790    1.37780  302.54950    8.60380   67.27060  113.94670
 2796.00000    0.13550 1096.13110    2.86370  324.88580    9.06110   66.49850  113.43810
 2796.50000    0.11860 1096.68860    5.42520  337.56920    9.56580   64.04380  111.00130
 2797.00000    0.10320 1097.24620    7.48690  354.87050    9.90000   61.48230  108.26000
 2797.50000    0.08930 1097.80380    9.66550  368.77080   10.01660   59.78840  105.47680
 2798.00000    0.06860 1098.36150   12.08430  378.37560    9.70920   57.43250  102.76520
 2798.50000    0.04780 1098.91890   14.50220  387.21420    9.46640   54.40890   99.87210
 2799.00000    0.02910 1099.47660   16.92110  391.28780   10.44360   51.06880   95.21680
 2799.50000    0.01670 1100.03410   19.34790  384.10140   13.85000   50.15630   93.67320
 2800.00000    0.03920 1100.59170   21.97560  370.17980   21.25160   53.16460   97.55230
 2800.50000    0.06110 1101.14930   24.60320  356.38210   32.63340   57.10720  102.65170
 2801.00000    0.08660 1101.70690   25.31240  346.03160   44.64180   60.22560  107.30210
 2801.50000    0.10410 1102.26450   24.14590  340.11290   48.82840   61.88160  108.82330
 2802.00000    0.10190 1102.82210   22.39290  334.19410   39.33410   59.37730  105.25200
 2802.50000    0.04380 1103.37980   20.79320  328.27530   24.98270   53.35270   96.72490
 2803.00000    0.02930 1103.93730   20.91830  320.00530   17.05470   51.81310   96.26800
 2803.50000    0.03560 1104.49480   24.34440  310.61240   15.13610   52.69060   97.39510
 2804.00000    0.03870 1105.05240   27.77040  299.79210   16.32300   53.39410   97.46360
 2804.50000    0.04460 1105.61000   31.96330  280.36200   18.60690   53.94500   97.85180
 2805.00000    0.05690 1106.16760   37.65890  257.27980   24.39980   55.84040   99.82650
 2805.50000    0.07220 1106.72520   43.35220  235.60090   33.64380   58.78140  103.66080
 2806.00000    0.09620 1107.28280   45.27560  213.53600   43.20210   62.37150  108.17810
 2806.50000    0.12580 1107.84030   46.34550  202.81050   50.22150   65.91840  113.39080
 2807.00000    0.15540 1108.39790   46.54440  192.08500   53.39380   70.58740  119.86290
 2807.50000    0.17810 1108.95540   46.38530  189.98190   55.50130   73.33260  124.84910
 2808.00000    0.18260 1109.51310   43.58360  192.85370   55.50910   73.59560  125.23680
 2808.50000    0.18050 1110.07070   39.38550  200.37240   50.15130   73.21470  123.67210
 2809.00000    0.17510 1110.62830   35.18550  207.89120   38.33330   71.61900  119.93180
 2809.50000    0.15340 1111.18580   30.98990  215.40990   27.91200   69.39080  114.88080
 2810.00000    0.13080 1111.74340   28.18550  222.51100   24.03290   65.54190  111.06850
 2810.50000    0.10930 1112.30100   27.18530  228.49140   23.17150   62.47070  108.85450
 2811.00000    0.10070 1112.85860   26.70920  234.47180   23.95940   61.98240  108.24110
 2811.50000    0.12180 1113.41630   26.23280  245.56060   27.49750   64.87080  111.51460
 2812.00000    0.13680 1113.97380   25.63570  257.88200   34.63460   67.05500  114.11720
 2812.50000    0.14330 1114.53140   24.31200  268.06920   40.62610   67.98200  114.75360
 2813.00000    0.14220 1115.08890   22.05690  280.20330   39.58360   67.93690  114.01050
 2813.50000    0.13710 1115.64650   19.57340  293.53090   31.13530   67.00350  111.84390
 2814.00000    0.12270 1116.20410   17.54950  306.96030   21.80560   65.04540  107.27810
 2814.50000    0.10490 1116.76170   15.60730  320.38980   17.43680   61.93710  103.56820
 2815.00000    0.08440 1117.31930   16.01440  323.86180   17.79630   58.36340  101.90260
 2815.50000    0.06410 1117.87700   17.76550  322.88060   19.69310   56.60260  101.11730
 2816.00000    0.06280 1118.43440   20.92520  302.00860   21.87670   56.42470  101.45670
 2816.50000    0.06480 1118.99190   22.77250  281.68590   24.68840   57.18010  102.75390
 2817.00000    0.07890 1119.54960   24.94870  263.88190   29.55890   58.84000  105.07220
 2817.50000    0.09300 1120.10720   26.45110  253.43090   34.58080   61.05250  107.39050
 2818.00000    0.10330 1120.66480   26.61700  244.71200   37.83360   62.40230  109.11230
 2818.50000    0.10970 1121.22240   26.78280  235.99300   37.21930   63.25700  110.60240
 2819.00000    0.11310 1121.78000   26.92530  232.33670   32.22320   63.58920  110.67370
 2819.50000    0.11500 1122.33750   27.05540  231.96590   25.88480   63.82240  110.47850
 2820.00000    0.11590 1122.89510   27.18560  229.49410   22.46770   63.98410  110.50610
 2820.50000    0.11240 1123.45280   27.31580  223.62790   23.88710   63.60470  110.94200
 2821.00000    0.11070 1124.01030   29.43330  205.10740   28.43990   63.23740  112.04000
 2821.50000    0.11140 1124.56790   29.99040  183.88140   31.28880   63.81980  113.32340
 2822.00000    0.11920 1125.12550   31.08090  162.23870   31.38830   64.61630  114.37330
 2822.50000    0.12490 1125.68310   32.18740  149.00130   30.76760   65.35440  114.19100
 2823.00000    0.12600 1126.24060   33.23750  138.78960   30.95530   65.40210  113.18160
 2823.50000    0.11750 1126.79820   34.00110  131.70870   31.50440   63.94770  112.16080
 2824.00000    0.10560 1127.35580   34.75210  124.62780   31.82190   62.44710  111.30190
 2824.50000    0.10630 1127.91350   35.50420  117.54680   35.12960   62.62390  111.77370
 2825.00000    0.11830 1128.47090   34.48730  116.45060   44.71110   64.24650  114.21530
 2825.50000    0.13340 1129.02860   31.22970  120.47890   57.26190   67.01950  116.87430
 2826.00000    0.15080 1128.50090   26.32180  131.84640   61.33540   69.52290  118.16390
 2826.50000    0.16550 1127.97300   22.16420  143.48450   50.88560   70.65100  117.34070
 2827.00000    0.16020 1132.74580   18.51780  163.10130   35.74610   70.14570  115.48810
 2827.50000    0.14010 1142.11470   15.65640  181.05280   23.83810   67.65530  111.11070
 2828.00000    0.11780 1166.73650   14.73610  191.16100   18.98860   64.09280  107.45710
 2828.50000    0.09100 1184.83940   14.78690  193.80230   16.83990   60.66420  104.78770
 2829.00000    0.07190 1176.86580   14.83770  194.69990   16.26930   57.74250  103.55820
 2829.50000    0.06460 1171.19260   14.88850  193.23360   16.05000   56.71440  103.22940
 2830.00000    0.06860 1174.71950   14.93930  188.60070   17.03150   57.30840  103.85190
 2830.50000    0.07420 1178.24650   14.99010  183.96780   18.68140   58.38130  106.85850
 2831.00000    0.08320 1165.36940   15.04090  179.33480   20.64730   59.63260  109.22480
 2831.50000    0.10220 1141.55640   15.09170  174.70190   22.00990   61.84180  111.30870
 2832.00000    0.12460 1134.60770   15.13360  170.06900   22.62530   64.51410  112.62280
 2832.50000    0.12620 1143.72530   15.24570  166.14120   23.21770   65.36060  112.62280
 2833.00000    0.12770 1146.68950   15.64460  164.61800   23.33290   65.56450  112.66410
 2833.50000    0.13290 1163.28870   15.98340  163.58220   22.60710   66.33630  113.19800
 2834.00000    0.12400 1150.04300   16.26640  164.58000   21.40960   65.22100  113.40850
 2834.50000    0.11260 1140.14490   16.38120  170.36340   21.40890   63.09390  111.78020
