~Version ---------------------------------------------------
VERS.   2.0 : CWLS log ASCII Standard -VERSION 2.0
WRAP.    NO : One line per depth step
DLM . SPACE : Column Data Section Delimiter
~Well ------------------------------------------------------
STRT .F                    0.0 : START DEPTH
STOP .F                 4553.0 : STOP DEPTH
STEP .F                    0.5 : STEP
NULL .                -9999.25 : NULL VALUE
COMP .                         : COMPANY
WELL .                         : WELL
FLD  .                         : FIELD
LOC  .                         : LOCATION
PROV .                         : PROVINCE
CNTY .                         : COUNTY
STAT .                         : STATE
CTRY .                         : COUNTRY
SRVC .                         : SERVICE COMPANY
DATE .                         : DATE
UWI  .                         : UNIQUE WELL ID
API  .                         : API NUMBER
SLAT .WGS84 1.7374410804454996 : SURFACE LATITUDE
SLON .WGS84  7.237560879542016 : SURFACE LONGITUDE
DATUM.F                2644.42 : DEPTH DATUM ELEV
~Curve Information -----------------------------------------
DEPT   .F     : 
SPHI_LS.DEC   : SONIC POROSITY [LIMESTONE]
TENS   .LB    : TENSION FROM SONIC LOG
GRN    .GAPI  : GAMMA RAY FROM GRN LOG
NEUT   .NAPI  : NEUTRON
GRS    .GAPI  : GAMMA RAY FROM SONIC LOG
DTCO   .US/F  : DELTA-T COMPRESSIONAL
DTSM   .US/F  : DELTA-T SHEAR
~Params ----------------------------------------------------
~Other -----------------------------------------------------
~ASCII -----------------------------------------------------
# ...
 2655.00000   -0.00910 1093.61040   35.57150  499.97040   15.84660   46.30600   89.81320
 2655.50000   -0.00270 1094.40190   39.30120  458.97450   22.03980   47.67520   91.49360
 2656.00000    0.01820 1095.19350   45.26430  417.67960   33.25130   50.64130   95.15110
 2656.50000    0.04590 1095.98520   47.42270  379.53700   46.52580   54.34830   99.36620
 2657.00000    0.07060 1096.77690   50.56240  362.24150   54.34330   58.23940  103.59590
 2657.50000    0.09350 1097.56840   55.13270  349.99040   58.41870   61.21360  107.86430
 2658.00000    0.10520 1070.95340   57.95960  337.73930   59.69140   63.07890  111.52490
 2658.50000    0.11520 1083.70210   58.96180  328.90560   62.76340   64.14680  113.66970
 2659.00000    0.12720 1096.45080   56.45940  328.47190   68.75950   65.86060  116.24030
 2659.50000    0.14480 1109.19950   53.95690  340.29750   75.21740   68.71720  118.89950
 2660.00000    0.16610 1121.94820   51.45450  352.65920   78.58250   71.16180  119.52750
 2660.50000    0.16110 1113.02360   45.10090  386.05180   75.89390   68.58650  115.09600
 2661.00000    0.09390 1098.68040   36.17570  430.46060   66.18440   57.99690   97.69720
 2661.50000    0.02540 1084.33730   30.80900  475.17410   54.75460   47.85780   85.16210
 2662.00000   -0.00020 1069.99410   27.36940  522.67170   42.77030   48.00600   86.51580
 2662.50000    0.01500 1055.65110   23.24190  570.16930   31.78960   50.16180   90.54660
 2663.00000    0.01990 1044.17680   21.48780  586.67050   25.14980   50.70040   91.55520
 2663.50000    0.01610 1044.17680   19.55380  589.88040   21.84990   49.82890   90.61300
 2664.00000    0.01270 1044.17680   17.36090  588.89580   21.02680   49.37450   89.60600
 2664.50000    0.01320 1044.17680   16.27440  584.75270   21.23310   49.67320   89.15410
 2665.00000    0.01790 1044.17680   15.18790  571.40830   20.65240   50.38930   89.05190
 2665.50000    0.02430 1044.17680   15.12140  558.06400   19.70550   51.29510   89.74750
 2666.00000    0.03040 1081.27620   16.16490  544.71970   20.02570   51.93640   91.49900
 2666.50000    0.02990 1098.36300   17.34100  531.37530   22.69590   51.95810   93.84800
 2667.00000    0.02710 1085.43050   18.83190  529.03620   25.56960   51.56030   95.93760
 2667.50000    0.02690 1072.49800   20.32210  527.76310   25.52960   51.42710   95.96180
 2668.00000    0.02770 1074.30590   21.81300  544.66120   23.04340   51.67560   95.43220
 2668.50000    0.02990 1088.64270   23.22710  561.55930   20.97930   52.03620   95.43620
 2669.00000    0.03160 1092.92290   23.96010  578.45730   22.24260   52.06730   95.42810
 2669.50000    0.03150 1090.49850   24.27950  593.04640   27.00970   52.07470   95.41810
 2670.00000    0.03150 1089.04390   24.27920  600.19430   30.42510   52.08220   95.11540
 2670.50000    0.03110 1090.49850   23.99110  607.34230   31.86240   52.08960   95.36850
 2671.00000    0.02850 1092.92290   22.70940  621.32150   30.37090   51.72290   95.24020
 2671.50000    0.02340 1092.92640   21.36480  645.18450   26.92750   51.07630   93.50810
 2672.00000    0.02110 1089.29860   20.16560  662.08250   23.24470   50.72800   91.04500
 2672.50000    0.01910 1094.37740   18.96510  660.48330   21.10710   50.43500   91.23030
 2673.00000    0.02000 1097.01750   17.76620  650.38020   21.13570   50.34250   92.03370
 2673.50000    0.02130 1099.65750   16.56650  640.27700   22.49000   50.69090   93.09290
 2674.00000    0.02270 1088.35410   15.51740  630.17400   22.97720   51.06270   92.99500
 2674.50000    0.02250 1086.07910   14.71690  620.07080   22.20760   50.95030   92.81580
 2675.00000    0.01760 1072.40990   14.22750  617.20480   19.98500   50.30120   92.15590
 2675.50000    0.01270 1070.84840   13.81300  624.65080   17.52550   49.56420   91.38430
 2676.00000    0.01430 1070.29810   13.42550  637.60550   15.36360   49.57140   91.36670
 2676.50000    0.01670 1072.23110   12.95420  650.56040   14.29200   50.10550   92.19050
 2677.00000    0.01900 1074.16410   11.97060  663.51520   14.51930   50.30490   92.58480
 2677.50000    0.01780 1094.44920   10.85380  676.47000   15.01690   50.16020   92.90430
 2678.00000    0.01750 1100.06080    9.89880  689.42490   15.20610   50.15060   93.22380
 2678.50000    0.01770 1103.05410    9.24650  697.63420   14.73500   50.27560   93.28020
 2679.00000    0.01750 1095.57480    8.66180  698.59930   13.92310   50.31810   92.94590
 2679.50000    0.01490 1088.09550    8.23710  694.66050   13.10060   49.79900   92.30100
 2680.00000    0.01680 1094.37740    7.81270  689.82790   12.81870   49.80970   91.87980
 2680.50000    0.01940 1094.37740    7.38830  684.99540   13.07930   50.61740   91.70220
 2681.00000    0.02090 1094.37740    7.71890  680.16280   14.18120   50.69540   92.61250
 2681.50000    0.01790 1094.37740    9.24790  675.33030   15.55430   50.19540   93.34930
 2682.00000    0.01670 1092.56900   10.77620  674.92550   16.74760   50.06080   93.03110
 2682.50000    0.01520 1101.37490   12.30460  674.95010   17.27800   49.85700   92.51090
 2683.00000    0.01300 1110.18070   13.17410  674.69570   16.88640   49.44590   91.79560
 2683.50000    0.00930 1118.78040   14.09600  674.32050   16.33300   48.92980   90.93020
 2684.00000    0.00620 1110.80260   14.67270  673.94530   15.59490   48.49160   90.05200
 2684.50000    0.00590 1104.42040   15.01420  671.64390   15.06800   48.39370   89.17380
 2685.00000    0.00800 1104.42040   14.67310  668.30030   15.07060   48.70580   88.81560
 2685.50000    0.01270 1104.42040   13.93430  661.09900   16.09620   49.40020   89.34840
 2686.00000    0.01790 1099.18440   12.86350  633.44570   16.80490   50.46320   90.12080
 2686.50000    0.01930 1090.45760   13.65000  605.79250   16.87880   50.38270   90.59800
 2687.00000    0.01420 1096.18160   14.96380  589.07010   16.23130   49.60360   91.07510
 2687.50000    0.01420 1123.58120   16.56060  581.76820   16.60230   49.67190   91.52060
 2688.00000    0.02040 1124.33470   19.39590  574.46620   18.18970   50.86960   91.51220
 2688.50000    0.02520 1111.27720   21.53800  567.16430   19.50650   51.45950   91.15980
 2689.00000    0.02520 1099.20790   23.56860  559.86240   19.51290   51.25330   90.39390
 2689.50000    0.01790 1096.45310   25.59910  550.42570   18.24940   50.22880   89.96020
 2690.00000    0.01760 1101.63530   27.62850  536.59850   17.50660   50.14770   90.42170
 2690.50000    0.02940 1106.81750   29.66030  528.33350   18.98560   52.04440   92.35410
 2691.00000    0.04430 1105.48580   31.69110  527.60710   27.15580   54.39830   96.54760
 2691.50000    0.06020 1105.96510   31.31240  532.42810   40.36550   56.44600  101.44100
 2692.00000    0.07050 1113.68840   30.10910  538.72600   47.18090   57.74160  106.14230
 2692.50000    0.06910 1121.41150   28.90690  545.02380   43.93930   57.56130  106.74350
 2693.00000    0.05340 1119.02430   27.26720  551.32170   33.86130   54.74000  102.66020
 2693.50000    0.02060 1109.89690   25.83940  557.61960   23.54480   50.61250   96.02600
 2694.00000    0.01020 1104.42040   24.67510  559.67150   20.79700   48.93010   91.54360
 2694.50000    0.01020 1116.24150   23.66860  558.43620   21.22740   49.19680   90.85290
 2695.00000    0.01110 1135.94300   22.72210  543.54990   22.62810   49.56990   90.32640
 2695.50000    0.01780 1137.27920   22.90310  528.66350   23.11270   50.49340   90.21250
 2696.00000    0.02350 1119.02430   24.17500  512.38060   22.55300   51.04570   90.35960
 2696.50000    0.02030 1104.42040   25.59710  495.84560   21.75120   50.42350   90.68160
 2697.00000    0.01970 1116.97070   27.81110  479.31060   22.51380   50.43860   91.34030
 2697.50000    0.02660 1129.52090   29.33430  462.77570   27.41150   51.55130   92.89550
 2698.00000    0.03390 1133.34720   31.52600  446.24070   33.51080   52.78950   94.66820
 2698.50000    0.04400 1130.36280   33.35980  440.08590   37.70900   53.92320   96.44410
 2699.00000    0.04760 1134.54100   35.18520  439.44280   34.20330   54.34070   97.97930
 2699.50000    0.04170 1123.78370   36.96900  450.68670   27.82390   53.29000   97.84470
