~Version ---------------------------------------------------
VERS.   2.0 : CWLS log ASCII Standard -VERSION 2.0
WRAP.    NO : One line per depth step
DLM . SPACE : Column Data Section Delimiter
~Well ------------------------------------------------------
STRT .F                    0.0 : START DEPTH
STOP .F                 4553.0 : STOP DEPTH
STEP .F                    0.5 : STEP
NULL .                -9999.25 : NULL VALUE
COMP .                         : COMPANY
WELL .                         : WELL
FLD  .                         : FIELD
LOC  .                         : LOCATION
PROV .                         : PROVINCE
CNTY .                         : COUNTY
STAT .                         : STATE
CTRY .                         : COUNTRY
SRVC .                         : SERVICE COMPANY
DATE .                         : DATE
UWI  .                         : UNIQUE WELL ID
API  .                         : API NUMBER
SLAT .WGS84 1.7374410804454996 : SURFACE LATITUDE
SLON .WGS84  7.237560879542016 : SURFACE LONGITUDE
DATUM.F                2644.42 : DEPTH DATUM ELEV
~Curve Information -----------------------------------------
DEPT   .F     : 
SPHI_LS.DEC   : SONIC POROSITY [LIMESTONE]
TENS   .LB    : TENSION FROM SONIC LOG
GRN    .GAPI  : GAMMA RAY FROM GRN LOG
NEUT   .NAPI  : NEUTRON
GRS    .GAPI  : GAMMA RAY FROM SONIC LOG
DTCO   .US/F  : DELTA-T COMPRESSIONAL
DTSM   .US/F  : DELTA-T SHEAR
~Params ----------------------------------------------------
~Other -----------------------------------------------------
~ASCII -----------------------------------------------------
# ...
 3465.00000    0.01910 1389.26290   12.28860  255.02760   17.79240   50.11790   93.09420
 3465.50000    0.02350 1398.48560   12.82750  245.28390   17.76730   50.94280   93.06150
 3466.00000    0.01770 1394.26730   13.37270  235.99170   18.59470   50.24690   93.07670
 3466.50000    0.01000 1402.47580   13.92230  231.88710   19.17400   49.28950   93.13760
 3467.00000    0.01000 1402.57650   14.39540  227.78260   18.96690   49.11860   93.19860
 3467.50000    0.01000 1405.58440   14.80980  221.64550   18.85820   49.09680   93.25950
 3468.00000    0.01000 1408.59200   15.11020  215.26620   18.93720   49.10370   93.32180
 3468.50000    0.01000 1404.08180   15.41080  210.13000   19.14550   49.12780   93.44870
 3469.00000    0.01000 1394.55960   15.66170  205.65910   18.69270   49.15180   93.57570
 3469.50000    0.00990 1385.03740   15.87310  201.18820   17.84780   49.17590   93.70260
 3470.00000    0.00990 1375.51500   16.08470  196.71740   16.77010   49.25440   93.80850
 3470.50000    0.00920 1365.99280   16.29610  192.56380   16.25490   49.44000   93.87110
 3471.00000    0.01070 1366.63770   16.50760  192.26970   16.17290   49.58290   93.68980
 3471.50000    0.01070 1367.28260   16.71910  195.72200   16.24080   49.47360   93.54960
 3472.00000    0.01070 1354.33110   17.09540  199.18000   15.78320   49.41720   93.47880
 3472.50000    0.01120 1332.31520   17.57540  202.65230   15.57050   49.41000   93.40800
 3473.00000    0.01230 1327.91200   18.00850  202.97090   16.71350   49.46380   93.33710
 3473.50000    0.01300 1327.91200   18.18780  202.95530   18.58740   49.55760   93.25250
 3474.00000    0.01240 1347.37020   18.21060  199.22360   20.38960   49.42510   93.62030
 3474.50000    0.01210 1373.60440   18.18230  195.49190   21.95520   49.47200   93.89850
 3475.00000    0.01530 1396.91780   17.85010  180.35840   23.35400   49.78860   93.63380
 3475.50000    0.01470 1416.39610   17.28190  172.05740   24.14500   49.79730   93.51190
 3476.00000    0.01230 1430.12180   16.64670  178.44730   23.90420   49.28670   93.41700
 3476.50000    0.01090 1434.49950   16.35320  188.01360   23.31240   48.74000   93.31800
 3477.00000    0.01020 1424.85530   16.29510  197.22490   22.84410   48.87830   93.21900
 3477.50000    0.00990 1415.21110   16.36740  192.94680   22.12690   49.09750   93.18050
 3478.00000    0.00970 1413.28230   16.53590  184.59450   21.15080   49.16130   93.71140
 3478.50000    0.00860 1413.28230   16.97870  176.24220   20.24820   49.08800   93.40970
 3479.00000    0.00690 1413.28230   17.48830  173.10610   20.73320   48.89920   93.39500
 3479.50000    0.00660 1413.28230   17.99810  175.81590   21.93850   48.50910   94.03770
 3480.00000    0.00630 1413.28230   18.50790  180.53900   22.38450   48.42740   94.23090
 3480.50000    0.00690 1413.28230   19.01770  185.39660   22.37020   48.55820   94.39050
 3481.00000    0.00720 1413.28230   19.52750  192.14510   21.38080   48.60870   94.39120
 3481.50000    0.00730 1416.77600   20.03730  198.89360   20.29830   48.61660   94.39190
 3482.00000    0.00710 1422.35400   20.54720  203.76810   21.08650   48.61200   94.20370
 3482.50000    0.00700 1424.02730   20.49530  204.56030   22.58270   48.60240   93.71830
 3483.00000    0.00550 1419.84390   20.01260  201.21760   23.28910   48.42030   93.61410
 3483.50000    0.00410 1415.66050   19.45080  197.87480   23.28770   48.21410   93.32940
 3484.00000    0.00570 1400.36320   18.42280  200.38150   23.52980   48.30300   92.51910
 3484.50000    0.00740 1392.23350   17.21630  203.13530   23.76330   48.57240   91.79130
 3485.00000    0.00910 1413.98710   16.17440  205.88900   23.56100   48.80590   92.21420
 3485.50000    0.01180 1434.90410   14.85860  208.64280   22.93600   49.18070   92.75690
 3486.00000    0.01090 1455.82100   13.63320  208.42160   22.93420   49.13590   93.25540
 3486.50000    0.00820 1476.73800   12.19310  204.74820   22.63500   48.78300   93.09440
 3487.00000    0.00820 1497.65500   11.33790  200.14780   21.87070   48.80020   92.93010
 3487.50000    0.00870 1515.05790   10.57340  195.54580   20.71130   48.87600   93.35290
 3488.00000    0.00690 1530.11800   10.20370  194.86810   19.45920   48.50800   92.71150
 3488.50000    0.00290 1528.63130    9.97030  196.16260   18.76340   47.88930   92.14080
 3489.00000    0.00380 1508.22530    9.73670  196.53230   18.23510   48.09810   93.34760
 3489.50000    0.01180 1506.02190    9.80980  204.45220   17.27460   49.48900   96.56410
 3490.00000    0.01990 1520.21800   10.22040  237.95530   16.30670   49.88230   96.83710
 3490.50000    0.00930 1512.86300   10.63100  272.78950   15.74870   48.49580   93.68020
 3491.00000    0.00080 1505.50790   11.64530  307.89950   15.59410   47.83050   92.17510
 3491.50000    0.00160 1498.15300   13.83810  320.36290   16.13960   47.84990   93.03770
 3492.00000    0.00360 1490.79790   16.03320  319.03620   15.72830   48.12410   92.68920
 3492.50000    0.00550 1483.44270   18.22550  311.13390   15.16040   48.33380   92.34470
 3493.00000    0.00740 1476.08760   20.58420  302.29360   15.13370   48.69480   92.74590
 3493.50000    0.01010 1468.73270   22.35590  293.45340   17.04480   48.97800   93.42870
 3494.00000    0.01030 1461.37760   24.49180  286.18030   20.42550   49.03720   94.03300
 3494.50000    0.01030 1454.02260   27.79060  279.48120   23.38060   49.09640   94.59920
 3495.00000    0.01040 1444.04550   29.58780  272.17190   24.77930   49.13110   95.23560
 3495.50000    0.01070 1430.13530   31.87100  266.83940   25.66910   49.10700   95.33680
 3496.00000    0.01690 1410.51860   33.51400  261.50680   28.20690   50.76910   98.10610
 3496.50000    0.04720 1377.55940   34.63390  257.52770   34.20310   54.90720  103.35790
 3497.00000    0.07690 1355.91310   35.55910  256.23810   41.42460   59.19290  107.35600
 3497.50000    0.10040 1344.73520   36.19280  257.86020   45.42470   61.79630  109.77790
 3498.00000    0.11100 1389.76900   36.77250  271.12300   43.07900   63.57480  110.83630
 3498.50000    0.11630 1425.79610   35.39140  287.34520   34.97680   64.10690  111.30630
 3499.00000    0.10490 1426.21910   34.06510  295.13340   27.59810   62.68830  109.62820
 3499.50000    0.08160 1404.48820   32.94860  295.13340   -9999.25   59.42740  106.36130
 3500.00000    0.07360 1377.19230   31.83210  295.40060   -9999.25   57.86980  105.11850
 3500.50000    0.07370 1349.89650   30.71650  300.66390   -9999.25   58.17300  106.48550
 3501.00000    0.07230 1348.03580   29.72460  305.92720   -9999.25   57.97980  107.27180
 3501.50000    0.06250 1370.54650   29.01640  319.06100   -9999.25   56.69720  105.81440
 3502.00000    0.05470 1393.05730   28.21110  334.22980   -9999.25   55.39210  102.57400
 3502.50000    0.06030 1373.06980   27.17590  346.24860   -9999.25   56.08640  102.35440
 3503.00000    0.06920 1389.77250   25.98370  355.71390   -9999.25   57.05680  104.69670
 3503.50000    0.05860 1406.47520   23.95910  379.09950   -9999.25   55.86130  104.06810
 3504.00000    0.04540 1394.31640   21.79390  408.74100   -9999.25   53.54460  100.86330
 3504.50000    0.03580 1362.26760   19.62870  411.78920   -9999.25   52.53020   97.91240
 3505.00000    0.03100 1337.36540   19.28600  408.22960   -9999.25   51.96010   95.91640
 3505.50000    0.02880 1320.57240   19.84330  404.66990   -9999.25   51.71650   95.02880
 3506.00000    0.02770 1309.18590   22.79790  401.11030   -9999.25   51.60940   94.57650
 3506.50000    0.02580 1297.79930   25.74530  391.25800   -9999.25   51.28040   94.54050
 3507.00000    0.02660 1297.82570   28.15470  380.03200   -9999.25   51.38990   94.34990
 3507.50000    0.03050 1297.85210   30.56420  368.80580   -9999.25   52.21050   94.15500
 3508.00000    0.02710 1297.87850   31.84280  356.62200   -9999.25   51.37140   93.42150
 3508.50000    0.01760 1297.90500   31.98220  350.28240   -9999.25   49.94470   92.26260
 3509.00000    0.01860 1279.59330   31.76070  339.32930   -9999.25   50.15660   91.10370
 3509.50000    0.02330 1279.16210   30.12090  328.14940   -9999.25   51.20230   90.49860
