~Version ---------------------------------------------------
VERS.   2.0 : CWLS log ASCII Standard -VERSION 2.0
WRAP.    NO : One line per depth step
DLM . SPACE : Column Data Section Delimiter
~Well ------------------------------------------------------
STRT .F                    0.0 : START DEPTH
STOP .F                 4553.0 : STOP DEPTH
STEP .F                    0.5 : STEP
NULL .                -9999.25 : NULL VALUE
COMP .                         : COMPANY
WELL .                         : WELL
FLD  .                         : FIELD
LOC  .                         : LOCATION
PROV .                         : PROVINCE
CNTY .                         : COUNTY
STAT .                         : STATE
CTRY .                         : COUNTRY
SRVC .                         : SERVICE COMPANY
DATE .                         : DATE
UWI  .                         : UNIQUE WELL ID
API  .                         : API NUMBER
SLAT .WGS84 1.7374410804454996 : SURFACE LATITUDE
SLON .WGS84  7.237560879542016 : SURFACE LONGITUDE
DATUM.F                2644.42 : DEPTH DATUM ELEV
~Curve Information -----------------------------------------
DEPT   .F     : 
SPHI_LS.DEC   : SONIC POROSITY [LIMESTONE]
TENS   .LB    : TENSION FROM SONIC LOG
GRN    .GAPI  : GAMMA RAY FROM GRN LOG
NEUT   .NAPI  : NEUTRON
GRS    .GAPI  : GAMMA RAY FROM SONIC LOG
DTCO   .US/F  : DELTA-T COMPRESSIONAL
DTSM   .US/F  : DELTA-T SHEAR
~Params ----------------------------------------------------
~Other -----------------------------------------------------
~ASCII -----------------------------------------------------
# ...
 2835.00000    0.10120 1143.63730   16.49600  188.98150   23.79950   61.60200  110.15180
 2835.50000    0.09390 1147.12980   16.61080  212.73840   26.91000   60.93270  108.59510
 2836.00000    0.09050 1143.51790   17.23770  244.92210   29.19690   60.43630  107.05860
 2836.50000    0.08700 1145.05440   17.81180  257.93110   28.14090   59.75040  106.15460
 2837.00000    0.07730 1147.61230   18.06110  276.73150   25.72270   58.30580  105.31520
 2837.50000    0.06410 1154.25650   18.16280  297.51680   24.06540   56.80420  103.73480
 2838.00000    0.06100 1160.90060   18.26390  319.78540   23.14210   56.02210  102.03310
 2838.50000    0.05720 1167.54480   18.36500  338.64030   22.49150   55.84770  100.00930
 2839.00000    0.05160 1174.18880   18.46610  356.90490   21.04130   55.07520   97.71330
 2839.50000    0.04260 1180.83300   19.82020  368.14270   19.08840   53.86280   96.54560
 2840.00000    0.03930 1187.47720   21.93670  368.12160   18.37970   52.85550   96.30960
 2840.50000    0.03380 1185.79610   24.50970  360.90850   19.37180   52.45830   96.38360
 2841.00000    0.03700 1171.62770   27.08280  349.03760   20.86370   52.73390   97.28040
 2841.50000    0.04270 1157.45920   29.65590  337.16660   22.80210   53.75230   99.98000
 2842.00000    0.05730 1156.05650   30.42750  325.29560   26.68650   55.87320  102.55600
 2842.50000    0.07120 1157.84520   28.55950  314.38950   31.21610   57.76340  104.25160
 2843.00000    0.08620 1163.42140   25.63330  306.85200   33.57610   59.75150  105.90770
 2843.50000    0.10000 1157.19980   22.70710  299.31440   34.55810   61.85860  107.15660
 2844.00000    0.10100 1138.98580   20.02120  291.53120   36.70900   61.93690  107.17560
 2844.50000    0.09590 1129.77010   17.34870  282.32240   39.80680   61.20320  106.62900
 2845.00000    0.08460 1138.54550   14.63310  271.59060   39.53240   59.76660  104.78640
 2845.50000    0.06990 1131.84030   11.72170  263.87070   33.26310   57.13540  103.06510
 2846.00000    0.05990 1114.81480    8.80000  256.86770   24.97230   55.97930  101.51130
 2846.50000    0.05630 1097.78920    7.00520  248.32210   18.16530   55.53460  100.35850
 2847.00000    0.05570 1100.63130    7.97850  237.81430   13.33440   55.33540   99.64890
 2847.50000    0.05710 1108.44040    9.28170  224.17630   11.26070   55.52430  100.51820
 2848.00000    0.06100 1116.24960   10.58490  205.67000   11.49000   56.23210  102.03090
 2848.50000    0.07200 1124.05870   11.88810  188.87930   13.26360   57.71040  103.78680
 2849.00000    0.08630 1131.86780   12.35730  172.08870   17.18350   59.76160  106.12410
 2849.50000    0.09850 1139.67690   12.31120  155.29800   22.14760   62.08260  109.23820
 2850.00000    0.11930 1141.77340   11.35300  138.50730   25.66160   64.65800  112.64910
 2850.50000    0.13570 1142.44170   10.32440  131.11480   26.63920   67.22370  115.42830
 2851.00000    0.15210 1143.11010    9.67770  137.20580   24.41730   68.70760  117.50850
 2851.50000    0.14720 1143.53170    9.77030  145.86430   21.37090   68.43520  119.17010
 2852.00000    0.13490 1143.58330    9.91240  153.67090   18.89950   66.70510  118.64310
 2852.50000    0.12260 1143.63480   11.80630  163.18520   18.14080   64.96440  115.61870
 2853.00000    0.11090 1143.68630   13.41630  171.47540   19.34740   63.16010  111.86780
 2853.50000    0.10150 1143.73780   14.88900  178.33090   20.44940   61.78830  109.50030
 2854.00000    0.09590 1143.78930   16.77560  181.09060   20.06730   61.22530  108.22750
 2854.50000    0.09670 1143.84080   18.40350  182.52450   19.50960   61.48460  108.63630
 2855.00000    0.10790 1140.61460   20.11730  183.03430   23.22100   63.09870  110.94920
 2855.50000    0.12340 1137.38760   22.40890  182.82280   32.74340   65.31370  113.97970
 2856.00000    0.13440 1134.16050   24.33780  184.53810   44.13320   66.76240  115.67990
 2856.50000    0.13540 1130.93350   22.06200  192.53300   46.99290   66.73130  114.14590
 2857.00000    0.12720 1127.70640   19.23650  205.91720   39.23690   65.31320  110.21320
 2857.50000    0.10750 1124.47940   16.63300  222.88850   27.13480   62.43570  107.46510
 2858.00000    0.08280 1121.25230   14.02940  242.38460   16.47750   59.17770  105.07110
 2858.50000    0.06760 1118.02530   11.42580  261.88070   12.40450   57.31700  104.11390
 2859.00000    0.06900 1114.79820   10.57970  274.57570   12.25010   57.64870  103.56240
 2859.50000    0.07460 1118.79130   11.01950  271.67820   14.61740   58.38180  103.55600
 2860.00000    0.07810 1135.56010   14.66120  268.14300   17.55360   58.71150  103.69500
 2860.50000    0.07990 1148.30260   18.47930  264.60780   20.80360   58.88200  104.15110
 2861.00000    0.08090 1126.31290   22.36230  263.29930   25.75780   59.09940  104.29410
 2861.50000    0.07930 1115.39180   26.71250  263.35200   33.27690   58.96940  105.50070
 2862.00000    0.07770 1113.29250   31.06270  263.32190   40.57280   58.78880  106.75540
 2862.50000    0.08660 1119.46480   33.82720  258.91600   44.64700   59.90980  108.01800
 2863.00000    0.10590 1125.63710   33.48240  256.36900   46.19920   63.01360  109.80450
 2863.50000    0.12700 1122.48670   29.97880  256.34290   47.38630   65.86330  111.65890
 2864.00000    0.13430 1113.12120   26.47530  265.22660   45.87850   66.58900  112.04970
 2864.50000    0.13010 1107.63920   22.97170  278.12470   39.61830   66.04560  110.32830
 2865.00000    0.12330 1117.69070   19.29850  302.16120   28.29770   64.42600  107.80390
 2865.50000    0.10850 1127.74220   14.67680  317.92970   21.88950   61.62430  105.47150
 2866.00000    0.08800 1106.63790   12.44210  324.00530   16.89110   59.70480  103.14210
 2866.50000    0.07430 1108.33230   10.49700  318.36070   12.58720   58.20900  100.62700
 2867.00000    0.06520 1110.02670    9.14730  310.38670   11.33350   57.02190   98.72430
 2867.50000    0.06040 1111.72110    9.70440  298.28630   11.88320   56.23670   96.98260
 2868.00000    0.05740 1113.41550   10.62240  280.47050   14.11020   55.52430   96.04310
 2868.50000    0.05370 1108.70430   11.54050  264.32840   17.35560   55.19990   95.33700
 2869.00000    0.05220 1094.38460   12.45850  256.45270   19.21380   55.17000   95.39020
 2869.50000    0.05500 1085.52720   13.37630  246.84660   19.68340   55.41990   96.76080
 2870.00000    0.06050 1100.80470   14.29450  237.24040   18.85860   56.26460   98.76580
 2870.50000    0.07070 1120.28340   15.21230  227.63420   17.48400   57.68900  100.77070
 2871.00000    0.08220 1112.27150   15.97960  223.84900   16.47740   59.25600  102.98090
 2871.50000    0.09140 1104.25940   16.10610  222.16390   18.58370   60.78020  105.56480
 2872.00000    0.10190 1112.18050   15.39660  220.47880   23.05030   62.75800  108.14880
 2872.50000    0.11210 1124.08500   14.24390  218.00900   26.97120   63.88470  109.48800
 2873.00000    0.11850 1130.25070   10.65180  206.59300   25.46070   64.51920  110.31420
 2873.50000    0.12630 1127.80870    9.39530  206.58720   21.18950   65.36450  110.31210
 2874.00000    0.12520 1126.24330    8.54300  209.02440   17.52930   65.33760  110.11950
 2874.50000    0.11690 1125.99280    7.75640  216.47380   15.91860   63.99460  108.42640
 2875.00000    0.10750 1125.74240    7.06410  224.40150   15.66660   62.76160  107.71790
 2875.50000    0.10530 1125.49190    6.39220  231.49680   15.23070   62.53360  107.21060
 2876.00000    0.10090 1125.24150    5.47280  238.59220   14.32460   61.93730  106.95070
 2876.50000    0.09020 1124.99100    4.91330  245.68750   12.94880   59.94370  105.29670
 2877.00000    0.07120 1124.74050    5.27940  257.72470   12.23850   57.57200  103.00700
 2877.50000    0.05240 1124.49000    5.96100  276.54770   12.76350   55.05800   99.80610
 2878.00000    0.04220 1124.23950    7.10490  279.55670   13.91340   53.72150   97.20670
 2878.50000    0.04050 1123.98910    8.42170  274.94870   15.00520   53.38680   96.89210
 2879.00000    0.04700 1123.73860    9.95060  269.46750   15.48960   54.25910   99.05890
 2879.50000    0.05900 1123.48820   11.47950  256.06720   15.77790   56.65230  103.11580
