~Version ---------------------------------------------------
VERS.   2.0 : CWLS log ASCII Standard -VERSION 2.0
WRAP.    NO : One line per depth step
DLM . SPACE : Column Data Section Delimiter
~Well ------------------------------------------------------
STRT .F                    0.0 : START DEPTH
STOP .F                 4553.0 : STOP DEPTH
STEP .F                    0.5 : STEP
NULL .                -9999.25 : NULL VALUE
COMP .                         : COMPANY
WELL .                         : WELL
FLD  .                         : FIELD
LOC  .                         : LOCATION
PROV .                         : PROVINCE
CNTY .                         : COUNTY
STAT .                         : STATE
CTRY .                         : COUNTRY
SRVC .                         : SERVICE COMPANY
DATE .                         : DATE
UWI  .                         : UNIQUE WELL ID
API  .                         : API NUMBER
SLAT .WGS84 1.7374410804454996 : SURFACE LATITUDE
SLON .WGS84  7.237560879542016 : SURFACE LONGITUDE
DATUM.F                2644.42 : DEPTH DATUM ELEV
~Curve Information -----------------------------------------
DEPT   .F     : 
SPHI_LS.DEC   : SONIC POROSITY [LIMESTONE]
TENS   .LB    : TENSION FROM SONIC LOG
GRN    .GAPI  : GAMMA RAY FROM GRN LOG
NEUT   .NAPI  : NEUTRON
GRS    .GAPI  : GAMMA RAY FROM SONIC LOG
DTCO   .US/F  : DELTA-T COMPRESSIONAL
DTSM   .US/F  : DELTA-T SHEAR
~Params ----------------------------------------------------
~Other -----------------------------------------------------
~ASCII -----------------------------------------------------
# ...
 2520.00000   -9999.25   -9999.25    7.91090  847.74870   -9999.25   -9999.25   -9999.25
 2520.50000   -9999.25   -9999.25    8.55440  847.56040   -9999.25   -9999.25   -9999.25
 2521.00000   -9999.25   -9999.25    9.67400  847.37200   -9999.25   -9999.25   -9999.25
 2521.50000   -9999.25   -9999.25   10.93410  846.29750   -9999.25   -9999.25   -9999.25
 2522.00000   -9999.25   -9999.25   12.41600  841.05470   -9999.25   -9999.25   -9999.25
 2522.50000   -9999.25   -9999.25   13.89790  833.60530   -9999.25   -9999.25   -9999.25
 2523.00000   -9999.25   -9999.25   15.37980  826.15590   -9999.25   -9999.25   -9999.25
 2523.50000   -9999.25   -9999.25   15.86750  818.70650   -9999.25   -9999.25   -9999.25
 2524.00000   -9999.25   -9999.25   15.53390  835.55320   -9999.25   -9999.25   -9999.25
 2524.50000   -9999.25   -9999.25   13.22800  885.79130   -9999.25   -9999.25   -9999.25
 2525.00000   -9999.25   -9999.25   10.92200  908.79050   -9999.25   -9999.25   -9999.25
 2525.50000   -9999.25   -9999.25    8.58620  919.27660   -9999.25   -9999.25   -9999.25
 2526.00000   -9999.25   -9999.25    6.86740  924.61080   -9999.25   -9999.25   -9999.25
 2526.50000   -9999.25   -9999.25    6.17880  920.50070   -9999.25   -9999.25   -9999.25
 2527.00000   -9999.25   -9999.25    6.66020  915.51300   -9999.25   -9999.25   -9999.25
 2527.50000   -9999.25   -9999.25    7.14980  905.83100   -9999.25   -9999.25   -9999.25
 2528.00000   -9999.25   -9999.25    7.66370  895.90410   -9999.25   -9999.25   -9999.25
 2528.50000   -9999.25   -9999.25    7.65060  890.12990   -9999.25   -9999.25   -9999.25
 2529.00000   -9999.25   -9999.25    7.58480  884.35580   -9999.25   -9999.25   -9999.25
 2529.50000   -9999.25   -9999.25    7.51900  878.58170   -9999.25   -9999.25   -9999.25
 2530.00000   -9999.25   -9999.25    7.38270  872.80750   -9999.25   -9999.25   -9999.25
 2530.50000   -9999.25   -9999.25    6.48980  871.43000   -9999.25   -9999.25   -9999.25
 2531.00000   -9999.25   -9999.25    6.17720  871.24160   -9999.25   -9999.25   -9999.25
 2531.50000   -9999.25   -9999.25    6.28370  881.55040   -9999.25   -9999.25   -9999.25
 2532.00000   -9999.25   -9999.25    6.81840  918.39510   -9999.25   -9999.25   -9999.25
 2532.50000   -9999.25   -9999.25    9.11500  965.01890   -9999.25   -9999.25   -9999.25
 2533.00000   -9999.25   -9999.25    9.35170  965.80880   -9999.25   -9999.25   -9999.25
 2533.50000   -9999.25   -9999.25    9.59570  959.78770   -9999.25   -9999.25   -9999.25
 2534.00000   -9999.25   -9999.25    9.61610  950.51810   -9999.25   -9999.25   -9999.25
 2534.50000   -9999.25   -9999.25    9.61630  938.06230   -9999.25   -9999.25   -9999.25
 2535.00000   -9999.25   -9999.25    9.63120  921.30160   -9999.25   -9999.25   -9999.25
 2535.50000   -9999.25   -9999.25    9.79430  902.37980   -9999.25   -9999.25   -9999.25
 2536.00000   -9999.25   -9999.25   10.16690  902.23050   -9999.25   -9999.25   -9999.25
 2536.50000   -9999.25   -9999.25   10.84380  905.48830   -9999.25   -9999.25   -9999.25
 2537.00000   -9999.25   -9999.25   11.52080  916.42680   -9999.25   -9999.25   -9999.25
 2537.50000   -9999.25   -9999.25   10.40000  925.82060   -9999.25   -9999.25   -9999.25
 2538.00000   -9999.25   -9999.25    8.91060  932.38370   -9999.25   -9999.25   -9999.25
 2538.50000   -9999.25   -9999.25    9.62890  937.79020   -9999.25   -9999.25   -9999.25
 2539.00000   -9999.25   -9999.25   10.39510  942.66780   -9999.25   -9999.25   -9999.25
 2539.50000   -9999.25   -9999.25   11.16110  945.76930   -9999.25   -9999.25   -9999.25
 2540.00000   -9999.25   -9999.25   11.92760  942.70490   -9999.25   -9999.25   -9999.25
 2540.50000   -9999.25   -9999.25   12.69310  931.05720   -9999.25   -9999.25   -9999.25
 2541.00000   -9999.25   -9999.25   13.45910  923.48860   -9999.25   -9999.25   -9999.25
 2541.50000   -9999.25   -9999.25   14.22540  926.50360   -9999.25   -9999.25   -9999.25
 2542.00000   -9999.25   -9999.25   14.99140  932.21500   -9999.25   -9999.25   -9999.25
 2542.50000   -9999.25   -9999.25   15.60520  937.03320   -9999.25   -9999.25   -9999.25
 2543.00000   -9999.25   -9999.25   15.72930  929.50600   -9999.25   -9999.25   -9999.25
 2543.50000   -9999.25   -9999.25   15.80560  917.29390   -9999.25   -9999.25   -9999.25
 2544.00000   -9999.25   -9999.25   15.68480  905.08180   -9999.25   -9999.25   -9999.25
 2544.50000   -9999.25   -9999.25   15.64230  881.89470   -9999.25   -9999.25   -9999.25
 2545.00000   -9999.25   -9999.25   15.80170  837.67810   -9999.25   -9999.25   -9999.25
 2545.50000   -9999.25   -9999.25   16.50220  812.34890   -9999.25   -9999.25   -9999.25
 2546.00000   -9999.25   -9999.25   17.27540  796.06090   -9999.25   -9999.25   -9999.25
 2546.50000   -9999.25   -9999.25   18.08370  781.22570   -9999.25   -9999.25   -9999.25
 2547.00000    0.02870 1068.37190   18.89210  768.45830   18.40610   52.03870   99.31140
 2547.50000    0.02930 1067.84310   19.90400  757.95670   19.31160   51.73350   98.87530
 2548.00000    0.03080 1067.31460   21.49220  742.65290   20.58850   51.71980   98.42040
 2548.50000    0.03310 1066.78590   23.28260  727.32720   21.92200   52.15040   97.35790
 2549.00000    0.03460 1066.25730   25.07330  724.52690   23.82070   52.52330   95.75080
 2549.50000    0.03460 1065.72860   25.91430  725.20500   26.33610   52.49170   94.14370
 2550.00000    0.03460 1065.20000   24.58310  727.85580   29.17050   52.44590   93.00370
 2550.50000    0.03450 1064.67130   22.28270  757.76320   31.42000   52.54320   93.03610
 2551.00000    0.03380 1064.14270   19.98270  779.69530   32.97940   52.48520   94.03450
 2551.50000    0.03310 1063.61400   17.68190  794.28060   32.94350   52.19780   95.36940
 2552.00000    0.03210 1063.08540   15.38200  808.86580   31.55240   52.09520   96.93270
 2552.50000    0.02990 1059.04750   13.08160  823.45100   26.57240   51.82500   98.49610
 2553.00000    0.02570 1054.13240   11.13830  838.03630   21.18500   51.17850   99.54070
 2553.50000    0.02400 1049.21720   11.67060  853.93430   16.31140   51.07420   99.56140
 2554.00000    0.02770 1044.30200   12.33250  872.95660   13.71380   51.56800   99.07440
 2554.50000    0.03230 1039.38680   13.21160  898.06600   14.37930   52.05970   98.56690
 2555.00000    0.03250 1034.47170   14.09600  918.18910   18.26550   52.08360   98.55690
 2555.50000    0.03010 1039.52690   15.01020  929.99790   21.65910   51.94500   98.12230
 2556.00000    0.02730 1044.58220   15.81070  938.61230   21.50790   51.54560   97.65390
 2556.50000    0.02720 1049.63750   16.10020  934.75290   17.55060   51.38680   97.18560
 2557.00000    0.02690 1054.69270   16.12580  929.07170   13.73130   51.36840   96.29500
 2557.50000    0.02230 1059.74790   15.82650  921.28090   12.79670   50.88280   95.25400
 2558.00000    0.01900 1022.96590   14.89710  901.67180   15.50420   50.06720   94.21290
 2558.50000    0.01460  977.08710   13.96800  886.18200   19.67000   49.46900   93.14330
 2559.00000    0.01010  998.64450   13.03860  856.49960   22.25370   48.97700   92.08300
 2559.50000    0.00450  990.03700   12.67400  836.34460   22.46950   48.36800   91.16110
 2560.00000   -0.00150  981.42950   12.96600  821.88220   21.69010   47.48640   90.40900
 2560.50000   -0.00740  981.84770   14.20000  813.41890   20.71690   46.77840   89.48170
 2561.00000   -0.00730 1018.36920   15.42110  807.16930   20.10590   46.69090   88.17580
 2561.50000   -0.00730 1054.89070   17.04570  802.90090   21.38240   46.68570   88.25420
 2562.00000   -0.00790 1084.10780   19.28550  800.67640   24.74360   46.64520   88.87610
 2562.50000   -0.00910 1058.17980   20.81480  800.26440   28.41000   46.44000   89.10210
 2563.00000   -0.01040 1050.86820   21.46030  814.21420   29.48080   46.22270   88.73050
 2563.50000   -0.01080 1043.55650   21.19230  842.55310   26.69990   46.18140   87.31030
 2564.00000   -0.01100 1036.24490   20.85210  859.15660   22.02050   46.17430   86.50600
 2564.50000   -0.01080 1028.93320   20.04870  865.58760   18.76140   46.17100   86.25920
