~Version ---------------------------------------------------
VERS.   2.0 : CWLS log ASCII Standard -VERSION 2.0
WRAP.    NO : One line per depth step
DLM . SPACE : Column Data Section Delimiter
~Well ------------------------------------------------------
STRT .F                    0.0 : START DEPTH
STOP .F                 4553.0 : STOP DEPTH
STEP .F                    0.5 : STEP
NULL .                -9999.25 : NULL VALUE
COMP .                         : COMPANY
WELL .                         : WELL
FLD  .                         : FIELD
LOC  .                         : LOCATION
PROV .                         : PROVINCE
CNTY .                         : COUNTY
STAT .                         : STATE
CTRY .                         : COUNTRY
SRVC .                         : SERVICE COMPANY
DATE .                         : DATE
UWI  .                         : UNIQUE WELL ID
API  .                         : API NUMBER
SLAT .WGS84 1.7374410804454996 : SURFACE LATITUDE
SLON .WGS84  7.237560879542016 : SURFACE LONGITUDE
DATUM.F                2644.42 : DEPTH DATUM ELEV
~Curve Information -----------------------------------------
DEPT   .F     : 
SPHI_LS.DEC   : SONIC POROSITY [LIMESTONE]
TENS   .LB    : TENSION FROM SONIC LOG
GRN    .GAPI  : GAMMA RAY FROM GRN LOG
NEUT   .NAPI  : NEUTRON
GRS    .GAPI  : GAMMA RAY FROM SONIC LOG
DTCO   .US/F  : DELTA-T COMPRESSIONAL
DTSM   .US/F  : DELTA-T SHEAR
~Params ----------------------------------------------------
~Other -----------------------------------------------------
~ASCII -----------------------------------------------------
# ...
 3240.00000    0.03020 1304.81670   11.42020  286.19070   12.73510   51.84820   95.06630
 3240.50000    0.02720 1300.80050   12.27630  281.41820   12.24400   51.49940   95.41480
 3241.00000    0.02420 1296.78450   13.13240  272.65570   13.19940   51.17030   95.66420
 3241.50000    0.02280 1309.91780   13.84000  263.34110   15.90170   50.99130   95.66920
 3242.00000    0.02280 1346.76710   14.43830  254.02640   18.44270   50.98220   95.86140
 3242.50000    0.02480 1376.63780   13.99150  244.51070   20.42710   51.42800   97.93970
 3243.00000    0.03160 1309.07100   13.48330  238.59790   21.15290   52.18760   99.94120
 3243.50000    0.03710 1252.36840   12.98850  234.45530   20.95520   52.87220  100.76760
 3244.00000    0.04150 1247.70040   12.32890  230.37930   20.50820   53.35080  100.76940
 3244.50000    0.04200 1255.89920   11.87750  226.30340   19.71630   53.61130   99.73600
 3245.00000    0.04150 1294.14370   11.42770  222.22740   18.30270   53.59080   98.66550
 3245.50000    0.04020 1293.37960   11.64780  218.15140   16.98060   53.44080   97.60890
 3246.00000    0.03760 1301.28910   12.30110  214.07550   16.32080   53.01740   96.81110
 3246.50000    0.03500 1317.49270   12.95400  209.99950   17.08370   52.55120   96.09550
 3247.00000    0.03080 1316.09620   13.60680  210.87000   19.03020   52.04020   95.37990
 3247.50000    0.02900 1311.24230   14.17690  229.49550   20.84300   51.71210   95.24320
 3248.00000    0.02810 1301.20210   14.12720  248.10130   20.48050   51.64080   95.25050
 3248.50000    0.02800 1295.10490   14.02450  264.44190   19.26920   51.63280   95.30760
 3249.00000    0.02800 1294.92180   13.79590  270.20500   17.32810   51.63130   95.96210
 3249.50000    0.02800 1294.73860   13.55550  268.72780   16.19510   51.65500   96.15060
 3250.00000    0.02960 1294.55550   13.29890  266.43100   17.24480   51.83490   96.15800
 3250.50000    0.03120 1294.37240   13.04280  259.12170   19.37770   52.06270   96.88080
 3251.00000    0.03330 1279.90010   12.78660  251.74080   21.49720   52.33290   97.30940
 3251.50000    0.03580 1286.57480   12.53050  244.04590   22.05010   52.68320   96.00080
 3252.00000    0.03770 1303.21280   12.27440  231.62200   20.65820   53.04700   95.85590
 3252.50000    0.03850 1315.26100   12.02140  219.03310   17.74440   53.12270   96.78840
 3253.00000    0.03830 1315.26100   11.78760  213.27340   15.61620   52.94740   97.51080
 3253.50000    0.03400 1318.91200   11.55370  228.08520   14.51670   52.33950   97.27190
 3254.00000    0.02980 1328.03940   11.32010  246.76140   14.99640   51.64860   96.63780
 3254.50000    0.02630 1335.34130   11.08650  265.43750   16.22540   51.40280   96.14070
 3255.00000    0.02730 1308.56760   10.47560  280.47580   17.86780   51.56810   96.03230
 3255.50000    0.02810 1275.10030    9.85980  297.65170   19.70210   51.63780   96.72490
 3256.00000    0.02960 1281.12450    9.29060  312.18260   19.92950   51.79580   95.82600
 3256.50000    0.03150 1291.16460    9.02260  324.84350   19.04460   52.03990   95.01740
 3257.00000    0.03300 1295.18070    8.81760  333.28050   17.63980   52.33280   95.09750
 3257.50000    0.03440 1295.18070    8.67750  338.86230   16.59030   52.57570   94.76400
 3258.00000    0.03300 1295.18070    8.44530  343.92150   16.13800   52.51700   94.42840
 3258.50000    0.03040 1301.39140    8.06550  348.45100   16.03220   52.00450   94.42840
 3259.00000    0.02770 1316.91780    7.68560  352.98040   15.83280   51.51980   95.02880
 3259.50000    0.02480 1316.14150    7.30600  357.50990   15.47870   51.23540   96.22940
 3260.00000    0.02440 1304.49660    6.92630  357.59840   15.28580   51.16270   97.29980
 3260.50000    0.02440 1295.18070    6.50430  352.62660   15.30670   51.15120   97.34750
 3261.00000    0.02440 1295.18070    5.82560  344.91640   15.61920   51.15010   97.30430
 3261.50000    0.02440 1295.18070    5.14690  337.20610   16.51360   51.14620   97.03130
 3262.00000    0.02290 1295.18070    4.90590  326.29180   16.91420   51.10850   96.63060
 3262.50000    0.02030 1295.18070    4.90590  312.25380   16.94660   50.75870   96.23000
 3263.00000    0.01550 1298.94570    5.30600  300.90080   16.94630   49.99320   95.82930
 3263.50000    0.01070 1317.77100    6.04230  292.37700   16.80750   49.24230   95.40520
 3264.00000    0.01030 1315.26100    6.77850  286.40610   16.38610   49.13840   94.88780
 3264.50000    0.01050 1308.81230    7.64300  280.43530   15.68000   49.19330   94.36800
 3265.00000    0.01290 1317.79110    8.52230  275.11920   14.77470   49.38730   94.44650
 3265.50000    0.01540 1332.31250    9.21500  269.76870   14.47510   49.89730   96.23310
 3266.00000    0.02160 1326.94450    9.80170  263.43140   14.76030   50.70020   96.32130
 3266.50000    0.02750 1321.57620   10.09890  257.14960   15.44050   51.42860   96.35880
 3267.00000    0.03330 1316.20810   10.39040  251.12800   15.96560   52.33710   96.70350
 3267.50000    0.03910 1310.00120   10.04690  245.10650   16.51090   53.18120   97.22840
 3268.00000    0.04370 1300.43950    9.67360  242.19270   17.01460   53.67710   99.20010
 3268.50000    0.04370 1290.87760    8.98730  245.99000   18.08630   53.87340  101.49170
 3269.00000    0.04250 1285.14050    8.28720  253.37950   19.34930   53.66340  101.97920
 3269.50000    0.04190 1290.16060    7.58700  273.73990   20.20810   53.57730  100.97040
 3270.00000    0.03900 1295.18070    6.88700  309.53400   20.02640   53.16850   99.90450
 3270.50000    0.03400 1291.33540    6.64080  341.43890   18.31790   52.34100   97.78730
 3271.00000    0.02660 1281.72710    7.04650  341.39490   16.82950   51.32200   95.60020
 3271.50000    0.01940 1256.50170    7.78230  338.22110   16.13900   50.31120   94.08770
 3272.00000    0.01460 1258.31670    8.51810  329.11810   16.14250   49.58290   93.30400
 3272.50000    0.01380 1260.13150    9.25390  320.01500   15.99370   49.60960   93.21200
 3273.00000    0.01950 1263.51070    9.98960  310.91200   14.94010   50.48790   93.60090
 3273.50000    0.02320 1266.89030   10.75800  303.84280   13.33690   51.01620   94.26070
 3274.00000    0.02470 1270.26950   11.68120  301.59050   12.84330   51.19050   94.38370
 3274.50000    0.02640 1273.64880   12.48120  298.82680   13.91100   51.37170   94.66580
 3275.00000    0.02950 1277.02820   13.18310  293.50290   16.09470   51.73020   95.12390
 3275.50000    0.03110 1280.40750   13.22300  288.17910   18.56610   52.03790   95.17720
 3276.00000    0.03090 1283.78670   12.54800  282.85520   19.82340   52.08670   95.14840
 3276.50000    0.03080 1285.13850   11.87240  282.04980   19.84200   52.11250   95.41020
 3277.00000    0.03420 1285.13850   11.23570  292.33150   19.20080   52.67100   96.09470
 3277.50000    0.04290 1285.13850   10.62770  311.40260   18.26800   53.79340   96.95890
 3278.00000    0.04640 1285.13850    9.96530  311.69130   17.23880   54.04890   98.29890
 3278.50000    0.04210 1285.13850    9.13970  311.21310   16.02190   53.50120   98.21140
 3279.00000    0.03710 1285.13850    8.30440  306.93640   15.68660   52.93990   97.47430
 3279.50000    0.03340 1285.13850    7.46860  305.72640   16.03120   52.30720   96.73140
 3280.00000    0.02670 1285.13850    6.63280  305.22630   15.89060   51.24810   95.41260
 3280.50000    0.02040 1285.13850    5.79690  319.78210   15.16840   50.25730   94.04300
 3281.00000    0.01420 1285.13850    5.10820  343.11970   13.80510   49.55900   92.99010
 3281.50000    0.01230 1285.13850    5.86140  349.48710   12.71220   49.42900   93.37990
 3282.00000    0.01450 1285.13850    6.76670  355.85460   12.66120   49.69140   94.18110
 3282.50000    0.01790 1285.13850    7.75890  359.27230   13.45660   50.19140   94.19110
 3283.00000    0.02180 1285.13850    8.75140  358.60350   14.81040   50.93320   94.51600
 3283.50000    0.02980 1285.13850    9.74420  356.48990   15.67040   51.64090   95.18310
 3284.00000    0.02860 1285.13850   10.59070  348.69770   16.22390   51.84660   95.63840
 3284.50000    0.02650 1285.13850   11.27460  339.82240   16.73970   51.50550   95.45060
