~Version ---------------------------------------------------
VERS.   2.0 : CWLS log ASCII Standard -VERSION 2.0
WRAP.    NO : One line per depth step
DLM . SPACE : Column Data Section Delimiter
~Well ------------------------------------------------------
STRT .F                 100.0 : START DEPTH
STOP .F                3870.0 : STOP DEPTH
STEP .F                   0.5 : STEP
NULL .               -9999.25 : NULL VALUE
COMP .                        : COMPANY
WELL .                        : WELL
FLD  .                        : FIELD
LOC  .                        : LOCATION
PROV .                        : PROVINCE
CNTY .                        : COUNTY
STAT .                        : STATE
CTRY .                        : COUNTRY
SRVC .                        : SERVICE COMPANY
DATE .                        : DATE
UWI  .                        : UNIQUE WELL ID
API  .                        : API NUMBER
SLAT .WGS84 2.635837888424696 : SURFACE LATITUDE
SLON .WGS84  7.82090469736201 : SURFACE LONGITUDE
DATUM.F               3435.28 : DEPTH DATUM ELEV
~Curve Information -----------------------------------------
DEPT.F     : 
GRD .GAPI  : GAMMA RAY
NPHI.DEC   : NEUTRON POROSITY LIMESTONE
PEF .B/E   : PHOTOELECTRIC FACTOR
DCOR.G/C3  : DENSITY CORRECTION
DPHI.DEC   : DENSITY POROSITY LIMESTONE
CALD.IN    : CALIPER
RHOB.G/C3  : BULK DENSITY
DTCO.US/F  : COMPRESSIONAL-WAVE INTERVAL TRANSIT TIME ACOUSTIC SLOWNESS
DTSM.US/F  : SHEAR-WAVE INTERVAL TRANSIT TIME DELTA-T
LLD .OHMM  : LATEROLOG LOG DEEP
LLS .OHMM  : LATEROLO LOG SHALLOW
MSFL.OHMM  : MICRO SPHERICALLY FOCUSED
~Params ----------------------------------------------------
~Other -----------------------------------------------------
~ASCII -----------------------------------------------------
# ...
 3460.00000   97.64780    0.10350    2.86900    0.03430    0.07850    8.47030    2.59100   53.54700  102.53450   48.42390   49.84420   17.36920
 3460.50000  120.25830    0.10830    2.80760    0.03710    0.07830    8.47640    2.63760   54.10870  104.72850   48.45680   47.97890   34.63150
 3461.00000  129.80200    0.10390    2.74630    0.04180    0.05720    8.48310    2.69630   54.62790  104.57070   57.67440   49.88290   34.52210
 3461.50000  112.23570    0.09340    2.70110    0.05110    0.02690    8.48990    2.76530   54.97590  103.00840   75.25640   62.21600   39.97560
 3462.00000   77.15160    0.07870    2.73060    0.06030   -0.01320    8.49670    2.79250   55.05880  101.05150  100.17720   82.72850  204.85390
 3462.50000   54.08950    0.06920    2.80770    0.06720   -0.04170    8.50350    2.75240   54.92790   99.80300  140.29110  113.07040 1771.16610
 3463.00000   46.91730    0.06270    2.91850    0.06420   -0.04510    8.51020    2.69760   54.76520   99.13280  196.46790  158.34580  619.76360
 3463.50000   51.24300    0.06510    2.94830    0.05290   -0.02070    8.51700    2.64820   54.50450   99.35840  219.10160  204.51850  256.44360
 3464.00000   56.82290    0.07360    2.95100    0.04530    0.01420    8.52380    2.62540   54.59510   99.46100  220.28850  205.03870  207.57360
 3464.50000   59.74510    0.08430    2.92930    0.03450    0.04170    8.52840    2.61710   54.63520  100.17770  186.39710  157.04990  187.44970
 3465.00000   61.07780    0.09340    2.87560    0.03450    0.05540    8.52790    2.60780   54.67530  100.17770  142.76730  120.29270  136.81210
 3465.50000   66.63190    0.10410    2.82370    0.03500    0.06070    8.52700    2.60610   54.61980   98.33610  109.34990   87.45340   80.38960
 3466.00000   72.61350    0.11780    2.79350    0.03570    0.06440    8.53100    2.61560   54.46400   94.34750   86.43750   67.10940   45.12380
 3466.50000   73.09340    0.12960    2.77240    0.03660    0.06410    8.53730    2.63870   54.22940   91.35340   79.50170   65.38210   34.43290
 3467.00000   60.62300    0.12500    2.78620    0.03770    0.05480    8.53850    2.67810   53.95930   90.63050   80.57760   65.36810   34.52070
 3467.50000   47.96570    0.11050    2.82910    0.04050    0.03600    8.55820    2.70440   53.73890   91.65600   96.89960   78.34660   47.47180
 3468.00000   42.70130    0.09620    2.86040    0.04550    0.01540    8.58560    2.69930   53.45960   94.02010  126.83180   94.41710  230.73180
 3468.50000   51.94390    0.08080    2.88120    0.05030    0.00310    8.60550    2.68130   53.29410   96.98340  163.92320  113.78410 1630.86880
 3469.00000   65.53090    0.07490    2.90200    0.04970    0.00600    8.61540    2.65110   53.18680  100.78230  175.77470  127.67830  291.87580
 3469.50000   76.24290    0.07820    2.83490    0.04630    0.02200    8.62020    2.63120   53.27360  106.60660  162.67480  116.89900  115.03090
 3470.00000   83.31810    0.08660    2.75920    0.04340    0.03780    8.61850    2.61550   53.53620  110.73550  122.54540   96.38850  104.49100
 3470.50000   84.73580    0.09610    2.71400    0.04140    0.05520    8.62310    2.59630   53.93530  113.87740   92.31540   69.19280   92.58620
 3471.00000   92.35420    0.10340    2.72440    0.03930    0.06730    8.62110    2.58770   54.39900  116.46810   69.54270   49.67020   69.33430
 3471.50000  109.06590    0.10990    2.74530    0.03860    0.07410    8.62040    2.57720   54.92530  116.88670   53.63700   40.21140   49.64010
 3472.00000  118.36440    0.11730    2.76680    0.03630    0.07900    8.61690    2.57360   55.44720  116.90170   46.74930   36.52770   37.71130
 3472.50000  117.94700    0.12320    2.76810    0.03410    0.08400    8.61440    2.58150   55.96170  117.03180   41.30780   33.95960   33.42210
 3473.00000  108.06950    0.12380    2.74390    0.03470    0.08430    8.61330    2.60290   56.61280  117.37810   40.35860   33.36930   31.23700
 3473.50000   99.88220    0.12240    2.72640    0.03670    0.07630    8.61630    2.61880   57.81320  118.27590   40.32740   33.36670   35.81060
 3474.00000   91.69500    0.12060    2.75170    0.03890    0.06300    8.62350    2.62700   59.71770  119.02320   39.99690   32.30340   44.78450
 3474.50000   96.12210    0.11990    2.79220    0.04200    0.05280    8.62720    2.62920   62.73900  119.63240   39.20940   30.83040   41.43000
 3475.00000  102.34000    0.12430    2.83270    0.04470    0.04950    8.63080    2.63050   66.18730  119.59720   37.70580   29.82430   38.35460
 3475.50000  109.31920    0.13390    2.85570    0.04120    0.05110    8.62420    2.63260   68.86050  118.99290   36.25980   28.85100   35.75300
 3476.00000  111.58220    0.13590    2.81590    0.04130    0.04980    8.62320    2.63680   71.08430  117.61500   35.03350   28.32470   35.53680
 3476.50000  109.22350    0.13190    2.73970    0.04320    0.04460    8.62820    2.63450   72.66870  115.90360   34.86080   28.49580   35.76940
 3477.00000  103.17500    0.12350    2.68820    0.04190    0.04390    8.63320    2.62570   72.80880  114.32950   38.32610   29.47630   38.51920
 3477.50000   96.15830    0.11550    2.67690    0.03830    0.04790    8.64240    2.61800   72.16400  113.27070   45.91130   32.56610   46.64250
 3478.00000   89.14170    0.11080    2.66560    0.03120    0.05380    8.64250    2.60660   71.14300  113.15620   53.52780   36.75820   65.52340
 3478.50000   84.44420    0.10780    2.68670    0.03230    0.06030    8.64230    2.59560   69.78960  113.32590   55.17050   41.49000   80.62240
 3479.00000   84.03720    0.10780    2.72310    0.03230    0.06870    8.64270    2.57400   68.40900  114.33760   53.43790   43.97780   61.93920
 3479.50000   89.02720    0.11000    2.75960    0.02920    0.08030    8.64290    2.55340   67.31680  115.43920   49.89980   40.76300   51.32100
 3480.00000   99.14110    0.11330    2.76640    0.02770    0.09240    8.63770    2.55530   66.85170  116.11540   46.48640   36.39280   46.17830
 3480.50000  104.11580    0.11510    2.74690    0.02730    0.09750    8.62790    2.56430   66.44410  116.19420   44.54150   32.49110   43.15130
 3481.00000  100.44570    0.11160    2.65000    0.03000    0.09370    8.62150    2.57840   65.40290  113.73410   45.36170   32.93580   44.50260
 3481.50000   82.23200    0.10410    2.60450    0.03120    0.08490    8.62250    2.58940   63.28000  108.66670   50.33510   38.81590   47.77680
 3482.00000   70.78590    0.09590    2.58480    0.03240    0.07530    8.62240    2.58660   59.59980  102.28360   62.50940   46.38130   70.95320
 3482.50000   64.63510    0.08810    2.56510    0.03360    0.07380    8.61510    2.56950   55.18280   95.24700   77.62830   55.42130   95.94940
 3483.00000   60.74400    0.08470    2.54710    0.03480    0.08190    8.59470    2.55180   52.02870   95.98410   85.63980   62.74380   70.44190
 3483.50000   57.29340    0.08820    2.53550    0.03350    0.09750    8.58240    2.52980   52.28840   99.70410   84.85640   63.08640   26.25250
 3484.00000   54.89020    0.09790    2.52390    0.03200    0.10890    8.57930    2.52330   53.59270  104.67220   79.45520   56.33320   15.52570
 3484.50000   58.58500    0.10870    2.51070    0.03080    0.11420    8.57790    2.53340   55.27460  107.16000   73.30280   49.84690   19.11100
 3485.00000   62.83930    0.10950    2.51280    0.03070    0.11200    8.57660    2.54720   57.25770  107.52570   70.97120   47.98370   42.54930
 3485.50000   65.70950    0.10870    2.52910    0.03050    0.10520    8.57100    2.56660   58.86860  107.66580   74.31050   48.10950   42.14860
 3486.00000   66.62540    0.10690    2.55050    0.03210    0.09230    8.56320    2.58120   60.06070  107.21030   84.76140   51.43200   56.75300
 3486.50000   64.77330    0.10430    2.56630    0.03380    0.08080    8.55540    2.59970   60.88820  106.53320  102.98130   63.68040  109.85830
 3487.00000   62.15400    0.09680    2.58210    0.03480    0.06910    8.54910    2.62020   61.28210  105.29530  125.11770   81.22900  161.38760
 3487.50000   54.53430    0.08510    2.61220    0.03590    0.05500    8.54280    2.64340   61.36200  104.30160  146.34350  101.21040  327.54900
