~Version ---------------------------------------------------
VERS.   2.0 : CWLS log ASCII Standard -VERSION 2.0
WRAP.    NO : One line per depth step
DLM . SPACE : Column Data Section Delimiter
~Well ------------------------------------------------------
STRT .F                 100.0 : START DEPTH
STOP .F                3870.0 : STOP DEPTH
STEP .F                   0.5 : STEP
NULL .               -9999.25 : NULL VALUE
COMP .                        : COMPANY
WELL .                        : WELL
FLD  .                        : FIELD
LOC  .                        : LOCATION
PROV .                        : PROVINCE
CNTY .                        : COUNTY
STAT .                        : STATE
CTRY .                        : COUNTRY
SRVC .                        : SERVICE COMPANY
DATE .                        : DATE
UWI  .                        : UNIQUE WELL ID
API  .                        : API NUMBER
SLAT .WGS84 2.635837888424696 : SURFACE LATITUDE
SLON .WGS84  7.82090469736201 : SURFACE LONGITUDE
DATUM.F               3435.28 : DEPTH DATUM ELEV
~Curve Information -----------------------------------------
DEPT.F     : 
GRD .GAPI  : GAMMA RAY
NPHI.DEC   : NEUTRON POROSITY LIMESTONE
PEF .B/E   : PHOTOELECTRIC FACTOR
DCOR.G/C3  : DENSITY CORRECTION
DPHI.DEC   : DENSITY POROSITY LIMESTONE
CALD.IN    : CALIPER
RHOB.G/C3  : BULK DENSITY
DTCO.US/F  : COMPRESSIONAL-WAVE INTERVAL TRANSIT TIME ACOUSTIC SLOWNESS
DTSM.US/F  : SHEAR-WAVE INTERVAL TRANSIT TIME DELTA-T
LLD .OHMM  : LATEROLOG LOG DEEP
LLS .OHMM  : LATEROLO LOG SHALLOW
MSFL.OHMM  : MICRO SPHERICALLY FOCUSED
~Params ----------------------------------------------------
~Other -----------------------------------------------------
~ASCII -----------------------------------------------------
# ...
 2956.00000   28.75810    0.01220    3.22150    0.03590   -0.07240    9.75500    2.83720   -9999.25   -9999.25  559.95230  481.52420 2013.31040
 2956.50000   25.01290    0.00380    3.25540    0.03790   -0.09150    9.77950    2.87580   -9999.25   -9999.25  460.20740  431.04220  589.45720
 2957.00000   20.05360   -0.00020    3.44980    0.04160   -0.11550    9.80650    2.91880   -9999.25   -9999.25  442.43230  430.94360  189.05030
 2957.50000   12.88460   -0.00290    3.84640    0.04530   -0.13980    9.81390    2.94730   -9999.25   -9999.25  496.86570  460.68010  311.73610
 2958.00000    8.58260   -0.00290    4.83390    0.04550   -0.14990    9.82270    2.94540   -9999.25   -9999.25  531.90920  515.13660  980.82160
 2958.50000    8.24500   -0.00070    5.45590    0.04350   -0.14210    9.83250    2.93260   -9999.25   -9999.25  522.24330  489.57750 2020.70720
 2959.00000   10.29670    0.00190    5.72690    0.04150   -0.13330    9.82840    2.92300   -9999.25   -9999.25  437.97370  355.87710 1450.61040
 2959.50000   13.18690    0.00440    5.55930    0.03840   -0.12790    9.83020    2.91670   -9999.25   -9999.25  304.72340  247.59240  114.44060
 2960.00000   14.17580    0.00750    5.28950    0.03540   -0.12500    9.83220    2.91160   -9999.25   -9999.25  222.09430  206.26190   89.47470
 2960.50000   13.48660    0.01300    4.91070    0.03370   -0.12110    9.83420    2.90570   -9999.25   -9999.25  212.17270  206.21460  402.69580
 2961.00000   12.38880    0.01910    4.65500    0.03200   -0.11760    9.83630    2.89710   -9999.25   -9999.25  230.03070  212.60370 2067.85470
 2961.50000   14.14150    0.02930    4.25820    0.03000   -0.11260    9.84630    2.88140   -9999.25   -9999.25  263.65410  242.86900 1632.76710
 2962.00000   16.64470    0.04790    3.85410    0.02710   -0.10390    9.86080    2.85390   -9999.25   -9999.25  274.03910  264.40060  454.51100
 2962.50000   18.49750    0.06440    3.47710    0.02740   -0.07330    9.86370    2.79900   -9999.25   -9999.25  247.93230  215.50590  244.36180
 2963.00000   19.79080    0.07630    3.28140    0.03240   -0.05200    9.86640    2.78310   -9999.25   -9999.25  194.43570  169.00470  166.04160
 2963.50000   20.28120    0.07910    3.25770    0.03300   -0.04220    9.88750    2.77790   -9999.25   -9999.25  155.29790  149.66660  110.97350
 2964.00000   20.25480    0.07630    3.25730    0.03500   -0.04170    9.89780    2.78290   -9999.25   -9999.25  148.34240  142.96420  104.44350
 2964.50000   18.96740    0.06430    3.29590    0.03710   -0.04660    9.90610    2.79710   -9999.25   -9999.25  161.00290  149.60700  113.22700
 2965.00000   21.16120    0.05130    3.34220    0.04100   -0.05830    9.91670    2.81580   -9999.25   -9999.25  202.31010  177.29010  242.15280
 2965.50000   24.01620    0.03950    3.40050    0.04490   -0.07210    9.93120    2.84070   -9999.25   -9999.25  254.21510  222.76050  688.14670
 2966.00000   26.12680    0.02940    3.47600    0.04700   -0.08450    9.94580    2.86060   -9999.25   -9999.25  287.96590  273.18550 1591.13980
 2966.50000   27.20050    0.02670    3.57550    0.04880   -0.09950    9.96030    2.87950   -9999.25   -9999.25  295.66550  262.37920  912.72110
 2967.00000   27.82270    0.02720    3.61130    0.04960   -0.10470    9.97300    2.88040   -9999.25   -9999.25  217.42410  169.46400  713.56040
 2967.50000   30.05200    0.02970    3.73480    0.04540   -0.10450    9.98030    2.85790   -9999.25   -9999.25  140.45790  109.45240  239.59160
 2968.00000   31.18660    0.03370    3.87840    0.03890   -0.09430    9.97680    2.85790   -9999.25   -9999.25   90.73700   78.38550   46.93450
 2968.50000   29.71470    0.03640    4.02190    0.03490   -0.09610    9.97620    2.87570   -9999.25   -9999.25   67.45170   74.31250   47.66370
 2969.00000   24.65040    0.03620    4.21350    0.03950   -0.10460    9.97570    2.89380   -9999.25   -9999.25   67.97860   75.60890  124.97540
 2969.50000   21.94480    0.03470    4.58720    0.04420   -0.11910    9.97940    2.90080   -9999.25   -9999.25   73.18080   83.82770  268.22670
 2970.00000   24.92300    0.03290    5.26730    0.04400   -0.11370    9.98390    2.88470   -9999.25   -9999.25   84.43340   98.20390  107.50960
 2970.50000   28.68780    0.02930    5.28500    0.04000   -0.10350    9.98840    2.86390   -9999.25   -9999.25   97.41620  115.04560   50.82270
 2971.00000   27.45330    0.02120    5.27720    0.04180   -0.09530    9.99160    2.87770   -9999.25   -9999.25  112.39540  140.91890   50.64090
 2971.50000   19.17630    0.01490    5.08710    0.04700   -0.10740    9.98800    2.90440   -9999.25   -9999.25  144.30810  178.56600  149.84070
 2972.00000   14.29230    0.01020    5.02180    0.05220   -0.12950    9.98440    2.94280   -9999.25   -9999.25  194.63670  226.27080  846.48300
 2972.50000   10.90410    0.00990    5.01970    0.04990   -0.14340    9.97850    2.94540   -9999.25   -9999.25  260.87300  286.72020 1981.36680
 2973.00000   11.65030    0.01280    5.01300    0.04650   -0.14770    9.97340    2.92930   -9999.25   -9999.25  301.01140  341.60210 1022.05780
 2973.50000   15.09530    0.02790    4.98420    0.04320   -0.12820    9.97570    2.89830   -9999.25   -9999.25  230.63780  303.43180  204.91620
 2974.00000   20.14010    0.04250    4.96850    0.03800   -0.10780    9.98000    2.86380   -9999.25   -9999.25  148.33690  196.45050  130.01530
 2974.50000   24.34630    0.06580    4.97030    0.03100   -0.08180    9.98180    2.82800   -9999.25   -9999.25  102.53230  127.18770   91.35730
 2975.00000   27.90810    0.07760    5.01940    0.03010   -0.06210    9.97770    2.80420   -9999.25   -9999.25   71.25590   80.15730   53.30560
 2975.50000   29.95040    0.06270    5.08400    0.02960   -0.05440    9.97360    2.79490   -9999.25   -9999.25   64.66830   70.04690   39.17380
 2976.00000   27.82590    0.03430    4.99740    0.03130   -0.06190    9.97200    2.82360   -9999.25   -9999.25   76.11860   80.17210   43.96940
 2976.50000   20.48670    0.01890    4.89290    0.03730   -0.08430    9.96120    2.87160   -9999.25   -9999.25  102.34060  106.35080  129.94930
 2977.00000   13.10830    0.00960    4.98770    0.04330   -0.10830    9.96930    2.90200   -9999.25   -9999.25  145.98610  141.07770  842.54320
 2977.50000    9.14890    0.00720    5.09060    0.04390   -0.13260    9.95790    2.93630   -9999.25   -9999.25  264.96090  188.35040 2021.46500
 2978.00000   10.49020    0.01030    4.98400    0.04330   -0.13960    9.93620    2.92150   -9999.25   -9999.25  480.89730  341.78610 2009.39710
 2978.50000   16.25330    0.01440    4.67460    0.04270   -0.12060    9.92090    2.87990   -9999.25   -9999.25  788.24730  620.21460 1997.40030
 2979.00000   24.81040    0.02140    4.22740    0.04210   -0.09450    9.92400    2.84010   -9999.25   -9999.25  932.48820  871.07280 1420.27090
 2979.50000   31.78580    0.02100    3.83930    0.04210   -0.07510    9.92550    2.82180   -9999.25   -9999.25  830.13040  778.86140  576.36120
 2980.00000   35.20170    0.01470    3.65820    0.04460   -0.07130    9.92420    2.84520   -9999.25   -9999.25  794.81260  714.40980  799.96530
 2980.50000   33.44920    0.00820    3.51400    0.04710   -0.08040    9.92280    2.86960   -9999.25   -9999.25  885.95670  723.45850 2025.77530
 2981.00000   26.09160    0.00410    3.56540    0.04970   -0.09610    9.91920    2.89350   -9999.25   -9999.25 1191.95430  922.81090 2025.83200
 2981.50000   18.77470    0.00160    3.72960    0.05220   -0.12890    9.91570    2.93560   -9999.25   -9999.25 1760.71530 1384.90010 2024.18680
 2982.00000   11.30790    0.00080    4.08050    0.05470   -0.15110    9.91300    2.95800   -9999.25   -9999.25 2714.12450 2284.71340 2022.54380
 2982.50000   10.20740    0.00060    4.56380    0.05200   -0.15320    9.91440    2.95080   -9999.25   -9999.25 4468.78910 3184.52640 2020.90120
 2983.00000   11.50450    0.00120    4.91450    0.04540   -0.14280    9.91580    2.92640   -9999.25   -9999.25 7342.41650 5752.40920 2019.26000
 2983.50000   13.03880    0.00370    4.77040    0.03880   -0.13080    9.91720    2.91590   -9999.25   -9999.25 8070.14940 7385.26760 2017.62000
