~Version ---------------------------------------------------
VERS.   2.0 : CWLS log ASCII Standard -VERSION 2.0
WRAP.    NO : One line per depth step
DLM . SPACE : Column Data Section Delimiter
~Well ------------------------------------------------------
STRT .F                 100.0 : START DEPTH
STOP .F                3870.0 : STOP DEPTH
STEP .F                   0.5 : STEP
NULL .               -9999.25 : NULL VALUE
COMP .                        : COMPANY
WELL .                        : WELL
FLD  .                        : FIELD
LOC  .                        : LOCATION
PROV .                        : PROVINCE
CNTY .                        : COUNTY
STAT .                        : STATE
CTRY .                        : COUNTRY
SRVC .                        : SERVICE COMPANY
DATE .                        : DATE
UWI  .                        : UNIQUE WELL ID
API  .                        : API NUMBER
SLAT .WGS84 2.635837888424696 : SURFACE LATITUDE
SLON .WGS84  7.82090469736201 : SURFACE LONGITUDE
DATUM.F               3435.28 : DEPTH DATUM ELEV
~Curve Information -----------------------------------------
DEPT.F     : 
GRD .GAPI  : GAMMA RAY
NPHI.DEC   : NEUTRON POROSITY LIMESTONE
PEF .B/E   : PHOTOELECTRIC FACTOR
DCOR.G/C3  : DENSITY CORRECTION
DPHI.DEC   : DENSITY POROSITY LIMESTONE
CALD.IN    : CALIPER
RHOB.G/C3  : BULK DENSITY
DTCO.US/F  : COMPRESSIONAL-WAVE INTERVAL TRANSIT TIME ACOUSTIC SLOWNESS
DTSM.US/F  : SHEAR-WAVE INTERVAL TRANSIT TIME DELTA-T
LLD .OHMM  : LATEROLOG LOG DEEP
LLS .OHMM  : LATEROLO LOG SHALLOW
MSFL.OHMM  : MICRO SPHERICALLY FOCUSED
~Params ----------------------------------------------------
~Other -----------------------------------------------------
~ASCII -----------------------------------------------------
# ...
 2480.00000   28.18280    0.14190    3.41430    0.03360   -0.06330    9.77750    2.80630   -9999.25   -9999.25   17.13900   19.99230   24.13300
 2480.50000   27.21250    0.15260    3.38180    0.03420   -0.05720    9.81570    2.79790   -9999.25   -9999.25   16.99330   19.45590   15.91220
 2481.00000   25.06630    0.16050    3.12020    0.03490   -0.04680    9.82510    2.77660   -9999.25   -9999.25   17.18800   19.45820   11.73860
 2481.50000   25.03290    0.14910    2.79060    0.03680   -0.04090    9.83450    2.78260   -9999.25   -9999.25   17.68070   21.12240   15.17070
 2482.00000   27.91650    0.12810    2.68890    0.03900   -0.04520    9.83870    2.78830   -9999.25   -9999.25   19.59750   23.20430   21.48630
 2482.50000   36.82990    0.10880    2.64660    0.04070   -0.05150    9.84130    2.79520   -9999.25   -9999.25   23.76610   27.09710   56.82730
 2483.00000   47.85460    0.09280    2.93730    0.03990   -0.05680    9.84310    2.80520   -9999.25   -9999.25   28.70810   31.64290  129.34650
 2483.50000   48.16950    0.07880    3.42810    0.03960   -0.06570    9.85670    2.82310   -9999.25   -9999.25   34.27770   37.43470   36.17020
 2484.00000   39.02820    0.06400    3.65910    0.03920   -0.07680    9.87900    2.84450   -9999.25   -9999.25   40.30110   42.66190   18.82670
 2484.50000   23.16210    0.04720    3.71540    0.03880   -0.08690    9.90130    2.85550   -9999.25   -9999.25   44.93810   47.57110   23.48330
 2485.00000   15.47910    0.03120    3.50760    0.03850   -0.09660    9.91750    2.88970   -9999.25   -9999.25   50.10850   53.04520  110.94250
 2485.50000   11.43020    0.02720    3.43230    0.03900   -0.11830    9.93240    2.91160   -9999.25   -9999.25   55.31680   57.94430 1652.01870
 2486.00000   12.04520    0.03340    4.20550    0.03780   -0.12300    9.94740    2.89420   -9999.25   -9999.25   56.39030   57.77700  372.45390
 2486.50000   16.77180    0.05690    5.06800    0.03210   -0.10460    9.96230    2.85450   -9999.25   -9999.25   46.75410   51.48700   44.91530
 2487.00000   23.39500    0.08210    4.92190    0.02640   -0.07560    9.98420    2.82070   -9999.25   -9999.25   37.56900   41.99330   22.70520
 2487.50000   28.29230    0.09670    4.66470    0.02430   -0.05400   10.00030    2.78760   -9999.25   -9999.25   32.52490   34.17120   29.22990
 2488.00000   28.48530    0.09810    4.60120    0.03040   -0.04860   10.01630    2.78880   -9999.25   -9999.25   30.05650   31.17370   29.71740
 2488.50000   26.36540    0.08630    4.55740    0.03670   -0.05490   10.03250    2.80740   -9999.25   -9999.25   29.88050   32.00520   31.80890
 2489.00000   24.35020    0.07370    4.51350    0.03890   -0.06800   10.04860    2.82950   -9999.25   -9999.25   34.45220   37.36690   50.96550
 2489.50000   22.63170    0.06450    4.63310    0.04160   -0.08130   10.06520    2.84950   -9999.25   -9999.25   40.54400   43.97270   46.90930
 2490.00000   20.97920    0.06410    4.74470    0.04480   -0.09500   10.09160    2.86760   -9999.25   -9999.25   46.42850   49.03570   45.98040
 2490.50000   19.98700    0.06680    4.80290    0.04530   -0.10140   10.11660    2.87330   -9999.25   -9999.25   47.07730   49.37120   67.26990
 2491.00000   19.82410    0.07300    4.77710    0.04190   -0.10180   10.11670    2.86730   -9999.25   -9999.25   39.03540   42.86930   35.01930
 2491.50000   19.30000    0.08070    4.68800    0.03800   -0.09290   10.12910    2.85240   -9999.25   -9999.25   32.71890   35.54430   13.32750
 2492.00000   17.26060    0.08610    4.47850    0.03580   -0.08520   10.14560    2.84730   -9999.25   -9999.25   28.81650   30.76900    5.86010
 2492.50000   16.08560    0.09030    4.33250    0.03510   -0.08300   10.15680    2.84440   -9999.25   -9999.25   26.41220   27.51650    8.14810
 2493.00000   15.98790    0.10110    4.32190    0.03530   -0.08060   10.16730    2.83530   -9999.25   -9999.25   23.43320   25.35430  116.07980
 2493.50000   18.73600    0.11670    4.62490    0.03070   -0.05640   10.17080    2.79710   -9999.25   -9999.25   20.05670   21.70140   23.91570
 2494.00000   22.09280    0.13570    4.71620    0.02600   -0.04210   10.17330    2.77000   -9999.25   -9999.25   17.34210   18.57490   13.75110
 2494.50000   24.69690    0.13110    4.73570    0.02550   -0.02920   10.17740    2.75750   -9999.25   -9999.25   16.86360   17.39320   11.14740
 2495.00000   25.20810    0.10310    4.63100    0.03050   -0.03290   10.17570    2.77780   -9999.25   -9999.25   18.80580   20.82360   16.92750
 2495.50000   22.82960    0.07050    4.61750    0.03550   -0.04740   10.17350    2.80350   -9999.25   -9999.25   21.36010   22.19270   36.58010
 2496.00000   20.18770    0.03780    4.89650    0.04140   -0.07720   10.17130    2.84760   -9999.25   -9999.25   27.63630   35.15810   57.07570
 2496.50000   16.12590    0.02360    5.21210    0.04540   -0.09590   10.17200    2.89060   -9999.25   -9999.25   45.22620   57.53580   61.61610
 2497.00000   12.38000    0.01780    5.47470    0.04700   -0.12020   10.17470    2.90770   -9999.25   -9999.25   72.76300   87.76690  163.86090
 2497.50000   10.44990    0.01710    5.62230    0.04850   -0.12990   10.17280    2.92350   -9999.25   -9999.25  101.61860  105.36100 1809.85860
 2498.00000   11.72870    0.02810    5.39840    0.04820   -0.12710   10.17270    2.90330   -9999.25   -9999.25  104.83820  107.20920  568.32090
 2498.50000   17.18550    0.05080    5.01790    0.04140   -0.11300   10.17050    2.87050   -9999.25   -9999.25   69.68050   89.43160  108.26030
 2499.00000   21.96060    0.07650    4.52840    0.03450   -0.08490   10.16990    2.81650   -9999.25   -9999.25   41.81670   53.67300   25.22460
 2499.50000   24.88230    0.10050    4.14730    0.03150   -0.06060   10.16980    2.79740   -9999.25   -9999.25   31.66030   35.70680    9.12260
 2500.00000   23.26640    0.10930    3.71060    0.03640   -0.05780   10.16970    2.80750   -9999.25   -9999.25   25.07090   27.99770    8.19170
 2500.50000   19.85660    0.10960    3.36020    0.04140   -0.06780   10.16960    2.82550   -9999.25   -9999.25   23.25690   24.27130   14.57310
 2501.00000   18.79220    0.10690    3.16230    0.04650   -0.08370   10.16940    2.86040   -9999.25   -9999.25   22.38630   23.17580   46.74770
 2501.50000   22.40630    0.10690    3.23890    0.04590   -0.09360   10.16930    2.85570   -9999.25   -9999.25   24.01210   25.11800   67.67230
 2502.00000   26.68550    0.11600    3.65290    0.04460   -0.08840   10.16950    2.84310   -9999.25   -9999.25   25.92930   26.70060   12.94310
 2502.50000   29.74620    0.13020    4.05640    0.03910   -0.07620   10.17020    2.83170   -9999.25   -9999.25   26.88890   27.49700   12.61610
 2503.00000   29.10400    0.13540    3.93970    0.03420   -0.07320   10.17080    2.82740   -9999.25   -9999.25   25.57320   27.33130   25.39520
 2503.50000   25.77770    0.13690    3.83070    0.03720   -0.07290   10.15640    2.82020   -9999.25   -9999.25   22.47190   24.01750   34.94190
 2504.00000   25.81570    0.14060    3.85620    0.03280   -0.06380   10.14880    2.79020   -9999.25   -9999.25   19.74630   21.10550   26.44310
 2504.50000   28.06540    0.14740    3.90920    0.02950   -0.04520   10.15020    2.77340   -9999.25   -9999.25   17.31930   18.52730   16.46610
 2505.00000   32.50970    0.15740    3.95400    0.02750   -0.02890   10.15160    2.74400   -9999.25   -9999.25   15.19060   16.25060   13.25300
 2505.50000   38.96840    0.16990    3.99880    0.02440   -0.00950   10.15290    2.70650   -9999.25   -9999.25   14.57200   15.06600   18.35580
 2506.00000   46.15580    0.19260    4.03710    0.02210    0.01380   10.15430    2.66810   -9999.25   -9999.25   13.66450   14.19850   25.63970
 2506.50000   51.62730    0.21270    4.02370    0.01980    0.03840   10.15570    2.62130   -9999.25   -9999.25   12.00980   12.85970   12.20980
 2507.00000   51.57010    0.22650    3.95900    0.02170    0.06110   10.15460    2.59340   -9999.25   -9999.25   10.51080   11.25510    8.94040
 2507.50000   49.32530    0.21060    3.91450    0.02510    0.07150   10.15270    2.61130   -9999.25   -9999.25    9.62100    9.85080    7.67330
