~Version ---------------------------------------------------
VERS.   2.0 : CWLS log ASCII Standard -VERSION 2.0
WRAP.    NO : One line per depth step
DLM . SPACE : Column Data Section Delimiter
~Well ------------------------------------------------------
STRT .F                 100.0 : START DEPTH
STOP .F                3870.0 : STOP DEPTH
STEP .F                   0.5 : STEP
NULL .               -9999.25 : NULL VALUE
COMP .                        : COMPANY
WELL .                        : WELL
FLD  .                        : FIELD
LOC  .                        : LOCATION
PROV .                        : PROVINCE
CNTY .                        : COUNTY
STAT .                        : STATE
CTRY .                        : COUNTRY
SRVC .                        : SERVICE COMPANY
DATE .                        : DATE
UWI  .                        : UNIQUE WELL ID
API  .                        : API NUMBER
SLAT .WGS84 2.635837888424696 : SURFACE LATITUDE
SLON .WGS84  7.82090469736201 : SURFACE LONGITUDE
DATUM.F               3435.28 : DEPTH DATUM ELEV
~Curve Information -----------------------------------------
DEPT.F     : 
GRD .GAPI  : GAMMA RAY
NPHI.DEC   : NEUTRON POROSITY LIMESTONE
PEF .B/E   : PHOTOELECTRIC FACTOR
DCOR.G/C3  : DENSITY CORRECTION
DPHI.DEC   : DENSITY POROSITY LIMESTONE
CALD.IN    : CALIPER
RHOB.G/C3  : BULK DENSITY
DTCO.US/F  : COMPRESSIONAL-WAVE INTERVAL TRANSIT TIME ACOUSTIC SLOWNESS
DTSM.US/F  : SHEAR-WAVE INTERVAL TRANSIT TIME DELTA-T
LLD .OHMM  : LATEROLOG LOG DEEP
LLS .OHMM  : LATEROLO LOG SHALLOW
MSFL.OHMM  : MICRO SPHERICALLY FOCUSED
~Params ----------------------------------------------------
~Other -----------------------------------------------------
~ASCII -----------------------------------------------------
# ...
 3740.00000   28.70230    0.06860    2.92530    0.05120   -0.03830    8.20860    2.75950   49.15630   91.64330 1171.08070  819.99820  205.16580
 3740.50000   25.15800    0.06850    2.88740    0.04620   -0.02810    8.20490    2.75290   50.92560   92.44700  810.57540  596.98190  189.54100
 3741.00000   24.86550    0.07010    2.86440    0.04600   -0.02500    8.20260    2.76310   52.43640   93.89690  555.88340  434.61950  330.87200
 3741.50000   26.76460    0.07210    2.90520    0.04580   -0.02940    8.20250    2.76290   53.86330   96.08660  381.21870  301.29950  285.07530
 3742.00000   33.74310    0.07960    2.94610    0.04480   -0.03230    8.20320    2.75500   55.00790   98.08910  256.50550  195.45190  128.64930
 3742.50000   40.89820    0.08830    2.95490    0.04270   -0.02830    8.20180    2.74640   55.43970   99.06780  165.74360  142.22500  136.87260
 3743.00000   49.96530    0.10190    2.91300    0.04210   -0.02100    8.20050    2.73810   55.29700   99.37740  138.65450  133.84360  198.26250
 3743.50000   57.08820    0.11190    2.87110    0.04220   -0.01520    8.19920    2.73100   55.01970   98.90770  136.62550  132.10380  139.43380
 3744.00000   59.81070    0.11970    2.84970    0.04120   -0.01340    8.19780    2.73030   54.64040   97.98000  149.52950  135.86170  117.06840
 3744.50000   59.67730    0.12410    2.84790    0.04050   -0.01130    8.19650    2.72780   54.01670   96.67350  189.17480  163.07460  141.43730
 3745.00000   53.76790    0.12370    2.87920    0.04100   -0.01090    8.19570    2.73350   53.40920   95.86290  239.33140  206.30670  257.63400
 3745.50000   41.79060    0.11850    2.88460    0.04190   -0.01480    8.19680    2.73630   53.34440   96.30050  315.24480  261.00000  418.00870
 3746.00000   30.80110    0.10890    2.90520    0.04320   -0.01300    8.19780    2.72100   53.50990   97.80970  439.77150  357.09750  397.10430
 3746.50000   27.44790    0.10610    2.93150    0.03790    0.00080    8.19890    2.68700   53.84530   99.30870  481.54960  467.49650  350.00520
 3747.00000   31.18940    0.11040    2.95810    0.03280    0.02380    8.19990    2.65050   54.53430  100.61210  431.99170  362.28060  182.50400
 3747.50000   38.99150    0.13000    2.91140    0.03170    0.05240    8.20140    2.61920   55.81560  101.83120  330.50290  278.34580   70.37740
 3748.00000   50.57450    0.14520    2.86470    0.03070    0.06850    8.20060    2.58790   56.86870  102.11000  252.85710  208.99110   48.96280
 3748.50000   62.43130    0.15990    2.75000    0.02990    0.07880    8.19910    2.57760   57.14760  101.94490  194.92890  153.86520   43.66690
 3749.00000   68.85400    0.16390    2.68760    0.02960    0.08340    8.19760    2.57890   56.67720  100.29110  166.60140  136.05240   34.05730
 3749.50000   73.41310    0.16290    2.67680    0.03020    0.08070    8.19960    2.59010   55.88770   99.02280  172.35920  139.13950   32.31130
 3750.00000   81.53560    0.15510    2.70160    0.03340    0.06940    8.20160    2.60310   55.17140   98.46410  204.72000  173.26200   34.78550
 3750.50000   92.35610    0.14720    2.73390    0.03680    0.05880    8.20320    2.62180   54.52980   97.83180  243.15650  217.69220   44.35220
 3751.00000   95.15700    0.14110    2.76610    0.03680    0.04860    8.20130    2.63470   54.23680   96.82480  320.95770  265.92650  101.05050
 3751.50000   82.62120    0.13870    2.79170    0.03710    0.04200    8.20270    2.64370   54.25680   96.98640  351.36460  338.59550  238.85570
 3752.00000   71.32700    0.14080    2.78980    0.03750    0.03900    8.20660    2.64480   54.92900   99.14050  353.33180  332.03580  107.21210
 3752.50000   62.05750    0.14310    2.73240    0.03670    0.04100    8.20680    2.64260   56.01070  103.19220  297.56940  241.02450   62.49600
 3753.00000   62.14490    0.14970    2.76270    0.03360    0.04570    8.20380    2.63420   56.58060  107.70590  212.94890  172.47860   42.88200
 3753.50000   65.34810    0.15970    2.82460    0.03360    0.04860    8.19940    2.63510   56.74560  113.00310  152.39220  123.42660   37.67110
 3754.00000   69.51080    0.16930    2.89960    0.03590    0.04670    8.20190    2.64070   56.54100  117.12330  109.05610   88.32480   29.94360
 3754.50000   74.61670    0.17420    2.94270    0.03820    0.04000    8.20430    2.65030   55.93670  117.21380   78.04360   69.27470   25.70000
 3755.00000   80.81890    0.17120    2.89430    0.04080    0.03340    8.20640    2.66040   54.85320  113.21610   69.92650   67.71910   32.07660
 3755.50000   80.82030    0.15220    2.81930    0.04360    0.02790    8.20150    2.67940   53.04620  102.86430   99.12320   71.98490   64.85420
 3756.00000   66.51840    0.12090    2.76130    0.04650    0.01440    8.20130    2.69900   49.62530   94.31900  165.11390  119.90920  146.43550
 3756.50000   44.38340    0.09580    2.72180    0.04970   -0.01100    8.20140    2.73360   47.40030   89.42510  275.03760  199.73900  330.63900
 3757.00000   25.99170    0.07440    2.68220    0.05630   -0.04020    8.20070    2.79930   47.06200   88.41840  469.29800  332.71600 1353.25710
 3757.50000   19.38890    0.06310    2.66460    0.05810   -0.05570    8.19990    2.79860   47.45250   89.16890  844.49270  584.55760 1391.83680
 3758.00000   16.60580    0.05840    2.75410    0.05400   -0.05230    8.19920    2.78780   48.10100   91.08180 1519.64930 1043.08760  503.10900
 3758.50000   15.00200    0.05860    2.84860    0.04940   -0.04470    8.19840    2.77670   48.90950   93.06650 1794.11280 1360.72080  423.43470
 3759.00000   12.84150    0.06220    2.93770    0.04740   -0.03930    8.19770    2.76570   49.92590   94.97900 1813.61130 1383.91210  511.63870
 3759.50000   10.98320    0.06770    2.90510    0.04680   -0.03410    8.19690    2.75590   50.98850   97.24850 1334.33640  991.09750  322.81120
 3760.00000    9.98490    0.07550    2.87240    0.04550   -0.02740    8.19950    2.74750   51.81310   98.56180  826.69950  613.97380  136.36890
 3760.50000    9.97180    0.08230    2.84240    0.04340   -0.02030    8.20470    2.73900   52.31750   99.93840  512.18870  373.33360   74.76410
 3761.00000   10.84570    0.08930    2.85660    0.04130   -0.01320    8.21230    2.72670   52.23440  100.63150  317.33070  226.61340   83.21300
 3761.50000   11.11270    0.09260    2.89940    0.03880   -0.00670    8.20400    2.71600   51.69830  100.38050  268.60340  208.25100   76.25690
 3762.00000   11.13040    0.09530    2.93850    0.03850   -0.00170    8.20980    2.71300   50.98540   98.97640  268.54160  208.20310   71.76880
 3762.50000   11.00220    0.09320    2.96950    0.03980   -0.00170    8.21270    2.71970   50.00210   96.69030  348.91230  255.59350  119.85630
 3763.00000   11.63440    0.08910    2.94160    0.04460   -0.00980    8.20900    2.73730   48.96210   94.09340  454.33240  364.89580  174.85080
 3763.50000   11.63000    0.08410    2.90760    0.04970   -0.01910    8.20880    2.74840   48.10510   91.69390  668.39090  520.93980  226.57490
 3764.00000   11.26640    0.07940    2.87280    0.05070   -0.02410    8.20860    2.75690   47.73770   91.40830 1108.83170  808.90670 1972.94180
 3764.50000   11.10840    0.07580    2.83130    0.05090   -0.03160    8.21530    2.77100   47.78930   91.88070 1839.50370 1180.87680 1972.48910
 3765.00000   11.84070    0.07190    2.80300    0.05100   -0.04050    8.20640    2.78340   47.97390   92.24330 1971.99650 1372.60500 1972.03650
 3765.50000   12.60400    0.06870    2.83590    0.04970   -0.04820    8.20240    2.78120   48.32120   92.43890 1911.37480 1312.80380 1971.58410
 3766.00000   14.39820    0.07130    2.90770    0.04810   -0.04450    8.20170    2.77070   48.88370   92.78600 1362.90980  865.81510 1021.09940
 3766.50000   16.26300    0.08090    2.94770    0.04640   -0.03020    8.20710    2.75370   49.48500   94.10290  792.80760  545.11140  214.23970
 3767.00000   17.60090    0.09340    2.96890    0.04530   -0.01840    8.21160    2.73800   50.06300   95.26380  475.85300  343.19850  137.75660
 3767.50000   17.68110    0.10420    2.99020    0.04420   -0.00710    8.20340    2.70940   50.60690   96.88390  333.37500  232.81260   53.61350
