~Version ---------------------------------------------------
VERS.   2.0 : CWLS log ASCII Standard -VERSION 2.0
WRAP.    NO : One line per depth step
DLM . SPACE : Column Data Section Delimiter
~Well ------------------------------------------------------
STRT .F                 100.0 : START DEPTH
STOP .F                3870.0 : STOP DEPTH
STEP .F                   0.5 : STEP
NULL .               -9999.25 : NULL VALUE
COMP .                        : COMPANY
WELL .                        : WELL
FLD  .                        : FIELD
LOC  .                        : LOCATION
PROV .                        : PROVINCE
CNTY .                        : COUNTY
STAT .                        : STATE
CTRY .                        : COUNTRY
SRVC .                        : SERVICE COMPANY
DATE .                        : DATE
UWI  .                        : UNIQUE WELL ID
API  .                        : API NUMBER
SLAT .WGS84 2.635837888424696 : SURFACE LATITUDE
SLON .WGS84  7.82090469736201 : SURFACE LONGITUDE
DATUM.F               3435.28 : DEPTH DATUM ELEV
~Curve Information -----------------------------------------
DEPT.F     : 
GRD .GAPI  : GAMMA RAY
NPHI.DEC   : NEUTRON POROSITY LIMESTONE
PEF .B/E   : PHOTOELECTRIC FACTOR
DCOR.G/C3  : DENSITY CORRECTION
DPHI.DEC   : DENSITY POROSITY LIMESTONE
CALD.IN    : CALIPER
RHOB.G/C3  : BULK DENSITY
DTCO.US/F  : COMPRESSIONAL-WAVE INTERVAL TRANSIT TIME ACOUSTIC SLOWNESS
DTSM.US/F  : SHEAR-WAVE INTERVAL TRANSIT TIME DELTA-T
LLD .OHMM  : LATEROLOG LOG DEEP
LLS .OHMM  : LATEROLO LOG SHALLOW
MSFL.OHMM  : MICRO SPHERICALLY FOCUSED
~Params ----------------------------------------------------
~Other -----------------------------------------------------
~ASCII -----------------------------------------------------
# ...
 3656.00000   52.67690    0.10730    3.13810    0.02830    0.00830    8.16120    2.70160   53.11240  101.74910   44.76920   55.93460  496.20850
 3656.50000   39.19290    0.08180    3.07900    0.04010   -0.01390    8.16120    2.75210   50.59380   94.05860   66.60930   86.38910  973.29460
 3657.00000   26.12900    0.06550    3.01990    0.05160   -0.04570    8.16120    2.78380   49.28100   90.98250  104.63940  137.01820  233.37110
 3657.50000   22.26050    0.05500    2.96090    0.05090   -0.06390    8.16120    2.81420   49.14430   89.78460  171.36650  255.14110  211.10380
 3658.00000   21.37540    0.04980    2.93880    0.04350   -0.06190    8.16100    2.80770   48.74910   88.55610  280.61760  389.38860  207.29390
 3658.50000   17.13220    0.04080    2.94000    0.04290   -0.06040    8.16090    2.81290   47.93990   87.50760  378.15710  498.08290  168.59340
 3659.00000   12.81020    0.03140    2.93590    0.04830   -0.06800    8.16080    2.82510   46.72560   86.50370  509.59990  637.11850  172.47330
 3659.50000   10.36190    0.02370    2.93110    0.05290   -0.07570    8.16070    2.83390   45.66900   84.98750  686.73080  814.96420  180.41380
 3660.00000    9.54780    0.02230    2.92630    0.05390   -0.07820    8.16040    2.83160   45.36270   84.12720  915.66360 1000.22130  231.03610
 3660.50000    9.46320    0.02190    2.92370    0.05300   -0.07410    8.15570    2.82870   45.28090   83.62460 1202.75730 1224.26680  304.81590
 3661.00000    9.29170    0.02160    2.91610    0.05290   -0.07280    8.14450    2.82870   45.49090   83.64900 1579.86450 1498.49850  444.28600
 3661.50000    8.29040    0.02140    2.90840    0.05950   -0.07480    8.15540    2.83290   46.00400   84.25080 2051.50240 1834.15620 1013.16090
 3662.00000    7.44750    0.02150    2.86430    0.05870   -0.08030    8.15980    2.83940   46.64490   84.86460 2576.40040 2199.20310 1701.36980
 3662.50000    7.06130    0.02180    2.83680    0.05790   -0.08410    8.15750    2.84410   47.25440   84.90770 3235.59890 2921.71070 2037.09250
 3663.00000    7.16110    0.02450    2.87020    0.05710   -0.08390    8.15560    2.84360   47.60590   83.85530 3203.69560 2827.82320 2027.56100
 3663.50000    7.23910    0.03050    2.90970    0.05560   -0.08110    8.16410    2.84110   47.95130   83.08270 2148.93680 1921.35440 1752.29040
 3664.00000    7.61370    0.04330    2.93570    0.05240   -0.07180    8.16470    2.82760   47.89770   82.68960 1522.35640  926.10000  456.80260
 3664.50000    7.33660    0.05830    2.96040    0.04920   -0.05630    8.16290    2.79510   47.46750   82.27440  891.60930  674.77840   63.10450
 3665.00000    6.73200    0.06460    2.98510    0.04610   -0.04000    8.15810    2.77990   46.59940   81.73450  795.78270  635.45090   40.23790
 3665.50000    6.07110    0.06390    3.01510    0.04310   -0.03170    8.15630    2.75670   45.78920   81.86930  827.09030  658.49070  116.82960
 3666.00000    5.63990    0.05640    3.04510    0.04580   -0.03200    8.15660    2.76800   45.39800   82.28540 1071.68400  868.46370  622.05430
 3666.50000    5.95030    0.04350    3.05560    0.04910   -0.04600    8.15690    2.78480   45.76750   82.79320 1563.61540 1221.63230 1980.45760
 3667.00000    6.80380    0.03610    3.02590    0.05380   -0.06090    8.15720    2.80560   46.64880   83.96630 1905.30370 1642.61170 1986.85990
 3667.50000    8.27770    0.03500    2.96860    0.05310   -0.06490    8.15730    2.81580   47.56460   85.10590 2408.34990 1847.44510 1993.28270
 3668.00000   10.02170    0.03660    2.94060    0.04890   -0.06140    8.15680    2.80820   48.51550   86.28270 1891.91440 1676.59230 1999.72630
 3668.50000   10.13760    0.04170    2.92450    0.04580   -0.05580    8.15570    2.79650   49.16210   87.65130 1634.72860 1262.93930  494.27300
 3669.00000   10.17910    0.04860    2.90840    0.04330   -0.04980    8.15120    2.78470   49.39850   89.04240 1371.92320 1034.33130  359.91800
 3669.50000    9.40220    0.05710    2.92700    0.04530   -0.04200    8.14670    2.77470   49.10570   90.40530 1131.15620  875.49340  262.27100
 3670.00000    9.25320    0.06260    2.90150    0.04740   -0.03480    8.14150    2.76740   48.48140   91.51620  963.62160  754.67410  101.70960
 3670.50000    8.64340    0.07020    2.87610    0.04850   -0.03010    8.13550    2.76020   48.21280   92.71400  880.16460  705.65010   50.34000
 3671.00000    8.03430    0.07590    2.83750    0.04810   -0.02490    8.13040    2.75290   48.40120   93.98260  921.14860  697.28870   68.41850
 3671.50000    7.56820    0.07430    2.82340    0.04770   -0.02200    8.12980    2.74740   48.86820   94.95470 1018.19980  790.57320  176.04420
 3672.00000    7.48320    0.07020    2.89570    0.05030   -0.02360    8.12930    2.74740   49.41570   95.18130 1025.00830  911.56450  232.14960
 3672.50000    7.94020    0.06390    2.96030    0.05450   -0.03350    8.13220    2.75720   50.33960   94.95130  971.24070  841.06990  122.66750
 3673.00000    9.69400    0.06160    2.97310    0.05560   -0.04070    8.14360    2.77580   51.52160   94.91590  791.97240  704.71130  104.30710
 3673.50000   13.02470    0.06430    2.98600    0.05150   -0.04020    8.15490    2.77660   52.85420   95.93190  602.30650  477.50560  133.14140
 3674.00000   17.56200    0.06960    2.99880    0.04690   -0.03720    8.15440    2.76890   54.20400   97.79740  395.55300  313.60710  153.43690
 3674.50000   26.33030    0.08180    3.04820    0.04460   -0.02720    8.15340    2.75260   55.13170  100.09500  259.77180  212.19190  168.68390
 3675.00000   35.74950    0.09450    3.10920    0.03820   -0.01470    8.15250    2.73260   55.91080  101.86510  184.24380  157.18290  137.12090
 3675.50000   44.81660    0.11240    3.07260    0.03460   -0.00220    8.15200    2.71530   56.22760  103.06280  150.16310  144.73150  105.24000
 3676.00000   48.34770    0.13070    2.99810    0.03370    0.00810    8.15200    2.69840   55.98880  103.88230  145.99260  142.33390   82.80730
 3676.50000   42.16440    0.14730    2.96090    0.03290    0.01910    8.15260    2.68240   54.92070  103.30620  156.79460  146.27850   34.91270
 3677.00000   31.51520    0.14770    2.93500    0.03130    0.02710    8.15320    2.67010   53.02240  101.23170  215.83030  180.97900   27.44250
 3677.50000   20.40530    0.13690    2.94640    0.02770    0.03100    8.15370    2.66390   51.56540   98.29730  298.27970  249.13730   51.65520
 3678.00000   15.17250    0.12000    2.95780    0.02860    0.02890    8.15430    2.66620   50.65510   95.76220  417.60980  346.98680  132.21270
 3678.50000   13.70440    0.10290    2.96880    0.03370    0.01360    8.15490    2.68800   50.52430   94.36150  584.67900  479.14860  105.32530
 3679.00000   13.74280    0.09730    2.96760    0.03710   -0.00100    8.15550    2.71240   50.92770   94.48230  633.24720  546.44050  109.81390
 3679.50000   14.44860    0.09490    2.96630    0.03750   -0.00510    8.15330    2.71690   51.68070   95.09680  667.57030  593.85140  156.50300
 3680.00000   15.82200    0.09630    2.97710    0.03320   -0.00180    8.15090    2.71410   52.62680   96.01220  621.03530  563.28220  208.37380
 3680.50000   18.57610    0.09900    2.99690    0.03270    0.00180    8.15120    2.70800   53.72480   96.95250  557.63350  505.24410  227.20920
 3681.00000   21.03700    0.10440    3.01670    0.03200    0.00570    8.15330    2.69690   54.81290   97.49610  500.70440  453.18570  189.01750
 3681.50000   24.49180    0.11350    3.03650    0.03020    0.01620    8.15530    2.68760   55.84670   98.04480  439.00040  401.24870  122.30660
 3682.00000   27.48080    0.12080    3.03810    0.02890    0.03380    8.15410    2.66220   56.24290   98.54350  374.58530  332.65910  106.29190
 3682.50000   31.72910    0.12850    2.98090    0.02810    0.05150    8.15670    2.63120   56.19240   98.79780  319.62170  259.73620  104.65650
 3683.00000   36.05840    0.12940    2.90130    0.02720    0.05280    8.15940    2.62250   55.50260   98.62800  272.72310  229.40080  105.04540
 3683.50000   40.46600    0.11990    2.83750    0.03210    0.04020    8.15980    2.64440   54.14960   97.78510  257.31540  227.26050  112.80540
