~Version ---------------------------------------------------
VERS.   2.0 : CWLS log ASCII Standard -VERSION 2.0
WRAP.    NO : One line per depth step
DLM . SPACE : Column Data Section Delimiter
~Well ------------------------------------------------------
STRT .F                 100.0 : START DEPTH
STOP .F                3870.0 : STOP DEPTH
STEP .F                   0.5 : STEP
NULL .               -9999.25 : NULL VALUE
COMP .                        : COMPANY
WELL .                        : WELL
FLD  .                        : FIELD
LOC  .                        : LOCATION
PROV .                        : PROVINCE
CNTY .                        : COUNTY
STAT .                        : STATE
CTRY .                        : COUNTRY
SRVC .                        : SERVICE COMPANY
DATE .                        : DATE
UWI  .                        : UNIQUE WELL ID
API  .                        : API NUMBER
SLAT .WGS84 2.635837888424696 : SURFACE LATITUDE
SLON .WGS84  7.82090469736201 : SURFACE LONGITUDE
DATUM.F               3435.28 : DEPTH DATUM ELEV
~Curve Information -----------------------------------------
DEPT.F     : 
GRD .GAPI  : GAMMA RAY
NPHI.DEC   : NEUTRON POROSITY LIMESTONE
PEF .B/E   : PHOTOELECTRIC FACTOR
DCOR.G/C3  : DENSITY CORRECTION
DPHI.DEC   : DENSITY POROSITY LIMESTONE
CALD.IN    : CALIPER
RHOB.G/C3  : BULK DENSITY
DTCO.US/F  : COMPRESSIONAL-WAVE INTERVAL TRANSIT TIME ACOUSTIC SLOWNESS
DTSM.US/F  : SHEAR-WAVE INTERVAL TRANSIT TIME DELTA-T
LLD .OHMM  : LATEROLOG LOG DEEP
LLS .OHMM  : LATEROLO LOG SHALLOW
MSFL.OHMM  : MICRO SPHERICALLY FOCUSED
~Params ----------------------------------------------------
~Other -----------------------------------------------------
~ASCII -----------------------------------------------------
# ...
 2872.00000   40.53170    0.13670    3.83720    0.03040    0.04610   10.44770    2.64110   -9999.25   -9999.25   30.62120   30.77820   14.15380
 2872.50000   39.85890    0.12580    3.75070    0.03380    0.03920   10.43950    2.66530   -9999.25   -9999.25   30.23140   30.53840   10.71200
 2873.00000   34.82410    0.09960    3.73430    0.03730    0.00810   10.43690    2.71420   -9999.25   -9999.25   32.52410   31.47790   11.88890
 2873.50000   28.72250    0.07400    3.81320    0.04320   -0.02530   10.41790    2.77820   -9999.25   -9999.25   37.52140   35.53180   16.07500
 2874.00000   22.48510    0.04170    4.18650    0.04990   -0.06830   10.38590    2.82110   -9999.25   -9999.25   44.63290   40.40020   19.73010
 2874.50000   17.42650    0.03230    4.56910    0.05360   -0.09490   10.35040    2.86430   -9999.25   -9999.25   56.58440   50.63800   40.17130
 2875.00000   14.60420    0.03050    4.87730    0.04970   -0.10800   10.23490    2.87990   -9999.25   -9999.25   71.73620   64.19700  133.88950
 2875.50000   15.17230    0.03410    4.87270    0.04500   -0.11020   10.16880    2.88480   -9999.25   -9999.25   74.32480   72.49840  110.50820
 2876.00000   18.89630    0.03950    4.69970    0.04100   -0.10910   10.13590    2.88350   -9999.25   -9999.25   72.26650   69.16850  107.23070
 2876.50000   22.30440    0.04300    4.51720    0.03880   -0.10550   10.10960    2.87880   -9999.25   -9999.25   61.37280   55.17920   32.62940
 2877.00000   22.29390    0.04170    4.35040    0.03680   -0.10010   10.09360    2.87350   -9999.25   -9999.25   49.76320   48.68260   15.10550
 2877.50000   19.15520    0.03590    4.33380    0.03730   -0.09950   10.04480    2.87380   -9999.25   -9999.25   49.18960   48.12160   24.24080
 2878.00000   15.19410    0.02690    4.37470    0.03520   -0.10230   10.01320    2.87570   -9999.25   -9999.25   52.05170   49.39700   73.13900
 2878.50000   13.68570    0.01860    4.47680    0.03300   -0.10340    9.99780    2.87600   -9999.25   -9999.25   63.21720   57.62820   92.19650
 2879.00000   13.87050    0.01370    4.57930    0.03080   -0.10030    9.98240    2.86940   -9999.25   -9999.25   74.31160   69.99340   75.76640
 2879.50000   13.99640    0.00980    4.55600    0.03040   -0.09710    9.96340    2.87050   -9999.25   -9999.25   78.37810   75.86450   82.29340
 2880.00000   13.04540    0.00570    4.50320    0.03540   -0.10370    9.92650    2.88590   -9999.25   -9999.25   89.19840   81.75750   89.02700
 2880.50000   10.68780    0.00230    4.48590    0.04170   -0.12140    9.91320    2.90990   -9999.25   -9999.25  106.38000   98.14490  113.54800
 2881.00000    7.93360    0.00050    4.65720    0.04300   -0.13460    9.90990    2.92960   -9999.25   -9999.25  124.08470  115.22880  259.94370
 2881.50000    6.68570   -0.00010    4.80290    0.04120   -0.14020    9.89080    2.93370   -9999.25   -9999.25  165.97200  134.40680  165.24200
 2882.00000    7.31340    0.00020    4.85930    0.03950   -0.13930    9.86750    2.93130   -9999.25   -9999.25  273.20500  216.98640  244.54420
 2882.50000    8.21030    0.00230    4.88990    0.03770   -0.13510    9.84000    2.92580   -9999.25   -9999.25  446.51870  357.20550 1007.04000
 2883.00000    9.60620    0.00450    4.65930    0.03480   -0.13050    9.81340    2.91700   -9999.25   -9999.25  665.37170  553.13120 1966.16560
 2883.50000   12.46870    0.01000    4.33180    0.03010   -0.12270    9.79620    2.89270   -9999.25   -9999.25  991.49100  824.23110 1974.64200
 2884.00000   16.40810    0.01780    4.22950    0.02550   -0.10470    9.74030    2.84840   -9999.25   -9999.25 1477.45140 1228.20150 1983.15480
 2884.50000   23.15310    0.02450    4.15290    0.02080   -0.06730    9.71460    2.81570   -9999.25   -9999.25 1639.99960 1547.80270 1991.70420
 2885.00000   24.44500    0.02520    4.00950    0.01830   -0.04480    9.70770    2.76470   -9999.25   -9999.25 1296.80810 1112.54610 2000.29060
 2885.50000   21.78100    0.01500    3.83420    0.01900   -0.03440    9.69690    2.76630   -9999.25   -9999.25  932.12330  799.68740 2008.91410
 2886.00000   16.21440    0.00750    3.74270    0.02380   -0.04180    9.69450    2.81030   -9999.25   -9999.25  669.99460  602.07880 1869.36840
 2886.50000   12.56430    0.00080    3.70310    0.02850   -0.08480    9.69430    2.86840   -9999.25   -9999.25  580.70890  562.27190  743.40230
 2887.00000   10.10470   -0.00290    3.81160    0.03630   -0.11190    9.69430    2.92650   -9999.25   -9999.25  601.64730  628.98530 1020.35750
 2887.50000    8.31320   -0.00340    4.03250    0.05060   -0.14740    9.69320    2.95740   -9999.25   -9999.25  703.05130  795.65120 1987.85160
 2888.00000    6.84230   -0.00390    4.42280    0.05110   -0.15860    9.68890    2.96590   -9999.25   -9999.25  868.69360 1006.47960 1987.39440
 2888.50000    5.92310   -0.00200    4.79440    0.04430   -0.15300    9.68470    2.95220   -9999.25   -9999.25 1073.36210 1129.57930 1986.93840
 2889.00000    6.57600    0.00180    4.95940    0.04030   -0.14290    9.68510    2.93780   -9999.25   -9999.25 1118.43790  851.13120 1986.48240
 2889.50000    9.73640    0.00570    4.85380    0.03930   -0.13230    9.68560    2.92310   -9999.25   -9999.25  598.63920  416.51200 1376.57430
 2890.00000   14.50210    0.00900    4.74820    0.03840   -0.12490    9.68480    2.90850   -9999.25   -9999.25  268.74380  187.62180  270.15560
 2890.50000   17.62620    0.00900    4.54500    0.03740   -0.12050    9.68360    2.90390   -9999.25   -9999.25  120.64560  100.12760  101.09370
 2891.00000   16.72810    0.00460    4.54890    0.03820   -0.12070    9.67330    2.91570   -9999.25   -9999.25  119.98620  100.93270  187.96190
 2891.50000   14.22670    0.00190    4.61640    0.04180   -0.13190    9.66260    2.93050   -9999.25   -9999.25  126.46610  107.60620  290.54810
 2892.00000   11.50670   -0.00020    4.70110    0.04550   -0.14430    9.66140    2.94250   -9999.25   -9999.25  163.35900  138.93860   98.39370
 2892.50000    9.32810   -0.00250    4.81080    0.04490   -0.14790    9.65910    2.94590   -9999.25   -9999.25  246.63790  204.39200  183.49810
 2893.00000    7.02010   -0.00280    4.92040    0.04510   -0.14790    9.64930    2.94520   -9999.25   -9999.25  372.37160  308.56830 2010.69590
 2893.50000    6.15160   -0.00230    5.13800    0.03960   -0.14140    9.64900    2.93730   -9999.25   -9999.25  550.85870  461.77980 2010.26550
 2894.00000    6.19490   -0.00150    5.26920    0.03410   -0.13170    9.66190    2.91690   -9999.25   -9999.25  810.57370  679.55610 1924.40830
 2894.50000    6.84490    0.00090    5.19010    0.03000   -0.12040    9.65510    2.90310   -9999.25   -9999.25  866.85380  841.06760  799.65710
 2895.00000    8.70960    0.00510    4.80960    0.03440   -0.11800    9.65550    2.90050   -9999.25   -9999.25  810.88530  766.26070 1221.02160
 2895.50000   12.27140    0.01160    4.41860    0.03790   -0.11560    9.65470    2.89410   -9999.25   -9999.25  722.14230  682.39170 1972.26170
 2896.00000   17.00620    0.02380    4.09620    0.03860   -0.10730    9.65420    2.87110   -9999.25   -9999.25  643.11100  576.87590 1783.81150
 2896.50000   22.75800    0.03770    3.88960    0.03930   -0.08330    9.65080    2.84750   -9999.25   -9999.25  498.71850  440.57690  667.97420
 2897.00000   25.14730    0.05190    3.63860    0.04130   -0.07290    9.64520    2.82310   -9999.25   -9999.25  380.90170  336.48160  539.14120
 2897.50000   25.47420    0.06300    3.52790    0.04380   -0.06530    9.66080    2.81110   -9999.25   -9999.25  290.91310  256.82060  274.39690
 2898.00000   23.95900    0.06790    3.48630    0.04630   -0.05960    9.67760    2.80210   -9999.25   -9999.25  236.18320  231.21030  183.69510
 2898.50000   23.17010    0.07070    3.43050    0.04850   -0.05440    9.69210    2.79960   -9999.25   -9999.25  236.17250  231.19970  249.57790
 2899.00000   23.99220    0.07480    3.34800    0.05050   -0.05200    9.72550    2.79770   -9999.25   -9999.25  236.16160  230.10260  357.38400
 2899.50000   26.92780    0.08100    3.19170    0.05190   -0.05470    9.76010    2.79760   -9999.25   -9999.25  212.35190  190.24730  364.02960
