~Version ---------------------------------------------------
VERS.   2.0 : CWLS log ASCII Standard -VERSION 2.0
WRAP.    NO : One line per depth step
DLM . SPACE : Column Data Section Delimiter
~Well ------------------------------------------------------
STRT .F                 100.0 : START DEPTH
STOP .F                3870.0 : STOP DEPTH
STEP .F                   0.5 : STEP
NULL .               -9999.25 : NULL VALUE
COMP .                        : COMPANY
WELL .                        : WELL
FLD  .                        : FIELD
LOC  .                        : LOCATION
PROV .                        : PROVINCE
CNTY .                        : COUNTY
STAT .                        : STATE
CTRY .                        : COUNTRY
SRVC .                        : SERVICE COMPANY
DATE .                        : DATE
UWI  .                        : UNIQUE WELL ID
API  .                        : API NUMBER
SLAT .WGS84 2.635837888424696 : SURFACE LATITUDE
SLON .WGS84  7.82090469736201 : SURFACE LONGITUDE
DATUM.F               3435.28 : DEPTH DATUM ELEV
~Curve Information -----------------------------------------
DEPT.F     : 
GRD .GAPI  : GAMMA RAY
NPHI.DEC   : NEUTRON POROSITY LIMESTONE
PEF .B/E   : PHOTOELECTRIC FACTOR
DCOR.G/C3  : DENSITY CORRECTION
DPHI.DEC   : DENSITY POROSITY LIMESTONE
CALD.IN    : CALIPER
RHOB.G/C3  : BULK DENSITY
DTCO.US/F  : COMPRESSIONAL-WAVE INTERVAL TRANSIT TIME ACOUSTIC SLOWNESS
DTSM.US/F  : SHEAR-WAVE INTERVAL TRANSIT TIME DELTA-T
LLD .OHMM  : LATEROLOG LOG DEEP
LLS .OHMM  : LATEROLO LOG SHALLOW
MSFL.OHMM  : MICRO SPHERICALLY FOCUSED
~Params ----------------------------------------------------
~Other -----------------------------------------------------
~ASCII -----------------------------------------------------
# ...
 2676.00000   21.43450    0.01850    3.89060    0.04160   -0.07740   11.69720    2.85470   -9999.25   -9999.25  126.20810   92.77340  311.64320
 2676.50000   23.15710    0.02290    4.10290    0.04250   -0.09070   11.69150    2.85320   -9999.25   -9999.25  136.49530  105.94350  291.34890
 2677.00000   23.48220    0.03070    4.27570    0.03620   -0.09080   11.69060    2.85010   -9999.25   -9999.25  126.30130  107.86720  140.96470
 2677.50000   22.40710    0.04010    4.57030    0.03230   -0.08760   11.69260    2.83950   -9999.25   -9999.25  108.75110   94.83520   77.13950
 2678.00000   18.89390    0.05590    4.71960    0.03060   -0.07960   11.69280    2.82280   -9999.25   -9999.25   90.78870   75.13740   84.63850
 2678.50000   19.95390    0.08210    4.85040    0.02830   -0.06900   11.69020    2.79700   -9999.25   -9999.25   65.08380   53.86390  151.93660
 2679.00000   27.41700    0.11290    4.94040    0.02810   -0.05220   11.68770    2.76830   -9999.25   -9999.25   46.65670   35.58770  183.83830
 2679.50000   33.77740    0.13670    4.90290    0.02790   -0.02610   11.68900    2.72120   -9999.25   -9999.25   27.66770   19.95290   25.82880
 2680.00000   33.84420    0.14210    4.62100    0.02770   -0.00140   11.68300    2.67970   -9999.25   -9999.25   16.34690   14.40400    9.06480
 2680.50000   28.99620    0.13510    4.21070    0.03540    0.01940   11.68870    2.69300   -9999.25   -9999.25   13.51550   12.64020    6.86530
 2681.00000   22.95470    0.12910    3.86120    0.04500    0.00360   11.69030    2.74230   -9999.25   -9999.25   12.26250   11.65060    4.16080
 2681.50000   19.90270    0.12460    3.78750    0.05460   -0.02720   11.68690    2.78120   -9999.25   -9999.25   11.51620   11.09580    5.50220
 2682.00000   20.36730    0.11440    3.97430    0.06170   -0.04820   11.68410    2.78900   -9999.25   -9999.25   11.20420   10.90180    5.58330
 2682.50000   20.53120    0.09640    4.17420    0.05970   -0.04630   11.68200    2.77320   -9999.25   -9999.25   11.32300   10.98010    1.79030
 2683.00000   19.27160    0.06250    4.14530    0.05260   -0.04060   11.66960    2.79730   -9999.25   -9999.25   12.01170   11.29650    2.88700
 2683.50000   15.03840    0.03570    4.09940    0.05500   -0.05430   11.57650    2.86050   -9999.25   -9999.25   15.91590   13.54230   11.17530
 2684.00000   11.21000    0.02170    4.14940    0.05530   -0.08900   11.53600    2.91510   -9999.25   -9999.25   24.32840   18.28790   25.59190
 2684.50000    8.95420    0.01400    4.38920    0.05190   -0.13070   11.50040    2.93490   -9999.25   -9999.25   40.20310   30.21160   42.97990
 2685.00000    9.43930    0.01490    4.69210    0.04850   -0.13920   11.47710    2.92940   -9999.25   -9999.25   61.97990   45.07980   69.16410
 2685.50000   10.73010    0.01640    4.78210    0.04120   -0.13670   11.45610    2.92240   -9999.25   -9999.25   61.90930   53.15300  158.40690
 2686.00000   11.83940    0.01840    4.69270    0.03900   -0.13390   11.43240    2.91540   -9999.25   -9999.25   56.19820   47.19450  160.72700
 2686.50000   12.70960    0.01900    4.59700    0.03730   -0.12600   11.40740    2.91600   -9999.25   -9999.25   46.98880   35.98240  141.36330
 2687.00000   12.88890    0.01930    4.45360    0.03850   -0.12660   11.38440    2.91990   -9999.25   -9999.25   39.95110   29.53920   60.11000
 2687.50000   11.11320    0.02020    4.45740    0.04560   -0.13030   11.36280    2.92470   -9999.25   -9999.25   36.59790   27.79740   19.88440
 2688.00000    8.95820    0.02130    4.49610    0.04820   -0.13290   11.30430    2.93090   -9999.25   -9999.25   36.15720   28.11750   90.72340
 2688.50000   10.12410    0.02270    4.64710    0.04820   -0.13640   11.28830    2.93130   -9999.25   -9999.25   35.96020   27.94140  331.39610
 2689.00000   12.38170    0.03280    4.93040    0.04820   -0.14020   11.27980    2.91770   -9999.25   -9999.25   33.44520   27.04650   94.72740
 2689.50000   14.14790    0.03390    4.84390    0.04580   -0.12840   11.27030    2.90020   -9999.25   -9999.25   29.41020   25.56470   58.57690
 2690.00000   13.76630    0.02840    4.71770    0.04240   -0.11830   11.24140    2.90080   -9999.25   -9999.25   28.29550   24.22500   43.35000
 2690.50000   12.17230    0.02250    4.59170    0.04170   -0.11840   11.23990    2.91630   -9999.25   -9999.25   29.19460   24.37140   49.64570
 2691.00000    9.97250    0.01920    4.46600    0.05810   -0.12870   11.23010    2.93100   -9999.25   -9999.25   35.49710   29.06500   78.90380
 2691.50000    8.46470    0.01620    4.63820    0.05280   -0.13750   11.19760    2.92720   -9999.25   -9999.25   41.88010   35.36790  120.60710
 2692.00000   10.53750    0.01650    4.77630    0.04840   -0.13600   11.16280    2.91340   -9999.25   -9999.25   49.41080   42.28130  149.61870
 2692.50000   13.80610    0.01780    4.77960    0.04190   -0.12530   11.14940    2.89650   -9999.25   -9999.25   55.89830   47.88790   88.03990
 2693.00000   14.79670    0.01960    4.70710    0.03540   -0.11220   11.13450    2.88320   -9999.25   -9999.25   61.93130   54.23800   20.79170
 2693.50000   14.52030    0.02250    4.60950    0.03320   -0.10390   11.11780    2.87440   -9999.25   -9999.25   68.61540   58.15640   25.98930
 2694.00000   14.88390    0.02640    4.56880    0.03290   -0.09930   11.07880    2.86850   -9999.25   -9999.25   78.13420   69.41720  101.48790
 2694.50000   16.50150    0.03690    4.54710    0.03260   -0.09470   11.03140    2.85010   -9999.25   -9999.25   83.27820   68.45210  325.75120
 2695.00000   19.12600    0.05690    4.70060    0.03200   -0.08050   10.98390    2.82500   -9999.25   -9999.25   73.12460   59.06970  367.54940
 2695.50000   21.20960    0.07980    4.78430    0.03080   -0.06440   10.95430    2.79580   -9999.25   -9999.25   54.70430   48.11600  121.74310
 2696.00000   22.17620    0.10650    4.65360    0.03030   -0.05130   10.92670    2.78000   -9999.25   -9999.25   40.41860   36.85470   46.62220
 2696.50000   22.91380    0.10390    4.10710    0.02990   -0.04560   10.90230    2.78050   -9999.25   -9999.25   32.88880   29.56370   16.31160
 2697.00000   23.22770    0.08840    3.65110    0.03020   -0.04390   10.88840    2.78620   -9999.25   -9999.25   31.25060   27.58620   15.16460
 2697.50000   22.68510    0.06700    3.26820    0.03630   -0.05520   10.86130    2.81820   -9999.25   -9999.25   36.14640   28.45790   32.49160
 2698.00000   20.19280    0.04040    3.15720    0.04310   -0.07460   10.84070    2.84760   -9999.25   -9999.25   47.61350   40.35660   44.58630
 2698.50000   16.05760    0.02860    3.19330    0.04240   -0.09810   10.81620    2.89260   -9999.25   -9999.25   62.29840   54.42690   66.96720
 2699.00000   16.47590    0.02400    3.62120    0.04070   -0.11780   10.81010    2.89910   -9999.25   -9999.25   71.05160   60.65500 1674.02720
 2699.50000   21.90320    0.02860    4.22810    0.03900   -0.10020   10.79960    2.85750   -9999.25   -9999.25   70.34590   57.64600  301.64620
 2700.00000   32.23660    0.04130    4.47460    0.03720   -0.06590   10.78860    2.81600   -9999.25   -9999.25   62.60440   47.24150   82.42750
 2700.50000   39.00390    0.04970    4.52310    0.03550   -0.04730   10.77530    2.77390   -9999.25   -9999.25   51.16620   39.56350   57.20920
 2701.00000   39.10730    0.04650    4.27730    0.03480   -0.03980   10.75690    2.78670   -9999.25   -9999.25   50.22090   38.97030   49.66890
 2701.50000   31.96250    0.03780    4.07910    0.03960   -0.05050   10.73850    2.81770   -9999.25   -9999.25   54.81230   43.27980   76.21100
 2702.00000   23.61560    0.03000    4.12650    0.05190   -0.08200   10.72230    2.86780   -9999.25   -9999.25   67.01570   51.77770  274.72250
 2702.50000   19.79100    0.02890    4.19890    0.05880   -0.10540   10.70630    2.88340   -9999.25   -9999.25   80.09810   61.94410  474.72630
 2703.00000   23.40370    0.03090    4.34350    0.05320   -0.10920   10.69830    2.85860   -9999.25   -9999.25   81.03810   64.59700  361.28400
 2703.50000   29.92550    0.04750    4.34410    0.04770   -0.08750   10.68350    2.81550   -9999.25   -9999.25   72.50770   59.84350   76.56920
