~Version ---------------------------------------------------
VERS.   2.0 : CWLS log ASCII Standard -VERSION 2.0
WRAP.    NO : One line per depth step
DLM . SPACE : Column Data Section Delimiter
~Well ------------------------------------------------------
STRT .F                 100.0 : START DEPTH
STOP .F                3870.0 : STOP DEPTH
STEP .F                   0.5 : STEP
NULL .               -9999.25 : NULL VALUE
COMP .                        : COMPANY
WELL .                        : WELL
FLD  .                        : FIELD
LOC  .                        : LOCATION
PROV .                        : PROVINCE
CNTY .                        : COUNTY
STAT .                        : STATE
CTRY .                        : COUNTRY
SRVC .                        : SERVICE COMPANY
DATE .                        : DATE
UWI  .                        : UNIQUE WELL ID
API  .                        : API NUMBER
SLAT .WGS84 2.635837888424696 : SURFACE LATITUDE
SLON .WGS84  7.82090469736201 : SURFACE LONGITUDE
DATUM.F               3435.28 : DEPTH DATUM ELEV
~Curve Information -----------------------------------------
DEPT.F     : 
GRD .GAPI  : GAMMA RAY
NPHI.DEC   : NEUTRON POROSITY LIMESTONE
PEF .B/E   : PHOTOELECTRIC FACTOR
DCOR.G/C3  : DENSITY CORRECTION
DPHI.DEC   : DENSITY POROSITY LIMESTONE
CALD.IN    : CALIPER
RHOB.G/C3  : BULK DENSITY
DTCO.US/F  : COMPRESSIONAL-WAVE INTERVAL TRANSIT TIME ACOUSTIC SLOWNESS
DTSM.US/F  : SHEAR-WAVE INTERVAL TRANSIT TIME DELTA-T
LLD .OHMM  : LATEROLOG LOG DEEP
LLS .OHMM  : LATEROLO LOG SHALLOW
MSFL.OHMM  : MICRO SPHERICALLY FOCUSED
~Params ----------------------------------------------------
~Other -----------------------------------------------------
~ASCII -----------------------------------------------------
# ...
 3068.00000    6.44970   -0.00340    4.80630    0.04480   -0.15670    9.84630    2.96450   -9999.25   -9999.25 3723.32910 4506.89790 2021.05770
 3068.50000    6.30990   -0.00270    4.82840    0.04320   -0.15610    9.83680    2.96470   -9999.25   -9999.25 2644.53590 4671.20900 2020.59290
 3069.00000    6.98310   -0.00130    4.73850    0.04370   -0.16040    9.83130    2.96250   -9999.25   -9999.25 1783.45120 2653.04690 2020.12930
 3069.50000   10.31050    0.00050    4.70570    0.04820   -0.15650    9.82900    2.95260   -9999.25   -9999.25 1063.97940 1919.42610 1971.31570
 3070.00000   13.04180    0.00200    4.73250    0.04770   -0.14830    9.81910    2.93390   -9999.25   -9999.25  739.90900  868.92250  849.91110
 3070.50000   14.24460    0.00270    4.78850    0.04590   -0.13990    9.80820    2.91780   -9999.25   -9999.25  722.22280  671.56880  705.34770
 3071.00000   13.70170    0.00220    4.86900    0.04440   -0.13180    9.79260    2.91690   -9999.25   -9999.25  744.48220  687.95480 1085.83300
 3071.50000   12.71580    0.00170    5.01880    0.04530   -0.12620    9.77730    2.92020   -9999.25   -9999.25  839.75870  975.84770 1522.12740
 3072.00000   12.50350    0.00040    5.04250    0.04690   -0.12870    9.76290    2.93190   -9999.25   -9999.25 1183.83790 1733.08400 1926.35220
 3072.50000   12.94820   -0.00090    4.93250    0.04950   -0.13750    9.74420    2.94330   -9999.25   -9999.25 1706.49120 2065.68900 2002.95970
 3073.00000   13.91170   -0.00220    4.84140    0.04870   -0.14400    9.72610    2.95320   -9999.25   -9999.25 2431.02080 2790.38380 2012.80200
 3073.50000   13.88720   -0.00310    4.81170    0.04650   -0.14930    9.71860    2.96320   -9999.25   -9999.25 3116.10990 3753.01370 2013.08150
 3074.00000   12.86200   -0.00380    4.86500    0.04600   -0.15720    9.71110    2.96660   -9999.25   -9999.25 3314.71220 4082.40330 2013.36010
 3074.50000   13.02050   -0.00390    4.91820    0.04560   -0.16040    9.70410    2.95550   -9999.25   -9999.25 3245.77880 3947.20240 2013.63870
 3075.00000   14.71230   -0.00310    4.97240    0.04500   -0.14950    9.69830    2.93550   -9999.25   -9999.25 3026.83150 3469.69900 2013.91830
 3075.50000   15.44330   -0.00010    5.00800    0.03900   -0.13650    9.68660    2.92170   -9999.25   -9999.25 2694.29540 3002.57100 2014.19700
 3076.00000   15.09170    0.00350    4.95960    0.03150   -0.12930    9.67830    2.91360   -9999.25   -9999.25 2211.67750 2558.55790 2014.47570
 3076.50000   18.80490    0.00750    4.88760    0.03170   -0.12500    9.68030    2.89900   -9999.25   -9999.25 1426.66630 1868.01350 2014.75440
 3077.00000   25.76730    0.01060    4.82480    0.03300   -0.11750    9.68220    2.87930   -9999.25   -9999.25  674.72210 1177.46920 1653.54760
 3077.50000   36.08510    0.00990    4.78400    0.03600   -0.10750    9.68410    2.88290   -9999.25   -9999.25  412.22450  638.07970  604.99280
 3078.00000   37.45810    0.00770    4.73260    0.04070   -0.10380    9.68030    2.89690   -9999.25   -9999.25  274.26070  345.78010  194.90940
 3078.50000   28.60300    0.00540    4.66130    0.04540   -0.12180    9.67370    2.93480   -9999.25   -9999.25  277.26890  307.10760  485.00150
 3079.00000   18.31060    0.00330    4.65070    0.04970   -0.14030    9.66710    2.95120   -9999.25   -9999.25  341.02590  427.49510 1794.68120
 3079.50000   12.87510    0.00270    4.79690    0.04950   -0.14900    9.66050    2.93480   -9999.25   -9999.25  432.77760  598.97360 1958.05360
 3080.00000   15.40080    0.00640    4.87080    0.04680   -0.14090    9.65390    2.90370   -9999.25   -9999.25  659.16850  839.23660 1973.63730
 3080.50000   18.20210    0.01370    4.94480    0.05400   -0.12170    9.65450    2.87120   -9999.25   -9999.25  944.09120 1052.23410 1989.34610
 3081.00000   21.76390    0.02740    4.60620    0.03420   -0.10210    9.66270    2.82810   -9999.25   -9999.25  996.69240 1064.00680 2005.17880
 3081.50000   24.72390    0.04400    4.26450    0.03370   -0.07020    9.66060    2.78960   -9999.25   -9999.25  894.97390  998.12920 2021.13870
 3082.00000   27.38260    0.05410    3.88390    0.03330   -0.04380    9.65720    2.76280   -9999.25   -9999.25  806.15460  871.76830 2037.22450
 3082.50000   30.32830    0.06120    3.47310    0.03450   -0.02880    9.65510    2.75110   -9999.25   -9999.25  728.39890  777.30530 1321.90310
 3083.00000   32.65490    0.06420    3.32150    0.03900   -0.02310    9.65490    2.75430   -9999.25   -9999.25  709.61250  774.03660 1024.64550
 3083.50000   33.44710    0.06190    3.28240    0.04740   -0.02650    9.65700    2.76890   -9999.25   -9999.25  718.14110  803.63850 1774.74990
 3084.00000   34.44440    0.05030    3.28000    0.05200   -0.03860    9.66030    2.79590   -9999.25   -9999.25  756.80210  834.42980 1951.02440
 3084.50000   36.79830    0.02970    3.31080    0.05470   -0.05660    9.66370    2.82560   -9999.25   -9999.25  798.36050  871.03590 1957.90530
 3085.00000   39.10800    0.01340    3.37580    0.05730   -0.07790    9.66860    2.86720   -9999.25   -9999.25  871.05690  904.61760 1965.92820
 3085.50000   35.19660    0.00560    3.45970    0.06100   -0.09610    9.67570    2.91640   -9999.25   -9999.25  904.93740  939.22930 1973.98290
 3086.00000   23.21100    0.00070    3.59620    0.06490   -0.13370    9.68280    2.94780   -9999.25   -9999.25  934.76700  955.93890 1982.07180
 3086.50000   16.17930    0.00000    3.85050    0.06780   -0.15380    9.69050    2.95320   -9999.25   -9999.25  921.33420  978.32530 1990.19370
 3087.00000   12.06770    0.00410    4.42060    0.06150   -0.15300    9.69820    2.93160   -9999.25   -9999.25  573.59420  771.89160 1998.34900
 3087.50000   14.90180    0.00900    5.13560    0.05160   -0.13450    9.70110    2.88710   -9999.25   -9999.25  259.49370  471.49610 1323.53190
 3088.00000   27.89180    0.02510    5.26370    0.04270   -0.10050    9.70370    2.85320   -9999.25   -9999.25  118.82020  238.59440  341.52260
 3088.50000   36.68470    0.04410    4.99080    0.03800   -0.08920    9.70740    2.83490   -9999.25   -9999.25   80.24780  108.32070   54.90370
 3089.00000   36.03110    0.05680    4.42260    0.04020   -0.07430    9.71110    2.82180   -9999.25   -9999.25   82.41800  102.24870   73.76320
 3089.50000   29.11300    0.05280    3.97150    0.04430   -0.06670    9.71470    2.82170   -9999.25   -9999.25  118.04270  186.15900 2030.01140
 3090.00000   21.35560    0.03450    3.61470    0.04810   -0.06710    9.71670    2.82790   -9999.25   -9999.25  188.07390  340.84340 2025.00700
 3090.50000   18.22880    0.01820    3.27600    0.05040   -0.07260    9.71850    2.84250   -9999.25   -9999.25  348.52160  592.16310 2020.01500
 3091.00000   17.10190    0.00800    3.09690    0.05390   -0.08670    9.72040    2.89430   -9999.25   -9999.25  699.52590  913.96160 2015.03530
 3091.50000   14.71060    0.00340    3.30550    0.05750   -0.11530    9.72480    2.92970   -9999.25   -9999.25 1143.20040 1410.63460 2010.06800
 3092.00000   12.20880   -0.00040    3.75320    0.06070   -0.13880    9.73740    2.94930   -9999.25   -9999.25 1198.07640 1526.14110 2005.11170
 3092.50000    9.67900   -0.00100    4.19570    0.06000   -0.15080    9.74310    2.96020   -9999.25   -9999.25 1128.37710 1316.93270 2000.16870
 3093.00000    9.64420   -0.00160    4.35060    0.05840   -0.15570    9.74410    2.96380   -9999.25   -9999.25  989.22660 1098.50610 1907.61040
 3093.50000   10.08840   -0.00290    4.39610    0.05660   -0.15700    9.74900    2.96210   -9999.25   -9999.25  867.24410  980.64390 1435.85140
 3094.00000   10.10370   -0.00330    4.44850    0.05470   -0.15610    9.74840    2.96010   -9999.25   -9999.25  859.55980  973.02910 2023.18130
 3094.50000    8.68990   -0.00370    4.65300    0.05450   -0.15480    9.74420    2.95800   -9999.25   -9999.25 1189.29470 1074.60020 2027.46190
 3095.00000    7.06520   -0.00410    4.93010    0.05270   -0.15310    9.74010    2.95520   -9999.25   -9999.25 2737.46480 1409.94170 2031.75280
 3095.50000    6.45910   -0.00400    4.95240    0.04970   -0.15210    9.73960    2.95140   -9999.25   -9999.25 4285.63530 1900.43980 2036.05160
