~Version ---------------------------------------------------
VERS.   2.0 : CWLS log ASCII Standard -VERSION 2.0
WRAP.    NO : One line per depth step
DLM . SPACE : Column Data Section Delimiter
~Well ------------------------------------------------------
STRT .F                 100.0 : START DEPTH
STOP .F                3870.0 : STOP DEPTH
STEP .F                   0.5 : STEP
NULL .               -9999.25 : NULL VALUE
COMP .                        : COMPANY
WELL .                        : WELL
FLD  .                        : FIELD
LOC  .                        : LOCATION
PROV .                        : PROVINCE
CNTY .                        : COUNTY
STAT .                        : STATE
CTRY .                        : COUNTRY
SRVC .                        : SERVICE COMPANY
DATE .                        : DATE
UWI  .                        : UNIQUE WELL ID
API  .                        : API NUMBER
SLAT .WGS84 2.635837888424696 : SURFACE LATITUDE
SLON .WGS84  7.82090469736201 : SURFACE LONGITUDE
DATUM.F               3435.28 : DEPTH DATUM ELEV
~Curve Information -----------------------------------------
DEPT.F     : 
GRD .GAPI  : GAMMA RAY
NPHI.DEC   : NEUTRON POROSITY LIMESTONE
PEF .B/E   : PHOTOELECTRIC FACTOR
DCOR.G/C3  : DENSITY CORRECTION
DPHI.DEC   : DENSITY POROSITY LIMESTONE
CALD.IN    : CALIPER
RHOB.G/C3  : BULK DENSITY
DTCO.US/F  : COMPRESSIONAL-WAVE INTERVAL TRANSIT TIME ACOUSTIC SLOWNESS
DTSM.US/F  : SHEAR-WAVE INTERVAL TRANSIT TIME DELTA-T
LLD .OHMM  : LATEROLOG LOG DEEP
LLS .OHMM  : LATEROLO LOG SHALLOW
MSFL.OHMM  : MICRO SPHERICALLY FOCUSED
~Params ----------------------------------------------------
~Other -----------------------------------------------------
~ASCII -----------------------------------------------------
# ...
 2564.00000   14.24610    0.02070    4.68730    0.03430   -0.09710    9.74900    2.89360   -9999.25   -9999.25  104.56180  119.67970   88.13890
 2564.50000    8.54970    0.01640    5.03070    0.03620   -0.11340    9.74140    2.90870   -9999.25   -9999.25  140.44580  163.22100  361.63480
 2565.00000    9.07590    0.02230    5.29090    0.03800   -0.12280    9.73450    2.90640   -9999.25   -9999.25  184.61920  194.05780 1714.39940
 2565.50000   17.10830    0.03570    5.02440    0.03920   -0.12260    9.73270    2.89600   -9999.25   -9999.25  194.45430  198.85270 1147.87490
 2566.00000   22.40700    0.05050    4.45650    0.03850   -0.11430    9.73090    2.87710   -9999.25   -9999.25  158.88540  182.22750  237.61690
 2566.50000   26.90630    0.04640    3.97580    0.03500   -0.10590    9.72740    2.87820   -9999.25   -9999.25  120.98110  137.44500  102.60570
 2567.00000   24.82490    0.03020    3.66860    0.03020   -0.10350    9.71980    2.89260   -9999.25   -9999.25  118.43930  121.18570   95.03360
 2567.50000   16.79850    0.01730    3.50420    0.03230   -0.11700    9.70780    2.93960   -9999.25   -9999.25  119.23180  121.95580  284.93480
 2568.00000   10.64730    0.01190    3.78140    0.03780   -0.13610    9.69160    2.93870   -9999.25   -9999.25  125.12650  131.39300 1595.99770
 2568.50000    9.60670    0.01210    4.24560    0.04000   -0.14160    9.67830    2.92260   -9999.25   -9999.25  121.48580  125.39310  217.03030
 2569.00000   11.18200    0.01940    4.65630    0.03370   -0.13450    9.68060    2.90570   -9999.25   -9999.25  121.08450  124.23790   28.93530
 2569.50000   13.92480    0.03650    4.68330    0.03580   -0.12030    9.68030    2.89220   -9999.25   -9999.25  126.05210  131.46750   31.76770
 2570.00000   17.90420    0.05800    4.23750    0.03880   -0.11290    9.67620    2.88510   -9999.25   -9999.25  135.76330  141.61180  110.86110
 2570.50000   21.78660    0.07990    3.62780    0.04170   -0.11150    9.66900    2.88250   -9999.25   -9999.25  146.22270  152.22560  327.76410
 2571.00000   23.83420    0.09460    3.08850    0.04180   -0.10820    9.65920    2.88550   -9999.25   -9999.25  156.26090  162.38170  472.94190
 2571.50000   23.87710    0.10680    2.66910    0.04060   -0.10740    9.65770    2.90060   -9999.25   -9999.25  153.49270  162.21150  181.75840
 2572.00000   21.58620    0.10750    2.50590    0.03930   -0.11420    9.66340    2.89880   -9999.25   -9999.25  116.89800  131.26160  133.50370
 2572.50000   20.30160    0.10520    2.45120    0.03810   -0.11890    9.66410    2.89040   -9999.25   -9999.25  107.90460  122.41680  143.42180
 2573.00000   20.69180    0.09550    2.70190    0.03660   -0.11180    9.65650    2.87720   -9999.25   -9999.25   95.30800  116.38500  224.56510
 2573.50000   21.03160    0.08030    2.94770    0.03480   -0.10360    9.65460    2.86960   -9999.25   -9999.25   79.74460   87.13220  128.07740
 2574.00000   19.71660    0.05540    3.20840    0.03300   -0.09940    9.65570    2.87730   -9999.25   -9999.25   66.72260   72.90260   79.65180
 2574.50000   17.69490    0.04040    3.30840    0.03120   -0.09950    9.66060    2.89300   -9999.25   -9999.25   55.82700   60.99680   69.62680
 2575.00000   15.83770    0.02290    3.49430    0.02940   -0.11250    9.66340    2.90930   -9999.25   -9999.25   50.67210   52.06210   86.18610
 2575.50000   13.58070    0.01460    3.93500    0.02760   -0.12300    9.66900    2.91720   -9999.25   -9999.25   54.62780   61.66850   61.17310
 2576.00000   10.43200    0.01190    4.55740    0.02910   -0.12780    9.67750    2.92200   -9999.25   -9999.25   66.95920   74.84380   90.60960
 2576.50000    9.36770    0.00900    5.15950    0.03100   -0.13080    9.67740    2.92480   -9999.25   -9999.25   82.07420   90.83380  417.48170
 2577.00000   10.63460    0.00840    5.22620    0.03290   -0.13310    9.66350    2.92580   -9999.25   -9999.25  107.57530  127.88070  400.84310
 2577.50000   13.04970    0.00900    5.27980    0.03540   -0.13330    9.66420    2.92680   -9999.25   -9999.25  153.71610  177.79180  217.00760
 2578.00000   13.10920    0.00930    5.04520    0.03790   -0.13370    9.66330    2.93020   -9999.25   -9999.25  203.64550  226.78330  129.86700
 2578.50000   11.62360    0.00960    4.86240    0.04040   -0.13590    9.66090    2.93460   -9999.25   -9999.25  201.70190  232.18020  145.93520
 2579.00000    9.08740    0.00990    4.82190    0.04290   -0.13920    9.65850    2.94040   -9999.25   -9999.25  181.82060  213.06570  302.03020
 2579.50000    9.36410    0.00950    4.75460    0.04540   -0.14280    9.65530    2.94520   -9999.25   -9999.25  163.89900  179.57280  525.62350
 2580.00000   10.72980    0.00810    4.95200    0.04650   -0.14520    9.65780    2.95150   -9999.25   -9999.25  147.74380  149.24950  159.19660
 2580.50000   11.02180    0.00560    5.12490    0.04730   -0.14790    9.66160    2.95780   -9999.25   -9999.25  145.30560  135.32780  163.44470
 2581.00000    9.92050    0.00240    5.22710    0.04820   -0.15480    9.66460    2.97580   -9999.25   -9999.25  185.23200  160.24580  220.97370
 2581.50000    8.10090   -0.00080    5.13560    0.04900   -0.16360    9.66420    2.99320   -9999.25   -9999.25  260.53260  307.46630  412.88630
 2582.00000    6.39290   -0.00210    5.01880    0.04980   -0.17340    9.66390    2.98980   -9999.25   -9999.25  395.64330  506.36640 1192.51660
 2582.50000    5.39110   -0.00100    4.94790    0.04460   -0.17680    9.66390    2.97410   -9999.25   -9999.25  659.30850  843.90140 2057.19560
 2583.00000    5.24720    0.00250    4.93790    0.03490   -0.16450    9.66380    2.94730   -9999.25   -9999.25 1032.28740 1320.03210 2012.88600
 2583.50000    6.54660    0.01250    4.92790    0.03310   -0.14800    9.66370    2.92540   -9999.25   -9999.25 1159.49170 1775.96340 2012.64950
 2584.00000   13.15130    0.02720    4.51690    0.03400   -0.13340    9.66360    2.89880   -9999.25   -9999.25  484.87930  738.19840 1570.59420
 2584.50000   23.92600    0.04940    4.02430    0.03490   -0.12110    9.66400    2.88070   -9999.25   -9999.25  202.76820  308.68250  187.72870
 2585.00000   32.51740    0.06150    3.55930    0.03280   -0.10880    9.67090    2.89660   -9999.25   -9999.25   84.79420  129.07760   25.29150
 2585.50000   34.21820    0.04820    3.20820    0.03110   -0.10910    9.67780    2.91710   -9999.25   -9999.25   65.60050   69.41490   24.07950
 2586.00000   28.08350    0.03070    2.95360    0.03850   -0.13110    9.67510    2.95180   -9999.25   -9999.25   76.69840   84.84950   51.88610
 2586.50000   17.44270    0.01680    2.95140    0.04590   -0.15270    9.67030    2.96880   -9999.25   -9999.25   94.11980  104.11950  137.65080
 2587.00000   12.26140    0.01090    3.59310    0.04870   -0.16090    9.66650    2.96200   -9999.25   -9999.25  123.37530  150.32830  447.65610
 2587.50000    9.44320    0.00820    4.41480    0.04550   -0.15620    9.66490    2.95070   -9999.25   -9999.25  158.18360  185.55890 1925.02010
 2588.00000    9.00140    0.00710    5.16700    0.04150   -0.15050    9.67550    2.93790   -9999.25   -9999.25  162.73090  205.31950  654.06500
 2588.50000    8.84760    0.00780    5.76750    0.03750   -0.14020    9.68370    2.92770   -9999.25   -9999.25  170.15380  206.49080  136.16350
 2589.00000    9.11410    0.00870    5.84440    0.03410   -0.13350    9.68570    2.92580   -9999.25   -9999.25  187.84690  230.43340  240.62210
 2589.50000    8.55060    0.00960    5.80590    0.03290   -0.13320    9.68800    2.92120   -9999.25   -9999.25  233.06390  264.48260 1960.01100
 2590.00000    9.88490    0.01220    5.76740    0.03170   -0.13280    9.70130    2.91160   -9999.25   -9999.25  289.16530  320.23080 2009.45560
 2590.50000   14.90030    0.01690    5.48480    0.02990   -0.12420    9.71460    2.86950   -9999.25   -9999.25  340.47650  390.73300 2009.09700
 2591.00000   21.06020    0.03630    4.89950    0.02950   -0.10630    9.71920    2.85070   -9999.25   -9999.25  210.98990  322.24600 1688.11190
 2591.50000   24.48530    0.06500    4.39910    0.02870   -0.08310    9.71990    2.81150   -9999.25   -9999.25   99.08960  137.00940  614.85550
