~Version ---------------------------------------------------
VERS.   2.0 : CWLS log ASCII Standard -VERSION 2.0
WRAP.    NO : One line per depth step
DLM . SPACE : Column Data Section Delimiter
~Well ------------------------------------------------------
STRT .F                 100.0 : START DEPTH
STOP .F                3870.0 : STOP DEPTH
STEP .F                   0.5 : STEP
NULL .               -9999.25 : NULL VALUE
COMP .                        : COMPANY
WELL .                        : WELL
FLD  .                        : FIELD
LOC  .                        : LOCATION
PROV .                        : PROVINCE
CNTY .                        : COUNTY
STAT .                        : STATE
CTRY .                        : COUNTRY
SRVC .                        : SERVICE COMPANY
DATE .                        : DATE
UWI  .                        : UNIQUE WELL ID
API  .                        : API NUMBER
SLAT .WGS84 2.635837888424696 : SURFACE LATITUDE
SLON .WGS84  7.82090469736201 : SURFACE LONGITUDE
DATUM.F               3435.28 : DEPTH DATUM ELEV
~Curve Information -----------------------------------------
DEPT.F     : 
GRD .GAPI  : GAMMA RAY
NPHI.DEC   : NEUTRON POROSITY LIMESTONE
PEF .B/E   : PHOTOELECTRIC FACTOR
DCOR.G/C3  : DENSITY CORRECTION
DPHI.DEC   : DENSITY POROSITY LIMESTONE
CALD.IN    : CALIPER
RHOB.G/C3  : BULK DENSITY
DTCO.US/F  : COMPRESSIONAL-WAVE INTERVAL TRANSIT TIME ACOUSTIC SLOWNESS
DTSM.US/F  : SHEAR-WAVE INTERVAL TRANSIT TIME DELTA-T
LLD .OHMM  : LATEROLOG LOG DEEP
LLS .OHMM  : LATEROLO LOG SHALLOW
MSFL.OHMM  : MICRO SPHERICALLY FOCUSED
~Params ----------------------------------------------------
~Other -----------------------------------------------------
~ASCII -----------------------------------------------------
# ...
 3852.00000   -9999.25   -9999.25    2.83010    0.05030   -0.00120    7.96960    2.70360   50.03130   95.60260   -9999.25   -9999.25   83.87600
 3852.50000   -9999.25   -9999.25    2.81400    0.04780    0.00860    7.97810    2.69090   50.02250   95.23490   -9999.25   -9999.25   79.35210
 3853.00000   -9999.25   -9999.25    2.80290    0.04510    0.01540    7.97550    2.68550   50.19920   95.16650   -9999.25   -9999.25   89.25280
 3853.50000   -9999.25   -9999.25    2.80210    0.04360    0.01590    7.96720    2.68660   50.58170   95.18490   -9999.25   -9999.25  104.37100
 3854.00000   -9999.25   -9999.25    2.80790    0.04570    0.01140    7.96050    2.69340   51.18410   95.33950   -9999.25   -9999.25  122.69130
 3854.50000   -9999.25   -9999.25    2.81280    0.04990    0.00690    7.96960    2.70170   51.77420   95.62220   -9999.25   -9999.25  121.35140
 3855.00000   -9999.25   -9999.25    2.81180    0.05110    0.00040    7.97320    2.71300   52.67310   96.09920   -9999.25   -9999.25  129.95760
 3855.50000   -9999.25   -9999.25    2.80150    0.05490   -0.00830    7.97650    2.73130   53.85890   97.11920   -9999.25   -9999.25  141.33020
 3856.00000   -9999.25   -9999.25    2.78650    0.05930   -0.02240    7.96350    2.75470   55.13030   98.57160   -9999.25   -9999.25  139.57760
 3856.50000   -9999.25   -9999.25    2.80730    0.06180   -0.02950    7.95040    2.75590   56.15360  100.04080   -9999.25   -9999.25  102.96300
 3857.00000   -9999.25   -9999.25    2.82980    0.05940   -0.02760    7.94090    2.74910   56.49330  100.62870   -9999.25   -9999.25   57.06910
 3857.50000   -9999.25   -9999.25    2.84760    0.05940   -0.01830    7.94930    2.73930   56.54550  101.02410   -9999.25   -9999.25   30.07940
 3858.00000   -9999.25   -9999.25    2.85990    0.05490   -0.00480    7.96080    2.70850   56.60550  101.34630   -9999.25   -9999.25   20.60490
 3858.50000   -9999.25   -9999.25    2.87110    0.04610    0.01830    7.96770    2.67970   56.61850  101.55020   -9999.25   -9999.25   19.13490
 3859.00000   -9999.25   -9999.25    2.88480    0.04030    0.04280    7.97420    2.60450   56.62370  101.70150   -9999.25   -9999.25   20.01530
 3859.50000   -9999.25   -9999.25    2.90120    0.03750    0.06690    7.98070    2.58390   56.61450  101.37720   -9999.25   -9999.25   18.16030
 3860.00000   -9999.25   -9999.25    2.91750    0.03460    0.08430    7.98720    2.56340   56.61960  101.01260   -9999.25   -9999.25   19.54070
 3860.50000   -9999.25   -9999.25    2.88990    0.03510    0.09800    7.99380    2.54280   56.61190  100.69020   -9999.25   -9999.25   -9999.25
 3861.00000   -9999.25   -9999.25    2.82130    0.03830    0.10530    8.00030    2.54230   56.54860  100.43680   -9999.25   -9999.25   -9999.25
 3861.50000   -9999.25   -9999.25    2.75260    0.04150    0.10490    8.00140    2.54420   56.53890  100.65830   -9999.25   -9999.25   -9999.25
 3862.00000   -9999.25   -9999.25    2.68400    0.04480    0.09420    7.99930    2.54680   56.54080  101.03440   -9999.25   -9999.25   -9999.25
 3862.50000   -9999.25   -9999.25    2.63030    0.04730    0.08200    7.99200    2.57300   56.56470  101.40260   -9999.25   -9999.25   -9999.25
 3863.00000   -9999.25   -9999.25    2.58550    0.05200    0.07610    7.98480    2.58540   56.63230  101.64090   -9999.25   -9999.25   -9999.25
 3863.50000   -9999.25   -9999.25    2.54400    0.05750    0.08400    7.95600    2.56210   56.74290  101.78760   -9999.25   -9999.25   -9999.25
 3864.00000   -9999.25   -9999.25    2.52280    0.07190    0.10170    7.89860    2.53140   56.91770  101.90780   -9999.25   -9999.25   -9999.25
 3864.50000   -9999.25   -9999.25    2.50990    0.09820    0.12390    7.74580    2.51330   57.23850  102.08910   -9999.25   -9999.25   -9999.25
 3865.00000   -9999.25   -9999.25    2.49560    0.13360    0.12860    7.33950    2.51680   57.57100  102.44820   -9999.25   -9999.25   -9999.25
 3865.50000   -9999.25   -9999.25   -9999.25   -9999.25   -9999.25    7.23230   -9999.25   57.99450  102.83260   -9999.25   -9999.25   -9999.25
 3866.00000   -9999.25   -9999.25   -9999.25   -9999.25   -9999.25    7.16370   -9999.25   58.29220  102.80300   -9999.25   -9999.25   -9999.25
 3866.50000   -9999.25   -9999.25   -9999.25   -9999.25   -9999.25   -9999.25   -9999.25   58.21850  102.38240   -9999.25   -9999.25   -9999.25
 3867.00000   -9999.25   -9999.25   -9999.25   -9999.25   -9999.25   -9999.25   -9999.25   57.60410  101.05150   -9999.25   -9999.25   -9999.25
 3867.50000   -9999.25   -9999.25   -9999.25   -9999.25   -9999.25   -9999.25   -9999.25   56.19940   98.14550   -9999.25   -9999.25   -9999.25
 3868.00000   -9999.25   -9999.25   -9999.25   -9999.25   -9999.25   -9999.25   -9999.25   52.16800   92.67370   -9999.25   -9999.25   -9999.25
 3868.50000   -9999.25   -9999.25   -9999.25   -9999.25   -9999.25   -9999.25   -9999.25   48.15040   84.69370   -9999.25   -9999.25   -9999.25
 3869.00000   -9999.25   -9999.25   -9999.25   -9999.25   -9999.25   -9999.25   -9999.25   40.04690   72.72150   -9999.25   -9999.25   -9999.25
 3869.50000   -9999.25   -9999.25   -9999.25   -9999.25   -9999.25   -9999.25   -9999.25   40.04700   59.43050   -9999.25   -9999.25   -9999.25
 3870.00000   -9999.25   -9999.25   -9999.25   -9999.25   -9999.25   -9999.25   -9999.25   40.04900   41.11190   -9999.25   -9999.25   -9999.25
