~Version ---------------------------------------------------
VERS.   2.0 : CWLS log ASCII Standard -VERSION 2.0
WRAP.    NO : One line per depth step
DLM . SPACE : Column Data Section Delimiter
~Well ------------------------------------------------------
STRT .F                 100.0 : START DEPTH
STOP .F                3870.0 : STOP DEPTH
STEP .F                   0.5 : STEP
NULL .               -9999.25 : NULL VALUE
COMP .                        : COMPANY
WELL .                        : WELL
FLD  .                        : FIELD
LOC  .                        : LOCATION
PROV .                        : PROVINCE
CNTY .                        : COUNTY
STAT .                        : STATE
CTRY .                        : COUNTRY
SRVC .                        : SERVICE COMPANY
DATE .                        : DATE
UWI  .                        : UNIQUE WELL ID
API  .                        : API NUMBER
SLAT .WGS84 2.635837888424696 : SURFACE LATITUDE
SLON .WGS84  7.82090469736201 : SURFACE LONGITUDE
DATUM.F               3435.28 : DEPTH DATUM ELEV
~Curve Information -----------------------------------------
DEPT.F     : 
GRD .GAPI  : GAMMA RAY
NPHI.DEC   : NEUTRON POROSITY LIMESTONE
PEF .B/E   : PHOTOELECTRIC FACTOR
DCOR.G/C3  : DENSITY CORRECTION
DPHI.DEC   : DENSITY POROSITY LIMESTONE
CALD.IN    : CALIPER
RHOB.G/C3  : BULK DENSITY
DTCO.US/F  : COMPRESSIONAL-WAVE INTERVAL TRANSIT TIME ACOUSTIC SLOWNESS
DTSM.US/F  : SHEAR-WAVE INTERVAL TRANSIT TIME DELTA-T
LLD .OHMM  : LATEROLOG LOG DEEP
LLS .OHMM  : LATEROLO LOG SHALLOW
MSFL.OHMM  : MICRO SPHERICALLY FOCUSED
~Params ----------------------------------------------------
~Other -----------------------------------------------------
~ASCII -----------------------------------------------------
# ...
 2760.00000    6.27390    0.00410    4.81080    0.03640   -0.14140    9.83030    2.92010   -9999.25   -9999.25  365.62190  472.39780 1332.77120
 2760.50000    7.26060    0.01240    4.58230    0.01940   -0.12240    9.80360    2.84140   -9999.25   -9999.25  511.23190  493.16330 1983.94310
 2761.00000    9.91570    0.02600    4.42580    0.01770   -0.08030    9.78260    2.80210   -9999.25   -9999.25  600.85310  482.15620 2004.05520
 2761.50000   12.52150    0.05070    4.15570    0.01810   -0.04580    9.77550    2.74670   -9999.25   -9999.25  545.85430  403.31910 2024.37230
 2762.00000   14.98320    0.07650    3.69760    0.01860   -0.01770    9.76840    2.72540   -9999.25   -9999.25  317.56090  229.03680 2044.89540
 2762.50000   25.33520    0.07870    3.49140    0.02090   -0.00750    9.75780    2.72480   -9999.25   -9999.25  169.56470  122.29250  159.48550
 2763.00000   31.80380    0.05970    3.32980    0.02320   -0.01100    9.74170    2.74570   -9999.25   -9999.25   90.54060   70.57660   87.74730
 2763.50000   30.94380    0.03460    3.27190    0.02850   -0.02290    9.73890    2.78110   -9999.25   -9999.25   62.53960   56.20160   35.22440
 2764.00000   23.62320    0.01830    3.41980    0.03500   -0.04460    9.75280    2.81770   -9999.25   -9999.25   62.41260   54.06810   42.23570
 2764.50000   14.88290    0.00560    3.63660    0.04180   -0.08960    9.74620    2.87210   -9999.25   -9999.25   80.92950   67.91470  264.85730
 2765.00000    9.83350    0.00540    4.01140    0.04860   -0.11460    9.73710    2.92180   -9999.25   -9999.25  114.00390   95.26640 1918.40650
 2765.50000    9.01580    0.00680    4.63520    0.04890   -0.13270    9.72740    2.90530   -9999.25   -9999.25  160.59510  134.20510 2005.32850
 2766.00000   12.70050    0.01260    5.03890    0.04600   -0.12230    9.71770    2.86770   -9999.25   -9999.25  209.91540  185.12210 1991.92080
 2766.50000   19.70490    0.02530    4.84010    0.03780   -0.10200    9.70100    2.82170   -9999.25   -9999.25  209.81000  167.14970  383.26920
 2767.00000   29.61340    0.03570    4.27270    0.03120   -0.07080    9.69190    2.78240   -9999.25   -9999.25  135.47320  107.97910  155.12910
 2767.50000   38.46000    0.04360    3.91860    0.03120   -0.03950    9.68550    2.75010   -9999.25   -9999.25   87.47430   67.53260   55.12950
 2768.00000   42.02460    0.04140    3.69010    0.03120   -0.02290    9.68170    2.74040   -9999.25   -9999.25   75.86170   68.48260   51.03330
 2768.50000   35.90260    0.03440    3.62020    0.03440   -0.02490    9.68530    2.77050   -9999.25   -9999.25   96.55380   81.48100   87.95340
 2769.00000   24.76860    0.03200    3.65340    0.04180   -0.04830    9.68900    2.82620   -9999.25   -9999.25  139.60200  115.18910  158.74680
 2769.50000   17.24070    0.03480    3.82790    0.04680   -0.07140    9.69260    2.82870   -9999.25   -9999.25  201.84300  166.55720  505.83720
 2770.00000   15.95730    0.04690    4.15580    0.03810   -0.07170    9.69380    2.82140   -9999.25   -9999.25  258.72460  230.20940 1316.56340
 2770.50000   18.30030    0.05690    4.45890    0.03100   -0.06020    9.68830    2.79910   -9999.25   -9999.25  285.06280  265.88510 1958.21280
 2771.00000   20.71740    0.07060    4.35390    0.03150   -0.04950    9.68750    2.78270   -9999.25   -9999.25  211.16810  175.92630  175.89160
 2771.50000   23.83500    0.09000    4.08980    0.03270   -0.04300    9.68950    2.77290   -9999.25   -9999.25  124.07230  125.58470   66.01440
 2772.00000   29.56230    0.10780    4.04750    0.03440   -0.03760    9.69270    2.75790   -9999.25   -9999.25   72.89900   89.64850   70.59850
 2772.50000   40.25370    0.11590    4.01020    0.03680   -0.02650    9.69600    2.73070   -9999.25   -9999.25   42.83200   54.50550   91.13040
 2773.00000   50.82090    0.11510    3.97290    0.03930   -0.01110    9.69380    2.70900   -9999.25   -9999.25   25.16600   32.47920   45.03220
 2773.50000   57.35200    0.09750    3.84780    0.04360    0.00000    9.68900    2.73420   -9999.25   -9999.25   20.56760   24.12590   18.81720
 2774.00000   52.38110    0.05270    3.68700    0.04870   -0.00880    9.68410    2.77960   -9999.25   -9999.25   19.59200   23.66850   11.79050
 2774.50000   39.23950    0.02710    3.53270    0.05380   -0.04470    9.68270    2.84600   -9999.25   -9999.25   22.31200   28.99860   10.28550
 2775.00000   27.22620    0.00830    3.84700    0.05940   -0.08370    9.69010    2.89120   -9999.25   -9999.25   35.11390   44.67300   30.72770
 2775.50000   16.32830    0.00010    4.25620    0.06380   -0.12950    9.69760    2.94150   -9999.25   -9999.25   55.26110   71.01400  236.89040
 2776.00000   11.29210   -0.00340    4.52210    0.07660   -0.15470    9.70510    2.97130   -9999.25   -9999.25  105.44230  122.45890  310.14380
 2776.50000    8.54580   -0.00530    4.68380    0.06500   -0.16820    9.71810    2.98350   -9999.25   -9999.25  212.30820  191.67240  266.29060
 2777.00000    6.70130   -0.00560    4.63380    0.05350   -0.17300    9.72820    2.98060   -9999.25   -9999.25  427.48290  299.41960  594.96060
 2777.50000    4.96430   -0.00550    5.01970    0.04530   -0.16730    9.73170    2.97270   -9999.25   -9999.25  894.40260  610.12420 1999.37500
 2778.00000    3.34940   -0.00540    5.27700    0.03860   -0.16120    9.73450    2.96390   -9999.25   -9999.25 1897.73020 1294.59450   -9999.25
 2778.50000    3.22070   -0.00540    5.49520    0.03720   -0.15550    9.73560    2.95530   -9999.25   -9999.25 2689.87790 2008.52890   -9999.25
 2779.00000    3.58380   -0.00500    5.57470    0.03550   -0.14860    9.73670    2.94450   -9999.25   -9999.25 4365.06590 2722.46340   -9999.25
 2779.50000    4.20770   -0.00430    5.59140    0.03320   -0.14360    9.73850    2.93870   -9999.25   -9999.25 7083.51510 4342.58890   -9999.25
 2780.00000    4.28550   -0.00370    5.50640    0.03420   -0.14210    9.74140    2.94090   -9999.25   -9999.25 11494.94340 6922.48730   -9999.25
 2780.50000    4.09650   -0.00290    5.32730    0.03750   -0.14310    9.74470    2.94350   -9999.25   -9999.25 13902.01860 9597.21680   -9999.25
 2781.00000    3.97060   -0.00210    5.14810    0.03830   -0.14520    9.74930    2.93980   -9999.25   -9999.25 14215.00980 9444.37500   -9999.25
 2781.50000    4.16400    0.00100    4.94700    0.03610   -0.13930    9.75580    2.92520   -9999.25   -9999.25 11442.12010 6161.25980   -9999.25
 2782.00000    4.60460    0.00820    4.69620    0.03380   -0.12700    9.75950    2.89020   -9999.25   -9999.25 6419.22660 3729.41110   -9999.25
 2782.50000    6.01260    0.02240    4.44180    0.03180   -0.10710    9.75970    2.86030   -9999.25   -9999.25 3601.29710 1956.03050   -9999.25
 2783.00000    8.21610    0.03750    4.02190    0.02860   -0.08090    9.76290    2.82140   -9999.25   -9999.25 2633.79050 1636.89820   -9999.25
 2783.50000   11.92340    0.05640    3.79540    0.02410   -0.06210    9.77930    2.79930   -9999.25   -9999.25 1666.28420 1369.83250   -9999.25
 2784.00000   17.38530    0.06370    3.59150    0.02330   -0.05150    9.77240    2.78960   -9999.25   -9999.25 1298.98120  969.84100   -9999.25
 2784.50000   25.33040    0.06780    3.58150    0.02650   -0.04850    9.78010    2.79180   -9999.25   -9999.25  637.15970  475.71480 1173.66800
 2785.00000   29.63790    0.06170    3.63110    0.02950   -0.05300    9.80950    2.79900   -9999.25   -9999.25  312.53150  233.34210  295.01220
 2785.50000   29.59630    0.05680    3.78150    0.03280   -0.06060    9.84750    2.80600   -9999.25   -9999.25  151.52130  110.68680   74.63550
 2786.00000   28.70570    0.06160    3.96230    0.03690   -0.06110    9.86370    2.80130   -9999.25   -9999.25   70.44610   56.06990   49.69810
 2786.50000   29.36700    0.07570    3.96130    0.03780   -0.05610    9.87140    2.78910   -9999.25   -9999.25   49.17160   44.51460   24.44400
 2787.00000   29.45100    0.09190    3.79930    0.03470   -0.04660    9.87920    2.76760   -9999.25   -9999.25   45.79590   44.60450   29.29750
 2787.50000   27.51440    0.09900    3.53430    0.03160   -0.03110    9.90010    2.75030   -9999.25   -9999.25   48.40710   46.73570   83.44030
