~Version ---------------------------------------------------
VERS.   2.0 : CWLS log ASCII Standard -VERSION 2.0
WRAP.    NO : One line per depth step
DLM . SPACE : Column Data Section Delimiter
~Well ------------------------------------------------------
STRT .F                 100.0 : START DEPTH
STOP .F                3870.0 : STOP DEPTH
STEP .F                   0.5 : STEP
NULL .               -9999.25 : NULL VALUE
COMP .                        : COMPANY
WELL .                        : WELL
FLD  .                        : FIELD
LOC  .                        : LOCATION
PROV .                        : PROVINCE
CNTY .                        : COUNTY
STAT .                        : STATE
CTRY .                        : COUNTRY
SRVC .                        : SERVICE COMPANY
DATE .                        : DATE
UWI  .                        : UNIQUE WELL ID
API  .                        : API NUMBER
SLAT .WGS84 2.635837888424696 : SURFACE LATITUDE
SLON .WGS84  7.82090469736201 : SURFACE LONGITUDE
DATUM.F               3435.28 : DEPTH DATUM ELEV
~Curve Information -----------------------------------------
DEPT.F     : 
GRD .GAPI  : GAMMA RAY
NPHI.DEC   : NEUTRON POROSITY LIMESTONE
PEF .B/E   : PHOTOELECTRIC FACTOR
DCOR.G/C3  : DENSITY CORRECTION
DPHI.DEC   : DENSITY POROSITY LIMESTONE
CALD.IN    : CALIPER
RHOB.G/C3  : BULK DENSITY
DTCO.US/F  : COMPRESSIONAL-WAVE INTERVAL TRANSIT TIME ACOUSTIC SLOWNESS
DTSM.US/F  : SHEAR-WAVE INTERVAL TRANSIT TIME DELTA-T
LLD .OHMM  : LATEROLOG LOG DEEP
LLS .OHMM  : LATEROLO LOG SHALLOW
MSFL.OHMM  : MICRO SPHERICALLY FOCUSED
~Params ----------------------------------------------------
~Other -----------------------------------------------------
~ASCII -----------------------------------------------------
# ...
 3152.00000   25.18080    0.04150    4.78950    0.03220   -0.10020   11.01380    2.86050   -9999.25   -9999.25  132.58980  106.65290  114.91140
 3152.50000   30.01330    0.05870    4.53300    0.03290   -0.08350   11.03320    2.83480   -9999.25   -9999.25   93.17610   73.70770   88.88470
 3153.00000   32.08880    0.07880    4.26160    0.03430   -0.07300   11.05260    2.82110   -9999.25   -9999.25   65.47860   59.16330   57.65060
 3153.50000   31.95340    0.08770    4.01330    0.03710   -0.06510   11.07200    2.80950   -9999.25   -9999.25   58.97670   56.10510   44.10540
 3154.00000   30.09320    0.08760    3.80820    0.03990   -0.06050   11.08900    2.81150   -9999.25   -9999.25   64.99010   60.86010   64.73330
 3154.50000   27.15460    0.07780    3.59020    0.04290   -0.06270   11.11610    2.81800   -9999.25   -9999.25   85.79040   76.62580   82.08430
 3155.00000   24.23300    0.06360    3.21260    0.04620   -0.07090   11.12330    2.83060   -9999.25   -9999.25  113.24810   96.47550  156.99420
 3155.50000   21.22470    0.04580    3.08730    0.04860   -0.08170   11.15300    2.84500   -9999.25   -9999.25  149.12680  121.77340  495.43110
 3156.00000   18.86430    0.03480    3.07940    0.04840   -0.08830   11.19400    2.85390   -9999.25   -9999.25  194.62280  155.85620 1330.01060
 3156.50000   19.20560    0.02420    3.16710    0.04770   -0.09100   11.23160    2.85860   -9999.25   -9999.25  248.91030  199.47860 1881.86550
 3157.00000   20.18270    0.01870    3.25480    0.04450   -0.09280   11.26280    2.86150   -9999.25   -9999.25  269.51590  229.50250  858.79240
 3157.50000   20.61050    0.01780    3.41550    0.04020   -0.09670   11.29200    2.86900   -9999.25   -9999.25  227.29960  185.81920  142.41130
 3158.00000   20.14630    0.02210    3.63490    0.03600   -0.10250   11.32270    2.87190   -9999.25   -9999.25  149.97540  106.05240  234.26390
 3158.50000   22.74630    0.03510    3.89180    0.03180   -0.10030   11.37580    2.86280   -9999.25   -9999.25   96.71200   65.91870 1535.51990
 3159.00000   32.24030    0.05860    4.10050    0.02760   -0.07600   11.42060    2.82280   -9999.25   -9999.25   58.78080   41.07680   86.26010
 3159.50000   45.94770    0.09080    4.16480    0.02330   -0.03570   11.44360    2.75970   -9999.25   -9999.25   35.72660   26.10400   23.95690
 3160.00000   60.10320    0.11540    4.01470    0.01880    0.00630   11.46670    2.70980   -9999.25   -9999.25   23.51900   19.84480   17.97010
 3160.50000   58.35310    0.12150    3.67680    0.01820    0.03360   11.47920    2.67080   -9999.25   -9999.25   20.83300   19.62760   17.68000
 3161.00000   53.10330    0.11110    3.55840    0.02580    0.03260   11.47580    2.65810   -9999.25   -9999.25   21.05950   19.76240   17.70130
 3161.50000   46.14780    0.08980    3.48010    0.03090    0.02270   11.47360    2.67090   -9999.25   -9999.25   24.15000   22.45080   32.40810
 3162.00000   41.12780    0.08210    3.48710    0.03260    0.01460   11.47380    2.68320   -9999.25   -9999.25   28.32000   26.12530   45.65130
 3162.50000   40.12170    0.08020    3.52890    0.03060    0.01290   11.47450    2.68670   -9999.25   -9999.25   33.76130   30.40130   35.31210
 3163.00000   39.02440    0.07830    3.42920    0.03010    0.02420   11.48340    2.67640   -9999.25   -9999.25   40.71510   34.14520   38.56200
 3163.50000   37.52370    0.07520    3.23540    0.03320    0.02770   11.48620    2.66630   -9999.25   -9999.25   47.81750   37.55480   49.90680
 3164.00000   36.09190    0.07020    3.13520    0.03620    0.02240   11.49080    2.67550   -9999.25   -9999.25   50.95420   41.30490   51.96890
 3164.50000   36.40240    0.06460    3.15560    0.03880    0.01170   11.49680    2.68920   -9999.25   -9999.25   52.01270   43.57190   52.14370
 3165.00000   37.76510    0.06150    3.17600    0.03890    0.00270   11.49530    2.70170   -9999.25   -9999.25   52.76790   43.41040   50.04430
 3165.50000   38.27940    0.05970    3.24930    0.03900   -0.00180   11.49050    2.71000   -9999.25   -9999.25   52.85090   41.28140   42.07350
 3166.00000   38.20230    0.05880    3.33570    0.03810   -0.00350   11.48080    2.71460   -9999.25   -9999.25   50.36150   39.38670   44.21230
 3166.50000   37.71540    0.05950    3.40130    0.03610   -0.00430   11.47300    2.71610   -9999.25   -9999.25   47.64260   37.95180   50.74540
 3167.00000   38.47950    0.06590    3.46820    0.03360   -0.00420   11.47250    2.71630   -9999.25   -9999.25   45.49390   36.08010   53.64840
 3167.50000   37.92150    0.07010    3.54410    0.03100   -0.00090   11.46500    2.71420   -9999.25   -9999.25   43.44210   34.30080   45.88090
 3168.00000   37.51970    0.07390    3.62020    0.03100    0.00140   11.45210    2.70830   -9999.25   -9999.25   41.65380   32.60920   42.56360
 3168.50000   37.69240    0.07370    3.69080    0.03140   -0.00110   11.43430    2.71150   -9999.25   -9999.25   41.14640   32.06900   43.79880
 3169.00000   39.11480    0.06960    3.74940    0.03410   -0.00800   11.41660    2.71860   -9999.25   -9999.25   42.07650   31.91670   43.78740
 3169.50000   40.26170    0.05750    3.79030    0.03660   -0.01730   11.38900    2.73170   -9999.25   -9999.25   43.95430   31.83320   43.48440
 3170.00000   37.58220    0.03810    3.63660    0.04170   -0.03340   11.35640    2.77290   -9999.25   -9999.25   47.30760   32.06990   46.21640
 3170.50000   31.71190    0.02050    3.51000    0.04640   -0.06270   11.33020    2.81810   -9999.25   -9999.25   61.30470   41.12700   60.88890
 3171.00000   23.57070    0.00800    3.58430    0.04940   -0.09100   11.31030    2.84690   -9999.25   -9999.25   87.25040   59.06490  157.68830
 3171.50000   18.27290    0.00280    3.78040    0.05250   -0.12780   11.28840    2.89150   -9999.25   -9999.25  148.46710   85.42220 2002.71680
 3172.00000   15.28830    0.00200    4.21830    0.05550   -0.14550   11.26810    2.93290   -9999.25   -9999.25  199.29210  146.10870 2001.78360
 3172.50000   14.16800    0.00280    4.64600    0.05700   -0.14360   11.24890    2.94350   -9999.25   -9999.25  267.51590  228.70860 1214.35340
 3173.00000   14.60320    0.00490    4.82220    0.04910   -0.13710   11.22420    2.93630   -9999.25   -9999.25  279.73390  249.40690  299.33590
 3173.50000   14.74250    0.00740    4.99410    0.04180   -0.12770   11.18580    2.92180   -9999.25   -9999.25  261.96380  241.43890  262.71540
 3174.00000   14.32590    0.01000    5.03690    0.04080   -0.12450   11.15300    2.91430   -9999.25   -9999.25  230.76750  217.90750  274.83440
 3174.50000   12.24210    0.01220    4.98620    0.04090   -0.12610   11.12160    2.91220   -9999.25   -9999.25  203.19610  196.66940  352.06160
 3175.00000   12.87500    0.01390    4.93550    0.04190   -0.12530   11.09660    2.91220   -9999.25   -9999.25  182.19730  177.50130  724.26360
 3175.50000   15.83440    0.01290    4.84050    0.04180   -0.11840   11.07160    2.90730   -9999.25   -9999.25  172.06790  160.20130  215.87170
 3176.00000   18.61780    0.00960    4.53910    0.04170   -0.11310   11.04010    2.89530   -9999.25   -9999.25  164.95570  154.01370  134.70280
 3176.50000   19.57790    0.00590    4.28390    0.04160   -0.11460   11.00990    2.89360   -9999.25   -9999.25  169.02440  155.08230  249.80100
 3177.00000   16.80850    0.00170    4.21830    0.04150   -0.12020   10.97970    2.90290   -9999.25   -9999.25  207.17680  202.41810  718.20610
 3177.50000   13.36690   -0.00160    4.32200    0.04140   -0.12470   10.93900    2.90950   -9999.25   -9999.25  286.99070  264.72040 1934.86600
 3178.00000   11.03110   -0.00330    4.69180    0.03940   -0.12390   10.89660    2.90950   -9999.25   -9999.25  413.63540  359.24490 1916.70530
 3178.50000    8.76750   -0.00510    4.93880    0.03420   -0.12250   10.85620    2.90890   -9999.25   -9999.25  614.10220  518.45770 1072.60220
 3179.00000    7.78560   -0.00660    5.04150    0.03480   -0.12370   10.82320    2.91150   -9999.25   -9999.25  911.72410  748.23160 1847.61440
 3179.50000    7.51910   -0.00750    5.09310    0.03530   -0.13210   10.79300    2.92110   -9999.25   -9999.25 1370.15820 1079.83850 1987.81880
