~Version ---------------------------------------------------
VERS.   2.0 : CWLS log ASCII Standard -VERSION 2.0
WRAP.    NO : One line per depth step
DLM . SPACE : Column Data Section Delimiter
~Well ------------------------------------------------------
STRT .F                 100.0 : START DEPTH
STOP .F                3870.0 : STOP DEPTH
STEP .F                   0.5 : STEP
NULL .               -9999.25 : NULL VALUE
COMP .                        : COMPANY
WELL .                        : WELL
FLD  .                        : FIELD
LOC  .                        : LOCATION
PROV .                        : PROVINCE
CNTY .                        : COUNTY
STAT .                        : STATE
CTRY .                        : COUNTRY
SRVC .                        : SERVICE COMPANY
DATE .                        : DATE
UWI  .                        : UNIQUE WELL ID
API  .                        : API NUMBER
SLAT .WGS84 2.635837888424696 : SURFACE LATITUDE
SLON .WGS84  7.82090469736201 : SURFACE LONGITUDE
DATUM.F               3435.28 : DEPTH DATUM ELEV
~Curve Information -----------------------------------------
DEPT.F     : 
GRD .GAPI  : GAMMA RAY
NPHI.DEC   : NEUTRON POROSITY LIMESTONE
PEF .B/E   : PHOTOELECTRIC FACTOR
DCOR.G/C3  : DENSITY CORRECTION
DPHI.DEC   : DENSITY POROSITY LIMESTONE
CALD.IN    : CALIPER
RHOB.G/C3  : BULK DENSITY
DTCO.US/F  : COMPRESSIONAL-WAVE INTERVAL TRANSIT TIME ACOUSTIC SLOWNESS
DTSM.US/F  : SHEAR-WAVE INTERVAL TRANSIT TIME DELTA-T
LLD .OHMM  : LATEROLOG LOG DEEP
LLS .OHMM  : LATEROLO LOG SHALLOW
MSFL.OHMM  : MICRO SPHERICALLY FOCUSED
~Params ----------------------------------------------------
~Other -----------------------------------------------------
~ASCII -----------------------------------------------------
# ...
 3544.00000   80.31050    0.13900    2.53940    0.02840    0.10510    8.37930    2.54320   66.36880  106.45330   57.46670   41.68420   24.71110
 3544.50000   76.41420    0.13560    2.54870    0.02850    0.09800    8.37800    2.55290   66.88240  104.73090   67.98050   47.04160   18.05960
 3545.00000   72.34740    0.12590    2.58620    0.02880    0.08950    8.37670    2.56330   67.37010  102.45410   84.18270   54.82630   28.69250
 3545.50000   71.49950    0.11750    2.62200    0.02930    0.08320    8.37540    2.57520   67.85170  101.72460  104.24650   63.89920  119.44400
 3546.00000   76.75670    0.11320    2.60660    0.03010    0.07970    8.37410    2.57900   67.90830  101.12330  128.86920   81.72320   84.82540
 3546.50000   89.48250    0.11370    2.60970    0.02850    0.08330    8.37280    2.57740   68.22730  100.89620  159.25200  105.38530   69.33740
 3547.00000  100.11530    0.11570    2.64000    0.02690    0.08760    8.37560    2.57150   68.03120  100.63250  178.15450  107.51160   82.88300
 3547.50000  117.37740    0.11660    2.68750    0.02870    0.08810    8.37840    2.56940   66.02160  100.37850  174.92130  103.67630   66.68110
 3548.00000  130.22080    0.11390    2.75280    0.03060    0.08770    8.36950    2.56840   63.19870  100.41770  172.35730   98.78460   65.04330
 3548.50000  140.51770    0.11100    2.81060    0.02920    0.08840    8.36040    2.56760   61.31910  100.90800  173.99230  101.62840   78.81960
 3549.00000  149.75490    0.11040    2.79040    0.02960    0.08930    8.36730    2.56640   61.07950  101.48960  180.04230  111.96200  104.01120
 3549.50000  147.48910    0.11210    2.76320    0.02960    0.08890    8.36910    2.55300   61.68990  102.53200  192.68670  115.33880  130.24470
 3550.00000  141.95240    0.11750    2.71760    0.03050    0.09360    8.37410    2.53960   62.42100  103.63080  183.26900  103.90520   89.52250
 3550.50000  130.05910    0.13010    2.67860    0.03110    0.10300    8.37540    2.52620   63.17280  104.29340  133.86980   83.14420   42.99010
 3551.00000  121.19550    0.13700    2.63070    0.03230    0.11770    8.37410    2.49180   64.16970  105.25410   97.78600   63.50490   24.00590
 3551.50000  112.10330    0.14400    2.55190    0.03220    0.13280    8.37830    2.46430   65.87030  106.72550   74.64680   52.28150    9.52240
 3552.00000  107.75220    0.14900    2.46510    0.03160    0.15010    8.38060    2.44660   67.93410  108.87820   62.15280   47.99520   10.05540
 3552.50000  106.59130    0.14900    2.38020    0.03060    0.16590    8.37300    2.43430   69.37220  110.73210   56.82320   45.92680   13.06270
 3553.00000  107.18670    0.14620    2.37920    0.02960    0.17240    8.37300    2.41810   69.46790  112.31530   52.95740   44.07110   13.42550
 3553.50000  107.65360    0.14380    2.41430    0.02640    0.18150    8.37060    2.38990   68.10740  113.24040   49.48340   42.05480    6.42320
 3554.00000  105.25390    0.14410    2.45450    0.02180    0.19610    8.37030    2.35770   65.71560  113.48900   46.23720   39.21380    4.09310
 3554.50000  101.77280    0.15220    2.45160    0.01730    0.21790    8.38550    2.34990   63.33740  112.64030   44.97930   37.74560    3.60950
 3555.00000   93.13270    0.15530    2.39070    0.01860    0.21970    8.40070    2.39620   60.49460  110.02240   45.59240   37.51240    5.82120
 3555.50000   81.57830    0.15280    2.30060    0.02330    0.19590    8.40280    2.47120   57.78730  106.14810   61.27730   42.65580   12.63050
 3556.00000   60.40790    0.13410    2.29090    0.03060    0.11700    8.40970    2.56770   55.98650  103.06020   97.00460   67.60540   34.98730
 3556.50000   45.66790    0.10810    2.37240    0.04110    0.06570    8.41350    2.66370   55.26550  100.54380  144.83040  111.92870  379.06750
 3557.00000   28.45900    0.08340    2.50170    0.05160    0.00940    8.41890    2.72810   54.78750   98.02180  195.63810  143.00360 1771.69030
 3557.50000   24.94720    0.07000    2.76930    0.05490   -0.02070    8.42420    2.74720   54.30110   95.29710  203.11340  156.82490  446.72460
 3558.00000   37.62310    0.06880    3.16090    0.04740   -0.02180    8.42960    2.71600   53.92720   93.61450  143.31130  110.94970   72.79050
 3558.50000   51.98530    0.07390    3.21800    0.04590   -0.00530    8.43490    2.70860   53.56660   92.98280  104.26170   98.54040   40.87560
 3559.00000   60.70010    0.08220    3.11390    0.04180    0.00010    8.44200    2.72780   53.15940   94.55520  106.12470  100.62010   79.69670
 3559.50000   55.68020    0.08030    2.92550    0.04340   -0.00710    8.44300    2.76960   53.13340   95.76370  139.12910  113.69150  227.78960
 3560.00000   42.08550    0.07110    2.86220    0.04900   -0.03610    8.45780    2.80640   53.90270   95.99450  190.29490  155.63730 1524.27060
 3560.50000   29.48640    0.06040    2.84310    0.05450   -0.05960    8.46150    2.81910   54.93090   96.15950  226.88620  213.05870 2000.55530
 3561.00000   28.98460    0.05800    2.89140    0.05630   -0.06470    8.46640    2.80560   55.58350   97.11920  230.38570  202.35930 1890.59470
 3561.50000   37.25650    0.06630    2.93030    0.04460   -0.05350    8.48010    2.77140   55.99350   99.40800  165.81550  117.45910  464.82350
 3562.00000   56.06990    0.08220    2.96660    0.03880   -0.02370    8.47880    2.73070   55.87880  101.95280   96.24420   68.17890   80.25310
 3562.50000   73.69670    0.09520    3.00290    0.03290    0.00010    8.47740    2.69620   54.59790  101.95760   68.97970   66.81760   45.35130
 3563.00000   79.41330    0.09480    3.02490    0.02880    0.01360    8.47120    2.68430   52.76680  100.87380   75.98460   68.17630   75.49680
 3563.50000   68.27690    0.07800    3.00480    0.02880    0.01660    8.46150    2.71690   50.90730   97.28020  113.66900   87.98800  165.47970
 3564.00000   55.82500    0.06500    2.98470    0.04050   -0.01080    8.45830    2.75380   49.69350   92.03510  170.04270  131.63620  740.97030
 3564.50000   41.87210    0.05310    2.96870    0.05210   -0.03860    8.45900    2.79670   49.09940   88.98620  271.49040  196.93700 2042.52920
 3565.00000   36.57370    0.04430    2.99450    0.05830   -0.06720    8.47410    2.83710   48.39430   86.77820  513.40620  343.02560 2042.09190
 3565.50000   33.08710    0.04310    3.02020    0.05250   -0.07920    8.48830    2.83260   47.63500   86.26740  861.85960  648.60710 2041.65480
 3566.00000   30.96730    0.04430    3.09360    0.04460   -0.07040    8.46770    2.80670   47.63650   87.69010 1326.13200 1008.50780 2041.21770
 3566.50000   30.09910    0.04920    3.19220    0.03760   -0.04710    8.46940    2.77460   48.28560   89.94440 1497.50920 1274.14290 2040.78060
 3567.00000   29.98010    0.05470    3.26130    0.03100   -0.02560    8.47200    2.73160   49.69940   92.67440 1067.95690  621.49880 1863.77360
 3567.50000   32.25670    0.06560    3.20060    0.02440    0.00230    8.47570    2.66190   52.21490   96.21470  392.81300  178.31750  386.95020
 3568.00000   41.08720    0.08200    3.06700    0.01980    0.04550    8.47150    2.55700   55.54320  100.74660  119.41980   86.77520   69.03440
 3568.50000   59.54980    0.10710    2.93070    0.01250    0.09800    8.46680    2.47360   60.10420  105.38690   72.26620   52.50790   17.36190
 3569.00000   73.63400    0.13420    2.73570    0.01100    0.13480    8.46000    2.43270   63.61040  109.41420   48.03290   43.42860    8.53440
 3569.50000   82.13010    0.15150    2.60080    0.01370    0.16340    8.45310    2.42210   65.75210  115.57430   41.55770   39.03560   10.21690
 3570.00000   86.12570    0.16360    2.47860    0.01650    0.17570    8.45290    2.44940   65.44360  119.74390   39.68920   38.50420   11.93280
 3570.50000   89.49010    0.16320    2.38870    0.02210    0.15840    8.45330    2.49720   63.95140  122.73440   40.60080   38.92650   16.55530
 3571.00000   92.42690    0.15320    2.44270    0.02770    0.12780    8.45370    2.53930   62.64660  122.28050   44.54340   41.98570   34.14620
 3571.50000   95.06470    0.14400    2.49670    0.03330    0.09720    8.45760    2.57100   61.28660  119.35960   48.73530   45.47190   21.64210
