~Version ---------------------------------------------------
VERS.   2.0 : CWLS log ASCII Standard -VERSION 2.0
WRAP.    NO : One line per depth step
DLM . SPACE : Column Data Section Delimiter
~Well ------------------------------------------------------
STRT .F                 100.0 : START DEPTH
STOP .F                3870.0 : STOP DEPTH
STEP .F                   0.5 : STEP
NULL .               -9999.25 : NULL VALUE
COMP .                        : COMPANY
WELL .                        : WELL
FLD  .                        : FIELD
LOC  .                        : LOCATION
PROV .                        : PROVINCE
CNTY .                        : COUNTY
STAT .                        : STATE
CTRY .                        : COUNTRY
SRVC .                        : SERVICE COMPANY
DATE .                        : DATE
UWI  .                        : UNIQUE WELL ID
API  .                        : API NUMBER
SLAT .WGS84 2.635837888424696 : SURFACE LATITUDE
SLON .WGS84  7.82090469736201 : SURFACE LONGITUDE
DATUM.F               3435.28 : DEPTH DATUM ELEV
~Curve Information -----------------------------------------
DEPT.F     : 
GRD .GAPI  : GAMMA RAY
NPHI.DEC   : NEUTRON POROSITY LIMESTONE
PEF .B/E   : PHOTOELECTRIC FACTOR
DCOR.G/C3  : DENSITY CORRECTION
DPHI.DEC   : DENSITY POROSITY LIMESTONE
CALD.IN    : CALIPER
RHOB.G/C3  : BULK DENSITY
DTCO.US/F  : COMPRESSIONAL-WAVE INTERVAL TRANSIT TIME ACOUSTIC SLOWNESS
DTSM.US/F  : SHEAR-WAVE INTERVAL TRANSIT TIME DELTA-T
LLD .OHMM  : LATEROLOG LOG DEEP
LLS .OHMM  : LATEROLO LOG SHALLOW
MSFL.OHMM  : MICRO SPHERICALLY FOCUSED
~Params ----------------------------------------------------
~Other -----------------------------------------------------
~ASCII -----------------------------------------------------
# ...
 3348.00000    9.79230    0.00170    4.09360    0.03930   -0.12310    9.51570    2.92490   52.81190  108.34890  216.93240  297.87890 1946.36980
 3348.50000   10.21860    0.00000    4.32140    0.04130   -0.14470    9.51560    2.94690   53.30140  110.71130  382.38840  510.50910 1973.70560
 3349.00000   11.93140   -0.00020    4.50010    0.04510   -0.15000    9.52200    2.95140   53.79000  112.74190  765.33150  874.91780 2001.42640
 3349.50000   15.61940   -0.00020    4.39630    0.04630   -0.14910    9.52010    2.95210   54.15890  113.31780 1124.08740 1264.35860 2029.53660
 3350.00000   18.06690   -0.00030    4.39830    0.04860   -0.14990    9.51830    2.95110   54.46970  111.67840  926.82780 1158.91200 2027.72910
 3350.50000   16.22650   -0.00050    4.43380    0.04750   -0.15060    9.51640    2.94940   54.44990  108.16040  649.21200  604.33650  396.48480
 3351.00000   12.77530   -0.00070    4.67690    0.04650   -0.14740    9.51460    2.94220   54.37840  103.53930  605.14160  590.40060  724.64580
 3351.50000   10.80080   -0.00100    5.08500    0.04540   -0.14330    9.51270    2.93920   54.29410   97.55210  611.31310  596.42210 1997.96950
 3352.00000   10.07340   -0.00120    5.25350    0.04440   -0.14130    9.51160    2.93450   54.35330   92.57280  612.04410  597.47630 1997.57130
 3352.50000   11.44440   -0.00140    5.24780    0.04320   -0.13700    9.51110    2.92450   54.72380   89.21360  611.92250  597.35720 1460.52600
 3353.00000   11.93490   -0.00170    5.24020    0.04200   -0.13160    9.51690    2.92150   55.03870   89.84490  613.54620  598.18060  695.60340
 3353.50000   11.93540   -0.00140    5.29780    0.04260   -0.13000    9.51570    2.92150   55.16580   92.56800  631.41570  607.41350  752.82320
 3354.00000   11.95860   -0.00030    5.35550    0.04350   -0.13230    9.51570    2.92210   55.21710   95.33850  721.12930  645.23140 2052.25490
 3354.50000   12.16230    0.00190    5.40860    0.04090   -0.13220    9.51600    2.91710   55.26830   97.64780  878.52230  809.31230 2012.11490
 3355.00000   13.96100    0.00460    5.40620    0.03710   -0.12580    9.51840    2.88920   55.26410   98.76160  882.31640  785.79880 1972.75990
 3355.50000   18.94920    0.00940    5.23510    0.03330   -0.10540    9.49690    2.84650   55.20460   98.50250  604.61600  455.52840 1654.27840
 3356.00000   29.49890    0.01840    4.65490    0.02950   -0.07950    9.47470    2.80130   54.84750   96.02790  348.50590  252.97900  266.96700
 3356.50000   44.86720    0.02930    4.18500    0.02560   -0.04130    9.45250    2.74500   54.30310   92.73360  187.93900  140.50340  106.97440
 3357.00000   61.46640    0.04200    3.82870    0.02220   -0.01320    9.43010    2.71520   53.41070   89.47840  147.86480  109.20670  105.57340
 3357.50000   66.57970    0.05260    3.51940    0.02520    0.00220    9.40660    2.70240   52.82910   86.94740  138.22290  105.29960  119.76960
 3358.00000   59.74230    0.05400    3.27350    0.02810   -0.00100    9.39040    2.73790   52.71960   87.61390  130.29990   99.13610  142.51990
 3358.50000   49.67040    0.05290    3.18320    0.03210   -0.01920    9.37530    2.76400   52.87470   89.84900  122.68890   93.09380  194.49580
 3359.00000   43.62500    0.05050    3.26590    0.03790   -0.03630    9.36680    2.77620   53.05080   92.31200  110.38620   87.41970  221.96690
 3359.50000   44.51620    0.04940    3.44310    0.04160   -0.04050    9.36940    2.76620   53.35240   94.20110   86.43660   71.95670  101.15720
 3360.00000   46.18980    0.04780    3.66540    0.03710   -0.03280    9.37400    2.75310   53.77230   97.23940   64.59840   53.57710   42.83580
 3360.50000   46.41200    0.04550    3.81650    0.03600   -0.02750    9.37510    2.75150   54.16470   99.78920   57.89520   49.17280   34.08070
 3361.00000   45.72530    0.04050    3.75870    0.03540   -0.02580    9.36730    2.75400   54.51380  101.98010   58.13000   51.57140   80.56830
 3361.50000   42.89040    0.03850    3.68990    0.03540   -0.02710    9.36330    2.75830   54.72690  102.93700   63.09170   54.83210  157.88650
 3362.00000   40.48290    0.03750    3.61740    0.03460   -0.03000    9.38050    2.76430   55.45170  102.72740   68.94130   56.68930  139.02320
 3362.50000   40.77680    0.04050    3.58000    0.03130   -0.03410    9.37580    2.76500   56.71150  101.57610   69.70820   57.06000   79.51840
 3363.00000   42.41460    0.04540    3.77100    0.03120   -0.03550    9.37640    2.75810   58.47350  101.20750   69.85690   57.18240   55.70420
 3363.50000   42.46470    0.04960    3.96290    0.03100   -0.03210    9.37380    2.75450   60.34910  101.65660   75.89030   58.29230   64.48120
 3364.00000   41.17800    0.05340    4.13090    0.03160   -0.02940    9.36870    2.75190   62.70520  102.83830   83.98960   61.40640   89.01540
 3364.50000   39.82430    0.05610    4.22430    0.03250   -0.02770    9.36310    2.73810   64.36080  103.73160   91.56640   69.02720   88.42740
 3365.00000   37.99500    0.05750    4.22600    0.03020   -0.02110    9.35690    2.70290   62.66360  104.18000  100.29810   77.59370  126.35280
 3365.50000   36.78180    0.05780    3.94470    0.02660    0.00150    9.35950    2.66870   59.69720  104.90740  104.36580   79.26500  228.07020
 3366.00000   37.70590    0.05810    3.49480    0.02290    0.02910    9.34270    2.63120   58.96970  106.06230   98.77600   71.56590  104.74910
 3366.50000   41.64610    0.06530    3.12170    0.02100    0.04750    9.33990    2.58050   60.17790  107.22660   63.39710   50.38200   54.69600
 3367.00000   47.39710    0.07650    2.92960    0.02370    0.06820    9.33870    2.56270   60.83390  108.85260   40.69000   32.32790   27.72770
 3367.50000   52.18170    0.08770    2.83590    0.02640    0.08300    9.33440    2.56210   59.91940  110.78860   27.29850   23.80640   13.25630
 3368.00000   51.67430    0.09480    2.74210    0.02910    0.09190    9.33020    2.56370   58.25430  111.37570   24.56110   22.37390   10.41950
 3368.50000   44.54280    0.09090    2.67730    0.03150    0.09220    9.32240    2.56710   56.53430  110.36600   25.41750   22.96680   17.69980
 3369.00000   37.80310    0.08460    2.66670    0.03400    0.08650    9.31170    2.57400   55.13920  107.71230   31.58930   28.12770   43.63110
 3369.50000   33.71260    0.06870    2.65610    0.03550    0.08110    9.31200    2.62220   53.95660  104.56280   39.50520   35.00300   62.48490
 3370.00000   34.10750    0.05100    2.66060    0.03690    0.06960    9.29580    2.68540   52.99050  101.81710   51.99060   44.85530   76.05080
 3370.50000   34.55310    0.03340    2.67980    0.03830    0.04930    9.28270    2.74860   52.09400   99.38710   67.69050   58.29580   84.26940
 3371.00000   33.28710    0.02090    2.74070    0.03770    0.01470    9.27330    2.81760   50.91390   97.81760   86.67150   75.76350   89.67540
 3371.50000   27.32820    0.01400    2.93810    0.03620   -0.04920    9.25810    2.86980   49.71570   97.16250  112.52360   97.28200  167.92830
 3372.00000   21.17990    0.01200    3.32030    0.03480   -0.09590    9.23770    2.90100   48.71660   97.17310  150.54770  111.94260 1659.31010
 3372.50000   22.72470    0.01200    3.90330    0.03330   -0.11800    9.20970    2.86580   48.23520   97.70080  180.67330  125.40410 1487.31870
 3373.00000   26.90260    0.01380    4.33930    0.03260   -0.10530    9.18170    2.83220   48.16570   99.35100  191.52760  132.42800  177.48990
 3373.50000   29.83180    0.01720    4.30590    0.03240   -0.08220    9.16270    2.81900   48.37690  101.46350  172.97420  128.09720  147.42450
 3374.00000   29.61390    0.02120    4.27420    0.03220   -0.06930    9.13880    2.81130   48.79060  104.17320  147.72490  107.44430  476.38960
 3374.50000   30.02370    0.02550    4.34110    0.03200   -0.06360    9.11500    2.80210   50.27650  106.92860  120.33000   90.12110  702.37190
 3375.00000   33.07970    0.02950    4.49340    0.03130   -0.05870    9.09110    2.77160   52.74980  109.00540   93.76830   75.59100  116.43150
 3375.50000   38.26980    0.03790    4.62860    0.02970   -0.04720    9.08340    2.75890   55.54430  111.16320   75.37480   62.94820   41.59330
