~Version ---------------------------------------------------
VERS.   2.0 : CWLS log ASCII Standard -VERSION 2.0
WRAP.    NO : One line per depth step
DLM . SPACE : Column Data Section Delimiter
~Well ------------------------------------------------------
STRT .F                 100.0 : START DEPTH
STOP .F                3870.0 : STOP DEPTH
STEP .F                   0.5 : STEP
NULL .               -9999.25 : NULL VALUE
COMP .                        : COMPANY
WELL .                        : WELL
FLD  .                        : FIELD
LOC  .                        : LOCATION
PROV .                        : PROVINCE
CNTY .                        : COUNTY
STAT .                        : STATE
CTRY .                        : COUNTRY
SRVC .                        : SERVICE COMPANY
DATE .                        : DATE
UWI  .                        : UNIQUE WELL ID
API  .                        : API NUMBER
SLAT .WGS84 2.635837888424696 : SURFACE LATITUDE
SLON .WGS84  7.82090469736201 : SURFACE LONGITUDE
DATUM.F               3435.28 : DEPTH DATUM ELEV
~Curve Information -----------------------------------------
DEPT.F     : 
GRD .GAPI  : GAMMA RAY
NPHI.DEC   : NEUTRON POROSITY LIMESTONE
PEF .B/E   : PHOTOELECTRIC FACTOR
DCOR.G/C3  : DENSITY CORRECTION
DPHI.DEC   : DENSITY POROSITY LIMESTONE
CALD.IN    : CALIPER
RHOB.G/C3  : BULK DENSITY
DTCO.US/F  : COMPRESSIONAL-WAVE INTERVAL TRANSIT TIME ACOUSTIC SLOWNESS
DTSM.US/F  : SHEAR-WAVE INTERVAL TRANSIT TIME DELTA-T
LLD .OHMM  : LATEROLOG LOG DEEP
LLS .OHMM  : LATEROLO LOG SHALLOW
MSFL.OHMM  : MICRO SPHERICALLY FOCUSED
~Params ----------------------------------------------------
~Other -----------------------------------------------------
~ASCII -----------------------------------------------------
# ...
 3264.00000   30.06420    0.02770    3.63070    0.04070   -0.08220    9.45150    2.84490   -9999.25   -9999.25  503.26420  609.82490 1975.29790
 3264.50000   33.77860    0.02790    3.71140    0.04150   -0.08400    9.44650    2.84700   -9999.25   -9999.25  387.10930  483.92620 1278.81360
 3265.00000   39.73410    0.02900    3.86550    0.04230   -0.08560    9.44140    2.84940   -9999.25   -9999.25  256.68090  306.25270  333.96190
 3265.50000   41.51630    0.03180    3.95370    0.04370   -0.08730    9.43630    2.84940   -9999.25   -9999.25  153.66790  193.81200  154.60790
 3266.00000   37.23750    0.03760    4.01590    0.04510   -0.08730    9.43420    2.84880   -9999.25   -9999.25   97.56100  132.67030   77.51130
 3266.50000   29.33430    0.04070    4.09600    0.04650   -0.08640    9.43230    2.84660   -9999.25   -9999.25   88.33340   96.88310   66.29910
 3267.00000   26.33950    0.04410    4.32640    0.04170   -0.08450    9.43040    2.84090   -9999.25   -9999.25   85.98050   92.32250   65.76350
 3267.50000   28.72960    0.04530    4.49360    0.04100   -0.07860    9.42900    2.82690   -9999.25   -9999.25   87.22280   92.30140   20.76760
 3268.00000   32.90960    0.04380    4.32790    0.03860   -0.07360    9.43400    2.83860   -9999.25   -9999.25   90.86670  100.15880   48.11410
 3268.50000   34.78780    0.04180    4.04590    0.03910   -0.07820    9.43900    2.85560   -9999.25   -9999.25   96.28790  115.41940  935.04310
 3269.00000   34.33610    0.03960    3.98820    0.04340   -0.08990    9.44400    2.87170   -9999.25   -9999.25  101.22870  121.09360  240.42640
 3269.50000   31.90870    0.03860    3.99550    0.04670   -0.09820    9.44900    2.87760   -9999.25   -9999.25   97.63460  118.18020  162.29000
 3270.00000   29.71520    0.02490    4.20400    0.04810   -0.10440    9.45400    2.88240   -9999.25   -9999.25   91.39230  106.32110  100.87340
 3270.50000   27.18800    0.01620    4.43000    0.04920   -0.10670    9.45900    2.89600   -9999.25   -9999.25   88.15520   94.13150   65.20350
 3271.00000   23.68270    0.01020    4.69180    0.05030   -0.11390    9.46390    2.91620   -9999.25   -9999.25   90.14610   97.45540  108.55240
 3271.50000   18.63310    0.00430    5.02120    0.05010   -0.12610    9.46550    2.93230   -9999.25   -9999.25  122.30700  121.24650  274.45400
 3272.00000   15.25740    0.00360    5.16310    0.04970   -0.13440    9.46950    2.93230   -9999.25   -9999.25  176.30730  195.89010  662.76400
 3272.50000   12.90340    0.00640    5.13110    0.04370   -0.13520    9.47830    2.89610   -9999.25   -9999.25  264.61000  306.54350 2009.04640
 3273.00000   16.10000    0.01360    4.77110    0.03550   -0.11760    9.48720    2.85250   -9999.25   -9999.25  342.71880  379.23360 2020.57510
 3273.50000   35.27520    0.02770    4.18140    0.02510   -0.09200    9.49870    2.78770   -9999.25   -9999.25  251.41110  354.77170 1375.28420
 3274.00000   45.18700    0.05690    3.86730    0.02450   -0.04380    9.51020    2.73090   -9999.25   -9999.25  134.67500  188.98930  215.27530
 3274.50000   58.90620    0.07770    3.49020    0.02230   -0.01110    9.51230    2.69650   -9999.25   -9999.25   63.38380  100.66670   70.84230
 3275.00000   64.72260    0.08240    3.27480    0.02010    0.00850    9.50830    2.72010   -9999.25   -9999.25   48.78570   52.01630   32.62440
 3275.50000   64.77410    0.07530    3.15120    0.02760    0.00010    9.50220    2.75700   -9999.25   -9999.25   43.98090   48.50800   33.90880
 3276.00000   59.03240    0.06050    3.02750    0.03530   -0.02380    9.50050    2.80180   -9999.25   -9999.25   45.72820   55.62530   60.42170
 3276.50000   51.05850    0.04920    3.30420    0.04130   -0.05460    9.50140    2.82930   -9999.25   -9999.25   59.61330   67.23670  114.57820
 3277.00000   44.20200    0.03740    3.68600    0.04120   -0.07450    9.50230    2.84530   -9999.25   -9999.25   80.29400   81.27190  401.70140
 3277.50000   38.27920    0.02860    4.13480    0.04110   -0.08450    9.50470    2.85200   -9999.25   -9999.25   95.30210   98.23690  329.25520
 3278.00000   32.55310    0.02080    4.40070    0.03840   -0.08890    9.50960    2.85880   -9999.25   -9999.25   95.98470  106.61840  143.97550
 3278.50000   26.24250    0.01740    4.54260    0.03800   -0.09270    9.51420    2.86570   -9999.25   -9999.25   93.98420  105.59990   49.06640
 3279.00000   20.55090    0.01650    4.51310    0.03800   -0.09730    9.51980    2.87080   -9999.25   -9999.25  108.30720  118.92640   89.57740
 3279.50000   18.51260    0.01640    4.46910    0.03830   -0.09960    9.52870    2.86970   -9999.25   -9999.25  131.55990  150.12820 1109.03980
 3280.00000   20.45740    0.02110    4.27800    0.03860   -0.10190    9.53760    2.85650   -9999.25   -9999.25  166.04960  189.51600 1912.97990
 3280.50000   28.17680    0.02980    3.93450    0.03890   -0.09100    9.54640    2.83780   -9999.25   -9999.25  224.79260  259.18330 1420.52660
 3281.00000   35.91240    0.03380    3.54270    0.03910   -0.07830    9.55530    2.82820   -9999.25   -9999.25  257.24220  292.15070  466.94170
 3281.50000   44.92180    0.02890    3.43270    0.03910   -0.07050    9.56010    2.83090   -9999.25   -9999.25  184.01990  213.25860  364.44090
 3282.00000   49.65740    0.01620    3.56560    0.04220   -0.07560    9.55310    2.84910   -9999.25   -9999.25  131.63980  145.23980  224.86850
 3282.50000   46.42400    0.00790    3.75430    0.04540   -0.08640    9.54610    2.88150   -9999.25   -9999.25  121.16270  136.52840   85.43430
 3283.00000   34.87330    0.00060    4.05190    0.04640   -0.10420    9.53910    2.90820   -9999.25   -9999.25  153.57420  191.37400   70.19840
 3283.50000   16.65430   -0.00070    4.57530    0.04510   -0.12200    9.53210    2.91790   -9999.25   -9999.25  258.80020  268.25180  347.00270
 3284.00000   11.27140   -0.00060    5.07620    0.04360   -0.13050    9.52810    2.91520   -9999.25   -9999.25  442.61380  502.53890 1939.29090
 3284.50000   13.29490    0.00200    5.23370    0.04210   -0.12850    9.52710    2.90770   -9999.25   -9999.25  759.99000 1041.56320 1994.93790
 3285.00000   19.45330    0.00560    4.95140    0.04060   -0.12190    9.52980    2.88740   -9999.25   -9999.25  962.35750 1086.39220 1994.48020
 3285.50000   28.41840    0.00870    4.72140    0.04010   -0.10770    9.53460    2.86540   -9999.25   -9999.25  674.93250  955.56480 1791.03260
 3286.00000   34.77070    0.01090    4.59160    0.03950   -0.09600    9.53950    2.86390   -9999.25   -9999.25  453.31590  570.99790  771.76070
 3286.50000   36.99130    0.01260    4.41590    0.03900   -0.09700    9.54440    2.87590   -9999.25   -9999.25  301.28350  345.28630  412.61480
 3287.00000   32.80230    0.01590    4.30880    0.03870   -0.10420    9.54930    2.88690   -9999.25   -9999.25  200.13960  232.52170  264.13100
 3287.50000   26.41980    0.02190    4.39060    0.03870   -0.11190    9.55060    2.88900   -9999.25   -9999.25  132.95050  158.81480  561.57470
 3288.00000   27.61370    0.03110    4.49830    0.03870   -0.11280    9.53560    2.87420   -9999.25   -9999.25   91.18170  113.21260  899.53460
 3288.50000   31.87300    0.04320    4.63600    0.03710   -0.10250    9.52080    2.85470   -9999.25   -9999.25   64.82320   80.70470  144.58090
 3289.00000   34.52300    0.04790    4.62970    0.03320   -0.08680    9.52000    2.84520   -9999.25   -9999.25   57.21210   65.09750   62.42710
 3289.50000   33.24110    0.04250    4.37220    0.03190   -0.08350    9.51930    2.85190   -9999.25   -9999.25   58.93480   75.40120   36.06750
 3290.00000   29.94510    0.03170    4.11440    0.03570   -0.09150    9.51850    2.86730   -9999.25   -9999.25   81.33960  113.30500  220.53380
 3290.50000   27.37190    0.01990    3.91930    0.03900   -0.10050    9.51770    2.87140   -9999.25   -9999.25  116.27950  155.51090 1652.16380
 3291.00000   25.96660    0.01510    3.78360    0.03770   -0.10010    9.51690    2.87180   52.88110   78.96330  159.84770  197.49310 1287.09060
 3291.50000   24.12990    0.01330    3.72250    0.03650   -0.10030    9.51640    2.87620   52.55210   79.60400  196.09700  235.55370  356.07680
