~Version ---------------------------------------------------
VERS.   2.0 : CWLS log ASCII Standard -VERSION 2.0
WRAP.    NO : One line per depth step
DLM . SPACE : Column Data Section Delimiter
~Well ------------------------------------------------------
STRT .F                 100.0 : START DEPTH
STOP .F                3870.0 : STOP DEPTH
STEP .F                   0.5 : STEP
NULL .               -9999.25 : NULL VALUE
COMP .                        : COMPANY
WELL .                        : WELL
FLD  .                        : FIELD
LOC  .                        : LOCATION
PROV .                        : PROVINCE
CNTY .                        : COUNTY
STAT .                        : STATE
CTRY .                        : COUNTRY
SRVC .                        : SERVICE COMPANY
DATE .                        : DATE
UWI  .                        : UNIQUE WELL ID
API  .                        : API NUMBER
SLAT .WGS84 2.635837888424696 : SURFACE LATITUDE
SLON .WGS84  7.82090469736201 : SURFACE LONGITUDE
DATUM.F               3435.28 : DEPTH DATUM ELEV
~Curve Information -----------------------------------------
DEPT.F     : 
GRD .GAPI  : GAMMA RAY
NPHI.DEC   : NEUTRON POROSITY LIMESTONE
PEF .B/E   : PHOTOELECTRIC FACTOR
DCOR.G/C3  : DENSITY CORRECTION
DPHI.DEC   : DENSITY POROSITY LIMESTONE
CALD.IN    : CALIPER
RHOB.G/C3  : BULK DENSITY
DTCO.US/F  : COMPRESSIONAL-WAVE INTERVAL TRANSIT TIME ACOUSTIC SLOWNESS
DTSM.US/F  : SHEAR-WAVE INTERVAL TRANSIT TIME DELTA-T
LLD .OHMM  : LATEROLOG LOG DEEP
LLS .OHMM  : LATEROLO LOG SHALLOW
MSFL.OHMM  : MICRO SPHERICALLY FOCUSED
~Params ----------------------------------------------------
~Other -----------------------------------------------------
~ASCII -----------------------------------------------------
# ...
 2368.00000    5.70680   -0.01620   -9999.25    0.03560   -9999.25   10.88150    2.05000   -9999.25   -9999.25   -9999.25   -9999.25   -9999.25
 2368.50000    6.81210   -0.01640   -9999.25    0.03620   -9999.25   10.87130    2.05070   -9999.25   -9999.25   -9999.25   -9999.25   -9999.25
 2369.00000    7.29360   -0.01660   -9999.25    0.03700   -9999.25   10.86080    2.05090   -9999.25   -9999.25   -9999.25   -9999.25   -9999.25
 2369.50000    6.97940   -0.01750   -9999.25    0.03790   -9999.25   10.85580    2.05050   -9999.25   -9999.25   -9999.25   -9999.25   -9999.25
 2370.00000    6.49490   -0.01860   -9999.25    0.03870   -9999.25   10.82790    2.04780   -9999.25   -9999.25   -9999.25   -9999.25   -9999.25
 2370.50000    6.00450   -0.01860   -9999.25    0.03960   -9999.25   10.80000    2.04630   -9999.25   -9999.25   -9999.25   -9999.25   -9999.25
 2371.00000    5.42660   -0.01850   -9999.25    0.04050   -9999.25   10.77210    2.04470   -9999.25   -9999.25   -9999.25   -9999.25   -9999.25
 2371.50000    4.84300   -0.01860   -9999.25    0.04130   -9999.25   10.75800    2.04360   -9999.25   -9999.25   -9999.25   -9999.25   -9999.25
 2372.00000    4.85780   -0.01870   -9999.25    0.04220   -9999.25   10.75320    2.04170   -9999.25   -9999.25   -9999.25   -9999.25   -9999.25
 2372.50000    4.99600   -0.01890   -9999.25    0.04300   -9999.25   10.75310    2.03950   -9999.25   -9999.25   -9999.25   -9999.25   -9999.25
 2373.00000    5.23130   -0.01900   -9999.25    0.04390   -9999.25   10.75390    2.03820   -9999.25   -9999.25   -9999.25   -9999.25   -9999.25
 2373.50000    5.38320   -0.01910   -9999.25    0.04470   -9999.25   10.75480    2.03800   -9999.25   -9999.25   -9999.25   -9999.25   -9999.25
 2374.00000    5.69160   -0.01910   -9999.25    0.04560   -9999.25   10.75560    2.03800   -9999.25   -9999.25   -9999.25   -9999.25   -9999.25
 2374.50000    5.83040   -0.01910   -9999.25    0.04630   -9999.25   10.75640    2.03820   -9999.25   -9999.25   -9999.25   -9999.25   -9999.25
 2375.00000    5.77090   -0.01910   -9999.25    0.04560   -9999.25   10.75760    2.03810   -9999.25   -9999.25   -9999.25   -9999.25   -9999.25
 2375.50000    5.43800   -0.01910   -9999.25    0.04490   -9999.25   10.76030    2.03770   -9999.25   -9999.25   -9999.25   -9999.25   -9999.25
 2376.00000    4.92140   -0.01910   -9999.25    0.04430   -9999.25   10.76430    2.03940   -9999.25   -9999.25   -9999.25   -9999.25   -9999.25
 2376.50000    4.44640   -0.01930   -9999.25    0.04360   -9999.25   10.76920    2.04140   -9999.25   -9999.25   -9999.25   -9999.25   -9999.25
 2377.00000    4.01910   -0.01930   -9999.25    0.04290   -9999.25   10.77420    2.04590   -9999.25   -9999.25   -9999.25   -9999.25   -9999.25
 2377.50000    3.74310   -0.01920   -9999.25    0.04220   -9999.25   10.77910    2.04920   -9999.25   -9999.25   -9999.25   -9999.25   -9999.25
 2378.00000    3.71600   -0.01910   -9999.25    0.04150   -9999.25   10.78540    2.04850   -9999.25   -9999.25   -9999.25   -9999.25   -9999.25
 2378.50000    4.04940   -0.01900   -9999.25    0.04080   -9999.25   10.79390    2.04530   -9999.25   -9999.25   -9999.25   -9999.25   -9999.25
 2379.00000    4.58010   -0.01830   -9999.25    0.04010   -9999.25   10.80170    2.04190   -9999.25   -9999.25   -9999.25   -9999.25   -9999.25
 2379.50000    5.33560   -0.01760   -9999.25    0.03950   -9999.25   10.80200    2.04130   -9999.25   -9999.25   -9999.25   -9999.25   -9999.25
 2380.00000    6.52540   -0.01680   -9999.25    0.03960   -9999.25   10.80220    2.04880   -9999.25   -9999.25   -9999.25   -9999.25   -9999.25
 2380.50000    7.31410   -0.01610   -9999.25    0.03960   -9999.25   10.80250    2.05870   -9999.25   -9999.25   -9999.25   -9999.25   -9999.25
 2381.00000    8.66710   -0.01560   -9999.25    0.03960   -9999.25   10.80280    2.07540   -9999.25   -9999.25   -9999.25   -9999.25   -9999.25
 2381.50000   11.43000   -0.01540   -9999.25    0.03960   -9999.25   10.80720    2.11080   -9999.25   -9999.25   -9999.25   -9999.25   -9999.25
 2382.00000   12.85500   -0.01560   -9999.25    0.03960   -9999.25   10.81510    2.15380   -9999.25   -9999.25   -9999.25   -9999.25   -9999.25
 2382.50000   11.47360   -0.01650   -9999.25    0.03680   -9999.25   10.82220    2.17160   -9999.25   -9999.25   -9999.25   -9999.25   -9999.25
 2383.00000    8.34440   -0.01720   -9999.25    0.03350   -9999.25   10.82740    2.14830   -9999.25   -9999.25   -9999.25   -9999.25   -9999.25
 2383.50000    7.20150   -0.01820   -9999.25    0.03310   -9999.25   10.83260    2.11040   -9999.25   -9999.25   -9999.25   -9999.25   -9999.25
 2384.00000    6.44410   -0.01870    4.33480    0.03380    0.40820   10.83770    2.06450   -9999.25   -9999.25   -9999.25   -9999.25   -9999.25
 2384.50000    6.96960   -0.01870    4.36130    0.02720    0.41000   10.85980    2.04500   -9999.25   -9999.25   -9999.25   -9999.25   -9999.25
 2385.00000    6.49550   -0.01880    4.38780    0.02830    0.41120   10.87060    2.04580   -9999.25   -9999.25   -9999.25   -9999.25   -9999.25
 2385.50000    6.21990   -0.01870    4.41430    0.02950    0.40910   10.89080    2.04900   -9999.25   -9999.25   -9999.25   -9999.25   -9999.25
 2386.00000    5.63010   -0.01820    4.43960    0.03090    0.40870   10.91520    2.05190   -9999.25   -9999.25 98741.82030 17388.15230 1923.26450
 2386.50000    5.02950   -0.01770    4.45070    0.03230    0.40770   10.93220    2.05390   -9999.25   -9999.25 99290.82810 17476.52150 1923.51790
 2387.00000    4.66980   -0.01740    4.44830    0.03340    0.40540   10.93170    2.05750   -9999.25   -9999.25 99842.78910 17565.32030 1923.77040
 2387.50000    5.00750   -0.01700    4.44600    0.03430    0.40430   10.93160    2.05790   -9999.25   -9999.25 100007.14060 17654.57030 1924.02380
 2388.00000    5.83760   -0.01690    4.44760    0.03380    0.40520   10.92910    2.05590   -9999.25   -9999.25 100154.60160 17774.96680 1924.27620
 2388.50000    7.26800   -0.01680    4.45260    0.03210    0.40790   10.91750    2.05190   -9999.25   -9999.25 100302.28120 18364.77540 1924.52980
 2389.00000    8.76560   -0.01680    4.45400    0.03070    0.40960   10.92600    2.05130   -9999.25   -9999.25 100450.18750 19252.25200 1924.78230
 2389.50000   10.05790   -0.01650    4.40390    0.03220    0.40950   10.92840    2.05110   -9999.25   -9999.25 100598.30470 19938.31050 1925.03600
 2390.00000   10.35950   -0.01610    4.34120    0.03470    0.40900   10.93050    2.05110   -9999.25   -9999.25 100746.64060 19215.75980 1865.11330
 2390.50000   10.46320   -0.01580    4.27230    0.03640    0.40880   10.92910    2.05200   -9999.25   -9999.25 100895.19530 17063.31050 1032.78330
 2391.00000   10.36220   -0.01540    4.21850    0.03610    0.40810   10.92590    2.05360   -9999.25   -9999.25 101043.96880 15311.27640  924.31060
 2391.50000   10.50080   -0.01480    4.26730    0.03520    0.40580   10.91900    2.05680   -9999.25   -9999.25 100858.75780 15027.52640 1953.26950
 2392.00000   11.02200   -0.00920    4.31600    0.03460    0.39900   10.89740    2.06560   -9999.25   -9999.25 42944.57810 14412.22360 2016.14290
 2392.50000   13.99700   -0.00240    4.34150    0.03740    0.38990   10.87610    2.08950   -9999.25   -9999.25 8373.43750 2975.21680 1869.31710
 2393.00000   21.62230    0.00530    4.33390    0.03760    0.36910   10.85670    2.13510   -9999.25   -9999.25 1971.04830  940.31530  729.54030
 2393.50000   35.01040    0.02050    4.32630    0.04200    0.34020   10.83740    2.19630   -9999.25   -9999.25  364.01960  328.60920  159.49910
 2394.00000   47.53590    0.02490    4.23370    0.04630    0.30770   10.83460    2.24170   -9999.25   -9999.25  108.42100  114.83820   37.89990
 2394.50000   47.55520    0.01650    3.87960    0.04620    0.29320   10.86080    2.22190   -9999.25   -9999.25   48.34590   62.85970   20.13020
 2395.00000   37.99210    0.00500    3.68640    0.03760    0.29870   10.88790    2.18940   -9999.25   -9999.25   50.04520   58.90990   38.22540
 2395.50000   26.89180   -0.00150    3.74220    0.03000    0.34920   10.89210    2.14400   -9999.25   -9999.25   78.72590   73.66500  304.97590
