~Version ---------------------------------------------------
VERS.   2.0 : CWLS log ASCII Standard -VERSION 2.0
WRAP.    NO : One line per depth step
DLM . SPACE : Column Data Section Delimiter
~Well ------------------------------------------------------
STRT .F                 490.0 : START DEPTH
STOP .F                5994.0 : STOP DEPTH
STEP .F                   0.5 : STEP
NULL .               -9999.25 : NULL VALUE
COMP .                        : COMPANY
WELL .                        : WELL
FLD  .                        : FIELD
LOC  .                        : LOCATION
PROV .                        : PROVINCE
CNTY .                        : COUNTY
STAT .                        : STATE
CTRY .                        : COUNTRY
SRVC .                        : SERVICE COMPANY
DATE .                        : DATE
UWI  .                        : UNIQUE WELL ID
API  .                        : API NUMBER
SLAT .WGS84 7.005323388006502 : SURFACE LATITUDE
SLON .WGS84 2.657876702480209 : SURFACE LONGITUDE
DATUM.F                1109.0 : DEPTH DATUM ELEV
~Curve Information -----------------------------------------
DEPT   .F     : 
ILD_1  .OHMM  : INDUCTION LOG DEEP
SFLU_1 .OHMM  : SPHERICALLY FOCUSED LOG UNAVERAGED RESISTIVITY
ILM_1  .OHMM  : INDUCTION LOG MEDIUM
NPHI_LS.DEC   : NEUTRON POROSITY LIMESTONE
DPHI_LS.DEC   : DENSITY POROSITY LIMESTONE
DRHO   .G/C3  : DENSITY CORRECTION
PEF    .B/E   : PHOTOELECTRIC FACTOR
RHOB   .G/C3  : BULK DENSITY
CALD   .IN    : CALIPER FROM DENSITY LOG
DTCO   .US/F  : COMPRESSIONAL-WAVE INTERVAL TRANSIT TIME ACAUSTIC SLOWNESS
DTSM   .US/F  : SHEAR-WAVE INTERVAL TRANSIT TIME DELTA-T
GRR    .GAPI  : GAMMA RAY
ILD    .OHMM  : INDUCTION LOG DEEP
SFLA   .OHMM  : SHALLOW FOCUSED LOG RESISTIVITY
SPR    .MV    : SPONTANEOUS POTENTIAL
CILD   .MMHO  : CONDUCTIVITY INDUCTION LOG DEEP
~Params ----------------------------------------------------
~Other -----------------------------------------------------
~ASCII -----------------------------------------------------
# ...
 5628.50000   33.29020   38.99500 1174.63930    0.05840    0.06760   -0.00690    3.77210    2.59750    8.05750   56.87050   91.91960   36.20660   37.02550   45.37840  -57.52900   27.35020
 5629.00000   37.35680   44.77220 1904.97090    0.06400    0.07020   -0.00620    3.68200    2.59230    8.05860   56.46100   91.54430   35.29830   43.14760   51.22840  -57.39870   23.72000
 5629.50000   41.92020   51.40540 1901.93520    0.06320    0.06800   -0.00560    3.41900    2.58950    8.05970   56.24890   91.39040   35.30140   48.14220   53.70620  -57.23920   22.29580
 5630.00000   47.04100   59.02130 1897.39060    0.06160    0.06430   -0.00510    3.28800    2.59340    8.06080   56.23910   91.23660   35.38080   49.92190   55.46050  -56.98600   20.74250
 5630.50000   -9999.25   68.20240 1892.85690    0.06150    0.06140   -0.00510    3.36910    2.59970    8.06190   56.29610   91.32310   35.46020   49.99520   57.01910  -56.73290   19.92020
 5631.00000   -9999.25   68.20240 1888.33400    0.06230    0.06230   -0.00520    3.55570    2.60140    8.06300   56.45480   91.63860   35.86350   49.96660   55.43690  -56.47980   20.08430
 5631.50000   -9999.25   69.54340 1883.82200    0.06700    0.06340   -0.00520    3.79480    2.60170    8.06410   56.77160   91.99310   36.36600   48.35920   52.38180  -56.22660   20.72300
 5632.00000   -9999.25   69.54340 1879.32070    0.07250    0.06390   -0.00510    3.97410    2.60060    8.06520   56.42210   92.34760   36.86850   43.19880   47.92950  -55.97350   22.83380
 5632.50000   -9999.25   55.17500 1874.83020    0.07690    0.06330   -0.00440    3.97530    2.59940    8.06630   56.30420   92.63690   39.41800   36.89740   43.47710  -55.72870   25.84360
 5633.00000   40.67620   45.78300 1868.23580    0.07950    0.06030    0.00010    3.86090    2.59920    8.06740   56.75530   94.13880   42.25740   30.31230   36.72910  -55.49280   28.74930
 5633.50000   35.19270   37.98960 1832.20910    0.08110    0.05710    0.00410    3.67330    2.60690    8.06850   57.78130   95.11590   45.09670   28.05430   30.28030  -55.26760   31.74500
 5634.00000   30.44840   31.52290  601.91610    0.08190    0.05540    0.00780    3.50540    2.61300    8.06960   58.55890   95.67690   46.85790   25.79630   27.09380  -55.21080   34.74080
 5634.50000   26.34370   25.26450  226.61760    0.08270    0.05620    0.01150    3.42560    2.61500    8.06930   58.61100   96.17730   46.83450   23.53830   25.91290  -55.15400   37.73660
 5635.00000   22.92060   25.26450   60.68200    0.08160    0.06040    0.01650    3.49260    2.61210    8.06500   58.53790   96.16020   44.54950   21.78660   25.83800  -55.10420   40.73230
 5635.50000   22.04520   24.29950   52.66170    0.07790    0.06380    0.01650    3.62030    2.60430    8.06070   58.44120   95.99930   42.05920   21.40190   26.00480  -55.05490   41.88600
 5636.00000   21.62010   24.29950   46.20260    0.07470    0.06000    0.01730    3.59710    2.59760    8.05640   57.97650   95.67590   39.56900   21.58480   26.98950  -55.00560   42.39010
 5636.50000   21.62010   25.68110   47.11110    0.07430    0.05220    0.01840    3.42160    2.60430    8.05210   57.64950   95.31800   38.55310   22.61180   27.97420  -55.10360   42.88810
 5637.00000   21.96230   27.00420  164.22850    0.08000    0.05060    0.02170    3.22800    2.61400    8.04780   57.87960   95.19890   38.81400   22.88920   28.44060  -55.21660   42.88240
 5637.50000   22.33320   28.39550 1041.67420    0.08220    0.04860    0.02100    3.15110    2.62180    8.04340   58.10960   95.28630   43.87200   22.89130   28.62300  -55.31020   42.87680
 5638.00000   22.71040   29.85850 1021.58670    0.08170    0.04740    0.01720    3.16000    2.62450    8.03910   58.33970   96.09420   49.52530   22.91330   28.59510  -55.39430   42.00550
 5638.50000   22.92060   31.91460  252.30040    0.07820    0.04740    0.01310    3.27650    2.62800    8.03480   58.38260   97.02300   55.17870   23.66700   27.99130  -55.53820   40.82730
 5639.00000   22.92060   31.91460   76.65480    0.07500    0.04960    0.01040    3.40800    2.62880    8.03050   58.37920   97.30270   58.01540   24.42070   27.79710  -55.58560   39.64910
 5639.50000   22.92060   27.55670   75.17660    0.07030    0.05510    0.00710    3.59640    2.62910    8.02620   58.28820   97.30470   57.71420   25.17440   27.96140  -55.52630   38.47090
 5640.00000   24.25220   24.77730  124.72570    0.06550    0.05970    0.00370    3.67730    2.62320    8.02660   58.06870   96.81390   46.65440   25.92810   29.79730  -55.46690   35.80620
 5640.50000   25.50170   27.49320   91.33760    0.06330    0.06430    0.00040    3.67220    2.61390    8.03830   57.80720   95.90400   30.96820   28.85660   33.31620  -55.42050   33.76670
 5641.00000   27.31090   30.76860   84.66210    0.06090    0.06640    0.00020    3.54090    2.60150    8.05000   57.54570   95.38030   30.66700   31.86220   36.43570  -55.41130   31.98220
 5641.50000   29.02780   33.97360  150.33580    0.05960    0.06680    0.00020    3.45400    2.59620    8.06160   57.29720   93.81700   30.49840   34.86770   39.32520  -55.31070   30.07910
 5642.00000   31.94970   38.23040  310.32430    0.05760    0.06580    0.00240    3.22560    2.59550    8.07330   57.08670   92.50900   30.50160   37.87320   42.21480  -55.20580   26.87390
 5642.50000   35.16570   42.58380  739.52060    0.05390    0.06150    0.00470    3.20260    2.59560    8.07590   56.89370   91.62800   31.28960   40.06040   45.10430  -55.10080   24.94020
 5643.00000   38.70550   44.96910 1849.90110    0.05130    0.05900    0.00710    3.22100    2.59940    8.07200   56.43580   91.16380   32.25930   41.20390   45.99080  -54.99590   24.11090
 5643.50000   41.10800   46.97240 2052.01660    0.05310    0.05920    0.00950    3.38530    2.60710    8.06160   56.06690   90.89010   35.74380   42.34730   46.69610  -54.89090   23.57380
 5644.00000   41.91630   49.64820 1924.40760    0.05570    0.05910    0.01170    3.60330    2.60770    8.05150   55.74420   90.88620   39.22830   43.21490   46.61290  -54.78600   23.27130
 5644.50000   41.91630   51.91350 2015.91530    0.05740    0.05550    0.01170    3.75020    2.60740    8.04140   55.17230   91.34870   42.71270   43.39010   45.68480  -54.69580   23.07190
 5645.00000   41.91630   48.03970 1915.98770    0.05850    0.05170    0.01090    3.80410    2.61160    8.03130   55.17490   91.86160   44.10350   43.59240   43.72080  -54.78720   23.36300
 5645.50000   41.45370   43.62260 1984.03700    0.06060    0.04810    0.00990    3.69990    2.61900    8.02610   55.18850   92.48970   44.08550   43.32980   41.75680  -54.91470   23.65400
 5646.00000   40.93630   43.55470 1909.70010    0.06540    0.04630    0.00170    3.51970    2.62700    8.03260   55.34940   92.93480   43.31210   41.49840   39.79270  -55.07620   24.36350
 5646.50000   40.31530   43.65040 1969.69030    0.06810    0.04520    0.00140    3.25190    2.63090    8.03900   55.94510   93.63640   41.64780   38.99700   38.20100  -55.11570   25.18300
 5647.00000   38.76030   43.53420 1893.71390    0.06900    0.04450    0.00050    3.16030    2.63270    8.04540   56.46860   94.09990   39.98360   36.49570   37.31100  -55.13200   27.68840
 5647.50000   36.86120   40.45510 1957.45130    0.06960    0.04450   -0.00290    3.13050    2.63350    8.05190   57.15070   94.22640   38.45150   33.99430   36.42090  -55.14830   28.88960
 5648.00000   35.05510   37.43190 1869.27980    0.07020    0.04690   -0.00630    3.15090    2.63360    8.05830   57.83280   95.21330   38.25840   32.48290   35.53080  -55.16460   29.41610
 5648.50000   33.33750   34.75100 1220.17490    0.07070    0.04910   -0.00660    3.16830    2.62780    8.06470   58.51480   95.65770   44.46430   31.84450   34.64070  -55.27570   29.91220
 5649.00000   31.66700   32.53200  597.78910    0.07220    0.04870   -0.00760    3.16190    2.62520    8.05850   58.90030   95.99710   50.38820   31.94920   34.38780  -55.36220   29.76050
 5649.50000   30.71820   32.85760  293.79810    0.07290    0.04750   -0.00870    3.15900    2.62750    8.05250   58.24890   96.33650   51.17610   32.47600   34.25830  -55.34010   29.60880
