~Version ---------------------------------------------------
VERS.   2.0 : CWLS log ASCII Standard -VERSION 2.0
WRAP.    NO : One line per depth step
DLM . SPACE : Column Data Section Delimiter
~Well ------------------------------------------------------
STRT .F                 490.0 : START DEPTH
STOP .F                5994.0 : STOP DEPTH
STEP .F                   0.5 : STEP
NULL .               -9999.25 : NULL VALUE
COMP .                        : COMPANY
WELL .                        : WELL
FLD  .                        : FIELD
LOC  .                        : LOCATION
PROV .                        : PROVINCE
CNTY .                        : COUNTY
STAT .                        : STATE
CTRY .                        : COUNTRY
SRVC .                        : SERVICE COMPANY
DATE .                        : DATE
UWI  .                        : UNIQUE WELL ID
API  .                        : API NUMBER
SLAT .WGS84 7.005323388006502 : SURFACE LATITUDE
SLON .WGS84 2.657876702480209 : SURFACE LONGITUDE
DATUM.F                1109.0 : DEPTH DATUM ELEV
~Curve Information -----------------------------------------
DEPT   .F     : 
ILD_1  .OHMM  : INDUCTION LOG DEEP
SFLU_1 .OHMM  : SPHERICALLY FOCUSED LOG UNAVERAGED RESISTIVITY
ILM_1  .OHMM  : INDUCTION LOG MEDIUM
NPHI_LS.DEC   : NEUTRON POROSITY LIMESTONE
DPHI_LS.DEC   : DENSITY POROSITY LIMESTONE
DRHO   .G/C3  : DENSITY CORRECTION
PEF    .B/E   : PHOTOELECTRIC FACTOR
RHOB   .G/C3  : BULK DENSITY
CALD   .IN    : CALIPER FROM DENSITY LOG
DTCO   .US/F  : COMPRESSIONAL-WAVE INTERVAL TRANSIT TIME ACAUSTIC SLOWNESS
DTSM   .US/F  : SHEAR-WAVE INTERVAL TRANSIT TIME DELTA-T
GRR    .GAPI  : GAMMA RAY
ILD    .OHMM  : INDUCTION LOG DEEP
SFLA   .OHMM  : SHALLOW FOCUSED LOG RESISTIVITY
SPR    .MV    : SPONTANEOUS POTENTIAL
CILD   .MMHO  : CONDUCTIVITY INDUCTION LOG DEEP
~Params ----------------------------------------------------
~Other -----------------------------------------------------
~ASCII -----------------------------------------------------
# ...
 4854.50000   34.54440   86.11890   26.05510    0.02440    0.00640   -0.01340    5.57100    2.69490    8.70690   50.60320   96.68900   19.42460   27.24220   38.94790  -24.28790   50.34200
 4855.00000   18.20250   77.29720   15.66900    0.02680    0.00300   -0.01140    5.69700    2.70150    8.75220   52.88960  100.13640   28.30550   17.11740   27.99590  -24.17110   57.39780
 4855.50000   17.41290   72.30520    9.42300    0.03910    0.01610   -0.00810    6.40770    2.69980    8.79750   54.59100  104.21970   40.77180   17.67400   23.51690  -23.86790   52.53320
 4856.00000   18.38050   31.01320    5.21820    0.07820    0.04400   -0.00490    7.59200    2.66830    8.84270   55.97620  106.39190   41.37450   21.86530   19.65260  -23.24450   46.30020
 4856.50000   19.80090   13.81510    5.21820    0.12650    0.08490   -0.00420    9.20240    2.56960    8.88800   57.08540  108.70240   36.96990   23.10570   19.57600  -22.67180   49.14180
 4857.00000   21.46870   13.81510 1478.94410    0.16390    0.11560   -0.00980    9.89720    2.52190    8.92690   58.98680  112.74270   30.42370   22.76400   19.52480  -22.32750   58.21710
 4857.50000   22.97100   16.51910 1478.94410    0.16800    0.11950   -0.00970    9.62730    2.50870    8.92650   61.07620  117.39970   26.83970   18.97230   19.52500  -21.99230   63.17240
 4858.00000   22.93780   26.78430 1450.42440    0.10010    0.09380   -0.00720    9.19420    2.56210    8.92610   59.24880  115.99310   26.78020   15.24990   19.52520  -21.65710   66.09160
 4858.50000   14.96040   26.78430  406.23930    0.06020    0.08450   -0.00740   10.19130    2.60640    8.92580   56.63270  108.92240   26.98710   13.53270   19.52540  -21.32190   67.25170
 4859.00000   14.92700   26.78430   70.91090    0.10240    0.09780   -0.02130   11.53570    2.56590    8.92540   56.95110  107.53810   31.06400   11.81560   19.20040  -20.98670   74.76060
 4859.50000   17.47430   21.20310    8.82780    0.10640    0.12110   -0.03640   12.40420    2.51470    8.92500   56.32160  105.98380   37.82230    9.21500   14.75700  -20.65140  113.80600
 4860.00000   14.02760   22.17430  982.56640    0.08680    0.13160   -0.03630   13.15900    2.48310    8.93860   53.72390  103.80550   50.67100    6.53150    9.32240  -20.52340  170.95490
 4860.50000   12.53140   23.37130  963.61880    0.09660    0.15630   -0.02800   16.30230    2.41650    8.98800   55.20840  110.08010   72.49570    5.79690    8.38540  -20.27900  182.44830
 4861.00000    8.84340   18.92400    7.40870    0.17070    0.21290   -0.02790   18.85550    2.32180    9.74320   59.46760  122.99170   80.19100    5.06230    7.51530  -20.42330  213.40240
 4861.50000    6.20410   12.64130    2.63960    0.22300    0.28360   -0.02920   20.01380    2.22490   10.64450   64.07980  137.73030   85.35670    4.37250    6.85890  -20.71420  250.74510
 4862.00000    5.69010    8.44440    2.63960    0.25860    0.28430   -0.01390   20.01350    2.21600   11.19060   67.35040  150.75150   85.68450    3.78120    6.78220  -21.00520  295.64510
 4862.50000    4.96270    6.46460    3.02430    0.28110    0.24640    0.01460   19.48010    2.30080   11.21370   71.50920  160.46540   85.38180    3.22100    6.82520  -21.42180  304.32310
 4863.00000    4.33590    6.46460    3.37070    0.29110    0.20840    0.01980   17.36850    2.35950   11.14310   77.00040  168.88860   82.54330    3.22100    7.00940  -21.70490  295.49460
 4863.50000    3.66680    6.63360    3.75670    0.29660    0.19490    0.01880   15.56120    2.37140   10.94760   81.20940  173.20770   79.69980    3.36840    7.25180  -21.97300  225.36120
 4864.00000    3.46460    6.81870    4.18700    0.30100    0.20100    0.02160   12.46920    2.36680   10.67970   83.81010  174.34810   76.95080    4.94850    7.73410  -22.34450  189.85210
 4864.50000    3.45480    7.00890    4.66650    0.30860    0.19250    0.02680    9.37730    2.38470   10.37960   84.60780  167.74130   76.58760    6.79000    8.21630  -22.71590  137.35520
 4865.00000    3.60270    7.26580    5.20100    0.31560    0.18000    0.02450    8.18030    2.41060   10.08200   84.91270  158.54690   80.85410    7.63710    8.69430  -23.08740  137.73520
 4865.50000    4.74310    7.63680    6.09780    0.28340    0.15150    0.02200    6.80890    2.45550    9.88830   83.45270  153.25400  104.35250    6.80160    8.92790  -23.45880  170.67470
 4866.00000    6.17770    8.20730    8.88290    0.24350    0.11170    0.01950    6.01310    2.51370    9.50290   78.67030  145.30280  168.10840    4.75020    7.95520  -23.78870  205.62940
 4866.50000    7.26580    8.82780   23.83090    0.19840    0.07880    0.01710    5.65260    2.57100    9.34320   73.24650  137.41710  168.27960    4.75020    6.65000  -23.89550  216.56920
 4867.00000    7.26580    9.68400   24.77730    0.22080    0.07350    0.00890    6.50080    2.58290    9.27420   72.60960  133.00980  142.17340    5.84650    6.33120  -24.00240  159.66200
 4867.50000    6.31940   10.63490   24.77730    0.26800    0.20650   -0.00120    9.92460    2.35410    9.22370   75.42000  138.44450  124.18220    6.91810    6.18730  -24.10930  150.34150
 4868.00000    5.34160   11.59430    9.23250    0.35950    0.30730   -0.01120   14.15880    2.14280    9.57320   77.06690  144.48870  106.19100    6.97430    6.24870  -24.38330  154.48110
 4868.50000    5.01890   10.31580    4.66030    0.44060    0.40810   -0.02120   19.26620    1.93160   10.69010   78.10370  147.10170   88.19980    5.85750    6.31020  -25.55970  208.93730
 4869.00000    5.42540    8.28710    2.30330    0.48910    0.48870   -0.01590   19.90640    1.86400   11.25540   78.90070  146.85360   70.20860    4.88920    7.59600  -26.73610  211.08150
 4869.50000    6.29140    6.16760   34.14450    0.49700    0.36730    0.00050   13.98170    2.02950   10.75760   78.66990  142.60660   52.21740    5.08180    9.69790  -27.91250  184.46440
 4870.00000    6.98830    4.64280 1450.42440    0.28930    0.28170    0.01680    8.05710    2.19490   10.10740   77.21890  135.80870   39.13620   11.17730   11.79990  -29.08890   97.36760
 4870.50000    6.38690    4.64280 1508.02470    0.17060    0.19620    0.03090    7.00730    2.50940    9.45730   74.36820  128.28600   30.63140   17.27290   14.50260  -30.26540   81.71620
 4871.00000    5.73260    6.00360 1508.02470    0.14030    0.08190    0.02560    8.02860    2.65060    8.91520   71.16320  124.00310   22.81820   27.26880   17.48350  -31.44180   58.53300
 4871.50000    5.11760    9.33380   68.20240    0.08840    0.02650    0.01700    9.63180    2.66540    8.73820   67.34210  118.33920   22.36170   39.07990   17.56210  -32.61820   32.42790
 4872.00000    5.21820   14.51130   68.20240    0.08680    0.03720    0.00840   11.84250    2.66330    8.59820   62.29500  114.88580   22.09400   38.61730   17.50070  -33.79460   41.05350
 4872.50000    9.09990   18.86510   92.00700    0.09260    0.07130    0.00140   14.49030    2.60100    8.55780   58.83610  113.27370   22.01090   22.81970   17.40440  -34.59390   63.74860
 4873.00000   14.59230   23.37130  124.72570    0.08960    0.08530   -0.00000   14.98150    2.55410    8.53890   58.24220  114.19930   21.92790   13.65160   16.92760  -35.18520   79.50640
 4873.50000   23.39990   21.03220  127.17820    0.08550    0.09750   -0.00060   14.54820    2.54830    8.52540   59.22840  116.53390   21.99730   12.25300   16.45080  -36.59540   86.17170
 4874.00000   38.77540   18.60770   42.74050    0.08150    0.09790   -0.00040   13.56110    2.54710    8.52550   60.03860  117.18710   22.16360   11.39870   15.97400  -37.28800   91.23910
 4874.50000   28.98660   16.78500   32.55610    0.07990    0.09440    0.00020   12.82160    2.54710    8.52650   58.40820  116.53290   22.32990   10.67580   15.80570  -38.43020   94.59470
 4875.00000   21.20310   16.66280   24.29950    0.07960    0.09090    0.00070   12.25220    2.55310    8.52760   58.25060  115.62230   23.30100   10.15120   15.83610  -38.56340   97.31000
 4875.50000   15.50970   16.55810   18.13680    0.07960    0.08670    0.00130   10.40640    2.56300    8.56550   58.23170  115.04440   27.51770   10.00150   15.87880  -38.69670   99.39960
