~Version ---------------------------------------------------
VERS.   2.0 : CWLS log ASCII Standard -VERSION 2.0
WRAP.    NO : One line per depth step
DLM . SPACE : Column Data Section Delimiter
~Well ------------------------------------------------------
STRT .F                 490.0 : START DEPTH
STOP .F                5994.0 : STOP DEPTH
STEP .F                   0.5 : STEP
NULL .               -9999.25 : NULL VALUE
COMP .                        : COMPANY
WELL .                        : WELL
FLD  .                        : FIELD
LOC  .                        : LOCATION
PROV .                        : PROVINCE
CNTY .                        : COUNTY
STAT .                        : STATE
CTRY .                        : COUNTRY
SRVC .                        : SERVICE COMPANY
DATE .                        : DATE
UWI  .                        : UNIQUE WELL ID
API  .                        : API NUMBER
SLAT .WGS84 7.005323388006502 : SURFACE LATITUDE
SLON .WGS84 2.657876702480209 : SURFACE LONGITUDE
DATUM.F                1109.0 : DEPTH DATUM ELEV
~Curve Information -----------------------------------------
DEPT   .F     : 
ILD_1  .OHMM  : INDUCTION LOG DEEP
SFLU_1 .OHMM  : SPHERICALLY FOCUSED LOG UNAVERAGED RESISTIVITY
ILM_1  .OHMM  : INDUCTION LOG MEDIUM
NPHI_LS.DEC   : NEUTRON POROSITY LIMESTONE
DPHI_LS.DEC   : DENSITY POROSITY LIMESTONE
DRHO   .G/C3  : DENSITY CORRECTION
PEF    .B/E   : PHOTOELECTRIC FACTOR
RHOB   .G/C3  : BULK DENSITY
CALD   .IN    : CALIPER FROM DENSITY LOG
DTCO   .US/F  : COMPRESSIONAL-WAVE INTERVAL TRANSIT TIME ACAUSTIC SLOWNESS
DTSM   .US/F  : SHEAR-WAVE INTERVAL TRANSIT TIME DELTA-T
GRR    .GAPI  : GAMMA RAY
ILD    .OHMM  : INDUCTION LOG DEEP
SFLA   .OHMM  : SHALLOW FOCUSED LOG RESISTIVITY
SPR    .MV    : SPONTANEOUS POTENTIAL
CILD   .MMHO  : CONDUCTIVITY INDUCTION LOG DEEP
~Params ----------------------------------------------------
~Other -----------------------------------------------------
~ASCII -----------------------------------------------------
# ...
 5198.50000    5.41700    6.76160    6.63160    0.12500    0.16660   -0.00380    4.05590    2.42810    9.05300   66.37910  112.42310   10.10530    5.15010    5.78320  -41.56790  193.14050
 5199.00000    6.31290    9.44710    6.96100    0.09690    0.12890   -0.00520    3.87570    2.47470    8.90110   64.04170  109.30910    9.14230    5.56150    6.01460  -41.60680  177.68380
 5199.50000    7.85440   15.22780    6.61280    0.08020    0.10790   -0.00660    3.72680    2.52040    8.80130   61.96350  106.12860    9.09540    5.97290    9.64270  -41.63110  154.04230
 5200.00000    9.79340   16.40440    6.09780    0.07130    0.09350   -0.00800    3.57050    2.54600    8.74480   59.88530  102.43720    9.64670    9.24390   14.06980  -41.73560  109.23530
 5200.50000   14.39790   18.68190    6.09780    0.06230    0.08900   -0.00890    3.50800    2.55790    8.68820   57.80700   99.83720   15.26200   12.83460   18.49690  -41.84020   64.42840
 5201.00000   21.16740   21.62010    7.15320    0.05320    0.08600   -0.00800    4.00450    2.57280    8.63170   56.76400   99.64370   19.86360   16.42530   22.92390  -42.01980   48.89360
 5201.50000   26.97190   28.54440    8.34630    0.04240    0.06630   -0.00570    4.45730    2.61140    8.57520   55.80170   99.67170   20.32110   20.57300   27.35100  -42.57960   37.85660
 5202.00000   29.62030   39.19180    9.73850    0.03260    0.04180   -0.00310    4.88320    2.64750    8.54550   54.83930   99.84410   20.55120   26.36600   30.83260  -42.81020   34.47060
 5202.50000   33.18200   50.92720   11.36290    0.02910    0.01920   -0.00060    5.18080    2.68200    8.52420   53.95420  100.47680   20.64250   32.15890   36.20460  -43.06670   31.56410
 5203.00000   34.18550   55.65600   13.25820    0.02570    0.01250    0.00060    5.14210    2.70680    8.52250   53.96870  101.10950   20.73390   33.52140   42.85600  -43.52720   30.15820
 5203.50000   35.50330   60.02970   15.46970    0.02500    0.00170    0.00070    5.08990    2.71470    8.49470   55.26210  101.50440   19.64650   34.74090   49.50740  -43.69960   29.51880
 5204.00000   36.87190   64.74710   16.78500    0.02420   -0.00310    0.00070    5.05300    2.70840    8.47160   55.08990  101.00790   18.53810   36.04180   56.53110  -43.78320   28.97330
 5204.50000   38.29330   72.30520   17.11500    0.02360    0.00250    0.00060    4.98770    2.69540    8.45600   54.58150  100.88890   17.99470   37.61620   63.55490  -44.17040   28.28240
 5205.00000   39.53780   75.66620   13.28740    0.02250    0.01020    0.00050    4.85240    2.68850    8.45630   54.07300  100.78530   17.84470   39.19060   68.47960  -44.51010   26.26370
 5205.50000   41.81070   79.69900   13.54870    0.02180    0.01290    0.00040    4.70030    2.68930    8.45760   53.56460  100.72830   18.02730   41.18750   71.85710  -45.13500   24.50230
 5206.00000   43.88480   82.04790   16.53470    0.02040    0.01280    0.00030    4.69970    2.69740    8.45130   53.17420   99.09840   21.18630   43.62720   77.19420  -45.76910   23.86160
 5206.50000   46.06170   83.79030   20.00000    0.01890    0.01140    0.00030    4.91090    2.69960    8.44500   53.20650   98.25800   25.15860   46.06690   80.74380  -46.27860   23.17170
 5207.00000   48.34670   85.56960   20.00000    0.01960    0.00900    0.00020    5.09030    2.69580    8.43880   53.39670   98.28680   25.49140   47.48820   83.20850  -46.57510   22.33670
 5207.50000   -9999.25   87.84890   19.23610    0.02210    0.00830    0.00010    5.34510    2.69050    8.43250   53.58690   98.28490   25.28220   48.90950   85.64740  -46.74250   21.62580
 5208.00000   -9999.25   90.54430   19.23610    0.02460    0.01060   -0.00030    5.58850    2.68820    8.42630   53.77720   97.96010   24.18580   50.33070   87.35620  -46.73920   21.22030
 5208.50000   -9999.25   94.96480   24.30040    0.02370    0.01240   -0.00060    5.58510    2.68590    8.42000   53.96740   97.73130   23.08950   51.75200   88.09800  -46.73590   20.38620
 5209.00000   -9999.25   94.96480   27.31090    0.02310    0.01470   -0.00100    5.40930    2.68360    8.41380   54.23250   98.04910   22.51010   54.45450   88.39760  -46.73260   19.44820
 5209.50000   -9999.25   87.28900   24.72710    0.02420    0.01700   -0.00130    5.24270    2.68040    8.40750   54.67570   98.24560   22.46510   57.15710   88.85930  -46.72920   17.00840
 5210.00000   -9999.25   82.86410   21.20310    0.02580    0.01870   -0.00170    5.34010    2.67650    8.40130   55.11880   98.18180   22.44790   59.85960   89.43880  -46.72590   16.96720
 5210.50000   -9999.25   88.27970   24.56590    0.02680    0.01950   -0.00200    5.58890    2.67350    8.39500   54.97070   98.16170   22.33510   61.48080   89.36100  -46.71580   16.87600
 5211.00000   -9999.25   93.43330   30.05680    0.02740    0.02130   -0.00230    5.70490    2.66920    8.38880   54.66350   98.21280   21.99080   61.64960   89.11570  -46.56290   15.99390
 5211.50000   -9999.25   98.73610   36.57520    0.02730    0.02450   -0.00260    5.30200    2.66470    8.38250   54.62320   98.26400   21.64640   61.81830   88.18090  -46.41010   16.76570
 5212.00000   -9999.25   87.06550   38.77540    0.02940    0.02770   -0.00290    4.79100    2.66380    8.37610   55.03660   98.09080   21.03030   61.98700   86.59580  -46.31310   16.89210
 5212.50000   -9999.25   77.02890   40.31530    0.03150    0.02930   -0.00320    4.32560    2.67120    8.36810   55.42000   96.84620   19.64480   62.15570   85.34500  -46.27690   16.98290
 5213.00000   -9999.25   70.91090   41.10800    0.03240    0.02280   -0.00350    4.23880    2.68970    8.36170   55.36700   95.51080   18.25930   62.32450   81.74760  -46.24080   16.99600
 5213.50000   -9999.25   76.65480   38.02640    0.03200    0.01510   -0.00380    4.25520    2.70430    8.36310   54.56670   95.22390   16.87380   62.49320   78.83830  -46.86280   17.00910
 5214.00000   -9999.25   71.87640   35.86990    0.03150    0.00570   -0.00400    4.34100    2.71450    8.38150   53.63930   95.19940   15.48830   62.66190   75.73290  -47.62290   17.02220
 5214.50000   -9999.25   66.18290   35.61040    0.03120   -0.00010   -0.00430    4.42090    2.71220    8.37980   53.61030   95.09100   15.19470   62.51450   72.62750  -47.96130   17.03530
 5215.00000   -9999.25   60.94030   35.53120    0.03260   -0.00140   -0.00460    4.48120    2.70750    8.37800   53.67350   95.05340   16.31950   60.51060   69.52210  -48.21910   17.04850
 5215.50000   -9999.25   53.99080   35.03500    0.03460    0.00000   -0.00490    4.52600    2.70080    8.37640   53.73670   95.23350   19.40990   57.20190   66.41670  -48.72940   17.07210
 5216.00000   -9999.25   53.99080   32.24490    0.03440    0.00460   -0.00520    4.70460    2.69050    8.37470   53.79980   95.60710   20.73380   53.89320   63.31120  -49.47360   17.21630
 5216.50000   -9999.25   53.99080   30.55570    0.03400    0.00930   -0.00550    4.66610    2.67930    8.38650   53.86300   96.04490   21.02170   50.58450   60.20580  -49.84790   17.81480
 5217.00000   -9999.25   53.99080   29.07080    0.03370    0.01670   -0.00580    4.56270    2.67460    8.39960   53.95100   96.44250   21.15220   47.27590   58.24560  -50.15510   18.80180
 5217.50000   -9999.25   53.99080   29.06010    0.03350    0.02070   -0.00610    4.54400    2.67560    8.41280   54.14160   97.46950   20.89720   47.44040   56.94440  -50.48870   20.99980
 5218.00000   47.69260   57.23870   29.41930    0.03350    0.02060   -0.00530    4.57050    2.68110    8.41770   54.56300   98.31330   20.23500   47.60490   55.64320  -50.84480   21.24420
 5218.50000   46.20260   55.63840   29.44670    0.03360    0.01850   -0.00450    4.63430    2.68320    8.41430   54.48170   99.15710   19.57270   47.76940   54.52810  -51.20080   21.21950
 5219.00000   46.20260   53.91200   29.70610    0.03570    0.01590   -0.00370    4.58130    2.68250    8.43240   54.78310   99.84620   19.29140   47.76830   53.66000  -51.55690   21.19470
 5219.50000   48.77140   51.92860   29.83210    0.03550    0.01620   -0.00280    4.47760    2.68210    8.44640   55.01980   99.97940   19.29140   47.81930   52.79200  -51.91290   21.17000
