~Version ---------------------------------------------------
VERS.   2.0 : CWLS log ASCII Standard -VERSION 2.0
WRAP.    NO : One line per depth step
DLM . SPACE : Column Data Section Delimiter
~Well ------------------------------------------------------
STRT .F                 490.0 : START DEPTH
STOP .F                5994.0 : STOP DEPTH
STEP .F                   0.5 : STEP
NULL .               -9999.25 : NULL VALUE
COMP .                        : COMPANY
WELL .                        : WELL
FLD  .                        : FIELD
LOC  .                        : LOCATION
PROV .                        : PROVINCE
CNTY .                        : COUNTY
STAT .                        : STATE
CTRY .                        : COUNTRY
SRVC .                        : SERVICE COMPANY
DATE .                        : DATE
UWI  .                        : UNIQUE WELL ID
API  .                        : API NUMBER
SLAT .WGS84 7.005323388006502 : SURFACE LATITUDE
SLON .WGS84 2.657876702480209 : SURFACE LONGITUDE
DATUM.F                1109.0 : DEPTH DATUM ELEV
~Curve Information -----------------------------------------
DEPT   .F     : 
ILD_1  .OHMM  : INDUCTION LOG DEEP
SFLU_1 .OHMM  : SPHERICALLY FOCUSED LOG UNAVERAGED RESISTIVITY
ILM_1  .OHMM  : INDUCTION LOG MEDIUM
NPHI_LS.DEC   : NEUTRON POROSITY LIMESTONE
DPHI_LS.DEC   : DENSITY POROSITY LIMESTONE
DRHO   .G/C3  : DENSITY CORRECTION
PEF    .B/E   : PHOTOELECTRIC FACTOR
RHOB   .G/C3  : BULK DENSITY
CALD   .IN    : CALIPER FROM DENSITY LOG
DTCO   .US/F  : COMPRESSIONAL-WAVE INTERVAL TRANSIT TIME ACAUSTIC SLOWNESS
DTSM   .US/F  : SHEAR-WAVE INTERVAL TRANSIT TIME DELTA-T
GRR    .GAPI  : GAMMA RAY
ILD    .OHMM  : INDUCTION LOG DEEP
SFLA   .OHMM  : SHALLOW FOCUSED LOG RESISTIVITY
SPR    .MV    : SPONTANEOUS POTENTIAL
CILD   .MMHO  : CONDUCTIVITY INDUCTION LOG DEEP
~Params ----------------------------------------------------
~Other -----------------------------------------------------
~ASCII -----------------------------------------------------
# ...
 5886.50000    7.87480    9.80380   11.04000    0.05950   -0.02050    0.00570    6.84340    2.74890    8.02660   58.85420  109.73200   39.16350   14.27280    9.21480  -37.28710  120.44360
 5887.00000   12.11070   14.10220   14.36150    0.03960   -0.01780    0.00500    7.09190    2.74240    8.02500   55.95080  104.89890   29.80600   22.22770   10.37570  -37.50110   84.16060
 5887.50000   18.62500   37.74960   21.51250    0.03320   -0.01380    0.00470    7.05110    2.72910    8.02340   53.08560  101.13970   22.04060   40.03150   11.53670  -37.71500   51.40180
 5888.00000   28.64340   92.84540   27.37330    0.03070   -0.00770    0.00460    6.82910    2.72440    8.02180   50.92090   97.38050   21.49630   58.88540   12.69770  -37.92890   29.07840
 5888.50000   44.05060   94.12610   45.79390    0.02890   -0.00330    0.00610    6.86540    2.71810    8.02020   48.99980   96.34710   20.95190   77.73930   13.74280  -38.14290   19.68850
 5889.00000   -9999.25  102.65720  104.83890    0.02720    0.00060    0.00840    7.17830    2.71090    8.01860   48.84760   96.23650   20.25840  126.55440   14.22210  -38.35680   13.53240
 5889.50000   -9999.25  121.05120  350.51660    0.02580    0.00590    0.00840    7.51610    2.70290    8.01700   49.34380   96.26160   19.25810  127.91440   14.70140  -38.57070    9.10650
 5890.00000   -9999.25  144.33810 1980.62230    0.02450    0.01040    0.00840    6.78870    2.69660    8.01540   49.85190   96.36960   16.43260  128.90050   15.18060  -38.78470    7.70290
 5890.50000   -9999.25  167.03440 2019.56730    0.02340    0.00890    0.00840    6.79680    2.69670    8.01380   49.62520   96.47760   15.64200  125.22180   15.60310  -39.10090    6.91200
 5891.00000   -9999.25  167.03440 2010.24610    0.02420    0.00480    0.00770    7.17570    2.70180    8.01220   49.37800   96.58560   15.48610  121.54310   15.60180  -39.50640    6.13070
 5891.50000   -9999.25  161.06940 1998.27770    0.02490    0.00080    0.00610    8.01120    2.70700    8.01070   49.34980   96.69360   15.48420  118.00400   15.60040  -39.91190    5.34930
 5892.00000   -9999.25  155.22670 1986.38060    0.02640    0.00060    0.00360    8.66910    2.70860    8.00910   49.91160   96.53180   17.81540  117.99060   15.45250  -40.31320    4.56800
 5892.50000   -9999.25  149.59600 1974.55440    0.02860    0.00650    0.00070    8.56070    2.70240    8.00750   50.47340   96.36060   21.21070  117.99960   15.20140  -40.57950    4.50450
 5893.00000   -9999.25  144.16960 1962.79860    0.03070    0.01270   -0.00220    7.41600    2.69490    8.00590   50.48250   96.18940   24.60610  119.63530   14.95030  -40.98630    4.45610
 5893.50000   -9999.25  138.93990 1951.11270    0.03200    0.01400   -0.00510    6.68770    2.68700    8.00430   50.48840   96.01820   28.00140  121.27100   14.69920  -41.65560    4.40760
 5894.00000   -9999.25  132.22880 1939.49630    0.03070    0.01210   -0.00560    6.46150    2.68810    8.00270   50.32460   95.84710   30.33040  124.32340   14.44800  -42.17710    4.35920
 5894.50000   -9999.25  132.22880 1927.94920    0.02910    0.01090   -0.00460    6.59120    2.69290    8.00110   50.06540   95.61850   30.67860  128.88990   14.20130  -42.67180    4.31070
 5895.00000   -9999.25  132.22880 1916.47080    0.02740    0.01010   -0.00210    6.76070    2.69300    7.99960   49.80620   95.31000   30.79040  133.45640   14.20000  -42.93370    4.27870
 5895.50000   -9999.25  139.44810 1905.06080    0.02620    0.00750    0.00050    6.88610    2.69890    7.99840   49.54690   95.00160   29.81480  153.15950   14.19860  -42.93660    4.26320
 5896.00000   -9999.25  146.49000 1893.71880    0.02740    0.00270    0.00300    6.79990    2.70420    7.99720   49.28130   94.69310   27.53330  191.64260   14.19730  -43.31230    4.24770
 5896.50000   -9999.25  151.53840 1882.44410    0.02900   -0.00060    0.00360    6.72050    2.70950    7.99600   49.34910   94.38470   26.41830  196.92550   14.22190  -43.52040    4.23220
 5897.00000   -9999.25  145.14600 1868.23580    0.03090   -0.00120    0.00470    6.65460    2.71150    7.99480   49.78270   94.44970   26.31930  198.53290   14.27550  -43.72630    4.21670
 5897.50000   -9999.25  140.45640 1400.46780    0.03110    0.00300    0.00610    6.64980    2.70800    7.99360   50.21620   94.66220   57.92180  198.51940   14.32910  -43.90320    4.20120
 5898.00000   -9999.25  134.82880  944.30070    0.02990    0.00330    0.00600    6.58070    2.70780    7.99240   50.34010   94.89510   80.51620  188.20880   14.43460  -44.03720    4.18570
 5898.50000   -9999.25  134.82880  733.68900    0.02650   -0.00010    0.00540    6.41420    2.70910    7.99120   50.03700   95.12800   80.71650  176.64630   14.54320  -44.17120    4.17020
 5899.00000   -9999.25  134.82880  886.17080    0.02370   -0.00380    0.00500    6.34420    2.71590    7.99000   49.34400   95.23920   78.83260  168.06570   14.65190  -44.28620    4.17470
 5899.50000   -9999.25  134.82880 1277.77490    0.02210   -0.00700    0.00480    6.57060    2.72100    7.98880   48.65100   95.03500   45.72720  164.73320   14.76060  -44.38900    4.41880
 5900.00000   -9999.25  145.79930 1980.62230    0.02120   -0.00320    0.00460    6.88580    2.71920    7.98760   48.90990   94.83080   25.55450  161.40080   14.86930  -44.49180    4.66300
 5900.50000   -9999.25  157.81050 1980.62230    0.02440    0.00270    0.00440    7.22380    2.71160    7.98640   49.50300   94.97340   25.35060  158.35640   14.88150  -44.59470    4.86610
 5901.00000   -9999.25  167.03440 1899.89050    0.02790    0.00600    0.00630    7.32580    2.70410    7.98530   50.12830   95.39160   25.35060  155.36420   14.88150  -44.74600    4.95110
 5901.50000   -9999.25  148.30080 1832.20910    0.03170    0.00930    0.00760    7.27040    2.69650    7.98410   50.72380   96.13780   25.44890  146.30210   14.71270  -44.99010    5.03620
 5902.00000   -9999.25  135.16330  825.90200    0.03690    0.01460    0.00900    6.78080    2.68700    7.98290   51.38310   96.88410   26.20000  134.52590   14.35320  -45.29770    5.12120
 5902.50000   -9999.25  123.18970  287.75880    0.04240    0.02150    0.01060    6.15390    2.67600    7.98170   52.08370   97.63030   27.80410  122.74980   13.53500  -45.75350    6.34040
 5903.00000   -9999.25  113.15470  100.26020    0.04600    0.02230    0.01260    5.96290    2.67290    7.98050   52.78430   98.37660   32.09150  110.97370   12.71180  -46.18400    7.53820
 5903.50000   -9999.25  113.15470   48.98200    0.04850    0.02040    0.01460    5.98610    2.67860    7.98030   53.48490   99.12280   35.05290   99.19760   11.92500  -46.69400    8.75220
 5904.00000   -9999.25  113.15470  130.40480    0.04850    0.01440    0.01660    6.47240    2.69120    7.97950   53.41400   99.86910   35.52260   87.42150   11.13830  -47.23810   10.83590
 5904.50000   -9999.25  108.99180  612.87580    0.04730    0.00840    0.01790    7.07060    2.70220    7.97350   52.10420  100.20100   34.17850   75.64530   11.05230  -47.89300   12.83060
 5905.00000   -9999.25  105.57130 1904.97090    0.04440    0.00550    0.01830    7.43050    2.70300    7.96750   52.01020   99.03240   31.34650   64.73860   11.00560  -48.59170   13.09680
 5905.50000   -9999.25  102.65720 1903.92940    0.03700    0.00510    0.01690    7.17050    2.69990    7.96150   52.37340   97.77500   28.51460   62.74520   11.15510  -49.29030   13.18610
 5906.00000   -9999.25  133.30420 1901.86390    0.03050    0.00280    0.01550    6.84890    2.71380    7.95550   52.05380   97.62890   25.68260   62.13170   11.79760  -49.98900   13.19550
 5906.50000   -9999.25  184.77580 1899.80050    0.02570   -0.00430    0.01510    6.66270    2.72810    7.94950   51.19190   97.16040   22.85060   62.12840   13.81000  -50.68770   13.17940
 5907.00000   -9999.25  256.12180 1897.73950    0.02180   -0.01340    0.01470    7.00120    2.73330    7.94350   50.33010   96.65400   20.01860   62.96240   18.29980  -51.18570   12.29100
 5907.50000   -9999.25  363.97560 1895.68070    0.02020   -0.01580    0.01430    7.64250    2.73320    7.93750   49.46820   96.14760   17.72030   74.61550   24.17790  -51.18570   10.15590
