~Version ---------------------------------------------------
VERS.   2.0 : CWLS log ASCII Standard -VERSION 2.0
WRAP.    NO : One line per depth step
DLM . SPACE : Column Data Section Delimiter
~Well ------------------------------------------------------
STRT .F                 490.0 : START DEPTH
STOP .F                5994.0 : STOP DEPTH
STEP .F                   0.5 : STEP
NULL .               -9999.25 : NULL VALUE
COMP .                        : COMPANY
WELL .                        : WELL
FLD  .                        : FIELD
LOC  .                        : LOCATION
PROV .                        : PROVINCE
CNTY .                        : COUNTY
STAT .                        : STATE
CTRY .                        : COUNTRY
SRVC .                        : SERVICE COMPANY
DATE .                        : DATE
UWI  .                        : UNIQUE WELL ID
API  .                        : API NUMBER
SLAT .WGS84 7.005323388006502 : SURFACE LATITUDE
SLON .WGS84 2.657876702480209 : SURFACE LONGITUDE
DATUM.F                1109.0 : DEPTH DATUM ELEV
~Curve Information -----------------------------------------
DEPT   .F     : 
ILD_1  .OHMM  : INDUCTION LOG DEEP
SFLU_1 .OHMM  : SPHERICALLY FOCUSED LOG UNAVERAGED RESISTIVITY
ILM_1  .OHMM  : INDUCTION LOG MEDIUM
NPHI_LS.DEC   : NEUTRON POROSITY LIMESTONE
DPHI_LS.DEC   : DENSITY POROSITY LIMESTONE
DRHO   .G/C3  : DENSITY CORRECTION
PEF    .B/E   : PHOTOELECTRIC FACTOR
RHOB   .G/C3  : BULK DENSITY
CALD   .IN    : CALIPER FROM DENSITY LOG
DTCO   .US/F  : COMPRESSIONAL-WAVE INTERVAL TRANSIT TIME ACAUSTIC SLOWNESS
DTSM   .US/F  : SHEAR-WAVE INTERVAL TRANSIT TIME DELTA-T
GRR    .GAPI  : GAMMA RAY
ILD    .OHMM  : INDUCTION LOG DEEP
SFLA   .OHMM  : SHALLOW FOCUSED LOG RESISTIVITY
SPR    .MV    : SPONTANEOUS POTENTIAL
CILD   .MMHO  : CONDUCTIVITY INDUCTION LOG DEEP
~Params ----------------------------------------------------
~Other -----------------------------------------------------
~ASCII -----------------------------------------------------
# ...
 4768.50000    7.09060    8.04090    6.66550    0.22110    0.03350    0.00260    3.74010    2.63670    9.27640   73.55210  127.68650   86.47970    6.92250    8.07930  -39.32840  142.01430
 4769.00000    7.07440    7.86840    6.57610    0.21640    0.02920    0.00670    3.75850    2.64630    9.27420   73.57300  129.33670   86.58260    6.90790    8.08180  -39.47340  141.64740
 4769.50000    7.05820    7.85250    6.49450    0.20940    0.03220    0.01080    3.81870    2.65810    9.27190   73.95960  132.35570   88.90940    6.88510    8.07960  -39.61840  143.23260
 4770.00000    7.04200    7.88180    6.41170    0.20930    0.03570    0.01360    3.97250    2.66180    9.26970   73.96100  135.37710   94.71980    6.85630    8.03280  -39.76330  144.74850
 4770.50000    7.02590    7.87150    6.32760    0.21780    0.03910    0.01480    4.19860    2.65370    9.26750   74.24070  135.71770   98.17840    6.82550    7.97080  -39.90830  146.23490
 4771.00000    7.00990    7.89190    6.25080    0.22790    0.04100    0.01300    4.21130    2.64500    9.26530   74.31070  136.05010   98.66090    6.79190    7.89370  -40.09940  147.85660
 4771.50000    6.99380    7.88970    6.16520    0.22670    0.04340    0.01040    4.21110    2.63910    9.26310   74.35630  137.80260   98.96460    6.74130    7.88290  -40.30300  149.55150
 4772.00000    6.97780    7.90230    6.10180    0.22400    0.04610    0.00510    4.27690    2.63530    9.26080   74.59530  139.46430   99.05580    6.69080    7.87940  -40.50650  150.44690
 4772.50000    6.96190    7.90610    6.11070    0.22130    0.04870   -0.00010    4.28300    2.63010    9.26020   75.04820  140.81750   99.14690    6.64030    7.87710  -40.71010  150.81830
 4773.00000    6.94600    7.91390    6.14090    0.21760    0.04960   -0.00290    4.15900    2.62600    9.25970   75.08600  140.55420   98.89760    6.59980    7.87710  -40.91370  151.06030
 4773.50000    6.93010    7.92100    6.16630    0.21340    0.04820   -0.00400    3.90830    2.62640    9.25920   75.08350  139.20110   98.61190    6.59980    7.87710  -41.11720  151.02590
 4774.00000    6.91420    7.92820    6.19170    0.21350    0.04810   -0.00480    3.80970    2.62920    9.25870   75.08110  137.28790   96.57510    6.59990    7.88320  -41.19990  150.99150
 4774.50000    6.89840    7.93530    6.21770    0.21460    0.04820   -0.00490    4.00520    2.63190    9.25820   74.54900  137.36290   91.21000    6.59990    7.90390  -41.04460  150.75410
 4775.00000    6.88260    7.94240    6.10520    0.21520    0.04980   -0.00490    4.25500    2.63060    9.25780   74.30740  137.41600   87.30050    6.59990    7.94120  -40.88940  150.29300
 4775.50000    6.86690    7.94960    5.99300    0.21720    0.05150   -0.00500    4.24260    2.62690    9.25730   74.30180  137.37270   86.97890    6.60000    7.97680  -40.73410  149.32350
 4776.00000    6.85120    7.95670    5.86490    0.22100    0.05320   -0.00670    4.14600    2.62010    9.26080   74.29620  137.22750   87.25880    6.60000    7.98150  -40.57880  149.24600
 4776.50000    6.83550    7.96390    5.86490    0.22380    0.05170   -0.00850    4.04100    2.61880    9.27810   74.29210  136.10690   90.39310    6.60000    7.97970  -40.42360  149.21050
 4777.00000    6.81990    7.97110    5.89080    0.21830    0.04940   -0.00950    3.97730    2.62060    9.29610   74.28960  135.73870   94.40580    6.60010    7.97270  -40.26830  149.17500
 4777.50000    6.80430    7.97820    5.93070    0.21170    0.04470   -0.00950    3.91710    2.62680    9.30200   74.28710  134.40490   98.41860    6.60010    7.96580  -40.11310  149.13950
 4778.00000    6.78870    7.98540    5.97080    0.21350    0.04310   -0.00960    3.88910    2.63220    9.30890   74.21720  132.77910  101.15110    6.60020    7.92190  -39.98820  149.10400
 4778.50000    6.77320    7.99260    6.01120    0.22000    0.04340   -0.00890    3.96000    2.63420    9.31570   74.07900  131.03370   99.81200    6.60130    7.96060  -39.94200  149.43930
 4779.00000    6.75770    7.99980    6.05190    0.22180    0.04540   -0.00790    4.06080    2.63430    9.32260   73.68290  130.55100   95.64310    6.61720    7.99040  -39.89570  150.24900
 4779.50000    6.74220    8.00880    6.09280    0.22010    0.04720   -0.00690    4.12320    2.63170    9.32940   73.51310  131.06520   95.49650    6.63310    7.99970  -39.84950  150.86360
 4780.00000    6.72680    8.00880    6.13410    0.21820    0.04760   -0.00580    4.05700    2.62770    9.33630   73.49870  132.05340   95.64080    6.64900    7.97530  -39.80320  150.95160
 4780.50000    6.71140    8.00880    6.17560    0.21610    0.04560   -0.00510    3.96440    2.62740    9.34310   73.51480  135.28360  102.56090    6.66490    7.93370  -39.75700  150.96760
 4781.00000    6.69610    8.00830    6.21770    0.21430    0.04360   -0.00590    3.87180    2.62930    9.35020   74.03530  137.29720  112.60740    6.60210    7.81350  -39.72710  150.98360
 4781.50000    6.68070    8.00910    6.19810    0.21340    0.04160   -0.00710    3.80350    2.63370    9.35730   74.23420  138.27490  112.80790    6.60070    7.72370  -39.70240  150.99970
 4782.00000    6.66550    8.00860    6.17830    0.21330    0.03980   -0.00830    3.78520    2.63830    9.36450   74.26160  138.82790  108.73680    6.59930    7.69850  -39.66660  151.01570
 4782.50000    6.65010    8.00790    6.15860    0.21220    0.03800   -0.00950    3.92390    2.64260    9.37170   74.26250  137.73630  100.93550    6.59790    7.67330  -39.60510  151.03180
 4783.00000    6.63500    8.01070    6.13900    0.20890    0.03630   -0.01060    3.96200    2.64630    9.37880   74.26010  136.45020   94.17860    6.59650    7.66820  -39.23170  151.04780
 4783.50000    6.61990    8.00540    6.11950    0.20560    0.03500   -0.01180    3.99030    2.64800    9.41290   74.25760  134.51730   93.50760    6.59510    7.66440  -38.78450  151.06380
 4784.00000    6.60450    8.01300    6.09990    0.20890    0.03860   -0.01300    4.06800    2.64260    9.41100   74.25520  132.29310   92.80220    6.56990    7.68760  -38.33730  151.56410
 4784.50000    6.58980    8.00390    6.08050    0.21570    0.04230   -0.01410    4.16670    2.63560    9.40920   74.25270  133.38710   92.08290    6.53860    7.71230  -37.89010  152.26650
 4785.00000    6.57420    7.93450    6.06120    0.22010    0.04610   -0.01510    4.17890    2.63010    9.40730   74.25020  136.37240   91.11190    6.50720    7.73700  -37.44300  152.68720
 4785.50000    6.55970    7.86610    6.04180    0.22220    0.05020   -0.01590    4.11180    2.62470    9.42520   74.24780  138.49320   90.03660    6.46460    7.75190  -36.99580  153.05050
 4786.00000    6.54450    7.81270    6.02260    0.22440    0.05020   -0.01670    4.02180    2.62220    9.43410   74.31160  139.89110   89.41620    6.41290    7.70340  -36.62540  153.33400
 4786.50000    6.52890    7.74970    6.00340    0.22910    0.05010   -0.01770    4.11100    2.62230    9.44300   74.43550  140.74040   89.34300    6.36120    7.65100  -36.82320  154.58540
 4787.00000    6.51580    7.69250    5.98020    0.23950    0.04970   -0.01790    4.28900    2.62370    9.45190   74.58850  141.38660   93.99750    6.30950    7.58880  -37.02100  156.37810
 4787.50000    6.49770    7.63460    5.93050    0.23920    0.04920   -0.01670    4.39630    2.62520    9.46080   74.61830  140.98740  104.52340    6.25780    7.53610  -37.21870  158.31600
 4788.00000    6.48730    7.57510    5.86800    0.23660    0.04780   -0.01430    4.32480    2.62660    9.46970   74.62240  140.09790  109.24450    6.20870    7.48530  -37.41650  159.53060
 4788.50000    6.46460    7.51870    5.80610    0.23110    0.04450   -0.01160    4.20810    2.62890    9.47870   74.98160  139.81000  113.33590    6.18320    7.42970  -37.57140  160.89960
 4789.00000    6.36350    7.46170    5.74490    0.23410    0.04120   -0.00930    4.09160    2.63670    9.48760   75.02140  140.30480  113.75490    6.15290    7.35860  -37.71520  163.06290
 4789.50000    6.20800    7.40510    5.68440    0.24440    0.03790   -0.00690    4.06490    2.64600    9.49650   75.10320  140.79970  113.75490    6.10570    7.28990  -37.85900  163.52060
