~Version ---------------------------------------------------
VERS.   2.0 : CWLS log ASCII Standard -VERSION 2.0
WRAP.    NO : One line per depth step
DLM . SPACE : Column Data Section Delimiter
~Well ------------------------------------------------------
STRT .F                 490.0 : START DEPTH
STOP .F                5994.0 : STOP DEPTH
STEP .F                   0.5 : STEP
NULL .               -9999.25 : NULL VALUE
COMP .                        : COMPANY
WELL .                        : WELL
FLD  .                        : FIELD
LOC  .                        : LOCATION
PROV .                        : PROVINCE
CNTY .                        : COUNTY
STAT .                        : STATE
CTRY .                        : COUNTRY
SRVC .                        : SERVICE COMPANY
DATE .                        : DATE
UWI  .                        : UNIQUE WELL ID
API  .                        : API NUMBER
SLAT .WGS84 7.005323388006502 : SURFACE LATITUDE
SLON .WGS84 2.657876702480209 : SURFACE LONGITUDE
DATUM.F                1109.0 : DEPTH DATUM ELEV
~Curve Information -----------------------------------------
DEPT   .F     : 
ILD_1  .OHMM  : INDUCTION LOG DEEP
SFLU_1 .OHMM  : SPHERICALLY FOCUSED LOG UNAVERAGED RESISTIVITY
ILM_1  .OHMM  : INDUCTION LOG MEDIUM
NPHI_LS.DEC   : NEUTRON POROSITY LIMESTONE
DPHI_LS.DEC   : DENSITY POROSITY LIMESTONE
DRHO   .G/C3  : DENSITY CORRECTION
PEF    .B/E   : PHOTOELECTRIC FACTOR
RHOB   .G/C3  : BULK DENSITY
CALD   .IN    : CALIPER FROM DENSITY LOG
DTCO   .US/F  : COMPRESSIONAL-WAVE INTERVAL TRANSIT TIME ACAUSTIC SLOWNESS
DTSM   .US/F  : SHEAR-WAVE INTERVAL TRANSIT TIME DELTA-T
GRR    .GAPI  : GAMMA RAY
ILD    .OHMM  : INDUCTION LOG DEEP
SFLA   .OHMM  : SHALLOW FOCUSED LOG RESISTIVITY
SPR    .MV    : SPONTANEOUS POTENTIAL
CILD   .MMHO  : CONDUCTIVITY INDUCTION LOG DEEP
~Params ----------------------------------------------------
~Other -----------------------------------------------------
~ASCII -----------------------------------------------------
# ...
 5370.50000   -9999.25   39.44470   93.28780    0.03460    0.01970   -0.01280    5.23630    2.67070    8.16530   54.02400   98.51920   13.03370   62.79960   49.03160  -57.76500   16.51390
 5371.00000   39.53780   34.10980   78.19250    0.03430    0.02660   -0.01380    5.41620    2.66140    8.16180   54.02810   98.52330   14.04260   54.74150   44.69910  -57.63060   18.52170
 5371.50000   38.02770   33.49000   60.68200    0.03410    0.03150   -0.01400    5.54790    2.65310    8.15830   54.13810   98.76340   14.47190   46.68340   40.36670  -57.49630   20.52960
 5372.00000   36.22750   34.15350   60.68200    0.03420    0.03350   -0.01350    5.66220    2.64690    8.15490   54.49080   99.92140   14.47190   41.86070   36.23620  -57.36190   23.32720
 5372.50000   33.24100   33.47290   45.47580    0.03710    0.03630   -0.01270    5.64470    2.64540    8.15140   54.40680   99.81170   14.14700   37.03800   34.55590  -57.22760   26.28550
 5373.00000   30.50080   30.05150   35.59550    0.04070    0.03930   -0.01110    5.37590    2.64430    8.14790   54.23040   99.92820   13.50240   32.92670   32.87570  -57.07380   30.49350
 5373.50000   27.98640   26.92640   31.29920    0.04420    0.04030   -0.00950    5.10260    2.64380    8.14450   54.05400  100.81320   11.80370   29.69810   31.19540  -56.85960   31.83180
 5374.00000   25.67930   25.00740   25.03920    0.04780    0.03900   -0.00780    4.97120    2.64810    8.14100   53.99550  101.52630    9.49870   26.61800   29.27980  -56.64540   36.24460
 5374.50000   23.56240   22.48750   21.52340    0.04980    0.03700   -0.00500    5.01820    2.65100    8.13750   54.14090   99.93060    8.65690   25.26640   27.29060  -56.43130   38.40210
 5375.00000   21.62010   20.08060   18.50140    0.04910    0.03460   -0.00210    5.09270    2.65100    8.13760   54.31580   97.83660    8.52310   23.91480   25.30140  -56.21710   40.37710
 5375.50000   21.22210   19.86580   18.21710    0.04770    0.03430    0.00080    5.18530    2.65090    8.15440   54.75800   95.49280    8.76070   22.56320   23.31220  -56.00290   43.27060
 5376.00000   20.39330   20.04390   17.76350    0.04750    0.03460    0.00370    5.57580    2.65100    8.14000   55.26280   93.99830    9.58540   21.21170   21.32300  -55.78870   46.32480
 5376.50000   20.39330   19.66500   17.45150    0.04750    0.03450    0.00630    6.00070    2.65200    8.13450   55.78130   94.99520   10.41020   20.59660   20.29790  -55.57450   49.60560
 5377.00000   20.00000   19.56840   17.11500    0.04450    0.03430    0.00510    6.57190    2.65150    8.13440   55.97640   94.82850   11.15820   20.52160   19.77350  -55.36040   50.21870
 5377.50000   20.00000   19.23610   16.46130    0.03850    0.03560    0.00200    7.12020    2.64160    8.13010   56.24560   94.45000   11.52060   20.47310   19.67000  -55.14620   50.29000
 5378.00000   20.12500   19.76230   16.14380    0.03700    0.04060   -0.00060    7.73350    2.63050    8.12530   56.75670   98.18260   11.58000   20.54820   19.81960  -54.93200   50.36120
 5378.50000   21.01410   20.68000   22.34480    0.03670    0.04840   -0.00060    7.69350    2.62100    8.12060   57.26420  100.37230   11.44320   20.74610   20.18090  -54.88430   49.56060
 5379.00000   21.94240   21.64030   30.10370    0.03440    0.05160    0.00050    7.02380    2.62100    8.11590   56.98080   99.52880   10.86910   21.19770   20.54220  -54.88120   48.78940
 5379.50000   22.91170   22.92060   30.10370    0.03120    0.04860    0.00160    6.21040    2.62820    8.11490   56.39280   98.99080   10.29510   21.64920   20.90350  -54.88100   48.09910
 5380.00000   23.92390   22.92060   29.76560    0.02660    0.04320    0.00260    5.36300    2.64370    8.13290   55.80480  100.00890    9.86300   22.10080   21.26480  -54.94240   42.28460
 5380.50000   24.77730   22.04860   29.52320    0.02210    0.03190    0.00280    4.90920    2.66030    8.19480   55.21680   99.79840    9.76250   23.99960   21.62620  -55.00380   39.65380
 5381.00000   32.77110   21.20310   52.58490    0.01770    0.01990    0.00120    5.02980    2.67800    8.21760   54.99280   98.11370    9.66200   26.74160   21.98750  -55.18440   36.85630
 5381.50000   38.77540   24.66520   85.44270    0.01520    0.01540   -0.00030    5.22170    2.68400    8.23050   54.22430   97.27560   10.06050   33.47280   23.71370  -55.76970   30.63930
 5382.00000   38.77540   28.56290  132.22880    0.01520    0.01360   -0.00140    5.46790    2.68560    8.23910   53.92640   97.10730   10.67570   36.89710   26.87040  -56.35500   25.33450
 5382.50000   38.77540   33.07650  110.25470    0.01520    0.01460   -0.00180    5.70850    2.68510    8.23230   53.76550   96.50880   11.65910   39.86000   30.02710  -56.94040   23.97780
 5383.00000   38.77540   39.53780   78.77330    0.01520    0.01580   -0.00100    5.82840    2.68430    8.21140   53.30800   96.39980   12.64260   44.62900   33.25820  -57.52570   22.71030
 5383.50000   48.02220   39.53780   64.33240    0.01520    0.01790   -0.00030    5.84330    2.68100    8.19050   53.21870   96.76340   13.55140   46.91900   36.51300  -58.11100   20.93200
 5384.00000   -9999.25   39.15590   63.09180    0.01510    0.02140    0.00040    5.88900    2.67370    8.16950   53.15300   97.15160   13.91380   49.20900   38.71550  -58.69640   18.95440
 5384.50000   -9999.25   38.55300   65.59730    0.01450    0.02430    0.00090    5.95700    2.66770    8.14860   53.11030   98.23150   14.27620   56.74910   38.81760  -59.11910   17.15900
 5385.00000   -9999.25   37.95940   72.30520    0.01390    0.02580   -0.00180    5.97250    2.66540    8.13380   53.20190   97.44400   14.38870   64.28920   38.91780  -59.13220   15.47340
 5385.50000   -9999.25   37.37490   97.38050    0.01330    0.02530   -0.00450    5.80350    2.66640    8.13320   53.16870   97.24050   14.05520   65.93350   39.11980  -59.14390   14.66080
 5386.00000   -9999.25   36.57520  170.31880    0.01260    0.02170   -0.00730    5.63100    2.67480    8.13270   52.66680   96.79130   12.67110   66.36250   39.71560  -59.09210   14.64600
 5386.50000   -9999.25   40.08830  177.08260    0.01240    0.01820   -0.00930    5.63570    2.67980    8.13210   52.17220   95.03710   11.28710   66.79160   41.28180  -59.04030   14.63120
 5387.00000   -9999.25   46.63650   46.20260    0.01140    0.01520   -0.00940    5.75010    2.68210    8.13490   52.17640   93.49100    9.90310   69.18450   45.39170  -58.98860   14.61200
 5387.50000   -9999.25   54.25420   47.11110    0.01120    0.01590   -0.00700    5.89030    2.68330    8.14070   52.76650   94.96250    9.17010   72.94860   47.96710  -58.93680   12.30380
 5388.00000   -9999.25   61.87510  130.05460    0.01130    0.01680   -0.00380    5.96520    2.68240    8.14820   53.30080   97.21710    9.52390   91.96040   50.54240  -58.88500    9.99570
 5388.50000   -9999.25   60.82710  400.16960    0.01170    0.01700   -0.00060    6.04170    2.68200    8.16560   52.76130   95.67840   10.65930  140.43560   53.11780  -58.83320    7.20580
 5389.00000   -9999.25   59.44860  982.56640    0.01210    0.01750    0.00220    6.09960    2.68100    8.18710   52.06660   98.06490   11.79480  168.45270   57.73760  -58.78140    4.50300
 5389.50000   -9999.25   58.10130  241.58710    0.01220    0.01830    0.00300    6.12360    2.67940    8.20780   51.41380  100.28630   12.78500  168.45270   58.16700  -58.72970    5.30600
 5390.00000   -9999.25   56.78450   65.59730    0.01250    0.01920    0.00230    6.26790    2.67700    8.22790   51.65080  100.25940   12.82750  163.77490   58.59650  -58.67790    6.84770
 5390.50000   -9999.25   56.13490   63.09180    0.01220    0.02020    0.00210    6.46400    2.67620    8.23850   51.88790   99.62270   12.95680  146.76920   59.02590  -58.62610    8.11810
 5391.00000   -9999.25   59.51180   98.73610    0.01180    0.02160    0.00060    6.50890    2.67500    8.19630   52.12490   99.49790   12.55470  125.61060   61.09570  -58.69560    9.38860
 5391.50000   -9999.25   65.80790   83.43880    0.01110    0.02660   -0.00160    6.42300    2.66830    8.19450   52.36200   99.88730   11.54110  104.45190   63.56590  -58.78700   10.65900
