~Version ---------------------------------------------------
VERS.   2.0 : CWLS log ASCII Standard -VERSION 2.0
WRAP.    NO : One line per depth step
DLM . SPACE : Column Data Section Delimiter
~Well ------------------------------------------------------
STRT .F                 490.0 : START DEPTH
STOP .F                5994.0 : STOP DEPTH
STEP .F                   0.5 : STEP
NULL .               -9999.25 : NULL VALUE
COMP .                        : COMPANY
WELL .                        : WELL
FLD  .                        : FIELD
LOC  .                        : LOCATION
PROV .                        : PROVINCE
CNTY .                        : COUNTY
STAT .                        : STATE
CTRY .                        : COUNTRY
SRVC .                        : SERVICE COMPANY
DATE .                        : DATE
UWI  .                        : UNIQUE WELL ID
API  .                        : API NUMBER
SLAT .WGS84 7.005323388006502 : SURFACE LATITUDE
SLON .WGS84 2.657876702480209 : SURFACE LONGITUDE
DATUM.F                1109.0 : DEPTH DATUM ELEV
~Curve Information -----------------------------------------
DEPT   .F     : 
ILD_1  .OHMM  : INDUCTION LOG DEEP
SFLU_1 .OHMM  : SPHERICALLY FOCUSED LOG UNAVERAGED RESISTIVITY
ILM_1  .OHMM  : INDUCTION LOG MEDIUM
NPHI_LS.DEC   : NEUTRON POROSITY LIMESTONE
DPHI_LS.DEC   : DENSITY POROSITY LIMESTONE
DRHO   .G/C3  : DENSITY CORRECTION
PEF    .B/E   : PHOTOELECTRIC FACTOR
RHOB   .G/C3  : BULK DENSITY
CALD   .IN    : CALIPER FROM DENSITY LOG
DTCO   .US/F  : COMPRESSIONAL-WAVE INTERVAL TRANSIT TIME ACAUSTIC SLOWNESS
DTSM   .US/F  : SHEAR-WAVE INTERVAL TRANSIT TIME DELTA-T
GRR    .GAPI  : GAMMA RAY
ILD    .OHMM  : INDUCTION LOG DEEP
SFLA   .OHMM  : SHALLOW FOCUSED LOG RESISTIVITY
SPR    .MV    : SPONTANEOUS POTENTIAL
CILD   .MMHO  : CONDUCTIVITY INDUCTION LOG DEEP
~Params ----------------------------------------------------
~Other -----------------------------------------------------
~ASCII -----------------------------------------------------
# ...
 4682.50000   -9999.25   -9999.25   -9999.25   -9999.25   -9999.25   -9999.25   -9999.25   -9999.25   -9999.25   59.34940  113.03920   53.07910   14.17660   20.76550  -35.16020   69.47340
 4683.00000   -9999.25   -9999.25   -9999.25   -9999.25   -9999.25   -9999.25   -9999.25   -9999.25   -9999.25   59.61980  112.79870   53.59510   13.56380   18.99100  -35.43230   72.46900
 4683.50000   -9999.25   -9999.25   -9999.25   -9999.25   -9999.25   -9999.25   -9999.25   -9999.25   -9999.25   60.44700  113.84890   56.06120   12.95110   18.22130  -35.80400   75.25160
 4684.00000   -9999.25   -9999.25   -9999.25   -9999.25   -9999.25   -9999.25   -9999.25   -9999.25   -9999.25   61.27420  116.85010   60.37630   12.33830   16.95900  -36.48150   78.80050
 4684.50000   -9999.25   -9999.25   -9999.25   -9999.25   -9999.25   -9999.25   -9999.25   -9999.25   -9999.25   62.10140  119.65440   63.75280   11.92720   16.88670  -36.82900   81.82020
 4685.00000   -9999.25   -9999.25   -9999.25   -9999.25   -9999.25   -9999.25   -9999.25   -9999.25   -9999.25   62.92860  117.52460   64.68880   11.96410   16.88480  -36.86830   82.30870
 4685.50000   -9999.25   -9999.25   -9999.25   -9999.25   -9999.25   -9999.25   -9999.25   -9999.25   -9999.25   64.11520  119.55290   63.37710   12.11990   17.20660  -36.90770   81.27450
 4686.00000   -9999.25   -9999.25   -9999.25   -9999.25   -9999.25   -9999.25   -9999.25   -9999.25   -9999.25   65.45140  121.58120   61.60980   12.27580   17.58010  -36.94700   79.08320
 4686.50000   -9999.25   -9999.25   -9999.25   -9999.25   -9999.25   -9999.25   -9999.25   -9999.25   -9999.25   66.29100  123.17890   60.11000   12.43170   17.99050  -36.98640   78.53870
 4687.00000   -9999.25   -9999.25   -9999.25   -9999.25   -9999.25   -9999.25   -9999.25   -9999.25   -9999.25   65.94910  121.25700   60.11000   12.58760   18.40610  -37.04760   78.40440
 4687.50000   -9999.25   -9999.25   -9999.25   -9999.25   -9999.25   -9999.25   -9999.25   -9999.25   -9999.25   65.42050  118.54640   60.93450   12.55490   18.64830  -37.18520   78.90210
 4688.00000   -9999.25   -9999.25   -9999.25   -9999.25   -9999.25   -9999.25   -9999.25   -9999.25   -9999.25   64.97160  118.87940   64.84210   12.26010   18.38930  -36.87120   81.54480
 4688.50000   -9999.25   -9999.25   -9999.25   -9999.25   -9999.25   -9999.25   -9999.25   -9999.25   -9999.25   65.07860  120.37620   69.37090   11.66840   16.94530  -36.32130   82.97310
 4689.00000   -9999.25   -9999.25   -9999.25   -9999.25   -9999.25   -9999.25   -9999.25   -9999.25   -9999.25   64.99100  120.07140   73.80070   11.07660   15.76560  -35.77090   87.24560
 4689.50000   -9999.25   -9999.25   -9999.25   -9999.25   -9999.25   -9999.25   -9999.25   -9999.25   -9999.25   65.17160  119.76680   76.86010   10.42930   14.58600  -35.46850   92.51740
 4690.00000   -9999.25   -9999.25   -9999.25   -9999.25   -9999.25   -9999.25   -9999.25   -9999.25   -9999.25   66.00130  120.93950   79.91950    9.56390   13.33520  -35.21330   96.48810
 4690.50000   -9999.25   -9999.25   -9999.25   -9999.25   -9999.25   -9999.25   -9999.25   -9999.25   -9999.25   68.15680  126.21900   82.97890    9.30810   12.71540  -35.21140  100.45880
 4691.00000   -9999.25   -9999.25   -9999.25   -9999.25   -9999.25   -9999.25   -9999.25   -9999.25   -9999.25   70.31910  129.58320   84.43610    9.17540   12.67420  -35.20940  104.42950
 4691.50000   -9999.25   -9999.25   -9999.25   -9999.25   -9999.25   -9999.25   -9999.25   -9999.25   -9999.25   72.48150  131.64180   85.12810    8.98270   12.64780  -35.20750  106.36630
 4692.00000   -9999.25   -9999.25   -9999.25   -9999.25   -9999.25   -9999.25   -9999.25   -9999.25   -9999.25   73.21240  133.87550   85.46430    8.91180   12.78670  -35.19970  108.40740
 4692.50000   -9999.25   -9999.25   -9999.25   -9999.25   -9999.25   -9999.25   -9999.25   -9999.25   -9999.25   72.65560  132.68390   85.77600    8.82680   12.95900  -35.17270  110.11100
 4693.00000   -9999.25   -9999.25   -9999.25   -9999.25   -9999.25   -9999.25   -9999.25   -9999.25   -9999.25   72.69410  130.88490   86.81480    8.73870   13.16190  -35.16500  110.95750
 4693.50000   -9999.25   -9999.25   -9999.25   -9999.25   -9999.25   -9999.25   -9999.25   -9999.25   -9999.25   73.23550  129.35250   89.69670    8.65060   13.19070  -35.15750  111.85450
 4694.00000   -9999.25   -9999.25   -9999.25   -9999.25   -9999.25   -9999.25   -9999.25   -9999.25   -9999.25   73.77700  130.14190   99.76490    8.56240   13.18040  -35.15010  112.75620
 4694.50000   -9999.25   -9999.25   -9999.25   -9999.25   -9999.25   -9999.25   -9999.25   -9999.25   -9999.25   74.30550  130.88520  109.83300    8.47430   13.09670  -35.14260  113.62710
 4695.00000   -9999.25   -9999.25   -9999.25   -9999.25   -9999.25   -9999.25   -9999.25   -9999.25   -9999.25   74.32090  131.47290  112.80130    8.48320   12.85810  -35.13510  114.55070
 4695.50000   -9999.25   -9999.25   -9999.25   -9999.25   -9999.25   -9999.25   -9999.25   -9999.25   -9999.25   75.05940  132.49710  113.08780    8.56640   12.81150  -35.12760  114.02580
 4696.00000   -9999.25   -9999.25   -9999.25   -9999.25   -9999.25   -9999.25   -9999.25   -9999.25   -9999.25   76.53330  134.86010  110.99460    8.64950   12.99010  -35.12020  112.96760
 4696.50000   -9999.25   -9999.25   -9999.25   -9999.25   -9999.25   -9999.25   -9999.25   -9999.25   -9999.25   78.53740  137.32230  105.30640    8.75970   13.19090  -35.11270  111.81780
 4697.00000   -9999.25   -9999.25   -9999.25    0.20340    0.04120   -0.00400    6.34590    2.43460    8.72890   79.12470  138.25960  100.45230    8.88300   13.58530  -35.10520  110.09950
 4697.50000   -9999.25   -9999.25   -9999.25    0.20680    0.04040   -0.00470    6.38790    2.44370    8.70980   78.35520  137.61060   99.93670    9.04520   14.52370  -35.09770  106.86630
 4698.00000   -9999.25   -9999.25   -9999.25    0.20210    0.03550   -0.00550    6.43310    2.46510    8.69070   78.17560  134.94380  100.53920    9.70020   15.05320  -35.05160  101.94680
 4698.50000   -9999.25   -9999.25   -9999.25    0.20240    0.03580   -0.00620    6.46680    2.49100    8.67150   78.17380  133.96850  103.34740   10.35530   16.76700  -34.98930   92.67410
 4699.00000   -9999.25   17.11500   -9999.25    0.20630    0.04690   -0.00700    6.45840    2.51690    8.65240   78.18160  133.37930  106.09700   12.21100   18.92790  -34.92700   83.40140
 4699.50000   -9999.25   32.36140   -9999.25    0.20840    0.05760   -0.00780    6.30630    2.53150    8.63330   78.83810  132.79020  121.52920   14.56900   21.53780  -34.86460   74.12860
 4700.00000    8.47080   53.87000   19.23610    0.22150    0.07130   -0.00850    6.00890    2.52690    8.61900   82.05820  134.62430  139.94480   31.85510   30.85160  -34.80230   48.12480
 4700.50000   44.80860   89.67420   36.91860    0.25560    0.08570   -0.00930    5.51450    2.49150    8.61330   85.27820  141.86380  252.34560   77.24410   43.11660  -34.27170   14.12810
 4701.00000   -9999.25  149.27520   58.33010    0.32470    0.13040   -0.01000    5.02010    2.44580    8.60770   89.16830  149.36040  288.74680  284.28880   57.54580  -33.35630    3.36090
 4701.50000   -9999.25  251.41760   93.13350    0.37000    0.20300   -0.01080    4.52580    2.39040    8.60200   93.10340  161.52110  298.69750  484.11440   59.10790  -32.44080    2.47740
 4702.00000   -9999.25  256.36130   93.13350    0.39820    0.25600   -0.01150    4.18760    2.28470    8.59630   96.54380  169.48230  298.98750  485.45590   59.11850  -31.52530    2.44430
 4702.50000   -9999.25  180.56460   93.13350    0.41060    0.29280   -0.01230    4.25370    2.20880    8.59070  105.33640  172.75430  298.98750  314.38510   45.00320  -30.71310    7.00720
 4703.00000   -9999.25  153.84180   82.83810    0.41280    0.28590   -0.01230    4.66390    2.21730    8.58500  103.73410  170.69610  298.98750  101.27250   28.70470  -30.06110   32.00740
 4703.50000   -9999.25   39.46640   31.28970    0.38540    0.27380   -0.00270    5.23290    2.24210    8.58170  101.90060  164.09270  298.79630   35.41940   12.40630  -29.40920   94.51550
