~Version ---------------------------------------------------
VERS.   2.0 : CWLS log ASCII Standard -VERSION 2.0
WRAP.    NO : One line per depth step
DLM . SPACE : Column Data Section Delimiter
~Well ------------------------------------------------------
STRT .F                 490.0 : START DEPTH
STOP .F                5994.0 : STOP DEPTH
STEP .F                   0.5 : STEP
NULL .               -9999.25 : NULL VALUE
COMP .                        : COMPANY
WELL .                        : WELL
FLD  .                        : FIELD
LOC  .                        : LOCATION
PROV .                        : PROVINCE
CNTY .                        : COUNTY
STAT .                        : STATE
CTRY .                        : COUNTRY
SRVC .                        : SERVICE COMPANY
DATE .                        : DATE
UWI  .                        : UNIQUE WELL ID
API  .                        : API NUMBER
SLAT .WGS84 7.005323388006502 : SURFACE LATITUDE
SLON .WGS84 2.657876702480209 : SURFACE LONGITUDE
DATUM.F                1109.0 : DEPTH DATUM ELEV
~Curve Information -----------------------------------------
DEPT   .F     : 
ILD_1  .OHMM  : INDUCTION LOG DEEP
SFLU_1 .OHMM  : SPHERICALLY FOCUSED LOG UNAVERAGED RESISTIVITY
ILM_1  .OHMM  : INDUCTION LOG MEDIUM
NPHI_LS.DEC   : NEUTRON POROSITY LIMESTONE
DPHI_LS.DEC   : DENSITY POROSITY LIMESTONE
DRHO   .G/C3  : DENSITY CORRECTION
PEF    .B/E   : PHOTOELECTRIC FACTOR
RHOB   .G/C3  : BULK DENSITY
CALD   .IN    : CALIPER FROM DENSITY LOG
DTCO   .US/F  : COMPRESSIONAL-WAVE INTERVAL TRANSIT TIME ACAUSTIC SLOWNESS
DTSM   .US/F  : SHEAR-WAVE INTERVAL TRANSIT TIME DELTA-T
GRR    .GAPI  : GAMMA RAY
ILD    .OHMM  : INDUCTION LOG DEEP
SFLA   .OHMM  : SHALLOW FOCUSED LOG RESISTIVITY
SPR    .MV    : SPONTANEOUS POTENTIAL
CILD   .MMHO  : CONDUCTIVITY INDUCTION LOG DEEP
~Params ----------------------------------------------------
~Other -----------------------------------------------------
~ASCII -----------------------------------------------------
# ...
 4940.50000    8.88900  129.55720    9.52200    0.02050   -0.00850   -0.00640    5.57730    2.72250    8.27400   51.07860  103.29750   23.90300   18.98970   40.14620  -36.57190   89.65320
 4941.00000   12.01860  138.89930   14.26230    0.03470   -0.00450   -0.00880    5.41230    2.71440    8.34140   52.97430  106.79630   63.32990   29.18000   48.20400  -35.82970   48.00400
 4941.50000   16.25000   93.56990   23.83090    0.06750    0.00190   -0.00880    5.60690    2.70090    8.38370   55.24500  110.29500   58.16070   27.33450   48.13640  -35.08750   39.36950
 4942.00000   24.77730   47.98460   23.83090    0.08820    0.00770   -0.00770    7.35350    2.68660    8.40500   57.15350  113.71170   47.29150   22.10570   36.35510  -34.34530   43.86700
 4942.50000   24.77730   26.21270   24.77730    0.08190    0.02030   -0.00650    9.33200    2.67390    8.43870   56.86160  112.07400   41.34210   16.87690   22.76110  -33.38790   80.05920
 4943.00000   16.43140   28.02460   25.26450    0.06710    0.04980   -0.01010   13.48460    2.63160    8.67410   56.43570  108.52870   41.20070   11.64820   17.90860  -32.52000  149.83190
 4943.50000   10.17540   30.10370   11.76310    0.08540    0.11750   -0.01960   19.56330    2.48010    9.60890   59.86450  109.09580   41.49010    4.75950   13.14240  -31.94210  200.26680
 4944.00000    6.23340   20.68000    5.86260    0.13280    0.16540   -0.02380   20.00180    2.31170   11.42110   63.67350  112.60920   55.81170    4.70140    8.62600  -31.44050  215.53520
 4944.50000    4.84440   11.35680    2.39470    0.21100    0.30720   -0.01790   20.00450    2.14670   12.01250   67.07210  115.16710   85.42240    4.64330    7.58130  -30.90690  215.53520
 4945.00000    4.80350    6.09780    2.30330    0.27500    0.36100    0.00010   20.00710    2.09230   11.93400   68.82140  114.40440   86.29570    4.59570    7.48460  -30.32280  196.99230
 4945.50000    5.03870    6.09780    7.81160    0.31300    0.34940    0.01460   20.00980    2.09780   11.83970   69.64610  112.76160   86.01450    4.55420    7.49170  -30.21330  191.95250
 4946.00000    5.08300    5.98020 1478.94410    0.29070    0.31710    0.02020   19.03350    2.11440   11.28270   69.98210  111.18380   76.97490    4.51280    7.54980  -30.22100  203.78780
 4946.50000    4.83640    7.40870 1508.02470    0.25400    0.28280    0.02030   14.14860    2.19820    9.93020   69.17950  109.05620   63.70890    4.48260    8.14600  -30.38000  218.11330
 4947.00000    4.51250   11.48130  451.44300    0.20770    0.17980    0.01880    7.06200    2.34350    8.94930   68.11280  108.79340   51.03840    4.48260   10.17920  -30.53900  226.63310
 4947.50000    4.77620   18.16480   58.13730    0.15000    0.04720    0.01430    5.26120    2.50200    8.77530   67.04620  109.60510   50.90260    4.99650   12.21240  -30.69800  226.63310
 4948.00000    6.23910   24.77730    6.72140    0.13690    0.00380    0.00830    4.68150    2.66120    8.74920   68.15260  111.52150   51.24120    8.29010   13.50070  -30.85700  167.42560
 4948.50000    9.51740   20.65820    6.59170    0.15680    0.00070    0.00220    4.52850    2.70490    8.75940   71.12900  113.57350   67.53970   11.84940   13.58270  -31.01600  106.83240
 4949.00000   13.77060   15.02830    6.72140    0.17870    0.01920   -0.00260    4.47600    2.68460    8.76100   73.16640  115.04700   87.29890   12.00580   13.12180  -31.17500   73.88790
 4949.50000   13.57920   10.72550    7.75540    0.20280    0.03390   -0.00240    4.48450    2.66120    8.75940   72.69650  113.62010  112.91170   10.55970   12.18600  -31.29170   73.46470
 4950.00000   13.32470   10.72550    9.92180    0.19560    0.04360   -0.00180    4.80380    2.64130    8.75250   72.55170  111.25060  143.05740    9.91480   12.08610  -30.92150   80.74090
 4950.50000   12.82100   11.48940   10.51870    0.17390    0.04750   -0.00120    5.19950    2.62830    8.74570   75.31760  112.24860  173.20310    9.91270   12.04620  -30.55140   91.91850
 4951.00000   12.82450   12.50910   10.51870    0.15290    0.04330    0.00010    5.16310    2.62770    8.75360   78.08360  117.00100  218.31610    9.88170   12.09360  -30.18120  101.39470
 4951.50000   12.08120   13.03120   10.31580    0.15230    0.03630    0.00140    4.80280    2.64280    8.75460   80.85240  126.55830  250.59250    9.83390   12.42200  -29.81110  102.07770
 4952.00000   12.54740   13.03120    9.61180    0.18170    0.03250   -0.00030    4.46020    2.65430    8.75180   85.56890  147.95710  251.43970    9.78600   12.69170  -29.44100  103.26820
 4952.50000   17.79730   14.39730    8.75360    0.24740    0.06190   -0.00680    4.47230    2.62480    8.74900   90.17410  175.76010  251.58460    8.70480   12.66560  -29.14930  109.58850
 4953.00000   13.70120   17.79470    8.32680    0.28920    0.11760   -0.01250    4.73070    2.52550    8.74900   93.26280  181.71500  251.18850    7.22110   12.41380  -29.06640  145.27270
 4953.50000    9.20590   17.45150    4.67700    0.37110    0.17460   -0.01330    5.46510    2.41510    8.80010   93.23650  178.48340  225.23720    5.73750   11.60150  -28.98350  172.80200
 4954.00000    6.68070   11.47550    2.90950    0.37350    0.21000   -0.00860    8.36690    2.31220    8.97400   91.52990  175.75440  186.25420    5.22090   10.44200  -28.90050  192.39380
 4954.50000    5.23620    8.35430    6.81090    0.35850    0.24530   -0.00380   11.26880    2.27090    9.18290   90.24200  174.46690  141.97960    5.17610    8.76220  -28.81760  189.82080
 4955.00000    5.62060    5.86490   19.88350    0.33330    0.25070    0.00100   13.03870    2.31140    9.20660   89.04210  172.66700  119.05600    5.17750    7.67200  -28.73460  178.47200
 4955.50000    5.68890    5.75180   76.65480    0.30960    0.21060    0.00590   14.94270    2.37880    9.19500   85.32010  166.80330   96.13250    5.53110    7.70670  -29.08950  175.92210
 4956.00000    6.17290    8.10440  926.81260    0.28080    0.17300    0.01070   12.23200    2.44370    9.14070   82.36780  153.33890   73.20900    6.39290    7.99400  -29.45090  171.36370
 4956.50000    7.75870   12.87750  214.31430    0.23920    0.14070    0.01320   10.28410    2.49850    9.01510   69.99210  121.70850   50.28540    7.25480   10.39160  -29.81240  155.95790
 4957.00000   12.25990   20.46180   47.88570    0.19990    0.11500    0.01060    8.33610    2.55450    8.88950   62.83870  107.95630   27.36190    9.48140   14.54560  -30.17380  133.54770
 4957.50000   18.32070   32.51290    9.54280    0.15100    0.08260    0.00770    6.74960    2.63090    8.76380   56.11040  100.63460   22.06300   12.51820   20.34650  -30.53520   80.58160
 4958.00000   29.01540   57.23870    9.32060    0.10110    0.04440    0.00470    6.08040    2.70400    8.64250   51.21630   96.37470   21.70160   47.41230   25.73690  -30.92990   64.82340
 4958.50000   43.05740   59.51180    9.08590    0.06420    0.01110    0.00170    5.67960    2.73150    8.57930   51.31200   95.19920   21.70160   47.51360   26.21630  -31.38560   35.22500
 4959.00000   23.78760   47.13860    8.82780    0.05340   -0.00950   -0.00130    5.67050    2.73540    8.56510   53.28400  101.95680   24.39970   45.66940   26.39650  -31.42540   35.22500
 4959.50000   13.45020   25.25130    7.07040    0.04200   -0.01500   -0.00420    5.75470    2.72960    8.56780   54.93780  112.00170   37.61870   33.17340   26.20920  -31.44750   42.92260
 4960.00000   11.75760   12.77990    5.98020    0.04620   -0.01250   -0.00720    6.02400    2.70210    8.61330   60.46450  122.70580   50.83770   16.99500   22.49630  -31.55770   64.04660
 4960.50000   10.27790   10.49410    7.54960    0.06710   -0.00360   -0.00960    6.90380    2.65720    8.67390   66.83030  133.41000   60.85900   10.33770   17.18330  -31.72240   86.03120
 4961.00000    8.98450    9.06250   17.45150    0.11180    0.02520   -0.00950    7.98000    2.61240    8.73450   71.43920  138.17690   61.13710    8.39690   11.87040  -31.88720  108.41340
 4961.50000    8.16630    8.00880   72.11400    0.14720    0.05150    0.00220    9.69150    2.57420    8.79500   72.32700  139.57930   60.99530    7.90890   10.32380  -32.05190  123.36650
