~Version ---------------------------------------------------
VERS.   2.0 : CWLS log ASCII Standard -VERSION 2.0
WRAP.    NO : One line per depth step
DLM . SPACE : Column Data Section Delimiter
~Well ------------------------------------------------------
STRT .F                 490.0 : START DEPTH
STOP .F                5994.0 : STOP DEPTH
STEP .F                   0.5 : STEP
NULL .               -9999.25 : NULL VALUE
COMP .                        : COMPANY
WELL .                        : WELL
FLD  .                        : FIELD
LOC  .                        : LOCATION
PROV .                        : PROVINCE
CNTY .                        : COUNTY
STAT .                        : STATE
CTRY .                        : COUNTRY
SRVC .                        : SERVICE COMPANY
DATE .                        : DATE
UWI  .                        : UNIQUE WELL ID
API  .                        : API NUMBER
SLAT .WGS84 7.005323388006502 : SURFACE LATITUDE
SLON .WGS84 2.657876702480209 : SURFACE LONGITUDE
DATUM.F                1109.0 : DEPTH DATUM ELEV
~Curve Information -----------------------------------------
DEPT   .F     : 
ILD_1  .OHMM  : INDUCTION LOG DEEP
SFLU_1 .OHMM  : SPHERICALLY FOCUSED LOG UNAVERAGED RESISTIVITY
ILM_1  .OHMM  : INDUCTION LOG MEDIUM
NPHI_LS.DEC   : NEUTRON POROSITY LIMESTONE
DPHI_LS.DEC   : DENSITY POROSITY LIMESTONE
DRHO   .G/C3  : DENSITY CORRECTION
PEF    .B/E   : PHOTOELECTRIC FACTOR
RHOB   .G/C3  : BULK DENSITY
CALD   .IN    : CALIPER FROM DENSITY LOG
DTCO   .US/F  : COMPRESSIONAL-WAVE INTERVAL TRANSIT TIME ACAUSTIC SLOWNESS
DTSM   .US/F  : SHEAR-WAVE INTERVAL TRANSIT TIME DELTA-T
GRR    .GAPI  : GAMMA RAY
ILD    .OHMM  : INDUCTION LOG DEEP
SFLA   .OHMM  : SHALLOW FOCUSED LOG RESISTIVITY
SPR    .MV    : SPONTANEOUS POTENTIAL
CILD   .MMHO  : CONDUCTIVITY INDUCTION LOG DEEP
~Params ----------------------------------------------------
~Other -----------------------------------------------------
~ASCII -----------------------------------------------------
# ...
 5112.50000    5.21820    9.26810  101.34970    0.26490    0.22250    0.02220   18.84630    2.26510   12.37770   91.97940  179.54060   87.68860    8.45680   10.07060  -12.59450  138.24510
 5113.00000    8.21940   12.07300 1463.38830    0.25880    0.17000    0.03490   15.40170    2.35380   11.27080   90.44350  180.81260   87.97220   27.49110   11.17390  -12.90450   77.21650
 5113.50000   14.42600   14.64610 1414.12760    0.26010    0.13360    0.03480   12.64030    2.44240   10.46320   87.49250  181.59150   87.77020   38.09640   11.27430  -12.73090   37.64120
 5114.00000   25.31920   14.96320  341.02750    0.25270    0.14610    0.03200   11.81780    2.47910   10.15970   85.65400  181.04660   86.11550   32.73350   11.08780  -12.13140   37.07460
 5114.50000   37.29440   15.22780   67.86380    0.24720    0.22330    0.01210   16.34200    2.43600   10.48300   92.70490  175.96910   85.64460   24.11140    9.16160  -11.80020   38.91940
 5115.00000   28.34030   15.22780   13.50480    0.27180    0.31380   -0.01060   19.28440    2.29800   11.45020  106.80270  171.04170   85.50320    9.90730    7.02830  -11.06980   89.69940
 5115.50000   14.93410   12.05470    5.32080    0.29770    0.34160   -0.03150   19.99030    2.18530   12.32460  117.03890  170.12270   84.32240    8.24970    4.89490  -10.33950  118.61630
 5116.00000   12.17270    8.49530    0.99700    0.38540    0.33020   -0.03740   19.99100    2.12620   13.09900  114.60160  170.40970   75.30380    6.59210    4.24750   -9.60910  144.47810
 5116.50000    8.90390    4.97440    0.99700    0.42500    0.30830   -0.02790   19.99160    2.15520   13.64830  108.27290  170.75090   75.37630    4.93450    3.91290   -8.87870  205.34650
 5117.00000    6.51290    2.85340    1.29460    0.44100    0.30050   -0.01450   19.99220    2.18320   13.80300  105.22150  170.57660   77.59530    3.87680    3.61490   -8.40320  386.10460
 5117.50000    4.76400    2.85340    1.63610    0.44080    0.29590   -0.01470   19.99290    2.18430   13.82610  102.17020  170.40770   80.38830    3.04600    3.39140   -8.22700  464.85630
 5118.00000    3.48470    3.03390    2.04930    0.42000    0.29130   -0.00560   19.99350    2.19210   13.60990   99.11880  170.68030   83.18130    2.34380    3.16790   -8.05070  533.94140
 5118.50000    2.54900    3.27330    2.17260    0.40910    0.27980    0.00390   19.99410    2.21890   13.42430   97.41850  170.58480   85.97430    2.12020    3.08480   -7.87450  534.61610
 5119.00000    1.93300    3.40000    2.12730    0.39500    0.27760    0.00800   19.99480    2.23040   13.25140   99.96150  170.01270   88.76730    1.89670    3.02880   -7.69820  534.61610
 5119.50000    1.96580    3.21330    1.96180    0.37880    0.27700    0.01210   19.99540    2.23550   13.07130  102.06220  169.23220   90.09060    1.83420    3.01430   -7.62730  440.28560
 5120.00000    2.01150    3.05470    1.80920    0.36040    0.27240    0.01610   19.99600    2.24060   12.63230  100.81140  168.45170   90.15590    1.83420    3.07660   -7.62730  440.33010
 5120.50000    2.05840    2.90390    1.62230    0.34730    0.27210    0.02020   19.99670    2.24750   12.27530   99.51200  167.67120   85.88460    1.83420    3.13900   -7.62730  442.35500
 5121.00000    2.10630    2.76050    1.56030    0.35900    0.28770    0.02420   19.99730    2.23710   12.25960   98.19440  166.79860   82.42940    1.88590    3.20130   -7.70340  465.27840
 5121.50000    2.13070    2.69150    1.53020    0.37400    0.31410    0.02480   19.99790    2.20610   12.37260   95.65040  165.69440   82.42940    1.95610    3.26360   -7.91810  466.47960
 5122.00000    2.10670    3.08250    1.62800    0.34710    0.29010    0.01710   19.99860    2.17200   12.45530   93.03180  165.12360   83.79930    2.18480    3.41950   -8.13270  375.51010
 5122.50000    2.08960    3.71130    1.85920    0.31570    0.26620    0.01250   19.84360    2.19130   12.16950   93.34430  169.50420   86.54440    3.01810    3.58800   -8.97600  242.53930
 5123.00000    2.85340    4.13090   20.33380    0.28010    0.17020    0.01380   16.31230    2.27750   11.21590   95.34750  176.45460   89.28950    5.37810    3.95410  -10.09850  145.09660
 5123.50000    3.80750    3.75250  393.07560    0.25490    0.07090    0.01510   11.51080    2.44240   10.63950   94.36730  181.82660   90.09970  169.92810    4.61400  -10.98510   51.27400
 5124.00000    5.91900    3.53500 1832.20910    0.21700    0.01430    0.01550    7.72800    2.59880   10.37830   88.00010  176.96660   89.67930  334.47810    5.27380  -11.35010   48.58150
 5124.50000    9.35880    4.03430 1868.23580    0.17210    0.00430    0.01030    5.46830    2.69770    9.87900   80.32110  163.43950   79.06090  499.02810    6.43210  -11.65540   17.32510
 5125.00000   45.25650    4.83390 1868.23580    0.15070    0.00010    0.00330    4.98830    2.70520    9.47680   74.87640  148.45460   78.57350  499.93590    8.20380  -11.66720   10.51640
 5125.50000   -9999.25    5.75180 1762.22640    0.16330    0.01360    0.00230    5.32970    2.69320    9.44520   67.32500  136.36100   78.57350  500.65040    9.97560  -11.67900    3.70780
 5126.00000   -9999.25    9.28620  222.33770    0.20880    0.06510    0.00160    7.81600    2.64880    9.46140   62.33900  123.75460   78.82900  500.72080   11.74730  -11.69080    1.92580
 5126.50000   -9999.25   14.72880   30.28740    0.26960    0.13530    0.00220   10.30230    2.59030    9.62550   60.21480  119.16980   80.51900  500.73650   13.51900  -11.63710    1.92580
 5127.00000   -9999.25   28.39550    3.82130    0.32730    0.18560    0.00420   16.34310    2.45830   10.09340   62.70600  122.05920   84.97940  500.34540   15.34680  -11.54970    1.92580
 5127.50000   -9999.25   28.95390    3.74760    0.29280    0.18130    0.00880   19.41630    2.40430   10.20870   64.45100  125.94600   89.43970  499.43100   17.65410  -11.30910    1.85200
 5128.00000   -9999.25   16.98770   16.25030    0.23580    0.12700    0.01340   17.52040    2.39960    9.90820   65.92850  127.87070   91.58710  491.46740   18.44720  -11.04350    1.77770
 5128.50000   -9999.25   10.31580   99.92080    0.18510    0.07560    0.01470   13.77520    2.48280    9.45880   67.15490  130.58170   89.00850  476.85960   18.30910  -10.79330    1.70330
 5129.00000   -9999.25   57.42470 1001.88670    0.15640    0.08310    0.01410   11.27260    2.56610    9.29300   68.42520  134.20670   85.10820  251.03000   15.30100  -10.54310   34.50360
 5129.50000   -9999.25  908.94010 1001.88670    0.16460    0.31280    0.00700   12.82960    2.57350    9.23390   70.38180  136.80890   81.20790   25.20040   11.19210  -10.29290  102.73210
 5130.00000   -9999.25  908.94010  982.56640    0.21620    0.36850   -0.02180   19.44810    2.49720    9.97760   74.08730  139.85130   77.85230   12.54720    7.08320  -10.04270  175.45400
 5130.50000   -9999.25  237.92230  105.37100    0.29000    0.41800   -0.05140   19.99850    2.27910   11.24950   79.59740  153.63060   78.08620    8.75140    4.84330  -10.00010  176.37830
 5131.00000   -9999.25   45.26260    4.82720    0.36710    0.40000   -0.05010   19.99750    2.07330   12.86880   87.49370  168.83180   81.58270    6.48900    4.38360  -10.00010  165.45400
 5131.50000    2.26010    8.61080    1.82240    0.39830    0.35660   -0.03180   19.99570    1.99990   13.90310   92.44010  174.24300   88.74470    6.30280    4.27170   -9.94240  136.48560
 5132.00000    1.83270    2.85340    0.88710    0.40100    0.31320   -0.00910   19.99390    2.03100   14.25010   93.87290  173.47030   92.59390    6.15960    4.15980   -9.60480  176.65520
 5132.50000    2.06670    2.85340    1.24730    0.40370    0.26840    0.01030   19.99210    2.10180   14.05090   93.49200  170.95410   92.07800    4.71420    4.10630   -9.57610  323.58140
 5133.00000    1.76980    3.74400    1.60650    0.40610    0.22520    0.01560   19.99040    2.18150   13.73980   92.20850  174.08040   88.70530    3.39420    4.10630   -9.61320  451.37180
 5133.50000    2.18450    4.82720    2.00980    0.39880    0.20920    0.02310   19.98860    2.27650   13.73570   90.92500  172.59380   84.68080    2.41960    4.10630   -9.64440  524.87630
