~Version ---------------------------------------------------
VERS.   2.0 : CWLS log ASCII Standard -VERSION 2.0
WRAP.    NO : One line per depth step
DLM . SPACE : Column Data Section Delimiter
~Well ------------------------------------------------------
STRT .F                 490.0 : START DEPTH
STOP .F                5994.0 : STOP DEPTH
STEP .F                   0.5 : STEP
NULL .               -9999.25 : NULL VALUE
COMP .                        : COMPANY
WELL .                        : WELL
FLD  .                        : FIELD
LOC  .                        : LOCATION
PROV .                        : PROVINCE
CNTY .                        : COUNTY
STAT .                        : STATE
CTRY .                        : COUNTRY
SRVC .                        : SERVICE COMPANY
DATE .                        : DATE
UWI  .                        : UNIQUE WELL ID
API  .                        : API NUMBER
SLAT .WGS84 7.005323388006502 : SURFACE LATITUDE
SLON .WGS84 2.657876702480209 : SURFACE LONGITUDE
DATUM.F                1109.0 : DEPTH DATUM ELEV
~Curve Information -----------------------------------------
DEPT   .F     : 
ILD_1  .OHMM  : INDUCTION LOG DEEP
SFLU_1 .OHMM  : SPHERICALLY FOCUSED LOG UNAVERAGED RESISTIVITY
ILM_1  .OHMM  : INDUCTION LOG MEDIUM
NPHI_LS.DEC   : NEUTRON POROSITY LIMESTONE
DPHI_LS.DEC   : DENSITY POROSITY LIMESTONE
DRHO   .G/C3  : DENSITY CORRECTION
PEF    .B/E   : PHOTOELECTRIC FACTOR
RHOB   .G/C3  : BULK DENSITY
CALD   .IN    : CALIPER FROM DENSITY LOG
DTCO   .US/F  : COMPRESSIONAL-WAVE INTERVAL TRANSIT TIME ACAUSTIC SLOWNESS
DTSM   .US/F  : SHEAR-WAVE INTERVAL TRANSIT TIME DELTA-T
GRR    .GAPI  : GAMMA RAY
ILD    .OHMM  : INDUCTION LOG DEEP
SFLA   .OHMM  : SHALLOW FOCUSED LOG RESISTIVITY
SPR    .MV    : SPONTANEOUS POTENTIAL
CILD   .MMHO  : CONDUCTIVITY INDUCTION LOG DEEP
~Params ----------------------------------------------------
~Other -----------------------------------------------------
~ASCII -----------------------------------------------------
# ...
 5456.50000   29.52320   33.83650  148.96380    0.03850    0.02750    0.01220    5.28820    2.66980    8.13170   53.44720   99.76470   13.10000   31.37540   37.17180  -56.11280   30.80660
 5457.00000   32.66280   30.29010   35.17820    0.04000    0.02540    0.00970    5.15070    2.67440    8.12680   54.32000  100.73690   11.62400   31.49450   34.29080  -55.90880   30.39770
 5457.50000   35.28110   27.84790   35.86990    0.04240    0.02240    0.00720    5.02080    2.67930    8.11910   55.03080  101.76000    9.52960   32.52610   32.01680  -55.76800   29.65090
 5458.00000   38.10920   27.84790   41.53040    0.04400    0.02050    0.00460    4.87570    2.68170    8.13110   55.15790  101.91490    7.43520   33.69320   31.62200  -55.62930   27.22010
 5458.50000   41.91630   32.06590   48.98200    0.04300    0.01860    0.00210    4.87540    2.68340    8.15800   55.75410  102.08340    6.66090   34.86020   31.55830  -55.55480   25.77260
 5459.00000   49.61280   37.29440  141.16930    0.04070    0.01640   -0.00350    4.87510    2.68340    8.16360   55.89870  101.67980    6.53430   36.23430   31.93500  -55.52690   25.64120
 5459.50000   -9999.25   45.81170  282.57630    0.03440    0.01610   -0.00670    4.87470    2.68300    8.17420   55.44580  100.33040    7.01860   40.66450   33.95470  -55.40600   25.59450
 5460.00000   -9999.25   63.54010 1942.42830    0.02730    0.01710   -0.00980    4.87440    2.67350    8.18490   54.64600   99.69030    8.10020   47.59400   36.02800  -55.40570   25.02680
 5460.50000   -9999.25   88.12920 1929.38990    0.02000    0.02090   -0.01290    4.89370    2.66460    8.19550   53.84620   98.63890    9.37230   89.13130   46.12140  -56.18230   19.63540
 5461.00000   -9999.25  122.23390 1917.75650    0.01450    0.02470   -0.01540    5.20570    2.66570    8.20000   53.04640   97.68620   10.64450  130.66850   63.88920  -56.95900   14.38590
 5461.50000   -9999.25  148.61610 1906.19320    0.01390    0.02590   -0.01440    5.75420    2.67720    8.19700   52.24660   97.14860   11.91660  192.00160   79.31830  -57.73570    9.13630
 5462.00000   -9999.25  145.75020 1894.69970    0.01390    0.02080   -0.01270    6.04720    2.68570    8.19640   51.74740   96.50980   13.18870  342.02770   94.74740  -58.51230    4.31370
 5462.50000   -9999.25  132.71240 1883.27540    0.01410    0.01540   -0.00750    5.82030    2.68350    8.19720   52.59270   96.84530   14.46080  497.55050  110.17650  -58.80490    3.48060
 5463.00000   -9999.25  123.65560 1868.23580    0.01490    0.01470   -0.00230    5.47830    2.67920    8.19810   54.04810   96.35370   15.21950  498.89910  117.06060  -59.11460    2.64750
 5463.50000   -9999.25  117.64840 1012.73990    0.01580    0.01690    0.00290    5.24300    2.68110    8.19900   54.31750   96.17570   15.34620  499.63620  118.36430  -59.47730    1.81430
 5464.00000   -9999.25   90.68350  408.39400    0.01670    0.01860    0.00490    5.28790    2.68980    8.19770   54.06730   96.61130   15.24090  499.63690  117.37730  -59.61970    2.08140
 5464.50000   -9999.25   74.17460  164.68750    0.01840    0.01650    0.00140    5.40030    2.69330    8.19500   53.73290   97.27860   14.94560  352.85870  105.45260  -59.72890    2.66710
 5465.00000   -9999.25   60.67120   79.69900    0.02000    0.01130   -0.00210    5.36980    2.68750    8.20140   53.39850   98.43880   13.21440  193.99100   91.11610  -59.67060    4.05880
 5465.50000   -9999.25   50.92720   78.16210    0.02210    0.00830   -0.00550    5.26920    2.67650    8.19350   53.84410   99.23440   11.35980   94.49700   76.77960  -59.61230    6.63810
 5466.00000   -9999.25   49.94510   76.65480    0.02430    0.01350   -0.00740    5.26320    2.67560    8.19160   54.54950   98.68890    9.50530   74.72640   64.14870  -59.55420    9.21740
 5466.50000   -9999.25   57.50680  295.50300    0.02320    0.01980   -0.00700    5.40220    2.67970    8.19830   54.69880   98.19130    9.15360   70.02010   61.77440  -59.50220   11.79670
 5467.00000   -9999.25   63.73390 1041.67420    0.02120    0.02180   -0.00520    5.60640    2.68360    8.20160   54.26990   98.20140    8.94490   68.83490   59.40000  -59.40880   13.57940
 5467.50000   -9999.25   70.63530 1341.74040    0.01920    0.01860   -0.00350    5.79060    2.68850    8.20310   53.96500   98.20580    9.83130   67.74260   59.53340  -59.11430   14.36100
 5468.00000   -9999.25   78.28390 1449.29520    0.01900    0.01550   -0.00180    6.03340    2.69100    8.20420   53.81850   98.20320   10.71770   66.75520   60.27170  -58.82980   15.80630
 5468.50000   -9999.25   86.76090 1654.11410    0.01880    0.01280    0.00090    6.07910    2.69170    8.20540   53.25340   98.97380   11.36330   65.76780   63.05690  -58.65420   15.74060
 5469.00000   -9999.25   96.15570 1904.97090    0.01870    0.01160    0.00330    6.05960    2.69480    8.20660   52.76990   99.88760   11.51110   66.08160   66.27370  -58.47860   14.42700
 5469.50000   -9999.25  104.67580 1903.64890    0.01820    0.01170    0.00340    6.05720    2.69840    8.20780   52.33440   99.57280   11.29730   67.55660   75.36030  -58.00890   14.49820
 5470.00000   -9999.25  101.51420 1902.23120    0.01870    0.01010    0.00330    6.07790    2.70110    8.20900   52.15420   97.96510   10.92800   70.50560   84.44700  -58.10850   13.25790
 5470.50000   -9999.25   98.73610 1908.95060    0.01930    0.00610    0.00300    6.05100    2.69950    8.21010   51.97390   96.87330   10.55870  114.04170   93.53370  -58.20800   11.82690
 5471.00000   -9999.25  114.28650 1892.28430    0.01940    0.00400    0.00160    5.75150    2.69300    8.21130   51.79370   95.55160   10.35310  119.42400  102.62040  -58.30760   10.39580
 5471.50000   -9999.25  128.11720 1905.56690    0.01930    0.00780    0.00030    5.40250    2.68570    8.21250   51.61350   93.36160   10.35310  124.80630  108.33100  -58.42100    8.96470
 5472.00000   -9999.25  145.75020 1895.75940    0.01920    0.01230   -0.00110    5.34890    2.68190    8.21370   51.43320   90.68370   10.35310  127.87550  113.03050  -58.71700    7.93220
 5472.50000   -9999.25  144.45050 1902.26400    0.01910    0.01580   -0.00200    5.49300    2.67670    8.20570   51.58060   90.95900   10.62300  131.65040  118.20770  -59.32680    7.01440
 5473.00000   -9999.25  142.93960 1897.62320    0.01910    0.01920   -0.00270    5.83550    2.67500    8.19760   51.40510   92.79780   10.99240  147.27230  124.07730  -59.76510    6.09660
 5473.50000   -9999.25  167.23780 1898.07790    0.01940    0.01920   -0.00190    5.98590    2.67480    8.18960   51.06120   94.89530   11.36180  162.89430  139.04330  -60.10140    5.17880
 5474.00000   -9999.25  196.38210 1895.35850    0.01970    0.01920   -0.00110    5.76200    2.67680    8.18160   50.97330   97.07400   11.81910  489.59740  154.09890  -60.34570    4.67830
 5474.50000   -9999.25  232.57820 1890.75390    0.02000    0.01920   -0.00040    5.27500    2.67920    8.17360   50.88550   94.71700   12.37320  499.26320  169.15450  -60.53950    4.33630
 5475.00000   -9999.25  226.51250 1888.83040    0.02030    0.01890    0.00040    5.05930    2.68250    8.17670   50.79760   93.85720   12.92730  498.27960  184.21020  -60.74630    3.99430
 5475.50000   -9999.25  208.93400 1890.38900    0.02010    0.01710    0.00120    5.18740    2.68980    8.21230   50.70860   93.19350   13.48140  427.50320  196.73650  -60.97680    3.68210
 5476.00000   -9999.25  191.42670 1885.49190    0.01920    0.01390    0.00190    5.45220    2.69850    8.24790   50.53530   93.12680   13.96960  448.73630  199.09610  -60.77950    3.68340
 5476.50000   -9999.25  177.08260 1886.54020    0.01830    0.01080    0.00250    5.45370    2.69960    8.26700   50.12370   93.94750   14.03770  497.47320  201.45560  -60.58150    3.68460
 5477.00000   -9999.25  177.08260 1880.96770    0.01740    0.00630    0.00250    5.04800    2.69970    8.28290   50.08790   94.28410   14.10590  498.24980  201.81510  -60.40080    4.08570
 5477.50000   -9999.25  162.80630 1881.14010    0.01670    0.00550    0.00020    4.76130    2.69540    8.29890   50.08410   95.20700   14.17410  498.24980  196.39460  -60.22380    5.53870
