~Version ---------------------------------------------------
VERS.   2.0 : CWLS log ASCII Standard -VERSION 2.0
WRAP.    NO : One line per depth step
DLM . SPACE : Column Data Section Delimiter
~Well ------------------------------------------------------
STRT .F                 490.0 : START DEPTH
STOP .F                5994.0 : STOP DEPTH
STEP .F                   0.5 : STEP
NULL .               -9999.25 : NULL VALUE
COMP .                        : COMPANY
WELL .                        : WELL
FLD  .                        : FIELD
LOC  .                        : LOCATION
PROV .                        : PROVINCE
CNTY .                        : COUNTY
STAT .                        : STATE
CTRY .                        : COUNTRY
SRVC .                        : SERVICE COMPANY
DATE .                        : DATE
UWI  .                        : UNIQUE WELL ID
API  .                        : API NUMBER
SLAT .WGS84 7.005323388006502 : SURFACE LATITUDE
SLON .WGS84 2.657876702480209 : SURFACE LONGITUDE
DATUM.F                1109.0 : DEPTH DATUM ELEV
~Curve Information -----------------------------------------
DEPT   .F     : 
ILD_1  .OHMM  : INDUCTION LOG DEEP
SFLU_1 .OHMM  : SPHERICALLY FOCUSED LOG UNAVERAGED RESISTIVITY
ILM_1  .OHMM  : INDUCTION LOG MEDIUM
NPHI_LS.DEC   : NEUTRON POROSITY LIMESTONE
DPHI_LS.DEC   : DENSITY POROSITY LIMESTONE
DRHO   .G/C3  : DENSITY CORRECTION
PEF    .B/E   : PHOTOELECTRIC FACTOR
RHOB   .G/C3  : BULK DENSITY
CALD   .IN    : CALIPER FROM DENSITY LOG
DTCO   .US/F  : COMPRESSIONAL-WAVE INTERVAL TRANSIT TIME ACAUSTIC SLOWNESS
DTSM   .US/F  : SHEAR-WAVE INTERVAL TRANSIT TIME DELTA-T
GRR    .GAPI  : GAMMA RAY
ILD    .OHMM  : INDUCTION LOG DEEP
SFLA   .OHMM  : SHALLOW FOCUSED LOG RESISTIVITY
SPR    .MV    : SPONTANEOUS POTENTIAL
CILD   .MMHO  : CONDUCTIVITY INDUCTION LOG DEEP
~Params ----------------------------------------------------
~Other -----------------------------------------------------
~ASCII -----------------------------------------------------
# ...
 5026.50000    4.10720    5.21820   79.71140    0.28420    0.22870   -0.00070   12.75480    2.28050    9.48320   78.96800  163.25440  137.37590    3.93810    5.91980   -7.56230  223.23680
 5027.00000    6.34000    4.92210  592.22780    0.24550    0.22030    0.00030   13.70880    2.33900    9.33770   77.45300  161.14680  110.47430    4.65530    5.95680  -10.13090  161.48670
 5027.50000    6.34000    4.92210 1694.91690    0.22220    0.22260    0.00030   15.96340    2.28670    9.34540   75.97400  157.68470   82.22070    5.37260    6.06240  -12.83800  173.55840
 5028.00000    5.95470    6.92240 1728.24400    0.23070    0.23730   -0.00380   17.87150    2.13810   10.07880   69.87530  142.07090   70.75580   10.79230    7.73440  -15.54510  190.57430
 5028.50000    5.53210   10.35250 1422.45470    0.27210    0.31670   -0.00980   19.18590    2.08890   10.38890   60.51420  114.04150   69.79140   18.34950    9.40650  -17.05460  190.57430
 5029.00000   16.00840   15.48230   52.80500    0.38380    0.36430   -0.01590   16.58340    2.07780   10.73640   58.38150  117.64390   69.65720   58.63250   11.07860  -17.05460   83.36050
 5029.50000   -9999.25   19.61430    4.41070    0.37520    0.36060   -0.02050   11.54120    2.13480   10.47080   64.86080  124.57010   69.65720   98.91560   12.75070  -17.05460    5.41580
 5030.00000   -9999.25   18.33230    4.86660    0.30160    0.33950   -0.01790    6.49900    2.24950    9.89760   70.13500  130.29220   69.65720  498.45230   14.42280  -16.84780    1.78450
 5030.50000   -9999.25   17.16840    7.80130    0.24650    0.26450   -0.01140    4.41610    2.47610    9.32440   70.48140  127.59610   75.95540  499.99110   16.09490  -16.41390    1.65250
 5031.00000   -9999.25   16.46130   25.32230    0.15600    0.18960   -0.00860    4.21990    2.55680    8.99990   67.41950  121.25250   82.86040  500.38340   17.76700  -15.98010    1.58450
 5031.50000   -9999.25   17.55080   75.14090    0.13040    0.08280   -0.00650    4.37870    2.61790    8.97640   64.75950  115.86170   88.98520  500.38340   18.50430  -15.51070    1.64550
 5032.00000   -9999.25   18.74070  240.70630    0.13180    0.05380   -0.00580    4.52940    2.63270    8.95990   63.43920  114.73050   89.39480  500.38340   18.93500  -15.00760    1.70660
 5032.50000   -9999.25   19.61430  710.08740    0.13500    0.04540   -0.00580    4.51990    2.62900    8.94470   63.78970  114.71840   89.80440  500.38340   19.19290  -14.50460    1.76760
 5033.00000   -9999.25   20.35360 1971.14450    0.13840    0.04510   -0.00580    4.47870    2.64630    8.92960   64.42940  115.08830   91.75390  500.38340   19.26970  -14.00160    1.82860
 5033.50000   -9999.25   20.93870 1784.02580    0.13990    0.04110   -0.00510    4.44580    2.65510    8.92900   64.83340  117.01620   94.17230  500.38340   19.19070  -13.49850    1.88960
 5034.00000   -9999.25   21.62010 2032.65060    0.14620    0.03320   -0.00390    4.51050    2.66360    8.93570   63.86560  117.81800   96.28720  499.94310   19.03690  -12.99550    1.95060
 5034.50000   -9999.25   22.04520 1723.65650    0.15110    0.02680   -0.00270    4.66470    2.66810    8.94240   62.62170  116.95780   96.86850  499.43010   16.15200  -12.40510    2.00760
 5035.00000   -9999.25   19.61430  151.06580    0.15610    0.02440   -0.00260    4.81880    2.66990    8.94910   61.37780  115.45910   96.71540  461.01150   12.83820  -12.15300   18.40550
 5035.50000   -9999.25   11.43290   11.71350    0.16490    0.02280   -0.00320    4.99850    2.67070    8.95580   59.88570  113.43760   90.93300  199.74210    9.52430  -11.89060   58.52570
 5036.00000    8.16630    6.52280    1.51530    0.16900    0.02220   -0.00400    5.21830    2.67160    8.96250   58.31260  108.34640   80.66690   33.32320    6.21050  -11.62730   98.64590
 5036.50000    6.88380    4.43010    1.30950    0.16990    0.02200   -0.00470    6.03990    2.67170    8.97220   56.05190  105.30710   70.40080   14.58580    5.21160  -11.32900  133.26190
 5037.00000    6.21770    4.49560    1.44740    0.16370    0.02010   -0.00500    8.35940    2.65900    9.02680   55.69660  106.81830   66.36980    7.03760    4.84250  -11.15040  152.58420
 5037.50000    5.15090    4.95960    1.75060    0.15940    0.02420   -0.00500   11.37650    2.61370    9.16600   56.15040  109.52770   64.11370    5.86970    4.66590  -11.00850  175.91000
 5038.00000    4.12930    5.23580    2.11720    0.16550    0.04730   -0.00360   13.80470    2.49710    9.66920   57.51920  111.31310   64.01170    4.82620    4.66590  -10.90460  211.02260
 5038.50000    3.67540    5.75030    2.56060    0.20920    0.12320    0.00400   16.89400    2.26800   11.44070   61.34910  129.39820   63.90980    4.08860    4.66590  -10.85250  246.95070
 5039.00000    3.33440    6.10110    2.96670    0.24900    0.23410    0.02370   17.17390    2.22030   12.27220   69.16180  147.19350   63.67620    3.36580    4.91270  -10.82510  299.22750
 5039.50000    3.27010    6.66470    2.70810    0.27440    0.28380    0.06020   16.33640    2.24350   13.16010   77.41110  160.01490   63.39160    3.28900    5.22030  -10.79760  309.88560
 5040.00000    3.58240    7.08610    2.45930    0.28170    0.27780    0.06710   15.51550    2.22370   14.00790   79.82850  169.98650   63.39160    3.27120    5.52780  -10.77020  309.88560
 5040.50000    4.01420    6.63780    2.23340    0.29100    0.27040    0.07930   14.73460    2.17980   14.62610   80.82700  172.26430   63.69650    3.47610    5.83540  -10.74270  309.88560
 5041.00000    4.49810    6.13530    2.13070    0.30060    0.31030    0.09240   13.85100    2.19510   15.08530   80.40840  172.67720   65.27640    3.89860    5.99420  -10.71520  299.90490
 5041.50000    5.04030    5.74540    2.13070    0.30700    0.30700    0.10680   12.71260    2.22400   15.15070   79.70270  172.82320   67.24680    4.35960    6.02150  -10.68780  258.81080
 5042.00000    5.75180    5.40830    2.52650    0.31670    0.26740    0.12290   11.68640    2.32820   14.79310   78.99700  173.26000   68.74920    4.82060    5.91770  -10.66030  217.71670
 5042.50000    5.64090    5.42960    2.86210    0.33060    0.21810    0.13400   10.78560    2.39120   14.04300   78.54060  173.25420   69.09050    5.28160    5.61010  -10.57260  175.48140
 5043.00000    5.75180    5.26270    3.27010    0.34460    0.18910    0.13430   10.70950    2.39290   13.69070   78.83560  172.74800   68.73660    5.64530    5.30250  -10.27380  172.03240
 5043.50000    5.50060    5.02350    3.27010    0.35460    0.18660    0.12800   11.18800    2.38440   13.47420   80.28480  171.77890   67.92290    5.79900    5.22320   -9.90610  172.90140
 5044.00000    5.31670    5.09780    3.40000    0.35370    0.19340    0.11920   11.70670    2.37150   13.67280   81.75030  171.75980   67.21620    5.87540    5.22320   -9.54030  179.99920
 5044.50000    5.13890    5.20520    3.51590    0.35360    0.19880    0.11050   11.73410    2.35870   13.64810   82.53610  172.45830   67.03260    5.74860    5.22320   -9.25510  189.21750
 5045.00000    4.92210    5.31250    4.22060    0.36230    0.20930    0.10170   10.71830    2.34580   13.27360   81.89180  171.40540   67.00640    5.53570    5.22320   -9.20540  192.39040
 5045.50000    5.01890    5.42200    4.29200    0.36660    0.21480    0.09870    9.91190    2.34310   12.97490   80.26180  170.11230   70.22340    5.32290    5.23040   -9.15570  192.86380
 5046.00000    5.20850    5.53380    3.97450    0.35850    0.20970    0.09680    9.16640    2.37070   12.78850   78.73710  169.25030   76.12690    5.11010    5.26460   -9.10600  196.12660
 5046.50000    5.32080    5.64790    3.44040    0.34270    0.17940    0.09530    8.92050    2.40770   12.67630   78.31700  170.20750   82.03050    4.89730    5.29870   -9.05640  212.42400
 5047.00000    5.32080    5.76440    3.49740    0.33400    0.15140    0.09360    9.32990    2.45660   12.36800   78.13460  170.88890   85.30280    4.68440    5.33290   -9.00670  239.37770
 5047.50000    4.16690    5.86490    2.67210    0.34130    0.13380    0.09310    9.87980    2.49110   12.14390   78.43570  169.85500   85.29560    3.84240    5.34410   -8.95700  319.63070
