~Version ---------------------------------------------------
VERS.   2.0 : CWLS log ASCII Standard -VERSION 2.0
WRAP.    NO : One line per depth step
DLM . SPACE : Column Data Section Delimiter
~Well ------------------------------------------------------
STRT .F                 490.0 : START DEPTH
STOP .F                5994.0 : STOP DEPTH
STEP .F                   0.5 : STEP
NULL .               -9999.25 : NULL VALUE
COMP .                        : COMPANY
WELL .                        : WELL
FLD  .                        : FIELD
LOC  .                        : LOCATION
PROV .                        : PROVINCE
CNTY .                        : COUNTY
STAT .                        : STATE
CTRY .                        : COUNTRY
SRVC .                        : SERVICE COMPANY
DATE .                        : DATE
UWI  .                        : UNIQUE WELL ID
API  .                        : API NUMBER
SLAT .WGS84 7.005323388006502 : SURFACE LATITUDE
SLON .WGS84 2.657876702480209 : SURFACE LONGITUDE
DATUM.F                1109.0 : DEPTH DATUM ELEV
~Curve Information -----------------------------------------
DEPT   .F     : 
ILD_1  .OHMM  : INDUCTION LOG DEEP
SFLU_1 .OHMM  : SPHERICALLY FOCUSED LOG UNAVERAGED RESISTIVITY
ILM_1  .OHMM  : INDUCTION LOG MEDIUM
NPHI_LS.DEC   : NEUTRON POROSITY LIMESTONE
DPHI_LS.DEC   : DENSITY POROSITY LIMESTONE
DRHO   .G/C3  : DENSITY CORRECTION
PEF    .B/E   : PHOTOELECTRIC FACTOR
RHOB   .G/C3  : BULK DENSITY
CALD   .IN    : CALIPER FROM DENSITY LOG
DTCO   .US/F  : COMPRESSIONAL-WAVE INTERVAL TRANSIT TIME ACAUSTIC SLOWNESS
DTSM   .US/F  : SHEAR-WAVE INTERVAL TRANSIT TIME DELTA-T
GRR    .GAPI  : GAMMA RAY
ILD    .OHMM  : INDUCTION LOG DEEP
SFLA   .OHMM  : SHALLOW FOCUSED LOG RESISTIVITY
SPR    .MV    : SPONTANEOUS POTENTIAL
CILD   .MMHO  : CONDUCTIVITY INDUCTION LOG DEEP
~Params ----------------------------------------------------
~Other -----------------------------------------------------
~ASCII -----------------------------------------------------
# ...
 5800.50000    7.92430   12.86290   11.28930    0.28790    0.09080    0.01080    8.59360    2.55150    7.98280   89.87830  178.93700  175.62860    7.97940   13.03310  -41.21100  122.46270
 5801.00000    7.77510   12.72360   10.52360    0.26700    0.08790    0.01500    7.31240    2.56690    7.98350   88.94290  185.95460  175.47710    7.99010   12.98360  -41.36870  121.47290
 5801.50000    7.97350   12.58590   10.15480    0.24100    0.07480    0.01910    6.88110    2.58460    7.98420   87.28540  189.34810  153.11280    8.04140   12.98830  -41.52140  119.45690
 5802.00000    8.53260   12.44960   11.20530    0.21440    0.05510    0.02320    6.82880    2.60730    7.98490   82.30890  188.02570  144.76910    8.09280   13.11000  -41.65480  112.13280
 5802.50000    9.13080   12.29170   13.93840    0.20880    0.03340    0.02680    7.18960    2.65480    7.98560   81.00310  186.61210  144.54880    8.90570   13.45420  -42.10680  107.55520
 5803.00000    9.77100   12.81980   18.81090    0.22270    0.02450    0.02770    7.64620    2.66840    7.98630   82.23970  186.12230  160.53780   10.40680   14.61210  -42.59410   98.66550
 5803.50000   10.45600   13.54870   26.94260    0.23750    0.02830    0.02100    7.73660    2.66140    7.98700   79.66710  184.73360  160.96350   11.98210   15.68800  -42.93090   87.26670
 5804.00000   11.37070   17.66270   36.70950    0.24680    0.04490    0.01240    7.05880    2.65130    7.98770   83.06110  180.25600  148.89870   13.72690   16.76380  -43.11860   75.86790
 5804.50000   13.47640   24.08150   50.92720    0.25270    0.06190    0.00750    6.21880    2.60040    7.98900   86.96150  173.79520  144.02630   15.47180   19.56640  -43.25080   64.46910
 5805.00000   16.84030   29.93950   60.68200    0.25540    0.10840    0.00600    5.42490    2.54490    7.99170   89.05690  168.69310  139.15390   18.09790   24.28040  -43.23830   54.83410
 5805.50000   21.04400   35.42350   59.51180    0.26100    0.13250    0.00460    4.63100    2.48920    7.99430   88.34470  177.26960  134.36800   24.24480   28.99450  -43.22590   46.06200
 5806.00000   26.29690   38.57290  173.94980    0.26430    0.14490    0.00320    4.11450    2.46400    7.99700   87.78780  184.33590  132.55040   28.49390   33.70850  -43.21340   35.44760
 5806.50000   34.49980   39.82820  765.92660    0.26390    0.14540    0.00530    3.71000    2.45980    7.99970   87.52440  190.31070  131.83950   30.51490   37.23880  -43.20090   31.72190
 5807.00000   35.17820   40.10200 1868.23580    0.25570    0.14200    0.00980    3.60090    2.46870    8.00240   87.59330  190.29230  132.04320   32.53580   40.72980  -43.18840   30.23260
 5807.50000   35.86990   43.87330 1904.97090    0.25520    0.13630    0.01280    3.57050    2.47890    8.00500   88.28630  188.67810  140.12790   34.55680   43.07670  -43.17600   29.30950
 5808.00000   34.15220   50.68760 1894.00930    0.28140    0.13880    0.01890    3.50780    2.47830    8.00770   89.52410  182.65310  164.65020   35.76760   44.40400  -43.14310   29.41160
 5808.50000   29.52320   51.30280 1885.27870    0.29150    0.15360    0.02020    3.43810    2.45670    8.01040   91.62620  171.18930  195.78010   35.47120   45.44370  -43.09110   29.81700
 5809.00000   28.74360   49.75230 1876.58840    0.29860    0.17730    0.01410    3.27370    2.40020    8.01310   93.77270  168.71020  226.90990   32.28330   45.80580  -43.03920   29.99350
 5809.50000   27.41860   46.55440 1868.23580    0.31550    0.19980    0.00770    3.23390    2.36120    8.01580   95.91920  167.62760  274.43110   29.09540   45.70930  -42.98720   30.31910
 5810.00000   26.15480   42.96330  682.87810    0.31560    0.21050    0.00570    3.39530    2.35410    8.01840   96.87120  167.62970  298.57040   27.99990   44.56540  -42.93530   33.05530
 5810.50000   24.94910   40.29760  258.12160    0.30740    0.20390    0.00430    3.55940    2.36530    8.02110   96.49240  167.61480  299.09050   27.22480   43.28730  -42.88330   35.79150
 5811.00000   23.79910   37.22160  140.18320    0.30160    0.18670    0.00400    3.72360    2.38410    8.02380   95.78200  167.41100  299.28990   26.35450   41.37170  -42.83140   38.52770
 5811.50000   22.92060   35.86990  169.04340    0.29590    0.18130    0.00370    3.88770    2.39530    8.02650   95.49730  167.20730  299.38890   25.04100   38.51920  -42.77950   40.89110
 5812.00000   22.32780   35.86990  202.94230    0.30160    0.17760    0.00360    3.94240    2.40660    8.02910   95.48640  167.08460  299.48790   23.93110   37.42410  -42.99400   41.59700
 5812.50000   21.84680   35.86990  178.81510    0.30740    0.17540    0.00500    3.90370    2.41120    8.02860   95.56030  167.24830  299.58690   23.15620   36.43550  -43.29100   42.89290
 5813.00000   21.37610   35.86990  143.81710    0.31850    0.17160    0.00630    3.77890    2.41510    8.01730   96.35760  168.55600  299.67940   22.38130   35.78350  -43.58800   44.73930
 5813.50000   20.91550   35.86990  115.37970    0.32950    0.17000    0.00760    3.76770    2.41860    8.00610   97.89480  170.92510  299.72500   21.60650   35.60080  -43.88500   46.67200
 5814.00000   20.39330   35.86990  106.46830    0.33770    0.17270    0.00880    3.94950    2.41480    7.99480   99.46410  173.24440  299.77060   20.83160   35.47480  -44.26500   47.32180
 5814.50000   20.39330   35.86990   98.73610    0.33300    0.17080    0.00910    4.30630    2.42150    7.98360  100.24870  172.32240  299.81630   20.81730   35.40330  -44.77090   47.94220
 5815.00000   21.49280   35.86990   66.19610    0.32310    0.15210    0.00940    4.65650    2.44570    7.97790   99.36740  169.21080  299.86190   20.90840   35.13950  -45.27690   48.15430
 5815.50000   22.28210   35.86990   45.60080    0.30140    0.11310    0.00930    4.61570    2.47540    8.02010   97.58440  165.02640  299.91950   21.11530   35.10990  -45.60050   47.27190
 5816.00000   23.10040   34.10670   31.41320    0.27970    0.09350    0.00770    4.41710    2.51620    8.06230   95.75180  161.01430  300.01860   21.77800   34.99880  -45.69710   45.78310
 5816.50000   23.94880   32.65280   21.63970    0.25560    0.08550    0.00600    4.02890    2.54840    8.10450   92.10270  158.32360  300.11760   22.57960   34.83400  -45.79370   44.79030
 5817.00000   24.82840   31.91460   17.45150    0.24560    0.08170    0.00220    3.88330    2.56480    8.14660   88.61250  158.16030  299.73970   23.38110   34.87100  -45.81080   42.07230
 5817.50000   25.74020   37.46420   26.75080    0.25140    0.07700   -0.00150    3.87570    2.57120    8.20700   87.15060  170.40670  298.56450   24.26980   35.05480  -45.81730   41.32930
 5818.00000   26.68550   43.38900   48.87040    0.25940    0.07590   -0.00320    3.89440    2.57570    8.24790   86.04940  183.95740  290.53690   25.20580   36.17760  -45.82380   39.17470
 5818.50000   27.66560   52.94960   87.84890    0.26190    0.07930   -0.00400    3.99640    2.57860    8.26680   85.70670  187.53360  268.69460   26.14180   38.10000  -45.83040   36.86660
 5819.00000   28.68160   52.94960  344.76960    0.26510    0.08270   -0.00640    4.06910    2.57740    8.28570   86.16350  188.75190  249.30500   27.02830   41.00510  -45.83690   36.16660
 5819.50000   29.73500   49.13640 1126.05220    0.27100    0.08390   -0.00690    4.04820    2.57160    8.30460   86.25270  188.96550  249.30260   27.40140   43.70720  -45.84340   35.65550
 5820.00000   31.29920   46.30770 1148.19380    0.28740    0.08300   -0.00720    3.97890    2.56830    8.32360   86.50370  189.09810  249.44770   27.77440   45.37560  -45.84990   34.57480
 5820.50000   30.69160   43.64180  260.29920    0.29930    0.07950   -0.00730    3.90710    2.56780    8.36400   87.17350  189.62520  249.70610   29.11410   45.82780  -45.46250   33.37870
 5821.00000   30.10370   40.31530   59.51180    0.29340    0.07610   -0.00740    3.83960    2.57010    8.35660   88.25150  190.29150  257.48720   30.61580   45.91010  -44.82190   32.33150
 5821.50000   28.08210   39.39990   52.53780    0.27220    0.07470   -0.00750    3.76290    2.57550    8.39210   87.97560  190.85720  267.62160   31.16100   45.39340  -44.77620   31.51100
