~Version ---------------------------------------------------
VERS.   2.0 : CWLS log ASCII Standard -VERSION 2.0
WRAP.    NO : One line per depth step
DLM . SPACE : Column Data Section Delimiter
~Well ------------------------------------------------------
STRT .F                 490.0 : START DEPTH
STOP .F                5994.0 : STOP DEPTH
STEP .F                   0.5 : STEP
NULL .               -9999.25 : NULL VALUE
COMP .                        : COMPANY
WELL .                        : WELL
FLD  .                        : FIELD
LOC  .                        : LOCATION
PROV .                        : PROVINCE
CNTY .                        : COUNTY
STAT .                        : STATE
CTRY .                        : COUNTRY
SRVC .                        : SERVICE COMPANY
DATE .                        : DATE
UWI  .                        : UNIQUE WELL ID
API  .                        : API NUMBER
SLAT .WGS84 7.005323388006502 : SURFACE LATITUDE
SLON .WGS84 2.657876702480209 : SURFACE LONGITUDE
DATUM.F                1109.0 : DEPTH DATUM ELEV
~Curve Information -----------------------------------------
DEPT   .F     : 
ILD_1  .OHMM  : INDUCTION LOG DEEP
SFLU_1 .OHMM  : SPHERICALLY FOCUSED LOG UNAVERAGED RESISTIVITY
ILM_1  .OHMM  : INDUCTION LOG MEDIUM
NPHI_LS.DEC   : NEUTRON POROSITY LIMESTONE
DPHI_LS.DEC   : DENSITY POROSITY LIMESTONE
DRHO   .G/C3  : DENSITY CORRECTION
PEF    .B/E   : PHOTOELECTRIC FACTOR
RHOB   .G/C3  : BULK DENSITY
CALD   .IN    : CALIPER FROM DENSITY LOG
DTCO   .US/F  : COMPRESSIONAL-WAVE INTERVAL TRANSIT TIME ACAUSTIC SLOWNESS
DTSM   .US/F  : SHEAR-WAVE INTERVAL TRANSIT TIME DELTA-T
GRR    .GAPI  : GAMMA RAY
ILD    .OHMM  : INDUCTION LOG DEEP
SFLA   .OHMM  : SHALLOW FOCUSED LOG RESISTIVITY
SPR    .MV    : SPONTANEOUS POTENTIAL
CILD   .MMHO  : CONDUCTIVITY INDUCTION LOG DEEP
~Params ----------------------------------------------------
~Other -----------------------------------------------------
~ASCII -----------------------------------------------------
# ...
 5284.50000   26.26780   16.70400   13.38280    0.04450    0.03560   -0.00860    6.49440    2.64200    8.60070   57.13590   99.17800    9.94420   26.67650   16.00820  -50.59020   41.99310
 5285.00000   24.39430   15.48880   12.68370    0.04220    0.03450   -0.00730    6.32860    2.64540    8.60380   57.88990  101.32860    9.14200   23.75770   15.15970  -50.74390   48.50430
 5285.50000   22.41940   14.36190   11.59050    0.03970    0.03400   -0.00590    6.08600    2.65210    8.61220   58.25860  103.46440    8.55280   20.20770   14.35690  -50.80240   50.55340
 5286.00000   20.60450   13.81510   10.14500    0.03880    0.03410   -0.00430    5.92450    2.65470    8.61170   58.32520  103.14780    8.18870   17.88620   14.35690  -50.88460   52.74490
 5286.50000   18.93640   13.88870    9.38020    0.03560    0.03590   -0.00210    5.83030    2.65100    8.60660   58.10810  102.56390    8.18870   17.79230   14.36430  -51.07840   53.78920
 5287.00000   18.14460   13.95680    9.31670    0.03250    0.03770   -0.00280    5.73600    2.64910    8.59910   57.04740  102.59110    9.13520   17.78090   14.43470  -51.25410   53.39120
 5287.50000   18.20360   14.02520   10.40450    0.03080    0.03680   -0.00450    5.65120    2.64910    8.58170   56.33080  102.67530   14.02240   18.87270   14.56300  -51.23620   52.43790
 5288.00000   18.80650   14.08670   12.08570    0.02960    0.03090   -0.00620    5.69700    2.65390    8.56230   56.07830  104.37370   14.44010   19.65490   15.06280  -51.36980   51.84010
 5288.50000   19.42930   14.86740   14.08930    0.02850    0.02500   -0.00700    6.05440    2.66380    8.53840   57.19480  103.92000   14.23060   19.82400   15.43830  -51.58330   51.36550
 5289.00000   20.00000   15.61210   16.15930    0.02740    0.02110   -0.00610    6.36220    2.67580    8.51170   57.52360  103.16140   11.60560   19.99320   16.32300  -51.55930   50.46010
 5289.50000   20.12110   16.39410   16.93870    0.02620    0.01870   -0.00440    6.37790    2.68020    8.52110   57.19700  104.25180    8.91010   20.27000   17.03870  -51.39380   49.47840
 5290.00000   20.23070   17.21530   17.83830    0.02510    0.01730   -0.00280    6.03220    2.68090    8.50560   56.72810  104.85090    8.91010   21.51010   17.54050  -51.22830   47.77650
 5290.50000   20.39330   17.79470   18.50370    0.02520    0.01800   -0.00110    5.78530    2.68050    8.47690   56.06660  103.75240    9.46550   22.77810   18.05760  -51.06280   45.78520
 5291.00000   20.39330   17.79470   19.58400    0.02520    0.01870    0.00050    5.79950    2.67960    8.45580   55.97460  104.96980   10.89100   24.04620   18.57460  -50.89730   43.68470
 5291.50000   21.67790   17.79470   20.66030    0.02550    0.01910    0.00190    5.86990    2.67880    8.45150   55.96790  108.21450   12.31650   25.28150   19.09170  -50.73180   41.58420
 5292.00000   23.57240   18.50140   20.96290    0.02410    0.01790    0.00190    5.99150    2.67980    8.44670   55.96110  110.57330   13.74210   25.56330   19.91440  -50.63540   40.02910
 5292.50000   25.76120   19.58730   23.50960    0.02370    0.01710   -0.00060    6.07390    2.68090    8.43770   55.17030  109.91050   15.16760   25.82250   20.83020  -50.69660   39.35630
 5293.00000   25.99910   21.16330   26.73470    0.02160    0.01830   -0.00510    6.01860    2.68070    8.43320   55.05380  108.44380   16.00490   25.75200   21.74600  -50.75780   39.59150
 5293.50000   26.26780   22.86600   31.16180    0.02100    0.01960   -0.00950    5.92370    2.67670    8.44420   54.99650  107.24460   16.72600   25.66160   22.66190  -50.81900   39.82660
 5294.00000   26.26780   24.70580   35.15960    0.02090    0.01930   -0.01310    5.83050    2.67680    8.43980   55.12980  106.24930   16.72910   25.28540   23.05270  -50.98630   40.14480
 5294.50000   26.26780   26.78430   42.83730    0.02080    0.01910   -0.01310    5.71060    2.67670    8.43380   55.18020  105.25400   16.34420   24.15840   22.93820  -51.17140   40.47880
 5295.00000   24.10150   24.01720   55.08700    0.02210    0.01930   -0.01240    5.68400    2.67600    8.43100   55.24950  104.30530   14.04030   23.03140   22.10980  -51.47330   41.22480
 5295.50000   22.61780   21.42860   58.62640    0.02470    0.02200   -0.01040    5.71210    2.67190    8.42710   55.37900  103.42130   11.73630   21.90440   20.17760  -51.77520   44.11960
 5296.00000   21.22540   19.11910   46.63360    0.02730    0.02470   -0.00840    5.71960    2.66700    8.44500   55.50860  101.76770   10.42460   20.77740   18.24540  -52.07660   48.09380
 5296.50000   19.91880   17.05840   33.13160    0.02990    0.02730   -0.00640    5.67980    2.66450    8.44260   55.63820  100.22780   10.12520   19.65050   16.31320  -52.34410   52.25740
 5297.00000   18.69260   15.52720   22.93940    0.03270    0.02710   -0.00490    5.66360    2.66450    8.43040   55.76780   99.45710   10.31170   18.52350   15.85770  -52.57140   56.47330
 5297.50000   17.54180   15.23270   16.25100    0.03640    0.02680   -0.00440    5.72630    2.66500    8.42690   55.89740   99.84990   10.49830   17.39650   15.52890  -52.83770   59.09370
 5298.00000   16.46190   14.93410   15.69350    0.04030    0.02540   -0.00390    5.78900    2.66560    8.42330   56.00930  100.93360   11.12470   16.54190   15.20020  -53.13910   60.01460
 5298.50000   15.83250   15.02350   15.62780    0.04100    0.02550   -0.00340    5.60740    2.66740    8.40960   56.17710  102.67820   12.20840   15.97740   15.18930  -53.27250   60.95730
 5299.00000   15.83250   15.13800   15.77730    0.04080    0.02690   -0.00290    5.26590    2.66490    8.39320   56.69200  104.42280   12.82660   15.97740   15.18930  -53.35720   61.68290
 5299.50000   16.46130   15.25350   16.66200    0.03950    0.02830   -0.00080    4.97930    2.66170    8.37680   56.85200  105.17030   12.96650   15.97740   15.18930  -53.15220   61.58770
 5300.00000   16.75560   15.36980   16.94920    0.03650    0.02610    0.00280    4.87890    2.66390    8.36040   56.45750  104.22440   12.86210   16.02200   15.54200  -52.91260   60.57080
 5300.50000   16.83890   15.52720   18.36370    0.03460    0.02290    0.00540    4.95990    2.67020    8.34400   55.94150  103.39640   11.64710   16.92520   16.21830  -52.67310   57.96010
 5301.00000   17.18420   16.19110   20.79430    0.03260    0.02050    0.00540    5.16860    2.67420    8.32760   55.22630  103.23690    8.90060   19.09760   16.91390  -52.42860   55.05780
 5301.50000   19.50180   17.11500   25.07390    0.03060    0.02010    0.00170    5.49260    2.67610    8.31120   55.17310  103.26090    8.24400   21.29510   18.35130  -52.17700   51.84760
 5302.00000   21.93160   19.82940   30.92210    0.02860    0.02060   -0.00260    5.70330    2.67310    8.29480   55.16100  103.33800    8.01530   23.65250   19.78860  -51.88870   47.89470
 5302.50000   24.16900   22.59780   39.53780    0.02720    0.02150   -0.00690    5.82920    2.67210    8.27840   54.08840  103.18480    8.48990   26.00990   22.32530  -51.55600   39.65350
 5303.00000   27.16690   25.75260   60.21120    0.02610    0.02220   -0.00880    5.86280    2.67210    8.26200   53.49090  102.50410    9.19050   29.19720   25.35110  -51.42880   34.95700
 5303.50000   29.96670   29.34800  100.09120    0.02540    0.02230   -0.00940    5.84410    2.67210    8.28400   53.05850  103.25680    9.89110   32.47820   28.40790  -51.34850   31.37780
 5304.00000   33.64190   34.49980  187.73530    0.02560    0.02180   -0.00820    5.77640    2.67210    8.28210   53.02670  103.27330   10.23530   35.75930   30.31190  -51.26820   28.64790
 5304.50000   37.18320   35.17820  137.69430    0.02600    0.02110   -0.00650    5.67830    2.67280    8.26930   53.02790  102.54070   10.39030   37.83070   30.59300  -51.18790   26.53450
 5305.00000   39.14650   32.17560   91.69400    0.02640    0.01950   -0.00530    5.53140    2.67690    8.25660   53.03530  102.38030   10.54540   39.53790   30.51680  -51.10750   24.81170
 5305.50000   41.03910   30.16020   61.06120    0.02680    0.01790   -0.00400    5.26180    2.68050    8.24380   53.04270  101.37950   13.38140   41.24500   30.23000  -51.02720   24.26600
