~Version ---------------------------------------------------
VERS.   2.0 : CWLS log ASCII Standard -VERSION 2.0
WRAP.    NO : One line per depth step
DLM . SPACE : Column Data Section Delimiter
~Well ------------------------------------------------------
STRT .F                 490.0 : START DEPTH
STOP .F                5994.0 : STOP DEPTH
STEP .F                   0.5 : STEP
NULL .               -9999.25 : NULL VALUE
COMP .                        : COMPANY
WELL .                        : WELL
FLD  .                        : FIELD
LOC  .                        : LOCATION
PROV .                        : PROVINCE
CNTY .                        : COUNTY
STAT .                        : STATE
CTRY .                        : COUNTRY
SRVC .                        : SERVICE COMPANY
DATE .                        : DATE
UWI  .                        : UNIQUE WELL ID
API  .                        : API NUMBER
SLAT .WGS84 7.005323388006502 : SURFACE LATITUDE
SLON .WGS84 2.657876702480209 : SURFACE LONGITUDE
DATUM.F                1109.0 : DEPTH DATUM ELEV
~Curve Information -----------------------------------------
DEPT   .F     : 
ILD_1  .OHMM  : INDUCTION LOG DEEP
SFLU_1 .OHMM  : SPHERICALLY FOCUSED LOG UNAVERAGED RESISTIVITY
ILM_1  .OHMM  : INDUCTION LOG MEDIUM
NPHI_LS.DEC   : NEUTRON POROSITY LIMESTONE
DPHI_LS.DEC   : DENSITY POROSITY LIMESTONE
DRHO   .G/C3  : DENSITY CORRECTION
PEF    .B/E   : PHOTOELECTRIC FACTOR
RHOB   .G/C3  : BULK DENSITY
CALD   .IN    : CALIPER FROM DENSITY LOG
DTCO   .US/F  : COMPRESSIONAL-WAVE INTERVAL TRANSIT TIME ACAUSTIC SLOWNESS
DTSM   .US/F  : SHEAR-WAVE INTERVAL TRANSIT TIME DELTA-T
GRR    .GAPI  : GAMMA RAY
ILD    .OHMM  : INDUCTION LOG DEEP
SFLA   .OHMM  : SHALLOW FOCUSED LOG RESISTIVITY
SPR    .MV    : SPONTANEOUS POTENTIAL
CILD   .MMHO  : CONDUCTIVITY INDUCTION LOG DEEP
~Params ----------------------------------------------------
~Other -----------------------------------------------------
~ASCII -----------------------------------------------------
# ...
 5714.50000   19.76540   28.82550   26.63690    0.06900    0.02800    0.01440    3.80350    2.66820    8.14410   58.45900   97.56170   52.40790   20.68720   23.99510  -44.79060   50.75360
 5715.00000   18.00380   25.43730   27.87920    0.07340    0.02720    0.01700    3.68720    2.67770    8.15000   59.05070   99.25250   53.20240   18.91170   22.24990  -44.76830   55.55160
 5715.50000   16.39920   22.41240   29.09080    0.08440    0.02280    0.01820    3.69160    2.68500    8.16010   60.14440  100.94510   55.34150   17.13610   20.52470  -44.74600   65.48530
 5716.00000   14.93760   20.15070   29.93360    0.08920    0.01890    0.01570    3.81680    2.68860    8.16950   61.27510  103.92420   58.13160   15.36060   18.81050  -44.72650   77.43730
 5716.50000   13.60630   17.79450   18.00950    0.09290    0.01540    0.01130    3.98490    2.69180    8.17890   62.63230  106.18440   61.52220   13.58510   17.09620  -44.72370   81.87270
 5717.00000   12.39370   15.95360   14.18610    0.09720    0.01210    0.00970    4.08550    2.68950    8.19250   63.98960  108.13820   66.37360   11.80950   15.38200  -44.71660   89.97670
 5717.50000   11.28910   14.13250   12.71480    0.11120    0.01080    0.00560    4.06600    2.68100    8.19890   65.09960  110.57910   70.70380   10.47770   13.88280  -44.76280   95.30340
 5718.00000   10.28290   12.80140   12.13660    0.11540    0.01230    0.00160    3.99650    2.67600    8.20530   66.07040  112.75580   75.03400   10.01890   13.25890  -44.81240  101.60560
 5718.50000    9.36650   12.29820   12.05470    0.12310    0.01660   -0.00020    3.90190    2.67300    8.21180   67.04120  115.68910   79.62660    9.56020   12.63510  -44.79790  108.30780
 5719.00000    8.65750   11.88260   11.57350    0.13410    0.02140   -0.00130    3.88320    2.67320    8.21820   68.01200  118.84240   86.12390    9.10140   12.01120  -44.78330  114.05580
 5719.50000    8.16630   11.48110   11.22520    0.13720    0.02190   -0.00170    3.87980    2.67690    8.22290   68.57530  119.82000   92.62120    8.64270   11.38730  -44.76880  117.05710
 5720.00000    8.00880   11.09310   10.88740    0.14680    0.02100   -0.00170    3.84510    2.68280    8.22370   68.87510  121.26380   99.11850    8.18400   11.17340  -44.75430  121.19150
 5720.50000    7.95610   10.72550   10.55970    0.15650    0.01900   -0.00170    3.84090    2.68900    8.22560   69.17490  123.43780  105.61580    8.09360   11.09630  -44.73980  124.89570
 5721.00000    7.91230   10.96960   10.31580    0.15720    0.01630   -0.00170    3.82360    2.69610    8.23250   69.47470  124.76560  106.67420    8.04700   11.01910  -44.72490  125.97310
 5721.50000    7.86880   11.21430   10.31580    0.16220    0.01250   -0.00170    3.79470    2.70030    8.25640   69.69090  124.72490  106.46650    8.00050   10.94190  -44.70910  126.91520
 5722.00000    7.82550   11.46460   10.11690    0.16350    0.00830   -0.00190    3.78280    2.70340    8.28510   69.80710  125.95110  101.54270    7.95400   10.86470  -44.69330  127.85730
 5722.50000    7.78250   11.29710    9.63870    0.16410    0.00420   -0.00280    3.77160    2.70600    8.31390   69.80720  128.15740   97.68910    7.90750   10.77600  -44.67750  128.79940
 5723.00000    7.73960   10.71430    9.12390    0.16370    0.00170   -0.00360    3.85690    2.70780    8.26270   69.70560  125.46970   96.86170    7.86090   10.54260  -44.59990  129.85900
 5723.50000    7.70290   10.16160    8.63670    0.16200    0.00110   -0.00550    3.93090    2.70760    8.24540   69.60400  125.01890   94.35000    7.63160   10.19460  -44.15230  131.96920
 5724.00000    7.49210    9.63740    8.17550    0.15670    0.00200   -0.00760    3.97000    2.70610    8.25620   69.50240  126.65600   92.06560    7.38830    9.84660  -43.67430  134.47880
 5724.50000    7.21820    9.14030    7.73890    0.15360    0.00300   -0.00740    3.95720    2.70420    8.26500   69.44580  128.88020   90.10180    7.14510    9.49850  -43.19630  139.32210
 5725.00000    6.95430    8.49060    7.32560    0.15530    0.00240   -0.00730    3.82610    2.70260    8.26950   70.17610  128.91170   89.75270    6.90190    9.15050  -42.71820  145.02220
 5725.50000    6.70010    8.52730    6.93440    0.15940    0.00180   -0.00720    3.81330    2.70270    8.27400   71.05580  128.91830   89.84700    6.65860    8.80250  -42.24020  150.67300
 5726.00000    6.45520    8.58800    6.72140    0.16800    0.00110   -0.00700    3.91660    2.70740    8.27850   71.83500  128.98100  100.35200    6.41540    8.61820  -41.76220  156.30020
 5726.50000    6.21670    8.62810    6.42410    0.17400    0.00050   -0.00690    4.06590    2.71210    8.28300   72.61410  129.41700  109.40340    6.17220    8.45150  -41.28410  162.07520
 5727.00000    5.99150    8.34270    6.22430    0.17170   -0.00110   -0.00670    4.16320    2.71280    8.28750   73.16550  129.77940  113.98920    5.92900    8.25800  -40.80610  169.58230
 5727.50000    5.76970    7.93410    6.03070    0.17250   -0.00250   -0.00660    4.16490    2.71150    8.28570   73.11850  131.15150  118.57630    5.68570    8.04620  -40.90960  173.29760
 5728.00000    5.55890    7.60640    5.86490    0.17680   -0.00260   -0.00650    4.14570    2.70840    8.27520   73.01890  133.64650  119.61150    5.44250    7.77600  -41.24860  178.55740
 5728.50000    5.42090    7.25340    5.86490    0.18480   -0.00030   -0.00640    3.92830    2.69740    8.26480   73.76020  135.22790  119.68320    5.19930    7.44930  -41.58760  182.19200
 5729.00000    5.30190    6.98320    5.86490    0.19280    0.00240   -0.00700    3.76220    2.69120    8.25440   74.79830  135.51590  119.18590    5.08310    7.28200  -41.92650  184.88830
 5729.50000    5.21230    6.98180    5.86490    0.20070    0.00720   -0.00710    3.77230    2.69300    8.21710   75.42210  137.41170  109.54800    5.08310    7.23890  -42.26550  187.58460
 5730.00000    5.20880    6.96930    5.72390    0.20590    0.01040   -0.00270    3.91400    2.71060    8.21850   75.74470  137.10070  109.33250    5.08310    7.23810  -42.41960  190.28090
 5730.50000    5.20890    6.98130    5.58350    0.20750    0.00870    0.00170    4.11260    2.72770    8.21990   75.98180  135.31770  111.02740    5.08310    7.24450  -42.33980  192.80000
 5731.00000    5.20190    7.29320    5.44660    0.20640    0.00110    0.00620    4.41910    2.73430    8.21640   76.11590  135.99560  135.97550    5.08310    7.25100  -42.26000  193.71700
 5731.50000    5.20640    7.56470    5.31300    0.20400   -0.00860    0.01070    4.64950    2.73350    8.21120   75.50650  137.68150  141.98610    5.08310    7.32470  -42.18010  194.09590
 5732.00000    5.19430    7.81400    5.21820    0.19990   -0.01470    0.01260    4.67670    2.71950    8.20590   75.36320  138.23950  138.51000    5.08310    7.42040  -42.03630  193.64110
 5732.50000    5.26100    7.83290    5.53210    0.20000   -0.01470    0.01450    4.68660    2.70080    8.19300   75.97870  137.50750  128.16230    5.08310    7.53840  -41.86230  187.59410
 5733.00000    5.38040    7.71280    5.53210    0.20630    0.00000    0.01630    4.62490    2.68270    8.20360   76.98540  140.44180  117.81470    5.08310    7.66950  -41.68830  181.54710
 5733.50000    5.51290    7.71930    6.65520    0.21300    0.01070    0.01680    4.61550    2.67810    8.21420   76.64120  141.73980  111.58960    5.08310    7.89970  -41.51440  178.83660
 5734.00000    5.53210    8.26400    7.75530    0.21770    0.01710    0.01770    4.79930    2.68170    8.22480   75.71770  139.09760  107.74300    5.10860    8.13000  -41.34040  180.83440
 5734.50000    5.53210    9.60110    6.67530    0.21680    0.01930    0.01940    5.17350    2.69030    8.23890   73.99420  133.64670   95.91290    5.42640    8.37210  -41.16640  184.38530
 5735.00000    6.31150    9.42270    5.96310    0.19430    0.01680    0.02010    5.62170    2.69610    8.23270   71.23200  131.19510   77.54420    5.74420    8.62890  -40.99240  183.81890
 5735.50000    7.46660    9.64900    9.34840    0.16750    0.01190    0.02570    5.87670    2.69220    8.22570   69.43980  127.78620   69.96950    6.06200    9.13650  -40.81840  161.51140
