~Version ---------------------------------------------------
VERS.   2.0 : CWLS log ASCII Standard -VERSION 2.0
WRAP.    NO : One line per depth step
DLM . SPACE : Column Data Section Delimiter
~Well ------------------------------------------------------
STRT .F                 490.0 : START DEPTH
STOP .F                5994.0 : STOP DEPTH
STEP .F                   0.5 : STEP
NULL .               -9999.25 : NULL VALUE
COMP .                        : COMPANY
WELL .                        : WELL
FLD  .                        : FIELD
LOC  .                        : LOCATION
PROV .                        : PROVINCE
CNTY .                        : COUNTY
STAT .                        : STATE
CTRY .                        : COUNTRY
SRVC .                        : SERVICE COMPANY
DATE .                        : DATE
UWI  .                        : UNIQUE WELL ID
API  .                        : API NUMBER
SLAT .WGS84 7.005323388006502 : SURFACE LATITUDE
SLON .WGS84 2.657876702480209 : SURFACE LONGITUDE
DATUM.F                1109.0 : DEPTH DATUM ELEV
~Curve Information -----------------------------------------
DEPT   .F     : 
ILD_1  .OHMM  : INDUCTION LOG DEEP
SFLU_1 .OHMM  : SPHERICALLY FOCUSED LOG UNAVERAGED RESISTIVITY
ILM_1  .OHMM  : INDUCTION LOG MEDIUM
NPHI_LS.DEC   : NEUTRON POROSITY LIMESTONE
DPHI_LS.DEC   : DENSITY POROSITY LIMESTONE
DRHO   .G/C3  : DENSITY CORRECTION
PEF    .B/E   : PHOTOELECTRIC FACTOR
RHOB   .G/C3  : BULK DENSITY
CALD   .IN    : CALIPER FROM DENSITY LOG
DTCO   .US/F  : COMPRESSIONAL-WAVE INTERVAL TRANSIT TIME ACAUSTIC SLOWNESS
DTSM   .US/F  : SHEAR-WAVE INTERVAL TRANSIT TIME DELTA-T
GRR    .GAPI  : GAMMA RAY
ILD    .OHMM  : INDUCTION LOG DEEP
SFLA   .OHMM  : SHALLOW FOCUSED LOG RESISTIVITY
SPR    .MV    : SPONTANEOUS POTENTIAL
CILD   .MMHO  : CONDUCTIVITY INDUCTION LOG DEEP
~Params ----------------------------------------------------
~Other -----------------------------------------------------
~ASCII -----------------------------------------------------
# ...
 5972.50000    8.88450    8.33520    9.66950    0.05650    0.05800    0.03120    3.35100    2.60600    7.89930   55.85050   93.86830   -9999.25   10.14090   21.30150  -35.15920   91.07120
 5973.00000    8.90070   11.68150    9.91040    0.07580    0.06650    0.02090    3.34330    2.59550    7.93510   55.92120   96.39330   -9999.25    9.87960   17.59690  -35.01930   99.46540
 5973.50000    9.03150   17.71710   10.35990    0.08950    0.07500    0.01070    3.32930    2.58400    7.96650   55.63300   97.27140   -9999.25    9.61820   13.89230  -34.63180  103.49600
 5974.00000    8.82610   26.86440   10.62320    0.09100    0.07820    0.00040    3.31770    2.57640    7.97690   54.50500   97.77140   -9999.25    9.35680   10.86510  -34.12370  106.17950
 5974.50000    8.82780   22.92060   10.67190    0.09120    0.07440   -0.00230    3.34120    2.59370    7.96650   53.15890   95.53970   -9999.25    9.09550   10.75860  -33.61570  107.32800
 5975.00000    8.65750   17.82620    9.76860    0.09370    0.04880   -0.00210    3.79710    2.65050    7.95610   51.84430   92.03650   -9999.25    8.95400   10.88850  -33.10770  108.43740
 5975.50000    7.85440   12.74440    7.92420    0.10160    0.01410    0.00380    4.26570    2.72070    7.94580   50.56270   91.28480   -9999.25    8.86270   11.94850  -33.64750  109.74610
 5976.00000    6.59170    9.11130    6.39740    0.11030   -0.01820    0.00890    4.68290    2.76870    7.93540   49.28480   91.98970   -9999.25    8.77140   14.11520  -33.83720  111.25790
 5976.50000    5.16850    5.75180    5.21300    0.11700   -0.03560    0.00990    4.76380    2.77520    7.92500   49.41380   93.12760   -9999.25    8.68010   14.91190  -34.16800  114.59090
 5977.00000    4.16540    5.64090    5.02550    0.12010   -0.04100    0.01030    5.06890    2.75920    7.91460   50.31310   94.82560   -9999.25    8.58870   15.04070  -34.13610  115.94030
 5977.50000    3.35700    5.73850    4.15430   -9999.25   -0.03100    0.01080    5.54670    2.74230    7.90420   51.21250   97.00420   -9999.25    8.49740   15.04070  -34.06270  120.08800
 5978.00000    2.70550    5.85150    3.37620   -9999.25   -0.01990    0.01120    5.59500    2.72540    7.89040   52.72980   99.18270   -9999.25    8.01140   13.84340  -33.98940  126.25900
 5978.50000    2.18050    5.98020    2.89110   -9999.25   -0.01000    0.01310    5.06480    2.71420    7.89450   53.45780  100.08610   -9999.25    7.05470   10.19780  -33.91600  134.18770
 5979.00000    1.75730    3.77690    2.37830   -9999.25   -0.00190    0.01710    4.76710    2.71740    7.93660   54.18580  100.94030   -9999.25    6.09800    8.70690  -33.74530  156.05450
 5979.50000    1.30950    2.24570    2.01030   -9999.25   -0.00430    0.02470    4.59040    2.72370    7.97160   54.91370  102.25450   -9999.25    5.17000    7.78280  -33.51340  182.28920
 5980.00000    1.27830    1.53020    1.67350   -9999.25   -0.00840    0.02620    4.47830    2.70190    7.89010   55.51630  104.30120   -9999.25    4.24200    7.04080  -33.34860  220.62140
 5980.50000    1.23090    1.53020    1.39990   -9999.25    0.00090    0.02240    4.74030    2.60440    7.78550   -9999.25   -9999.25   -9999.25    3.31400    6.29880  -33.34700  334.95840
 5981.00000    1.18520    2.29310    1.25960   -9999.25    0.04230    0.01750    4.96420    2.55300    7.61390   -9999.25   -9999.25   -9999.25    2.38600    5.55690  -33.34550  442.63500
 5981.50000    1.14120    3.40000    1.36380   -9999.25    0.09080    0.01730    5.08940    2.50370    7.58040   -9999.25   -9999.25   -9999.25    1.61340    4.49600  -33.34400  543.25810
 5982.00000    1.12060    3.36100    1.45690   -9999.25    0.12620    0.02010    4.19170    2.47440    7.65320   -9999.25   -9999.25   -9999.25    1.43590    3.27520  -33.33720  647.17410
 5982.50000    1.24380    3.28700    1.54850   -9999.25    0.14220    0.02200    3.52070    2.48710    7.80080   -9999.25   -9999.25   -9999.25    1.25830    2.11160  -33.32780  739.18350
 5983.00000    1.38910    3.20700    1.64580   -9999.25    0.13940    0.01990    3.13280    2.49380    7.84520   -9999.25   -9999.25   -9999.25    1.08080    2.11160  -33.31840  789.36450
 5983.50000    1.55130    3.32100    1.74930   -9999.25    0.13080    0.01290    2.92320    2.48840    7.88210   -9999.25   -9999.25   -9999.25    0.93170    2.11160  -33.26170  814.52560
 5984.00000    1.73250    3.40000    1.85920   -9999.25    0.12470    0.00620    2.78090    2.48650    7.89240   -9999.25   -9999.25   -9999.25    0.85180    2.32780  -33.21600  868.81480
 5984.50000    1.93490    3.12370    1.97610   -9999.25    0.13090    0.00540    2.76190    2.49030    7.89150   -9999.25   -9999.25   -9999.25    0.77200    2.57630  -33.28080  902.09700
 5985.00000    2.21530    2.96670    2.10030   -9999.25    0.13240    0.00950    2.75570    2.51090    7.89070   -9999.25   -9999.25   -9999.25    0.69210    2.82480  -33.04090  901.92560
 5985.50000    2.36280    3.02510    2.23230   -9999.25    0.12610    0.01220    2.84170    2.52030    7.88140   -9999.25   -9999.25   -9999.25    0.87170    3.07330  -32.66630  829.46330
 5986.00000    2.56780    3.54330    2.44180   -9999.25    0.11800    0.01220    3.00340    2.51620    7.86450   -9999.25   -9999.25   -9999.25    1.11750    3.13550  -32.29170  719.70640
 5986.50000    2.79050    4.51620    2.44180   -9999.25    0.11270    0.00730    3.16240    2.51000    7.84760   -9999.25   -9999.25   -9999.25    1.43740    3.18870  -31.91700  625.51040
 5987.00000    3.02510    5.75630    2.47460   -9999.25    0.11750    0.00230    3.09580    2.51010    7.83320   -9999.25   -9999.25   -9999.25    1.75730    3.24550  -31.54240  564.15240
 5987.50000    3.08450    6.85350    2.50330   -9999.25    0.11960   -0.00010    2.84460    2.51990    7.83790   -9999.25   -9999.25   -9999.25    2.07720    3.30940  -31.16780  502.79430
 5988.00000    3.08450    6.72140    2.53880   -9999.25    0.11710    0.00020    2.75220    2.53530    7.82290   -9999.25   -9999.25   -9999.25    2.39710    3.44190  -30.84490  449.82350
 5988.50000    2.78010    5.42540    2.53880   -9999.25    0.11160    0.00120    2.88890    2.55040    7.77320   -9999.25   -9999.25   -9999.25    2.63390    3.92150  -30.55410  422.92050
 5989.00000    2.54130    4.19570    2.29560   -9999.25    0.09810    0.00130    3.03060    2.54820    7.60220   -9999.25   -9999.25   -9999.25    2.83950    4.40110  -30.59730  408.12740
 5989.50000    2.32300   -9999.25    2.13730   -9999.25    0.09270    0.00060    3.00230    2.53370    7.46610   -9999.25   -9999.25   -9999.25   -9999.25   -9999.25  -30.96030   -9999.25
 5990.00000    2.13070   -9999.25   -9999.25   -9999.25    0.10040   -0.00070    2.80060    2.50680    7.61950   -9999.25   -9999.25   -9999.25   -9999.25   -9999.25  -31.29220   -9999.25
 5990.50000   -9999.25   -9999.25   -9999.25   -9999.25    0.11630    0.00580    2.96310    2.50800    7.84960   -9999.25   -9999.25   -9999.25   -9999.25   -9999.25  -31.48870   -9999.25
 5991.00000   -9999.25   -9999.25   -9999.25   -9999.25    0.12190    0.01490    3.25380    2.54010    7.98870   -9999.25   -9999.25   -9999.25   -9999.25   -9999.25  -31.55840   -9999.25
 5991.50000   -9999.25   -9999.25   -9999.25   -9999.25    0.10130    0.02390    3.79550    2.62170    7.97500   -9999.25   -9999.25   -9999.25   -9999.25   -9999.25  -31.62810   -9999.25
 5992.00000   -9999.25   -9999.25   -9999.25   -9999.25    0.06080    0.02810    4.01640    2.63120    7.95730   -9999.25   -9999.25   -9999.25   -9999.25   -9999.25  -31.69770   -9999.25
 5992.50000   -9999.25   -9999.25   -9999.25   -9999.25    0.04350    0.01870    4.38250    2.59600    7.64340   -9999.25   -9999.25   -9999.25   -9999.25   -9999.25   -9999.25   -9999.25
 5993.00000   -9999.25   -9999.25   -9999.25   -9999.25    0.05680    0.01900    5.30610    2.53090    7.18320   -9999.25   -9999.25   -9999.25   -9999.25   -9999.25   -9999.25   -9999.25
 5993.50000   -9999.25   -9999.25   -9999.25   -9999.25    0.10320    0.03370    6.01960    2.43830    6.87370   -9999.25   -9999.25   -9999.25   -9999.25   -9999.25   -9999.25   -9999.25
