~Version ---------------------------------------------------
VERS.   2.0 : CWLS log ASCII Standard -VERSION 2.0
WRAP.    NO : One line per depth step
DLM . SPACE : Column Data Section Delimiter
~Well ------------------------------------------------------
STRT .F                 490.0 : START DEPTH
STOP .F                5994.0 : STOP DEPTH
STEP .F                   0.5 : STEP
NULL .               -9999.25 : NULL VALUE
COMP .                        : COMPANY
WELL .                        : WELL
FLD  .                        : FIELD
LOC  .                        : LOCATION
PROV .                        : PROVINCE
CNTY .                        : COUNTY
STAT .                        : STATE
CTRY .                        : COUNTRY
SRVC .                        : SERVICE COMPANY
DATE .                        : DATE
UWI  .                        : UNIQUE WELL ID
API  .                        : API NUMBER
SLAT .WGS84 7.005323388006502 : SURFACE LATITUDE
SLON .WGS84 2.657876702480209 : SURFACE LONGITUDE
DATUM.F                1109.0 : DEPTH DATUM ELEV
~Curve Information -----------------------------------------
DEPT   .F     : 
ILD_1  .OHMM  : INDUCTION LOG DEEP
SFLU_1 .OHMM  : SPHERICALLY FOCUSED LOG UNAVERAGED RESISTIVITY
ILM_1  .OHMM  : INDUCTION LOG MEDIUM
NPHI_LS.DEC   : NEUTRON POROSITY LIMESTONE
DPHI_LS.DEC   : DENSITY POROSITY LIMESTONE
DRHO   .G/C3  : DENSITY CORRECTION
PEF    .B/E   : PHOTOELECTRIC FACTOR
RHOB   .G/C3  : BULK DENSITY
CALD   .IN    : CALIPER FROM DENSITY LOG
DTCO   .US/F  : COMPRESSIONAL-WAVE INTERVAL TRANSIT TIME ACAUSTIC SLOWNESS
DTSM   .US/F  : SHEAR-WAVE INTERVAL TRANSIT TIME DELTA-T
GRR    .GAPI  : GAMMA RAY
ILD    .OHMM  : INDUCTION LOG DEEP
SFLA   .OHMM  : SHALLOW FOCUSED LOG RESISTIVITY
SPR    .MV    : SPONTANEOUS POTENTIAL
CILD   .MMHO  : CONDUCTIVITY INDUCTION LOG DEEP
~Params ----------------------------------------------------
~Other -----------------------------------------------------
~ASCII -----------------------------------------------------
# ...
 5542.50000   -9999.25  287.01270 1904.30850    0.01780    0.01760    0.00210    4.45200    2.68330    8.19600   52.07500   91.09890   17.52720  501.14030  229.76190  -63.84810    2.83750
 5543.00000   -9999.25  266.54210 1904.13560    0.01800    0.01560    0.00200    4.58130    2.69160    8.19250   52.05250   90.49300   14.75960  501.09190  232.56330  -64.45950    3.14540
 5543.50000   -9999.25  193.87370 1903.95080    0.01820    0.00970    0.00050    4.77800    2.69850    8.18910   50.33930   90.13280   12.66440  501.04350  232.90090  -65.07100    3.45330
 5544.00000   -9999.25  150.52490 1903.69400    0.02140    0.00380   -0.00160    4.89400    2.70130    8.18570   50.47820   91.09230   11.76310  376.51050  220.02210  -65.68250    4.27980
 5544.50000   -9999.25  116.86860 1903.45100    0.02680    0.00990   -0.00460    4.89000    2.69220    8.18230   52.01700   92.29200   11.05380  242.04260  185.27310  -66.29400    5.58390
 5545.00000   -9999.25   90.73760 1903.24610    0.03530    0.01620   -0.00820    4.93420    2.67990    8.17890   52.14810   92.98820   11.05060  178.12170  150.52420  -66.90550    7.39080
 5545.50000   -9999.25   73.72690 1903.02950    0.03960    0.02150   -0.01180    5.00520    2.66770    8.17540   53.15660   93.22120   11.04740  151.79760  115.77530  -67.51690    9.19770
 5546.00000   -9999.25   73.72690 1902.79430    0.04010    0.02770   -0.01310    5.07790    2.66220    8.17200   54.55140   93.23420   11.47830  125.47350   96.97580  -68.01550   10.12090
 5546.50000   -9999.25   83.75500 1902.56690    0.03530    0.02870   -0.01300    5.16840    2.66220    8.16860   54.83490   93.23080   15.13820  109.59140   94.21730  -68.46270   10.02270
 5547.00000   -9999.25   95.05310 1902.34770    0.02940    0.02540   -0.01140    5.49810    2.66400    8.16520   53.90150   93.22690   21.58570  107.73730   94.20670  -69.18640    9.94120
 5547.50000   -9999.25  107.87510 1902.12410    0.02360    0.02080   -0.00850    6.11140    2.67910    8.16170   52.96800   93.22150   22.33040  112.39310   94.19600  -69.30550    9.90050
 5548.00000   -9999.25  122.42680 1901.89760    0.02140    0.01620   -0.00560    6.04600    2.68690    8.15830   52.46240   93.26430   21.86600  138.55730  110.61870  -69.39900    9.52980
 5548.50000   -9999.25  140.18320 1901.67310    0.01950    0.01200   -0.00270    5.86930    2.68920    8.15490   52.27280   93.99100   17.78820  164.72160  127.40220  -69.39650    8.56480
 5549.00000   -9999.25  141.12810 1901.45010    0.01760    0.01330   -0.00140    5.70250    2.68740    8.15150   50.79790   93.97360   14.32290  201.91700  144.18580  -69.39390    7.37660
 5549.50000   -9999.25  142.93960 1901.22710    0.01690    0.01760   -0.00130    5.90560    2.68380    8.14810   50.40000   93.62470   13.91360  258.20360  160.96930  -69.53660    6.18840
 5550.00000   -9999.25  159.85270 1901.00420    0.01620    0.02190   -0.00150    6.24560    2.67310    8.14460   51.78580   92.87820   14.64640  496.99580  177.75290  -69.84790    5.00010
 5550.50000   -9999.25  179.24750 1900.78130    0.01570    0.02610   -0.00330    6.58570    2.66290    8.15200   52.14480   92.11440   25.05210  497.27400  194.53640  -70.15920    3.81190
 5551.00000   -9999.25  200.99540 1900.55820    0.01590    0.03030   -0.00510    6.35730    2.65900    8.16160   51.61220   91.01830   29.39080  497.55220  211.32000  -70.25550    2.62370
 5551.50000   -9999.25  225.38190 1900.33540    0.01600    0.03000   -0.00690    5.71940    2.65910    8.17110   51.07960   90.84400   29.73220  497.83040  228.10350  -70.25550    1.92610
 5552.00000   -9999.25  252.72720 1900.11250    0.01650    0.02830   -0.00710    5.49330    2.66060    8.18070   50.55690   90.92970   29.09770  498.10860  244.88710  -70.48300    1.81140
 5552.50000   -9999.25  293.79810 1899.88960    0.01630    0.02570   -0.00760    5.34730    2.66290    8.19020   50.39990   91.37900   22.66030  498.38680  261.67060  -70.68680    1.69670
 5553.00000   -9999.25  285.94160 1899.66690    0.01530    0.01930   -0.00660    5.26300    2.66930    8.19980   50.35780   92.07340   16.47330  498.66500  269.94860  -70.69590    1.58200
 5553.50000   -9999.25  271.78310 1899.44410    0.01420    0.00760   -0.00560    5.15850    2.67920    8.20930   50.90290   92.86780   15.11640  498.94320  277.89870  -70.70510    1.46730
 5554.00000   -9999.25  271.78310 1899.22130    0.01460   -0.00010   -0.00460    5.14660    2.69770    8.22020   51.51810   93.18430   15.13010  499.22150  285.84890  -70.71430    1.35260
 5554.50000   -9999.25  279.51170 1898.99870    0.01610   -0.00160   -0.00360    5.48200    2.71070    8.23000   51.93720   93.18180   15.37220  499.49970  288.21110  -70.78470    1.24820
 5555.00000   -9999.25  288.13260 1898.77590    0.01610    0.00320   -0.00260    5.82820    2.71050    8.23500   51.47970   93.17940   16.40470  499.77790  290.54040  -70.91170    1.33330
 5555.50000   -9999.25  284.69080 1898.55320    0.01570    0.00870   -0.00240    6.04190    2.70130    8.24000   50.92060   93.17690   28.72870  500.05610  292.91350  -71.09800    1.41840
 5556.00000   -9999.25  279.42970 1898.33060    0.01530    0.01310   -0.00300    6.08350    2.69150    8.24490   50.54140   93.17010   36.59600  500.33430  297.38220  -71.36810    1.50350
 5556.50000   -9999.25  271.39940 1898.10790    0.01500    0.01720   -0.00370    6.06970    2.68600    8.24990   50.80970   92.80440   37.04080  500.61250  310.01320  -71.64650    1.58850
 5557.00000   -9999.25  272.54030 1897.88540    0.01490    0.02140   -0.00360    5.94010    2.68350    8.25490   51.38620   92.34170   31.57590  500.89070  322.27370  -71.93900    1.67360
 5557.50000   -9999.25  297.16540 1897.66270    0.01480    0.02570   -0.00350    5.44960    2.67610    8.25980   51.52570   91.69480   27.22400  501.16890  324.74730  -72.23160    1.75870
 5558.00000   -9999.25  318.67200 1897.44020    0.01470    0.02580   -0.00340    5.01360    2.66530    8.28280   51.17910   91.03370   26.49930  501.44710  323.93930  -72.52410    1.84380
 5558.50000   -9999.25  337.76070 1897.21770    0.01450    0.02170   -0.00330    5.10470    2.66260    8.30910   50.86760   90.63630   25.74300  501.72530  312.13720  -72.81670    2.30880
 5559.00000   -9999.25  351.61360 1896.99520    0.01450    0.01760   -0.00320    5.77550    2.66980    8.30850   50.55620   91.02230   24.89520  502.00350  292.75610  -73.26170    3.22690
 5559.50000   -9999.25  342.30180 1896.77270    0.01470    0.01350   -0.00330    6.23900    2.67770    8.30780   50.56030   91.85890   24.04750  502.21010  273.37490  -74.16210    4.14500
 5560.00000   -9999.25  312.69560 1896.55030    0.01490    0.01200   -0.00540    6.48070    2.68750    8.30710   51.29840   92.90650   22.41330  502.19950  253.99380  -75.15600    4.68130
 5560.50000   -9999.25  244.24280 1896.32790    0.01510    0.01680   -0.00540    6.43280    2.68800    8.30640   52.03660   93.98730   15.46490  502.18880  234.61260  -75.27770    4.67730
 5561.00000   -9999.25  188.16770 1896.10550    0.01510    0.02270   -0.00530    6.34780    2.68520    8.30570   51.91670   94.09680   15.23710  501.98350  227.35680  -75.35110    4.67330
 5561.50000   -9999.25  187.19670 1895.88320    0.01510    0.02640   -0.00310    6.21120    2.67810    8.30510   51.70800   94.11290   15.11590  501.27080  228.36860  -75.21860    4.48230
 5562.00000   -9999.25  200.52570 1895.66080    0.01520    0.02390   -0.00480    6.04400    2.66580    8.30440   51.37650   93.76590   15.62170  499.93450  235.57820  -75.24640    4.01710
 5562.50000   -9999.25  224.14180 1895.43850    0.01520    0.01760   -0.00480    5.77600    2.66130    8.30370   51.04280   93.14250   17.22160  491.50390  242.78780  -75.27430    3.55190
 5563.00000   -9999.25  256.19020 1895.21620    0.01520    0.01130   -0.00420    5.63960    2.66840    8.30300   50.70910   93.14000   19.63050  402.03940  249.99730  -75.30220    2.97770
 5563.50000   -9999.25  256.36130 1894.99390    0.01530    0.00890   -0.00390    5.74070    2.67940    8.30230   50.77210   93.13760   22.03940  499.29500  252.32760  -75.33010    2.23890
