~Version ---------------------------------------------------
VERS.   2.0 : CWLS log ASCII Standard -VERSION 2.0
WRAP.    NO : One line per depth step
DLM . SPACE : Column Data Section Delimiter
~Well ------------------------------------------------------
STRT .F                  72.0 : START DEPTH
STOP .F                1774.0 : STOP DEPTH
STEP .F                   0.5 : STEP
NULL .               -9999.25 : NULL VALUE
COMP .                        : COMPANY
WELL .                        : WELL
FLD  .                        : FIELD
LOC  .                        : LOCATION
PROV .                        : PROVINCE
CNTY .                        : COUNTY
STAT .                        : STATE
CTRY .                        : COUNTRY
SRVC .                        : SERVICE COMPANY
DATE .                        : DATE
UWI  .                        : UNIQUE WELL ID
API  .                        : API NUMBER
SLAT .WGS84 1.079064556651396 : SURFACE LATITUDE
SLON .WGS84 6.589844035067003 : SURFACE LONGITUDE
DATUM.F               2776.21 : DEPTH DATUM ELEV
~Curve Information -----------------------------------------
DEPT.F     : 1 MEASURED DEPTH
GRD .GAPI  : GAMMA RAY FROM DENSITY LOG
PEF .B/E   : PHOTOELECTRIC FACTOR
RHOB.G/C3  : BULK DENSITY
DRHO.G/C3  : BULK DENSITY CORRECTION
DTSM.US/F  : DELTA-T SHEAR
DTCO.US/F  : DELTA-T COMPRESSIONAL
DTST.US/F  : DELTA-T STONELEY - MONOPOLE STONELEY
NPHI.DEC   : NEUTRON POROSITY
DPHI.DEC   : DENSITY POROSITY
LLD .OHMM  : LATEROLOG DEEP RESISTIVITY
MSFL.OHMM  : MICRO SPHERICALLY FOCUSED RESISTIVITY
CALR.IN    : CALIPER FROM RESISTIVITY LOG
LLS .OHMM  : LATEROLOG SHALLOW RESISTIVITY
~Params ----------------------------------------------------
~Other -----------------------------------------------------
~ASCII -----------------------------------------------------
# ...
 1372.00000   22.00970    4.48760    2.85260   -0.01310  109.76420   60.23750  203.60530    0.05840   -0.01570   51.08650   40.14990   11.43350   58.43160
 1372.50000   21.78440    4.68590    2.86890   -0.01210  108.91620   59.61460  203.99720    0.05780   -0.02480   50.33020   42.84610   11.42290   56.59490
 1373.00000   20.43810    4.79860    2.87670   -0.01400  107.95020   58.16900  203.96150    0.05320   -0.02950   52.95210   59.46670   11.42200   59.07220
 1373.50000   19.06300    4.82170    2.87960   -0.01630  105.70050   57.71390  203.16660    0.04060   -0.03130   56.70000  754.96210   11.42780   63.83180
 1374.00000   17.34020    4.79140    2.88050   -0.01540  103.26810   55.81240  202.42260    0.02780   -0.03200   70.62400  134.34640   11.43850   79.39300
 1374.50000   16.37880    4.83630    2.88210   -0.01260  101.22990   54.66090  202.06410    0.01770   -0.03330   93.46370  122.88650   11.43260  104.26080
 1375.00000   15.09920    4.97810    2.89090   -0.01580  100.28340   53.92940  202.47240    0.01410   -0.03840  122.00160  166.24950   11.42240  134.77940
 1375.50000   12.54070    5.03230    2.90230   -0.02170  100.79910   53.57950  202.92930    0.00920   -0.04460  153.34980 1707.62890   11.41680  162.41790
 1376.00000   10.31250    5.01670    2.91320   -0.02450  100.07210   52.68980  202.32640    0.00470   -0.05090  176.69530  490.82650   11.41510  185.10120
 1376.50000    7.89830    4.59830    2.92410   -0.02200   97.80430   52.21530  201.56710    0.00130   -0.05770  192.43340  420.12770   11.42370  207.30660
 1377.00000    7.88730    4.16900    2.93160   -0.01590   96.85060   52.05040  200.96950    0.00070   -0.06160  227.29830  180.33290   11.44170  258.57820
 1377.50000    9.21020    3.97640    2.93560   -0.01140   96.83520   52.02580  200.63080    0.00020   -0.06170  287.01690  831.89950   11.43890  350.05460
 1378.00000    9.63220    4.03130    2.93400   -0.00930   96.92530   51.84200  200.20630   -0.00020   -0.05960  419.57640  742.19850   11.44360  474.14760
 1378.50000    9.85330    4.15360    2.92760   -0.00980   97.08790   51.39560  200.15180    0.00030   -0.05830  660.41770 1271.31120   11.44480  696.52360
 1379.00000   11.20810    4.24750    2.92540   -0.01210   99.18090   52.49580  200.81200    0.00090   -0.05660  678.24830 1064.65880   11.44310  785.24980
 1379.50000   13.50040    4.32980    2.91950   -0.01470  102.30340   53.91930  201.00910    0.00270   -0.05100  428.83800  933.46550   11.45410  675.59200
 1380.00000   17.79740    4.38960    2.89810   -0.01990  105.51300   54.98970  202.22220    0.00510   -0.04010  172.01670  140.86010   11.46630  300.12840
 1380.50000   21.56120    4.41940    2.85830   -0.02520  106.25720   56.00000  203.56060    0.01400   -0.02100   95.32760   57.13750   11.48330  124.37290
 1381.00000   22.37620    4.38740    2.82520   -0.02830  105.85250   56.15280  203.69030    0.02780   -0.00210   70.36090   78.04410   11.51480   82.84650
 1381.50000   19.82110    4.32560    2.82520   -0.02730  105.72760   55.93670  202.75230    0.04630    0.00190   51.93300   52.28240   11.55570   68.55090
 1382.00000   15.20310    4.29570    2.84430   -0.02410  103.03990   54.68900  202.20440    0.04180   -0.01160   52.15430  368.36850   11.57390   75.33640
 1382.50000   10.73500    4.26290    2.90750   -0.01820   99.97370   53.31600  201.88120    0.02150   -0.04350   99.09700 1740.24010   11.58400  140.10630
 1383.00000    9.33840    4.27960    2.94850   -0.01550   98.33660   52.25650  201.84990    0.00160   -0.07200  212.72520 1997.29060   11.58540  274.96590
 1383.50000   10.54660    4.31010    2.95770   -0.01390   98.77730   52.35240  202.02110   -0.00540   -0.07560  408.64480 1997.47490   11.60100  587.91500
 1384.00000   13.09470    4.51230    2.94740   -0.01230  100.54630   54.04680  201.90080   -0.00520   -0.06750  424.24260 1990.24620   11.61690  498.09850
 1384.50000   17.20560    4.75210    2.92770   -0.01050  102.26070   55.86930  201.69030    0.00000   -0.05800  229.30920 1547.20560   11.63540  311.42370
 1385.00000   19.81160    4.86840    2.92120   -0.00840  105.45110   56.68770  202.12950    0.00630   -0.05490  105.22650   67.07740   11.65750  142.90460
 1385.50000   20.03490    4.74090    2.92150   -0.00820  105.52330   57.22180  203.27470    0.00940   -0.05510   63.80850   83.55900   11.67630   72.69440
 1386.00000   19.69270    4.69130    2.92020   -0.01110  105.43860   57.07310  203.88680    0.01170   -0.05410   57.09250  308.46190   11.69030   67.19270
 1386.50000   18.22010    4.78480    2.91280   -0.01430  105.22990   56.89180  203.66290    0.01380   -0.04970   57.25640  281.79190   11.70260   67.97960
 1387.00000   16.67340    4.90680    2.89980   -0.01760  103.69090   56.56640  203.18850    0.01670   -0.04330   63.56380   36.31390   11.70030   72.69980
 1387.50000   14.65260    4.94600    2.89320   -0.02000  102.65650   55.12360  202.59250    0.01990   -0.03930   72.05870   69.32590   11.72010   87.62480
 1388.00000   13.62250    4.88620    2.89800   -0.02300  101.39650   54.00390  202.55870    0.01940   -0.04030   86.82620   93.18600   11.74800  110.02870
 1388.50000   13.46720    4.81750    2.91280   -0.02520  100.93130   53.78130  203.02120    0.01370   -0.04820  118.74260  129.33520   11.76340  163.29100
 1389.00000   15.13230    4.65990    2.92090   -0.02220  100.68110   53.47010  202.95130    0.00620   -0.05550  198.80160  545.25560   11.76710  232.60030
 1389.50000   17.40320    4.47490    2.91210   -0.01940  101.28920   54.81390  203.09880    0.00330   -0.05090  222.42190 1754.09020   11.77220  231.82840
 1390.00000   20.17270    4.37460    2.88940   -0.01550  104.81650   56.40610  203.68180    0.00470   -0.03530  182.72220 1527.87560   11.78580  204.00930
 1390.50000   26.12480    4.31400    2.85710   -0.00940  111.13230   59.01350  204.47460    0.02020   -0.01570  129.15950   71.35860   11.79950  148.87520
 1391.00000   33.92000    4.22630    2.82170   -0.00650  115.16390   61.94550  205.42700    0.03960    0.00320   89.92280   58.57430   11.80540  103.65050
 1391.50000   40.84200    4.20750    2.78330   -0.00940  117.80890   63.25890  205.67730    0.07130    0.02480   61.58430   46.48230   11.80670   71.63860
 1392.00000   42.30600    4.29990    2.76830   -0.01360  117.80490   63.96210  204.51620    0.11400    0.03510   41.87260   28.06260   11.80890   48.70930
 1392.50000   38.82530    4.39270    2.77560   -0.01750  116.54890   63.10100  204.33960    0.13670    0.03040   36.71520   20.60900   11.81240   38.24330
 1393.00000   31.30560    4.44060    2.81400   -0.01840  113.22350   62.11090  203.87500    0.13650    0.01070   36.55340   16.86930   11.81960   38.11070
 1393.50000   23.74420    4.43360    2.85520   -0.01820  108.30740   60.74480  204.26280    0.10740   -0.01250   42.82150   29.49270   11.82620   48.91680
 1394.00000   19.45600    4.35960    2.87780   -0.01650  105.19570   58.45550  202.87140    0.06740   -0.02680   61.97760   49.73460   11.83140   72.18790
 1394.50000   16.62170    4.17000    2.89230   -0.01450  102.14580   56.46440  202.31060    0.03180   -0.03770   91.45740  114.06290   11.83340  104.83350
 1395.00000   15.55520    3.93280    2.90260   -0.00990  100.04220   54.42250  202.47870    0.01860   -0.04290  126.12040  467.50420   11.83550  142.20140
 1395.50000   14.91060    3.95070    2.90900   -0.00680   99.57890   54.31450  202.35010    0.01490   -0.04720  159.83560  353.21350   11.84380  170.87300
 1396.00000   14.46610    4.21900    2.91320   -0.00420  100.11720   53.70210  202.20320    0.01300   -0.05060  186.45140  267.53380   11.84900  208.55890
 1396.50000   14.63840    4.51270    2.91300   -0.00630  103.20020   54.10040  202.17070    0.01220   -0.04980  183.23270  339.72570   11.87590  219.34510
 1397.00000   17.35490    4.50250    2.89530   -0.01270  109.40420   56.84380  204.14820    0.01390   -0.03580  169.63700  222.06840   11.88540  181.60590
 1397.50000   24.54410    4.10040    2.83740   -0.02010  116.50610   59.71060  206.25730    0.01690   -0.01130   97.84240  246.89240   11.88390  123.59320
