~Version ---------------------------------------------------
VERS.   2.0 : CWLS log ASCII Standard -VERSION 2.0
WRAP.    NO : One line per depth step
DLM . SPACE : Column Data Section Delimiter
~Well ------------------------------------------------------
STRT .F                  72.0 : START DEPTH
STOP .F                1774.0 : STOP DEPTH
STEP .F                   0.5 : STEP
NULL .               -9999.25 : NULL VALUE
COMP .                        : COMPANY
WELL .                        : WELL
FLD  .                        : FIELD
LOC  .                        : LOCATION
PROV .                        : PROVINCE
CNTY .                        : COUNTY
STAT .                        : STATE
CTRY .                        : COUNTRY
SRVC .                        : SERVICE COMPANY
DATE .                        : DATE
UWI  .                        : UNIQUE WELL ID
API  .                        : API NUMBER
SLAT .WGS84 1.079064556651396 : SURFACE LATITUDE
SLON .WGS84 6.589844035067003 : SURFACE LONGITUDE
DATUM.F               2776.21 : DEPTH DATUM ELEV
~Curve Information -----------------------------------------
DEPT.F     : 1 MEASURED DEPTH
GRD .GAPI  : GAMMA RAY FROM DENSITY LOG
PEF .B/E   : PHOTOELECTRIC FACTOR
RHOB.G/C3  : BULK DENSITY
DRHO.G/C3  : BULK DENSITY CORRECTION
DTSM.US/F  : DELTA-T SHEAR
DTCO.US/F  : DELTA-T COMPRESSIONAL
DTST.US/F  : DELTA-T STONELEY - MONOPOLE STONELEY
NPHI.DEC   : NEUTRON POROSITY
DPHI.DEC   : DENSITY POROSITY
LLD .OHMM  : LATEROLOG DEEP RESISTIVITY
MSFL.OHMM  : MICRO SPHERICALLY FOCUSED RESISTIVITY
CALR.IN    : CALIPER FROM RESISTIVITY LOG
LLS .OHMM  : LATEROLOG SHALLOW RESISTIVITY
~Params ----------------------------------------------------
~Other -----------------------------------------------------
~ASCII -----------------------------------------------------
# ...
 1606.00000   47.01530    2.24330    2.47180   -0.00980  109.19340   66.37890  208.79800    0.19700    0.20490  182.45580   85.47200    9.27820  145.33330
 1606.50000   45.20220    2.28580    2.48570   -0.01530  108.21510   64.56450  209.00850    0.20470    0.19650  191.38560   86.35110    9.27770  168.06330
 1607.00000   42.17030    2.40260    2.51780   -0.02030  105.69220   61.88850  208.81720    0.20450    0.17420  204.34040  184.38620    9.27190  185.50730
 1607.50000   39.97190    2.53210    2.55960   -0.02280  104.06150   60.27500  208.27660    0.19980    0.15260  242.37340  348.97380    9.27230  213.21770
 1608.00000   41.17360    2.59900    2.57340   -0.02170  102.16650   59.50830  208.73450    0.19160    0.14380  298.26270  187.26680    9.27260  265.82110
 1608.50000   44.91480    2.53750    2.58410   -0.01710  102.00270   59.84500  209.27110    0.17960    0.13870  302.04380   96.03660    9.25450  266.19800
 1609.00000   50.61930    2.40760    2.59280   -0.01360  103.75300   60.95860  209.77180    0.17120    0.13530  238.85490 1121.27760    9.24140  199.44200
 1609.50000   55.11700    2.34940    2.59140   -0.01020  104.79770   62.36650  210.48790    0.16710    0.13600  175.14360  165.88910    9.23520  143.15740
 1610.00000   56.01360    2.35600    2.57860   -0.00940  106.74810   64.27850  210.98030    0.17470    0.14330  126.58000   83.60030    9.23720  101.31430
 1610.50000   55.61190    2.41400    2.56380   -0.00980  110.03950   65.85010  211.51740    0.18870    0.15180   91.67840   84.88920    9.24210   86.60010
 1611.00000   55.40370    2.48860    2.55640   -0.01120  113.98130   66.95400  212.40190    0.20190    0.15750   82.67880   68.73780    9.24740   84.38020
 1611.50000   57.37540    2.50690    2.54510   -0.01430  117.23090   68.16920  212.29110    0.20350    0.16480   79.21250   83.51800    9.25150   84.99830
 1612.00000   60.77860    2.39300    2.51370   -0.01330  122.93330   70.33260  212.36590    0.20390    0.18460   78.89250  100.99340    9.25530   84.77750
 1612.50000   65.38940    2.27740    2.47130   -0.00990  130.50320   73.99220  213.97840    0.21050    0.21010   72.38190   70.28940    9.26540   82.58640
 1613.00000   67.70420    2.17340    2.42710   -0.00650  136.19940   77.72870  216.64160    0.22630    0.23760   62.65820   50.30950    9.26480   76.15510
 1613.50000   69.32630    2.12620    2.38480   -0.00300  139.51390   80.64820  218.41430    0.24690    0.25930   54.24080   61.50140    9.26510   66.65880
 1614.00000   69.11610    2.15610    2.36480    0.00110  142.82830   82.06190  218.15210    0.26670    0.26640   46.95420   49.57310    9.26630   58.63540
 1614.50000   67.21770    2.18520    2.37790    0.00200  144.56120   81.69080  217.85160    0.27570    0.25820   40.84780   28.26350    9.26930   51.06460
 1615.00000   61.44060    2.13410    2.40800    0.00240  141.11020   80.11960  217.03950    0.27270    0.24400   40.85540   25.80100    9.26330   45.95140
 1615.50000   51.45200    2.13910    2.42610    0.00240  133.40880   77.02410  215.35470    0.26920    0.23130   41.85240   37.19120    9.25710   46.28530
 1616.00000   43.31070    2.29970    2.44720    0.00180  126.70170   73.35520  211.84420    0.28250    0.21290   53.30690   60.43970    9.24810   53.92360
 1616.50000   39.07540    2.51070    2.49610   -0.00020  122.21940   71.46500  210.25370    0.28770    0.18850   73.15080   68.00390    9.23540   75.46240
 1617.00000   44.89180    2.51740    2.54800   -0.00310  123.73850   70.73830  210.96920    0.25940    0.16030   82.86440  965.58560    9.22290   88.47970
 1617.50000   54.76420    2.42110    2.55660   -0.00550  124.62800   70.99790  210.97460    0.22180    0.16160   67.50890  608.71580    9.22550   75.46430
 1618.00000   65.87450    2.29590    2.51390   -0.00580  125.76330   73.11860  211.77880    0.20830    0.18740   56.17800   30.14520    9.21390   60.33240
 1618.50000   74.42420    2.23780    2.46810   -0.00630  129.34460   75.37990  212.80600    0.22330    0.20960   46.74890   31.81740    9.20260   49.87620
 1619.00000   77.73110    2.28010    2.44920   -0.00850  132.75340   77.14650  212.86900    0.23410    0.21830   41.01410   55.71620    9.19850   43.06890
 1619.50000   79.61360    2.35880    2.45560   -0.01220  135.40290   76.93470  212.87570    0.23240    0.21010   37.57840   47.39640    9.20110   40.38870
 1620.00000   80.19670    2.45540    2.48240   -0.01470  135.15560   76.79120  212.67620    0.23000    0.19630   34.18260   32.26960    9.20370   38.59670
 1620.50000   78.38820    2.48470    2.51760   -0.01570  134.98200   76.91470  212.60940    0.23330    0.17720   29.75340   22.77120    9.21060   36.39940
 1621.00000   77.40210    2.43850    2.52980   -0.01410  138.22440   77.92000  212.81800    0.23840    0.17140   26.67330   20.72330    9.22430   33.48080
 1621.50000   77.61010    2.41820    2.52030   -0.01110  141.75580   79.02730  213.42030    0.23620    0.17790   25.25690   19.34000    9.22250   31.81340
 1622.00000   77.29850    2.52030    2.50190   -0.01130  141.12260   79.28410  214.07900    0.24060    0.18730   23.39380   24.32080    9.20860   29.64000
 1622.50000   71.39470    2.65820    2.50490   -0.01290  135.01450   78.11320  213.68980    0.25240    0.18750   21.56730   31.35430    9.18790   27.59650
 1623.00000   64.56820    2.68770    2.51800   -0.01860  130.67780   76.03620  212.71010    0.26800    0.17860   21.22990   17.58180    9.17440   26.67860
 1623.50000   60.20290    2.55090    2.53580   -0.02130  128.02640   74.79650  210.25660    0.27040    0.16830   22.56350   14.38030    9.16530   27.49270
 1624.00000   60.41460    2.42580    2.54510   -0.01890  124.17810   72.48260  209.38320    0.25750    0.16240   25.00650   26.52090    9.15880   28.91320
 1624.50000   61.90400    2.47450    2.55530   -0.01250  120.70340   70.08780  210.19540    0.23790    0.15730   31.13630  174.40090    9.15710   37.01020
 1625.00000   59.47030    2.65510    2.56680   -0.00720  119.48580   69.39610  210.39300    0.23590    0.15030   38.76860   25.31260    9.12290   47.51620
 1625.50000   56.80630    2.82270    2.58150   -0.00980  120.28170   69.68600  210.27440    0.23420    0.14200   42.61280   27.37850    9.09220   53.51970
 1626.00000   57.76780    2.84400    2.59080   -0.00840  121.01220   69.36410  210.27780    0.21860    0.13670   38.02380  216.38480    9.10020   48.45570
 1626.50000   59.30180    2.81580    2.59250   -0.00600  121.34030   69.72790  210.28120    0.20840    0.13610   29.98490  125.52730    9.14480   38.72460
 1627.00000   57.25680    2.72830    2.57950    0.00320  121.70050   69.77430  211.45220    0.22040    0.14250   24.09820   18.33080    9.13460   30.95710
 1627.50000   53.75890    2.58720    2.55130    0.00840  122.36270   69.68070  213.29780    0.23260    0.16000   23.41960   11.73100    9.10200   29.36640
 1628.00000   56.18530    2.32040    2.50050    0.01210  123.97650   69.54360  214.27280    0.22060    0.18720   29.61840   67.34150    9.06020   34.64610
 1628.50000   64.23430    2.25480    2.45510    0.01640  125.91310   70.23420  213.46760    0.19980    0.21720   39.27050  593.53080    9.04690   46.97000
 1629.00000   71.67310    2.23100    2.41870    0.02110  130.86240   71.45600  213.86600    0.19630    0.23720   51.67230   51.69060    9.07380   58.85840
 1629.50000   72.36430    2.26310    2.40400    0.02360  132.24450   73.96230  213.96190    0.21380    0.24370   54.24470   28.37780    9.13220   68.69450
 1630.00000   68.80940    2.28830    2.41260    0.02150  128.67140   73.46340  214.88850    0.23010    0.24090   56.94300   54.28350    9.20070   71.04810
 1630.50000   61.42440    2.33180    2.42530    0.01680  126.30690   70.82710  214.80670    0.23730    0.23030   61.25050   63.96960    9.24960   77.73300
 1631.00000   53.87170    2.39060    2.45840    0.01560  122.16180   68.53600  214.62060    0.22790    0.20840   72.52620   68.07090    9.25830   97.78100
 1631.50000   49.95590    2.40170    2.48500    0.01390  118.85200   67.98520  215.05440    0.21380    0.19730   85.09730   80.21290    9.26790  126.55420
