~Version ---------------------------------------------------
VERS.   2.0 : CWLS log ASCII Standard -VERSION 2.0
WRAP.    NO : One line per depth step
DLM . SPACE : Column Data Section Delimiter
~Well ------------------------------------------------------
STRT .F                  72.0 : START DEPTH
STOP .F                1774.0 : STOP DEPTH
STEP .F                   0.5 : STEP
NULL .               -9999.25 : NULL VALUE
COMP .                        : COMPANY
WELL .                        : WELL
FLD  .                        : FIELD
LOC  .                        : LOCATION
PROV .                        : PROVINCE
CNTY .                        : COUNTY
STAT .                        : STATE
CTRY .                        : COUNTRY
SRVC .                        : SERVICE COMPANY
DATE .                        : DATE
UWI  .                        : UNIQUE WELL ID
API  .                        : API NUMBER
SLAT .WGS84 1.079064556651396 : SURFACE LATITUDE
SLON .WGS84 6.589844035067003 : SURFACE LONGITUDE
DATUM.F               2776.21 : DEPTH DATUM ELEV
~Curve Information -----------------------------------------
DEPT.F     : 1 MEASURED DEPTH
GRD .GAPI  : GAMMA RAY FROM DENSITY LOG
PEF .B/E   : PHOTOELECTRIC FACTOR
RHOB.G/C3  : BULK DENSITY
DRHO.G/C3  : BULK DENSITY CORRECTION
DTSM.US/F  : DELTA-T SHEAR
DTCO.US/F  : DELTA-T COMPRESSIONAL
DTST.US/F  : DELTA-T STONELEY - MONOPOLE STONELEY
NPHI.DEC   : NEUTRON POROSITY
DPHI.DEC   : DENSITY POROSITY
LLD .OHMM  : LATEROLOG DEEP RESISTIVITY
MSFL.OHMM  : MICRO SPHERICALLY FOCUSED RESISTIVITY
CALR.IN    : CALIPER FROM RESISTIVITY LOG
LLS .OHMM  : LATEROLOG SHALLOW RESISTIVITY
~Params ----------------------------------------------------
~Other -----------------------------------------------------
~ASCII -----------------------------------------------------
# ...
 1268.00000   65.18260    3.00600    2.51360    0.02420  164.34760   83.23550  195.01680    0.28980    0.17380    9.32130    6.68710   11.19070    9.23750
 1268.50000   64.92150    2.72630    2.46990    0.00450  160.76150   83.01560  195.01710    0.29110    0.19410    9.92600    4.98840   11.21920    9.39680
 1269.00000   63.22970    2.39180    2.38740    0.00370  161.77140   85.81150  192.64070    0.30040    0.26440   10.05980    3.68920   11.28940    9.43520
 1269.50000   59.51970    2.09230    2.19200    0.00710  164.49310   88.13090  192.20550    0.30460    0.43500    9.86950    4.95340   11.37650    8.66840
 1270.00000   55.79560    1.89010    2.08550    0.00660  168.28990   90.19910  192.37900    0.32290    0.47180    8.10710    3.13830   11.46420    7.85330
 1270.50000   51.96880    1.90320    2.00040   -0.00110  170.77020   92.32300  192.37760    0.35550    0.50570    6.87470    0.99090   11.40800    7.11480
 1271.00000   49.02840    2.29780    2.02110   -0.01560  166.45960   94.27850  193.03470    0.39060    0.47740    5.88590    0.60380   11.31790    6.47380
 1271.50000   43.66620    2.79680    2.24650   -0.02110  148.54760   94.69820  194.69460    0.37940    0.32280    5.63410    2.21450   11.24110    6.46640
 1272.00000   35.67920    3.38010    2.47610   -0.00280  124.08510   88.07140  198.09320    0.32310    0.19170    5.97030    4.43870   11.10860    7.55080
 1272.50000   25.79440    3.97570    2.74440    0.01190  109.20830   72.53290  204.32530    0.22810    0.05670   10.51250  103.61080   10.91420   12.75230
 1273.00000   19.17340    4.28700    2.83170    0.01400  106.91590   62.87880  208.52200    0.11950    0.00080   19.27250  214.25030   10.71350   25.96310
 1273.50000   15.14060    4.37770    2.87780    0.00760  105.96200   59.04210  208.53590    0.04580   -0.02920   38.37450  143.35970   10.53220   43.66840
 1274.00000   14.06700    4.23000    2.88430    0.00210  105.98340   57.96080  204.93160    0.02580   -0.03400   54.14440   51.95230   10.47570   62.22400
 1274.50000   13.82450    3.90400    2.88020   -0.00380  106.02170   57.90530  201.87720    0.02630   -0.03090   67.30960   61.15140   10.42460   69.10770
 1275.00000   13.89940    3.94690    2.87740   -0.00670  105.81070   57.87590  199.84390    0.03290   -0.03070   62.91130   52.10490   10.37930   64.95910
 1275.50000   13.24060    4.17590    2.88220   -0.00710  103.45410   56.86600  199.16570    0.03230   -0.03300   62.02850   57.72600   10.33910   63.17320
 1276.00000   10.82920    4.77960    2.89110   -0.00960  100.78570   56.15790  199.02110    0.02480   -0.03950   65.93440   64.19370   10.28240   72.07970
 1276.50000    8.28950    5.14030    2.90540   -0.01160   98.53460   54.18240  199.06440    0.01430   -0.04590   84.49440  162.83950   10.22140   93.77590
 1277.00000    6.73080    4.92330    2.91910   -0.01510   96.29960   52.60400  199.24140    0.00480   -0.05280  121.98560 1865.68980   10.17900  173.76240
 1277.50000    6.23750    4.48600    2.93360   -0.01680   94.06460   51.40390  198.58530   -0.00260   -0.06150  371.77490 2003.70540   10.14340  502.29510
 1278.00000    5.92750    4.53080    2.94520   -0.01660   92.21760   50.22030  198.03470   -0.00410   -0.07010  848.73330 2000.84410   10.10500 1181.95280
 1278.50000    5.88210    4.93330    2.95550   -0.01400   91.48080   50.05660  198.10990   -0.00340   -0.07430 1984.66210 1997.98710   10.06700 2035.67270
 1279.00000    6.57230    5.05470    2.94870   -0.01160   90.97310   50.06960  198.89720   -0.00030   -0.07070 2851.36840 1995.13390   10.05330 2036.04150
 1279.50000    7.98070    4.54170    2.92450   -0.01240   90.57420   50.07920  198.72330    0.00390   -0.05610 2982.08960 1992.28490   10.03950 2036.41150
 1280.00000    9.01730    4.04090    2.89550   -0.01700   90.57130   50.08890  197.86760    0.01100   -0.03780 2896.16280 1989.43900   10.02580 2036.78050
 1280.50000   10.51320    3.57510    2.86110   -0.02050   90.56850   50.09860  197.17940    0.01920   -0.01760 2538.23580 1986.59800   10.01210 2037.14950
 1281.00000   11.88530    3.35220    2.83190   -0.01970   91.16380   50.10110  198.99030    0.03600   -0.00140 1481.72310 1983.76120   10.00330 1737.09020
 1281.50000   14.56770    3.34220    2.81490   -0.01490   92.21190   50.44140  198.28150    0.06400    0.00650  563.49840 1816.50200   10.00700  823.31220
 1282.00000   18.99550    3.60300    2.81420   -0.00910   96.01930   52.92040  198.75960    0.08430    0.00710  210.30780  282.32160   10.01060  313.26670
 1282.50000   26.06970    3.92930    2.81000   -0.00690  100.64950   54.86840  201.26040    0.08440    0.00890   89.43030  202.52520   10.02540  113.45050
 1283.00000   33.13580    3.74240    2.77010   -0.00710  106.79540   58.29850  203.94790    0.08110    0.02710   54.16840  193.17760   10.05070   65.99460
 1283.50000   39.34240    3.32330    2.68900   -0.00740  110.93330   62.44170  205.28330    0.08680    0.07790   32.81010   32.26440   10.07590   39.97350
 1284.00000   42.66760    3.02750    2.63750   -0.00680  114.75490   65.28400  205.21910    0.10500    0.11170   19.87320   21.00450   10.10950   24.21230
 1284.50000   43.85420    2.97750    2.60840   -0.00260  117.85370   66.94200  205.13420    0.12770    0.12590   14.01610   17.26440   10.14700   14.69640
 1285.00000   43.01480    3.06070    2.62680   -0.00480  116.60760   66.77210  205.30020    0.13460    0.11730   13.28550   16.72910   10.12680   13.73220
 1285.50000   41.02240    3.21050    2.65980   -0.00840  112.32640   64.51240  203.88370    0.12520    0.09640   15.38990   39.80710   10.09760   17.13030
 1286.00000   37.35510    3.37670    2.68670   -0.01030  103.86160   60.05050  202.23650    0.11430    0.07910   20.15530   34.89950   10.07940   23.11480
 1286.50000   29.43400    3.54620    2.72070   -0.01000   99.44570   56.64070  201.52120    0.09860    0.06270   31.22750   35.72510   10.06060   37.93650
 1287.00000   22.02540    3.72520    2.76720   -0.00950   97.27530   54.58410  200.82490    0.08490    0.03730   51.17730   76.90750   10.04180   65.23090
 1287.50000   16.58390    3.97700    2.81700   -0.00800   95.04520   53.16200  201.13490    0.06480    0.00580  124.12730 1696.98460   10.02290  187.18670
 1288.00000   13.68500    4.38240    2.86490   -0.01000   93.66480   51.99760  201.13570    0.03870   -0.02530  351.13190 1756.78860   10.03010  526.69800
 1288.50000   12.73440    4.78680    2.90170   -0.01340   92.37620   51.24200  201.40610    0.01580   -0.04480  927.89390 1532.83650   10.04590 1310.12190
 1289.00000   12.61700    4.86090    2.91610   -0.01750   92.24910   51.10110  202.57910    0.00620   -0.05210 2003.08840 1862.85690   10.06170 2040.58350
 1289.50000   12.71930    4.84280    2.91430   -0.01760   93.99100   51.50160  203.29440    0.00150   -0.05080 2109.23320 1977.58190   10.07900 2052.83740
 1290.00000   13.97210    4.99780    2.91000   -0.01580   94.40810   51.66130  202.80510    0.00100   -0.04860 1910.63310 1968.28450   10.12520 2053.70310
 1290.50000   16.16740    5.24010    2.91060   -0.01470   93.98180   51.71290  202.70350    0.00070   -0.04870 1539.51490 1959.02990   10.15800 1676.80760
 1291.00000   19.68350    5.17010    2.91000   -0.01570   93.23680   52.80700  202.69060    0.00150   -0.04820  842.46880 1752.00670   10.17270 1066.74050
 1291.50000   24.49560    4.78520    2.89420   -0.01700   95.13270   53.55730  202.69800    0.00380   -0.03930  501.85470  628.24190   10.18680  632.09520
 1292.00000   30.47870    4.18070    2.85000   -0.01740   97.95140   55.38550  203.11740    0.01040   -0.01070  287.12280  369.82720   10.21690  353.23070
 1292.50000   38.07000    3.74240    2.77910   -0.01530  101.83510   57.80340  205.06160    0.02350    0.02510  128.19060  883.57090   10.25770  181.41210
 1293.00000   45.34780    3.46030    2.69660   -0.01390  108.71130   60.64430  207.90400    0.05410    0.07650   52.05020   53.55230   10.30620   73.65330
 1293.50000   48.06640    3.21720    2.61730   -0.01230  115.25560   64.19520  211.98940    0.08450    0.12260   28.56070   22.84600   10.37540   32.60990
