~Version ---------------------------------------------------
VERS.   2.0 : CWLS log ASCII Standard -VERSION 2.0
WRAP.    NO : One line per depth step
DLM . SPACE : Column Data Section Delimiter
~Well ------------------------------------------------------
STRT .F                  72.0 : START DEPTH
STOP .F                1774.0 : STOP DEPTH
STEP .F                   0.5 : STEP
NULL .               -9999.25 : NULL VALUE
COMP .                        : COMPANY
WELL .                        : WELL
FLD  .                        : FIELD
LOC  .                        : LOCATION
PROV .                        : PROVINCE
CNTY .                        : COUNTY
STAT .                        : STATE
CTRY .                        : COUNTRY
SRVC .                        : SERVICE COMPANY
DATE .                        : DATE
UWI  .                        : UNIQUE WELL ID
API  .                        : API NUMBER
SLAT .WGS84 1.079064556651396 : SURFACE LATITUDE
SLON .WGS84 6.589844035067003 : SURFACE LONGITUDE
DATUM.F               2776.21 : DEPTH DATUM ELEV
~Curve Information -----------------------------------------
DEPT.F     : 1 MEASURED DEPTH
GRD .GAPI  : GAMMA RAY FROM DENSITY LOG
PEF .B/E   : PHOTOELECTRIC FACTOR
RHOB.G/C3  : BULK DENSITY
DRHO.G/C3  : BULK DENSITY CORRECTION
DTSM.US/F  : DELTA-T SHEAR
DTCO.US/F  : DELTA-T COMPRESSIONAL
DTST.US/F  : DELTA-T STONELEY - MONOPOLE STONELEY
NPHI.DEC   : NEUTRON POROSITY
DPHI.DEC   : DENSITY POROSITY
LLD .OHMM  : LATEROLOG DEEP RESISTIVITY
MSFL.OHMM  : MICRO SPHERICALLY FOCUSED RESISTIVITY
CALR.IN    : CALIPER FROM RESISTIVITY LOG
LLS .OHMM  : LATEROLOG SHALLOW RESISTIVITY
~Params ----------------------------------------------------
~Other -----------------------------------------------------
~ASCII -----------------------------------------------------
# ...
 1450.00000   22.78590    3.98490    2.83990   -0.01450   96.14040   51.68090  204.45170    0.04080   -0.01440  364.32570  245.61640    9.90840  743.41500
 1450.50000   17.65250    4.55030    2.88330   -0.01770   96.95710   51.77870  202.92130    0.03030   -0.03250  260.54880  263.50220    9.94350  341.21950
 1451.00000   13.08590    4.76210    2.92310   -0.02040   97.57590   51.07580  202.92510    0.01460   -0.05980  293.53890 1664.77730    9.97870  365.00200
 1451.50000   11.36660    5.03470    2.95650   -0.02100   97.65410   51.20230  203.03910    0.00410   -0.07430  389.89750 1056.26920   10.01380  478.19810
 1452.00000   12.39950    5.18200    2.96210   -0.02100   97.54840   51.42660  203.10240   -0.00070   -0.07900  529.99880 1979.62830   10.04870  673.83740
 1452.50000   14.37640    5.02410    2.95750   -0.01950   97.50160   51.66950  202.98190   -0.00200   -0.07560  481.76190 1334.77030   10.07990  620.98900
 1453.00000   14.99360    4.54480    2.94800   -0.01880   97.35890   51.23480  202.90510   -0.00150   -0.07030  418.72920  301.75990   10.11120  532.46950
 1453.50000   13.64850    4.26990    2.94710   -0.01710   96.79140   51.21570  202.91350   -0.00110   -0.06970  415.01330  129.19800   10.15450  497.21490
 1454.00000   11.82280    4.72900    2.95450   -0.01630   96.21180   50.12820  202.92990   -0.00160   -0.07420  529.96010  539.36040   10.19260  609.93540
 1454.50000   10.47630    5.43470    2.96280   -0.01650   95.98490   50.39470  203.11580   -0.00260   -0.07800  736.69080 1438.42100   10.27190  893.40890
 1455.00000   11.48930    5.57830    2.95130   -0.01840   96.08910   51.11010  203.16820   -0.00220   -0.07140 1154.19960 2004.52720   10.33690 1220.97460
 1455.50000   14.69940    5.02760    2.92020   -0.01920   97.47110   52.17030  203.16950    0.00020   -0.05230 1132.14090 1998.20860   10.39900 1192.12570
 1456.00000   17.23540    4.63800    2.89910   -0.01770   99.23130   53.20930  203.20180    0.00680   -0.04200  655.17580 1564.86320   10.45690  838.98090
 1456.50000   18.33900    4.52720    2.89900   -0.01440   99.99470   54.00520  203.67500    0.01280   -0.04110  368.02730  254.53650   10.50730  471.25730
 1457.00000   17.35690    4.66250    2.90620   -0.01420  101.05480   54.71940  203.89430    0.01780   -0.04600  277.94830  239.65420   10.55730  296.05320
 1457.50000   16.72970    4.65570    2.90810   -0.01450  101.90050   54.61410  203.94070    0.01610   -0.04750  265.17920  384.34570   10.61960  271.34210
 1458.00000   17.59770    4.60750    2.90660   -0.01430  101.93460   54.64130  204.26550    0.01390   -0.04740  276.25740  801.21000   10.64010  284.66450
 1458.50000   19.28150    4.61310    2.90500   -0.01360  101.65060   54.73570  204.32860    0.01270   -0.04590  288.57180  274.86160   10.67150  295.01520
 1459.00000   20.21810    4.66910    2.89920   -0.01580  101.24190   54.92200  203.79170    0.01160   -0.04370  282.94920  667.04350   10.70360  291.66150
 1459.50000   20.33790    4.73190    2.88860   -0.01700  100.84210   54.76690  203.67650    0.01120   -0.03780  268.55810  242.36760   10.72860  276.82570
 1460.00000   19.69700    4.84700    2.88310   -0.01530  100.49810   53.63970  203.02410    0.01060   -0.03370  272.46790  212.31260   10.75440  280.35980
 1460.50000   17.75100    4.95530    2.88060   -0.01270  100.24030   53.15690  202.93180    0.01020   -0.03200  285.41230  465.35790   10.77260  295.42070
 1461.00000   15.44060    4.99340    2.87820   -0.01130  100.19410   53.13190  202.92830    0.01030   -0.03020  308.69500  952.10980   10.77020  319.29750
 1461.50000   14.38140    5.03150    2.87290   -0.01120   98.87770   53.09980  202.78460    0.01010   -0.02760  328.40200  234.24210   10.79980  343.21540
 1462.00000   13.91200    5.09820    2.87070   -0.01450   98.53820   53.04880  201.76850    0.00940   -0.02550  373.79440 1314.07640   10.84010  401.36610
 1462.50000   13.67500    5.37650    2.87430   -0.01870   98.46130   52.75050  201.47050    0.00720   -0.02710  437.12910  832.19050   10.88040  472.55310
 1463.00000   12.41940    5.42940    2.89260   -0.02330   97.93560   52.54190  201.50370    0.00510   -0.03610  523.41260 1608.17180   10.88770  568.94680
 1463.50000   11.35100    5.17510    2.91430   -0.02500   98.16840   52.95720  201.08180    0.00270   -0.04830  630.16310 1914.93520   10.90040  711.19710
 1464.00000   11.56080    4.87580    2.92130   -0.02390   98.85100   53.04750  201.48920    0.00190   -0.05610  712.39950 1936.14640   10.91450  808.88320
 1464.50000   13.34860    4.52270    2.92210   -0.02110   99.45240   53.12910  201.75650    0.00260   -0.05570  635.19240 1751.30370   10.93050  751.36080
 1465.00000   14.45050    4.54980    2.92040   -0.01960   99.55490   53.10210  201.82060    0.00400   -0.05470  471.14060 1513.11780   10.94640  537.43760
 1465.50000   14.18810    4.61780    2.92180   -0.01830   99.14940   52.70220  201.42710    0.00450   -0.05550  349.45880  134.09500   10.96240  398.64330
 1466.00000   12.82470    4.59300    2.92510   -0.01720   98.08480   52.06240  200.65900    0.00360   -0.05740  329.35510  182.07070   10.97830  336.10520
 1466.50000   12.02220    4.44540    2.93090   -0.01730   96.47520   51.73080  201.01780    0.00230   -0.06040  330.81880 1835.38500   10.98210  370.19570
 1467.00000   12.13780    4.49860    2.93840   -0.01840   96.18780   51.07630  201.73030    0.00080   -0.06490  469.55130 1744.88830   10.98930  565.31590
 1467.50000   13.68310    4.78190    2.94730   -0.02030   97.15270   51.17460  202.10250    0.00100   -0.06910  719.33780 1964.99910   11.00600  871.87170
 1468.00000   16.65940    5.01080    2.94390   -0.02320   97.95720   51.77460  202.56450    0.00180   -0.06900 1032.90700 1940.45480   11.02270 1060.07010
 1468.50000   20.08550    5.10560    2.92850   -0.02470   97.82810   52.37940  202.93210    0.00270   -0.05990  919.01100 1032.24550   11.03380 1051.95280
 1469.00000   20.86920    4.95920    2.91110   -0.02460   99.58840   53.03390  202.90430    0.00420   -0.05030  399.60650 1059.08650   11.03000  583.22610
 1469.50000   20.24740    4.73860    2.90290   -0.02470  101.16270   53.80350  202.87770    0.00580   -0.04430  238.07660   70.52720   11.02620  281.18880
 1470.00000   21.08710    4.38550    2.88820   -0.02440  101.42690   54.70080  202.82770    0.00740   -0.03470  224.97120  284.32240   11.02240  232.70870
 1470.50000   24.41370    4.11390    2.84900   -0.02320  101.87150   55.08570  202.53680    0.01020   -0.01720  191.46670  819.73490   11.01850  201.85280
 1471.00000   27.40290    4.12750    2.81040   -0.01820  101.89410   54.68880  201.95790    0.01890    0.00870  170.96100  625.80690   11.01470  180.23560
 1471.50000   27.73010    4.33250    2.80870   -0.01750  102.06280   54.80880  202.12820    0.02710    0.01030  152.65140   80.52290   11.01090  162.08310
 1472.00000   26.51780    4.41820    2.83790   -0.01940  102.77350   54.95450  202.56920    0.03200   -0.00270  146.35980   87.58120   11.00710  156.62640
 1472.50000   25.07300    4.17340    2.85390   -0.02130  102.84010   55.24540  202.94130    0.03110   -0.01450  152.20740  201.01700   11.00320  168.66880
 1473.00000   25.90740    3.77640    2.85300   -0.02130  105.17280   56.19640  203.09210    0.02870   -0.01580  165.10770  372.18210   10.99450  181.63720
 1473.50000   28.82740    3.54830    2.83850   -0.01920  106.77480   56.89270  203.84610    0.03350   -0.00930  163.84570  225.28500   10.97050  193.06890
 1474.00000   30.08860    3.61040    2.83410   -0.01710  106.13130   56.94920  203.87670    0.04690   -0.00430  140.33030   73.09190   10.94650  160.96420
 1474.50000   27.40800    3.87620    2.84620   -0.01580  103.02630   56.79290  203.87020    0.05230   -0.01000  150.12980  163.00170   10.92340  156.94920
 1475.00000   20.60060    4.19250    2.88240   -0.01440  101.16180   55.97830  203.48370    0.04470   -0.02910  142.45120  114.17810   10.90620  151.54330
 1475.50000   15.03470    4.62640    2.91880   -0.01310  101.55460   55.03550  202.81030    0.02510   -0.05370  169.79290  290.40990   10.88900  198.66500
