~Version ---------------------------------------------------
VERS.   2.0 : CWLS log ASCII Standard -VERSION 2.0
WRAP.    NO : One line per depth step
DLM . SPACE : Column Data Section Delimiter
~Well ------------------------------------------------------
STRT .F                  72.0 : START DEPTH
STOP .F                1774.0 : STOP DEPTH
STEP .F                   0.5 : STEP
NULL .               -9999.25 : NULL VALUE
COMP .                        : COMPANY
WELL .                        : WELL
FLD  .                        : FIELD
LOC  .                        : LOCATION
PROV .                        : PROVINCE
CNTY .                        : COUNTY
STAT .                        : STATE
CTRY .                        : COUNTRY
SRVC .                        : SERVICE COMPANY
DATE .                        : DATE
UWI  .                        : UNIQUE WELL ID
API  .                        : API NUMBER
SLAT .WGS84 1.079064556651396 : SURFACE LATITUDE
SLON .WGS84 6.589844035067003 : SURFACE LONGITUDE
DATUM.F               2776.21 : DEPTH DATUM ELEV
~Curve Information -----------------------------------------
DEPT.F     : 1 MEASURED DEPTH
GRD .GAPI  : GAMMA RAY FROM DENSITY LOG
PEF .B/E   : PHOTOELECTRIC FACTOR
RHOB.G/C3  : BULK DENSITY
DRHO.G/C3  : BULK DENSITY CORRECTION
DTSM.US/F  : DELTA-T SHEAR
DTCO.US/F  : DELTA-T COMPRESSIONAL
DTST.US/F  : DELTA-T STONELEY - MONOPOLE STONELEY
NPHI.DEC   : NEUTRON POROSITY
DPHI.DEC   : DENSITY POROSITY
LLD .OHMM  : LATEROLOG DEEP RESISTIVITY
MSFL.OHMM  : MICRO SPHERICALLY FOCUSED RESISTIVITY
CALR.IN    : CALIPER FROM RESISTIVITY LOG
LLS .OHMM  : LATEROLOG SHALLOW RESISTIVITY
~Params ----------------------------------------------------
~Other -----------------------------------------------------
~ASCII -----------------------------------------------------
# ...
 1346.00000    9.02540    4.84760    2.93940   -0.01330  100.09420   55.87490  201.43210    0.00450   -0.05980  111.42830  503.82180   11.42970  135.99020
 1346.50000   10.11560    5.07570    2.93830   -0.01190  100.12980   54.88070  202.28220    0.00510   -0.06260  139.50320  289.75810   11.44930  167.24050
 1347.00000   10.38790    4.82600    2.93710   -0.00990  100.84380   54.28220  202.56340    0.00680   -0.06370  153.97060  219.80750   11.46900  185.33300
 1347.50000   10.39440    4.45380    2.92740   -0.01230  101.69690   54.90700  202.57640    0.00780   -0.05840  144.31270  198.40920   11.48810  182.69090
 1348.00000   10.25450    4.20400    2.91440   -0.01270  101.90900   55.21060  202.96390    0.00940   -0.05080  111.85200  466.30200   11.48220  119.54000
 1348.50000   10.20840    4.07180    2.90640   -0.01260  101.36180   54.34760  203.64070    0.01280   -0.04560   80.51200 1398.00670   11.49570   95.48320
 1349.00000    9.98810    4.22830    2.91210   -0.01020   99.39980   53.30630  203.65290    0.01320   -0.04970   73.38170   47.62270   11.50980   85.14400
 1349.50000    9.67840    4.48750    2.92890   -0.00740  100.95840   53.28100  203.66630    0.01160   -0.05810   74.90100  309.80160   11.52830   88.57440
 1350.00000    9.39720    4.47080    2.93300   -0.00860  102.74460   54.68820  203.84830    0.00690   -0.06170   79.12490 1648.87010   11.56370   97.42370
 1350.50000    9.70430    4.40870    2.91200   -0.00970  106.25340   57.10470  203.76310    0.00370   -0.04950   80.08280 1986.09530   11.57810  100.94370
 1351.00000   10.43640    4.14600    2.86460   -0.00240  107.71660   59.51290  202.25850    0.00560   -0.02910   65.36610  271.54240   11.61090   99.98630
 1351.50000   11.02300    3.93470    2.83250    0.00990  107.40800   60.90940  200.80720    0.02170   -0.00890   51.43100  258.31290   11.65230   67.02090
 1352.00000   10.81030    4.03830    2.83900    0.01940  106.77710   60.21010  199.83380    0.03750   -0.01060   42.05730   99.83410   11.66080   50.98390
 1352.50000   10.38400    4.50740    2.87620    0.01520  106.39690   59.00970  199.98660    0.04540   -0.02810   45.49020   79.59110   11.68300   54.43740
 1353.00000   10.41120    4.80840    2.90740   -0.00380  104.45660   57.30550  200.88910    0.03210   -0.04750   59.03880  534.03920   11.69640   71.43690
 1353.50000   11.61210    4.73930    2.91490   -0.01680  103.50910   56.48510  202.73960    0.01840   -0.05040   76.62280 1389.07650   11.69830   93.74490
 1354.00000   13.90050    4.34070    2.90210   -0.02070  106.61850   57.60580  204.07420    0.01640   -0.04380   92.55910  152.81040   11.70160  110.11130
 1354.50000   17.44950    3.94940    2.87340   -0.02180  108.12230   59.40210  203.99230    0.02080   -0.02470   77.78660  321.42970   11.69850   98.03810
 1355.00000   22.46220    3.78880    2.83280   -0.02260  110.51080   60.67610  203.94590    0.03910    0.00090   61.68490   62.82530   11.70600   73.09880
 1355.50000   24.09210    3.85520    2.79680   -0.02380  110.54100   60.70810  203.94390    0.06250    0.01990   52.32410   45.47380   11.70610   63.77310
 1356.00000   24.46210    4.11440    2.79130   -0.02450  110.23360   60.46560  203.98060    0.07640    0.01980   52.47720   36.48670   11.70630   65.25200
 1356.50000   24.75570    4.26660    2.81170   -0.02480  111.25200   60.37130  203.98980    0.06940    0.00710   55.62520   86.64950   11.70200   67.58640
 1357.00000   26.57930    4.15810    2.82710   -0.02320  113.69800   61.94510  203.95940    0.05890    0.00070   57.07300  865.18600   11.69220   66.20890
 1357.50000   28.96740    3.76110    2.80760   -0.01930  116.19970   63.06970  203.95790    0.06550    0.01470   52.14150   37.38680   11.68910   60.12710
 1358.00000   30.18730    3.57630    2.77390   -0.01420  116.52630   63.62590  203.98870    0.08640    0.03230   45.42410   28.74270   11.67980   54.60400
 1358.50000   29.45390    3.66050    2.76180   -0.00880  116.02870   63.80880  204.12760    0.10580    0.03690   40.72050   54.49780   11.67300   49.58820
 1359.00000   25.57520    4.00400    2.78870   -0.00620  114.33310   63.04430  203.93900    0.10060    0.02080   41.13860   34.39980   11.67580   47.91960
 1359.50000   19.68380    4.27550    2.84160   -0.00660  107.72520   59.27400  203.56230    0.07650   -0.00960   45.76900   37.24060   11.66530   53.07900
 1360.00000   15.15630    4.39090    2.89250   -0.01080  101.82710   55.67690  201.83810    0.04170   -0.03680   68.84560   84.68340   11.65350   81.89870
 1360.50000   12.11010    4.46110    2.92070   -0.01340   98.46410   53.65540  201.55230    0.01380   -0.05470  107.55100  324.51160   11.65650  128.17530
 1361.00000   12.14620    4.43220    2.91770   -0.01540   99.17110   53.39910  202.77410    0.00470   -0.05360  167.83410 1975.10930   11.65190  182.25980
 1361.50000   14.02650    4.35620    2.89100   -0.01570  102.81750   54.20070  202.99250    0.00280   -0.04110  165.67820 1975.10930   11.65980  181.45140
 1362.00000   17.22440    4.28110    2.83670   -0.01490  108.20510   56.92480  203.06530    0.01980    0.00050  134.59270  495.89310   11.66820  146.23990
 1362.50000   20.90790    4.16030    2.75830   -0.01270  113.54750   59.98860  202.96720    0.04990    0.03960   85.14680   62.57060   11.67730  103.67870
 1363.00000   24.15600    3.92360    2.69980   -0.00120  117.61970   62.18850  202.18330    0.07780    0.07260   52.57800  105.20460   11.68510   62.95120
 1363.50000   25.73450    3.80580    2.69430    0.00320  118.15060   63.91390  201.21720    0.10890    0.07390   36.58920   66.21240   11.68590   42.24120
 1364.00000   26.05570    4.03480    2.72330    0.00280  114.94750   65.59420  201.01170    0.11010    0.06240   28.61220    5.62300   11.68360   31.83110
 1364.50000   26.38540    4.24750    2.76820   -0.00530  114.25860   66.30560  201.16970    0.09850    0.03410   28.06020   30.88490   11.68900   31.30510
 1365.00000   27.88810    4.26800    2.77830   -0.01320  115.37750   65.03460  201.83990    0.08720    0.02750   30.67650   30.91560   11.69940   33.09770
 1365.50000   30.15350    4.03360    2.76040   -0.01350  116.09370   65.36910  201.93560    0.08640    0.03570   34.63210   76.89380   11.69600   39.29790
 1366.00000   31.53140    3.82480    2.74630   -0.01250  115.86180   67.11920  202.22340    0.09590    0.04590   39.80100   53.60780   11.65300   46.13660
 1366.50000   31.68530    3.81590    2.75260   -0.01200  114.62270   67.80450  203.08820    0.10570    0.04370   44.94940   56.54070   11.59950   53.13300
 1367.00000   30.32980    4.02680    2.78490   -0.01150  112.70750   66.51180  202.59970    0.10340    0.02360   49.94560   55.01680   11.52640   57.42630
 1367.50000   27.89930    4.19230    2.82330   -0.01140  110.81800   63.72120  201.51020    0.08660   -0.00040   54.52360   99.75770   11.49020   60.30860
 1368.00000   24.35880    4.36260    2.85490   -0.01180  106.91860   60.39410  201.19780    0.05780   -0.01570   65.17780   73.58750   11.46220   69.99210
 1368.50000   20.47570    4.49880    2.88040   -0.01230  103.42470   56.49820  201.78140    0.03170   -0.03110   77.91400   43.16540   11.45710   84.06120
 1369.00000   18.43350    4.50900    2.89320   -0.01850  102.94190   55.71370  202.29670    0.01550   -0.03920   97.24290  109.45710   11.45590  106.87240
 1369.50000   18.23820    4.34050    2.89510   -0.02350  104.47490   57.00090  202.91630    0.01170   -0.04090  119.96860  247.98880   11.45090  123.67920
 1370.00000   19.03510    4.25090    2.88420   -0.02430  108.23690   58.59280  204.07740    0.01620   -0.03320  119.58080  892.03130   11.45370  122.81240
 1370.50000   20.48850    4.22810    2.85740   -0.02320  111.88930   60.18480  204.93100    0.02980   -0.01780   96.57630  124.49280   11.45280  106.19600
 1371.00000   21.48250    4.30380    2.83590   -0.01990  112.30540   60.97460  204.77030    0.04200   -0.00640   75.81640   22.77020   11.43930   83.36910
 1371.50000   21.90100    4.37950    2.83680   -0.01540  111.91840   60.87210  203.77150    0.05160   -0.00680   59.51900   55.22560   11.43400   65.44900
