~Version ---------------------------------------------------
VERS.   2.0 : CWLS log ASCII Standard -VERSION 2.0
WRAP.    NO : One line per depth step
DLM . SPACE : Column Data Section Delimiter
~Well ------------------------------------------------------
STRT .F                  72.0 : START DEPTH
STOP .F                1774.0 : STOP DEPTH
STEP .F                   0.5 : STEP
NULL .               -9999.25 : NULL VALUE
COMP .                        : COMPANY
WELL .                        : WELL
FLD  .                        : FIELD
LOC  .                        : LOCATION
PROV .                        : PROVINCE
CNTY .                        : COUNTY
STAT .                        : STATE
CTRY .                        : COUNTRY
SRVC .                        : SERVICE COMPANY
DATE .                        : DATE
UWI  .                        : UNIQUE WELL ID
API  .                        : API NUMBER
SLAT .WGS84 1.079064556651396 : SURFACE LATITUDE
SLON .WGS84 6.589844035067003 : SURFACE LONGITUDE
DATUM.F               2776.21 : DEPTH DATUM ELEV
~Curve Information -----------------------------------------
DEPT.F     : 1 MEASURED DEPTH
GRD .GAPI  : GAMMA RAY FROM DENSITY LOG
PEF .B/E   : PHOTOELECTRIC FACTOR
RHOB.G/C3  : BULK DENSITY
DRHO.G/C3  : BULK DENSITY CORRECTION
DTSM.US/F  : DELTA-T SHEAR
DTCO.US/F  : DELTA-T COMPRESSIONAL
DTST.US/F  : DELTA-T STONELEY - MONOPOLE STONELEY
NPHI.DEC   : NEUTRON POROSITY
DPHI.DEC   : DENSITY POROSITY
LLD .OHMM  : LATEROLOG DEEP RESISTIVITY
MSFL.OHMM  : MICRO SPHERICALLY FOCUSED RESISTIVITY
CALR.IN    : CALIPER FROM RESISTIVITY LOG
LLS .OHMM  : LATEROLOG SHALLOW RESISTIVITY
~Params ----------------------------------------------------
~Other -----------------------------------------------------
~ASCII -----------------------------------------------------
# ...
 1216.00000   47.88950    3.29300    2.55400   -0.00090  152.91850   81.58490  209.41830    0.21390    0.15750   15.59940    6.99890   11.43290    7.57210
 1216.50000   46.81560    3.39970    2.55470   -0.00130  154.15280   81.98600  209.56800    0.22400    0.15770   14.72790    6.48630   11.42430    7.07100
 1217.00000   47.27620    3.43380    2.55890   -0.00390  153.79850   82.06610  208.99910    0.23510    0.15520   14.13140    6.18710   11.42570    6.76840
 1217.50000   50.71720    3.34770    2.56050   -0.00960  151.11710   81.72510  208.33630    0.24350    0.15400   13.83630    8.30180   11.42290    6.73160
 1218.00000   53.90330    3.22430    2.55330   -0.00960  148.74010   80.60050  208.79230    0.24480    0.15850   13.73000    7.21620   11.41820    6.72060
 1218.50000   56.03060    3.12730    2.54280   -0.00720  146.59000   78.34870  208.70130    0.24420    0.16430   14.03800    5.92450   11.42210    6.82720
 1219.00000   57.12770    3.09560    2.53410   -0.00580  145.60090   76.40200  207.44070    0.23330    0.16930   15.09730    5.59460   11.41520    7.43570
 1219.50000   57.60190    3.01790    2.51650   -0.00580  144.57280   75.05270  206.43340    0.19940    0.17830   17.11030    7.53770   11.40990    8.18150
 1220.00000   58.52370    2.91760    2.49430   -0.00520  144.71010   75.04190  208.57890    0.17570    0.19360   18.87980   13.09200   11.42040    9.00210
 1220.50000   60.29380    2.82470    2.47060   -0.00440  145.99820   75.83440  211.29140    0.18870    0.20670   19.43960   10.79340   11.45430    9.37350
 1221.00000   62.06710    2.83380    2.46230   -0.00500  148.81210   77.98510  211.52960    0.21560    0.21080   17.79330    6.65100   11.48170    8.47010
 1221.50000   62.22560    2.85230    2.46260   -0.00790  151.30400   79.33810  209.76290    0.23580    0.21030   15.58890    4.93610   11.44540    7.35550
 1222.00000   59.96570    2.88270    2.46730   -0.00770  150.46060   78.16640  207.81440    0.24740    0.20880   14.64190    4.75200   11.37840    6.92980
 1222.50000   57.20230    2.94200    2.48200   -0.00540  145.67530   75.71240  207.85990    0.25450    0.19930   14.76120    5.42340   11.33210    6.88680
 1223.00000   53.65520    3.05820    2.51870   -0.00200  139.75540   73.51930  205.67300    0.25420    0.18170   16.93380    5.55190   11.30200    7.52300
 1223.50000   48.94190    3.10890    2.56710   -0.00100  135.05440   71.32010  202.16480    0.22940    0.15320   20.83310    7.98040   11.29130    9.25900
 1224.00000   46.03310    3.00840    2.60090    0.00410  128.30460   69.59250  200.72520    0.17970    0.13190   26.86930   18.65920   11.29170   11.44120
 1224.50000   45.53730    2.85870    2.60580    0.01230  120.61490   64.84400  201.44710    0.12730    0.12910   34.42540   38.66200   11.29640   13.37180
 1225.00000   48.30110    2.83160    2.57850    0.01440  116.66970   63.38260  206.24420    0.10250    0.14370   39.84290   21.84960   11.30080   15.03360
 1225.50000   51.23990    2.80980    2.53360    0.01130  119.09160   65.07070  213.92120    0.11710    0.17210   40.02080   15.16270   11.30800   14.96790
 1226.00000   53.82870    2.75060    2.49120    0.00750  113.77120   62.59490  215.50220    0.12970    0.19210   36.41880   13.99400   11.31520   13.77620
 1226.50000   56.09470    2.60990    2.45690    0.01800  100.55630   55.42360  214.93210    0.15020    0.21090   30.01110   12.39780   11.32730   11.54140
 1227.00000   58.84110    2.48380    2.42810    0.03400   93.05790   47.89650  216.73230    0.17660    0.22940   24.27330   10.95660   11.28140    9.66910
 1227.50000   60.60640    2.50420    2.42080    0.04500   88.65540   45.59700  220.12730    0.21540    0.23630   19.86200   11.05320   11.16750    8.52810
 1228.00000   57.61240    3.07650    2.46640    0.03320   88.83470   46.10340  220.25320    0.25090    0.21070   17.08180  147.04300   10.93370    5.03900
 1228.50000   51.70410    5.87780    2.55860   -0.02530   92.39390   48.73100  220.26640    0.28140    0.16220   16.09590  222.16100   10.56120    2.30760
 1229.00000   44.81320    9.97530    2.66500   -0.05060   99.10910   52.30450  222.27730    0.25920    0.10270   10.98410    5.52940    9.79550    0.59060
 1229.50000   41.53620    9.99640    2.70640   -0.05060  103.69700   54.57450  224.46690    0.20940    0.07330    5.00910    0.20670    9.17630    0.21900
 1230.00000   41.59190   10.00280    2.69700   -0.05060  107.40560   57.01270  224.89990    0.17610    0.07390    2.90070    0.25330    9.07240    0.20110
 1230.50000   42.15890   10.00930    2.66910   -0.05060  109.73820   58.21000  225.88170    0.17660    0.08790   12.47750    0.62620    9.04360    0.20110
 1231.00000   43.44460   -9999.25    2.63090   -9999.25  107.92530   57.25360  229.10050    0.19330    0.10890   35.27580    0.46160    9.04500    0.20110
 1231.50000   46.16180   -9999.25    2.60000   -9999.25  106.55210   55.92340  231.65010    0.21720    0.12770   40.62310    0.64880    9.04640    0.20660
 1232.00000   49.03900   -9999.25    2.56390   -9999.25  110.21780   56.01060  234.28700    0.25950    0.14840   40.48020    0.71950    9.05710    0.26470
 1232.50000   51.71840   -9999.25    2.52950   -9999.25  113.61490   56.05030  235.37530    0.28850    0.16950   42.87780    0.70090    9.06280    0.32840
 1233.00000   51.68570   -9999.25    2.52990   -9999.25  115.60010   55.96540  235.27980    0.32170    0.17200   48.74100    0.68930    9.06340    0.34520
 1233.50000   50.43570   -9999.25    2.56200   -9999.25  115.58960   56.04450  235.18440    0.32660    0.15830   40.70320    0.80490    9.06400    0.35040
 1234.00000   48.86900   -9999.25    2.59000   -9999.25  114.51230   56.00850  235.09200    0.31710    0.13890   33.80200    0.62190    9.06440    0.34780
 1234.50000   47.57790   -9999.25    2.60750   -9999.25  112.95980   55.78700  235.23990    0.30620    0.12720   35.43460    0.78020    9.06390    0.34170
 1235.00000   46.56210   -9999.25    2.60960   -9999.25  108.75450   55.04760  235.32040    0.30060    0.12560   38.83410    0.77890    9.06350    0.33550
 1235.50000   46.04190   -9999.25    2.61520   -9999.25  104.12750   54.73730  234.64260    0.28570    0.12130   41.29170    0.66650    9.06300    0.31980
 1236.00000   46.72310   -9999.25    2.60950   -9999.25  101.07220   54.47340  234.12780    0.26070    0.12870   53.23870    0.68050    9.06310    0.29870
 1236.50000   48.43160   -9999.25    2.57440   -9999.25  103.27190   55.47970  233.52860    0.24940    0.14770   73.06600    0.72540    9.05730    0.28150
 1237.00000   51.53160   -9999.25    2.52250   -9999.25  105.73750   55.92340  233.01170    0.27400    0.17290   41.37450    0.76600    9.05590    0.27560
 1237.50000   53.77590   -9999.25    2.48620   -9999.25  105.90610   55.61580  233.87310    0.32270    0.19520   11.58370    0.76810    9.06160    0.31880
 1238.00000   55.32960   -9999.25    2.48000   -9999.25  107.61830   55.00490  234.61530    0.35040    0.20110    6.76900    0.72290    9.06490    0.36320
 1238.50000   56.83020   -9999.25    2.48360   -9999.25  112.20630   56.17860  234.30500    0.37090    0.19840   14.53780    0.75500    9.06570    0.33030
 1239.00000   55.24200   -9999.25    2.50740   -9999.25  131.43650   66.08150  233.04920    0.36570    0.18660   18.40300    0.69430    9.06510    0.27140
 1239.50000   51.91630   -9999.25    2.54090   -9999.25  159.41760   82.74990  231.76760    0.35620    0.16210   19.16820    0.67810    9.05840    0.25680
 1240.00000   48.63940   -9999.25    2.57480   -9999.25  171.17410   90.65950  230.37260    0.35330    0.14610   19.27270    0.65160    9.04630    0.25720
 1240.50000   46.70360   -9999.25    2.59400   -9999.25  166.39410   90.42970  228.37900    0.35190    0.13540   19.20700    0.64180    9.05110    0.25860
 1241.00000   45.40290   -9999.25    2.59030   -9999.25  157.59620   86.13500  225.18150    0.34970    0.13650   18.45920    0.65570    9.06600    0.26390
 1241.50000   44.04320   -9999.25    2.59110   -9999.25  146.87850   81.22830  223.51280    0.33390    0.13600   17.44630    0.67780    9.06600    0.26670
