~Version ---------------------------------------------------
VERS.   2.0 : CWLS log ASCII Standard -VERSION 2.0
WRAP.    NO : One line per depth step
DLM . SPACE : Column Data Section Delimiter
~Well ------------------------------------------------------
STRT .F                  72.0 : START DEPTH
STOP .F                1774.0 : STOP DEPTH
STEP .F                   0.5 : STEP
NULL .               -9999.25 : NULL VALUE
COMP .                        : COMPANY
WELL .                        : WELL
FLD  .                        : FIELD
LOC  .                        : LOCATION
PROV .                        : PROVINCE
CNTY .                        : COUNTY
STAT .                        : STATE
CTRY .                        : COUNTRY
SRVC .                        : SERVICE COMPANY
DATE .                        : DATE
UWI  .                        : UNIQUE WELL ID
API  .                        : API NUMBER
SLAT .WGS84 1.079064556651396 : SURFACE LATITUDE
SLON .WGS84 6.589844035067003 : SURFACE LONGITUDE
DATUM.F               2776.21 : DEPTH DATUM ELEV
~Curve Information -----------------------------------------
DEPT.F     : 1 MEASURED DEPTH
GRD .GAPI  : GAMMA RAY FROM DENSITY LOG
PEF .B/E   : PHOTOELECTRIC FACTOR
RHOB.G/C3  : BULK DENSITY
DRHO.G/C3  : BULK DENSITY CORRECTION
DTSM.US/F  : DELTA-T SHEAR
DTCO.US/F  : DELTA-T COMPRESSIONAL
DTST.US/F  : DELTA-T STONELEY - MONOPOLE STONELEY
NPHI.DEC   : NEUTRON POROSITY
DPHI.DEC   : DENSITY POROSITY
LLD .OHMM  : LATEROLOG DEEP RESISTIVITY
MSFL.OHMM  : MICRO SPHERICALLY FOCUSED RESISTIVITY
CALR.IN    : CALIPER FROM RESISTIVITY LOG
LLS .OHMM  : LATEROLOG SHALLOW RESISTIVITY
~Params ----------------------------------------------------
~Other -----------------------------------------------------
~ASCII -----------------------------------------------------
# ...
 1580.00000   42.77820    3.07550    2.45820   -0.00860  113.02070   62.53280  205.82070    0.35640    0.21370 1385.00430 1986.48570   10.10110 2000.95180
 1580.50000   49.43430    2.98250    2.48150   -0.00960  113.79640   63.90140  205.97940    0.32220    0.20000  277.06500  336.95590   10.08040  324.10920
 1581.00000   55.11930    2.89490    2.49140   -0.01050  114.80610   64.40570  206.05830    0.28810    0.19240  192.89690  167.68400   10.05980  225.64970
 1581.50000   57.28170    2.82660    2.49930   -0.00900  115.53490   65.60110  206.10530    0.28480    0.18810  174.73820   83.49990   10.03910  189.67930
 1582.00000   58.73050    2.76610    2.50720   -0.00720  116.44560   66.52360  206.14500    0.28340    0.18440  177.79670  168.49920   10.01850  190.89300
 1582.50000   60.09170    2.75610    2.51660   -0.00720  117.09660   66.80780  206.48970    0.28010    0.17930  178.40820  237.79350    9.99790  193.31120
 1583.00000   60.14330    2.84450    2.54100   -0.00750  117.37580   65.97510  207.06840    0.27130    0.16560  166.56590   76.70820    9.99220  175.75140
 1583.50000   56.42550    3.02300    2.57000   -0.00710  115.05020   63.88580  206.90840    0.26310    0.14930  145.38140   61.29760    9.98990  154.65460
 1584.00000   50.47860    3.05340    2.58380   -0.00660  111.97460   63.13390  206.21230    0.27020    0.14020  126.89130   68.29680    9.98760  134.98390
 1584.50000   44.89200    2.87950    2.58660   -0.00650  111.03870   63.54620  205.99610    0.27490    0.13900  115.10680   70.51790    9.98700  117.49110
 1585.00000   46.37280    2.60880    2.57250   -0.00740  112.17480   65.54480  206.31900    0.26260    0.14760  113.59620   55.74050    9.95020  116.39280
 1585.50000   51.70870    2.40200    2.54250   -0.00850  113.71030   67.25370  206.75610    0.23460    0.16420  104.89130   39.07620    9.94930  109.60490
 1586.00000   54.68730    2.27940    2.50490   -0.00930  117.30130   68.87830  206.69880    0.20670    0.18780   95.78110   69.44180    9.94830  100.08500
 1586.50000   56.18130    2.19950    2.45900   -0.00970  119.29050   70.16310  207.30340    0.19970    0.21370   90.90290   53.66000    9.95000   91.39200
 1587.00000   56.98650    2.15020    2.43150   -0.01160  121.44700   71.11020  208.82900    0.20240    0.23010   89.58810   47.95160    9.94540   95.13110
 1587.50000   58.42540    2.14850    2.40870   -0.01330  123.47860   73.72860  210.06150    0.20120    0.24180   93.26180   49.19250    9.92560   99.13190
 1588.00000   58.97280    2.15260    2.38160   -0.01510  125.43820   76.36510  211.53090    0.19710    0.25810   96.96630   55.72460    9.91950  101.73570
 1588.50000   59.00150    2.16060    2.35180   -0.01590  129.27980   78.65500  212.95700    0.19750    0.27380   99.06370   33.15240    9.91990   94.96880
 1589.00000   57.37860    2.19720    2.34730   -0.01390  130.94490   78.72950  213.82520    0.20840    0.27920   91.05660   22.33680    9.92030   80.99980
 1589.50000   53.88420    2.22750    2.37430   -0.01170  128.57570   77.79010  213.31690    0.22720    0.26310   83.76630   22.72290    9.91020   71.07420
 1590.00000   48.88590    2.25280    2.43380   -0.01320  123.49260   75.21430  212.46890    0.23550    0.23210   83.30170   21.69850    9.88540   71.01840
 1590.50000   46.33310    2.26370    2.47530   -0.01430  119.32320   73.13640  211.92550    0.23370    0.20660   94.13120   29.56370    9.86130   79.44250
 1591.00000   46.76080    2.23530    2.47650   -0.01350  114.82930   71.77400  211.05610    0.21050    0.20240  109.64560   83.15640    9.84250   86.37900
 1591.50000   49.88210    2.21590    2.45670   -0.00650  110.33550   69.93380  208.83830    0.19010    0.21500  116.17830   49.17750    9.81450   90.27530
 1592.00000   53.02440    2.21410    2.45530    0.00090  108.22500   68.46420  207.56050    0.19970    0.21660  113.72660   32.36750    9.78660   89.92270
 1592.50000   54.97100    2.23190    2.46900    0.00560  109.15950   68.87900  207.92450    0.20850    0.20600  109.18660   20.96570    9.75860   87.40760
 1593.00000   56.24650    2.24440    2.47160    0.00310  114.42780   69.90070  208.90190    0.20850    0.20640  102.58750   58.97520    9.73060   83.97510
 1593.50000   58.29690    2.17080    2.43770   -0.00620  121.82930   71.72830  209.81810    0.19990    0.22830   95.59640   67.33650    9.70260   73.87470
 1594.00000   62.01120    2.15360    2.39590   -0.00760  126.44690   73.20250  210.73150    0.20750    0.25090   84.18740   32.12250    9.68000   69.66330
 1594.50000   65.16660    2.18300    2.38900   -0.00550  128.55410   73.63280  210.79160    0.22430    0.25290   77.68030   38.28000    9.67340   61.93240
 1595.00000   66.00420    2.29390    2.43080   -0.00240  126.21290   72.87580  210.39940    0.24770    0.22300   71.33060   27.66680    9.65500   58.47050
 1595.50000   64.78450    2.40440    2.50110   -0.00030  120.15720   70.70130  208.62630    0.25480    0.18990   73.85930   28.84790    9.63460   59.15000
 1596.00000   63.02770    2.47490    2.55780   -0.00010  114.55570   67.95450  207.23380    0.23570    0.15810   86.08390  100.99460    9.61350   69.21260
 1596.50000   60.79470    2.54580    2.58390   -0.00090  109.96940   65.88380  206.91890    0.20920    0.14100   98.57630  196.46160    9.59180   81.49960
 1597.00000   58.50470    2.51710    2.57660   -0.00270  108.05030   64.53470  206.33580    0.18870    0.14480  109.80290  128.42030    9.57010   93.02840
 1597.50000   56.41450    2.47600    2.55770   -0.00590  106.88150   64.20480  206.82420    0.18790    0.15790  115.31300  106.45200    9.55370   95.42270
 1598.00000   55.94920    2.34710    2.53020   -0.00740  108.04080   64.99630  207.63270    0.19030    0.17500  109.69680   77.20960    9.53740   93.33230
 1598.50000   56.27890    2.19760    2.48740   -0.00600  112.22020   66.53500  208.81820    0.19130    0.19910   97.15020   50.95380    9.52510   80.79170
 1599.00000   55.63380    2.08580    2.43950   -0.00250  117.97090   68.29710  209.78490    0.19690    0.22610   86.03870   32.91880    9.51100   72.10750
 1599.50000   53.78330    2.06120    2.41070    0.00420  123.29160   70.69130  210.85940    0.21310    0.24290   76.19800   42.84520    9.49200   64.37370
 1600.00000   52.17730    2.10430    2.40130    0.01410  125.85690   71.65760  211.26010    0.23610    0.24570   68.67140   40.08030    9.48840   59.42800
 1600.50000   50.87180    2.17730    2.41400    0.02200  124.79930   71.98410  211.25840    0.25420    0.23960   64.12680   31.54950    9.46990   58.37830
 1601.00000   51.49310    2.21890    2.44100    0.01990  122.22060   70.95940  211.46900    0.25350    0.22310   68.31790   22.59400    9.43120   60.83590
 1601.50000   52.15970    2.30310    2.48140    0.00890  119.22760   69.91740  211.82130    0.23530    0.19160   76.39700   30.82260    9.41530   72.10440
 1602.00000   52.44690    2.38050    2.51490    0.00120  116.55400   67.92730  211.98180    0.21710    0.17210   90.34770   45.18230    9.39110   83.15040
 1602.50000   52.73260    2.40200    2.55050   -0.00120  113.90000   66.18460  211.68200    0.19960    0.15860  102.67510   62.37080    9.38290   92.49650
 1603.00000   50.29510    2.37130    2.55700    0.00310  111.93100   64.71150  210.37590    0.19620    0.15610   95.32380   52.72140    9.37400   87.03890
 1603.50000   44.30720    2.38720    2.56690    0.01090  110.15480   63.39930  209.97330    0.20510    0.15030   89.02530   47.38400    9.35900   78.30420
 1604.00000   39.44460    2.40860    2.58530    0.01010  107.78760   63.19710  210.33650    0.21690    0.14080   95.16120   28.03960    9.34480   77.59270
 1604.50000   38.58300    2.38850    2.58300    0.00560  107.60580   64.73470  209.60950    0.22060    0.13940  104.73480  519.79940    9.31790   85.88080
 1605.00000   42.32590    2.30250    2.54090   -0.00060  108.68260   66.15160  208.90210    0.20760    0.16050  114.04540 1687.87110    9.27540   99.77450
 1605.50000   46.15800    2.23870    2.49570   -0.00550  109.00120   66.86290  208.72530    0.19320    0.18860  152.99120  268.66080    9.27720  120.41830
