~Version ---------------------------------------------------
VERS.   2.0 : CWLS log ASCII Standard -VERSION 2.0
WRAP.    NO : One line per depth step
DLM . SPACE : Column Data Section Delimiter
~Well ------------------------------------------------------
STRT .F                  72.0 : START DEPTH
STOP .F                1774.0 : STOP DEPTH
STEP .F                   0.5 : STEP
NULL .               -9999.25 : NULL VALUE
COMP .                        : COMPANY
WELL .                        : WELL
FLD  .                        : FIELD
LOC  .                        : LOCATION
PROV .                        : PROVINCE
CNTY .                        : COUNTY
STAT .                        : STATE
CTRY .                        : COUNTRY
SRVC .                        : SERVICE COMPANY
DATE .                        : DATE
UWI  .                        : UNIQUE WELL ID
API  .                        : API NUMBER
SLAT .WGS84 1.079064556651396 : SURFACE LATITUDE
SLON .WGS84 6.589844035067003 : SURFACE LONGITUDE
DATUM.F               2776.21 : DEPTH DATUM ELEV
~Curve Information -----------------------------------------
DEPT.F     : 1 MEASURED DEPTH
GRD .GAPI  : GAMMA RAY FROM DENSITY LOG
PEF .B/E   : PHOTOELECTRIC FACTOR
RHOB.G/C3  : BULK DENSITY
DRHO.G/C3  : BULK DENSITY CORRECTION
DTSM.US/F  : DELTA-T SHEAR
DTCO.US/F  : DELTA-T COMPRESSIONAL
DTST.US/F  : DELTA-T STONELEY - MONOPOLE STONELEY
NPHI.DEC   : NEUTRON POROSITY
DPHI.DEC   : DENSITY POROSITY
LLD .OHMM  : LATEROLOG DEEP RESISTIVITY
MSFL.OHMM  : MICRO SPHERICALLY FOCUSED RESISTIVITY
CALR.IN    : CALIPER FROM RESISTIVITY LOG
LLS .OHMM  : LATEROLOG SHALLOW RESISTIVITY
~Params ----------------------------------------------------
~Other -----------------------------------------------------
~ASCII -----------------------------------------------------
# ...
 1294.00000   50.09980    2.93710    2.56050   -0.01060  120.67330   68.78310  219.80800    0.11460    0.15510   20.63700   18.94040   10.45710   23.17350
 1294.50000   52.60060    2.76710    2.52000   -0.00790  126.70930   70.57450  229.74520    0.13930    0.17890   15.96140   14.30460   10.53000   17.65200
 1295.00000   54.98580    2.72780    2.51310   -0.00340  127.90150   71.99900  234.90070    0.16320    0.17970   12.34510   11.16940   10.54940   13.65680
 1295.50000   54.20700    2.91070    2.53650   -0.00220  125.48790   72.01900  234.01170    0.18930    0.16650    9.54810   10.18820   10.57230   10.56580
 1296.00000   47.60790    3.32500    2.58940   -0.00350  120.67710   67.90230  224.22920    0.19280    0.13600    9.15470   11.86310   10.58210   11.02810
 1296.50000   36.39460    4.09190    2.69040   -0.01140  113.17130   62.50800  205.18910    0.15110    0.09050   14.64290   18.71410   10.57020   17.50740
 1297.00000   23.57370    4.38280    2.77120   -0.01740  103.25690   55.74320  199.51770    0.08630    0.03070   23.10910   52.74290   10.55410   32.26120
 1297.50000   13.82610    4.39110    2.86410   -0.02030   96.79920   52.32260  199.20760    0.04210   -0.02670   57.63440  958.61750   10.54020   83.50270
 1298.00000    8.49370    4.38600    2.92000   -0.02170   92.24240   48.76120  199.57600    0.00670   -0.05650  171.23740 1758.83250   10.52670  276.16460
 1298.50000    6.10920    4.51080    2.95310   -0.02290   92.19500   48.67060  199.14910   -0.00510   -0.07230  585.21720 1933.58010   10.51320  790.43130
 1299.00000    5.62800    4.57810    2.95030   -0.02310   95.82690   51.23510  199.02850   -0.00480   -0.07040 1091.19860 1979.70650   10.50160 1392.10120
 1299.50000    5.66630    4.53980    2.91790   -0.02160   97.30580   53.00840  199.04640   -0.00370   -0.04910  653.65860 1997.29500   10.50630  869.66170
 1300.00000    6.25020    4.41040    2.88750   -0.01660   98.08970   55.14210  199.06430   -0.00260   -0.02480  295.43250 1955.34560   10.52620  418.72890
 1300.50000    7.43170    4.26660    2.86810   -0.01070  101.13740   57.99170  199.08850   -0.00100   -0.02480   71.08390  123.43090   10.54890  110.68950
 1301.00000    9.74430    4.16650    2.89200   -0.00900  104.22500   58.86740  199.26620    0.00020   -0.03840   53.97610   32.57060   10.58780   67.72070
 1301.50000   12.05300    4.09480    2.91800   -0.00830  104.78830   57.91510  199.59190    0.00240   -0.05250   49.77180 1785.11250   10.63210   60.84140
 1302.00000   13.39670    4.08270    2.92270   -0.01140  104.72490   57.17260  199.60120    0.00520   -0.05570   49.39200 1143.17220   10.68770   59.88440
 1302.50000   13.85850    4.15910    2.92010   -0.01460  105.70440   57.40220  199.61050    0.00950   -0.05460   54.25070   25.02590   10.73620   64.00190
 1303.00000   14.04430    4.29620    2.91740   -0.01820  106.13660   57.78030  199.61880    0.01290   -0.05290   62.65520   80.59220   10.72670   77.63500
 1303.50000   14.88530    4.47380    2.91940   -0.01810  105.55570   57.58830  199.61270    0.01260   -0.05480   74.16740  179.38010   10.70480   96.39020
 1304.00000   15.74140    4.55260    2.92270   -0.01510  104.39240   56.58600  199.69880    0.01290   -0.05590   91.65390  104.47530   10.67700  120.52530
 1304.50000   16.21420    4.51310    2.92340   -0.01140  103.06180   55.77390  200.20390    0.01400   -0.05650  112.06230  286.48860   10.64750  142.54630
 1305.00000   15.47820    4.37290    2.92230   -0.01150  102.73210   55.03090  200.37550    0.01390   -0.05550  116.35890  113.60270   10.57860  149.35610
 1305.50000   13.91210    4.23640    2.92030   -0.01230  102.74810   54.68850  200.30380    0.01280   -0.05440  123.65330   93.62450   10.54220  155.20770
 1306.00000   12.59340    4.11350    2.92020   -0.01320  102.44330   54.42780  200.19260    0.01030   -0.05400  141.73740  206.83820   10.52510  164.78140
 1306.50000   12.06730    4.02670    2.92250   -0.01290  101.92240   54.75760  200.03070    0.00790   -0.05530  157.73560  355.34510   10.54200  171.78770
 1307.00000   12.23800    4.18720    2.92940   -0.01260  101.15550   54.68510  199.96070    0.00490   -0.05950  161.67920  247.91770   10.55620  175.72180
 1307.50000   12.40900    4.67730    2.94000   -0.01230   98.35890   53.77140  199.96200    0.00170   -0.06660  161.53730  344.11120   10.57850  175.54000
 1308.00000   11.47490    4.97440    2.94970   -0.01300   96.34580   53.15990  199.96340   -0.00180   -0.07070  178.78700   58.45490   10.57610  198.92500
 1308.50000   10.44520    4.98840    2.94930   -0.01440   95.69210   52.63920  199.96470   -0.00410   -0.06970  234.95720  796.85730   10.57470  270.34090
 1309.00000   10.22720    4.65010    2.93360   -0.01880   95.38840   51.33590  199.65980   -0.00520   -0.06060  341.76710 2021.82450   10.57610  396.53030
 1309.50000   11.13150    4.47180    2.91200   -0.01880   95.75060   51.30140  199.75120   -0.00240   -0.04950  432.58430 2017.16700   10.57950  440.56530
 1310.00000   12.68360    4.47010    2.90460   -0.01630   96.85920   52.14310  200.34480    0.00340   -0.04420  328.38620 1679.81770   10.58540  376.49560
 1310.50000   14.93820    4.49140    2.89980   -0.01350   99.35970   53.05020  200.69890    0.00830   -0.04270  242.18480  112.74620   10.59390  306.53390
 1311.00000   17.56860    4.53730    2.89400   -0.01300  100.70570   54.07540  200.40630    0.00980   -0.03930  186.54870  313.20930   10.60410  247.67170
 1311.50000   19.22540    4.70790    2.88840   -0.01270  102.52960   54.94010  200.17660    0.01010   -0.03630  154.12100  478.89090   10.61940  191.28130
 1312.00000   19.12080    5.05570    2.89450   -0.00950  105.13750   55.83200  201.04730    0.00980   -0.03930  114.13140   96.00980   10.64420  147.34750
 1312.50000   18.43660    5.21670    2.90670   -0.00670  108.13410   56.98490  201.22590    0.00990   -0.04570   96.75000  281.45130   10.67550  122.26210
 1313.00000   18.70990    5.01740    2.90800   -0.00530  110.98540   58.29130  200.94830    0.01460   -0.04740   82.01560   44.57580   10.70040  103.63210
 1313.50000   20.19220    4.93670    2.89710   -0.00460  113.48910   59.89520  200.47460    0.02260   -0.04050   65.47340  295.47160   10.69720   88.59120
 1314.00000   22.72870    5.01670    2.87640   -0.00730  115.29100   61.40950  200.75480    0.03620   -0.02840   51.84200  189.28560   10.70780   75.92640
 1314.50000   25.82860    5.18600    2.85590   -0.01060  115.82170   61.91140  200.89360    0.05040   -0.01710   44.11870   35.07690   10.71470   65.07220
 1315.00000   27.96670    5.05360    2.83800   -0.01320  114.02010   61.74160  201.12520    0.05830   -0.00630   38.77380   29.28480   10.71790   55.76970
 1315.50000   28.56180    4.71290    2.82890   -0.01460  110.64550   60.20900  201.34610    0.06080   -0.00070   34.96120   89.17740   10.72650   50.63530
 1316.00000   26.61470    4.57600    2.84180   -0.01590  107.51840   58.42250  200.86090    0.05570   -0.00590   37.71760   25.94520   10.73520   52.06280
 1316.50000   23.23050    4.55810    2.87110   -0.01670  104.42950   56.89550  200.33710    0.04570   -0.02450   45.25670   59.66170   10.73770   61.27400
 1317.00000   18.85620    4.56350    2.90400   -0.01670  100.09540   55.26030  200.26440    0.02710   -0.04400   68.48270  129.92760   10.73680   80.92640
 1317.50000   14.41710    4.54240    2.92350   -0.01800   97.13020   53.21540  199.87860    0.00870   -0.05620  114.11510  174.96200   10.73820  147.10710
 1318.00000   10.80320    4.51940    2.93620   -0.02140   94.48340   51.86750  199.27660    0.00060   -0.06480  239.30700 1568.77510   10.75260  352.95570
 1318.50000    8.57100    4.43850    2.94720   -0.02450   92.83830   51.07630  199.52490   -0.00480   -0.07040  615.12150 1991.42110   10.76840  989.70670
 1319.00000    8.54750    4.24000    2.94980   -0.02530   92.17040   50.97140  199.98770   -0.00590   -0.07170 1695.01350 1994.18680   10.78550 2045.82740
 1319.50000    9.45070    4.11850    2.95130   -0.02520   92.63920   51.05480  199.62060   -0.00560   -0.07210 5797.47220 1996.95520   10.81080 2032.68210
