~Version ---------------------------------------------------
VERS.   2.0 : CWLS log ASCII Standard -VERSION 2.0
WRAP.    NO : One line per depth step
DLM . SPACE : Column Data Section Delimiter
~Well ------------------------------------------------------
STRT .F                  72.0 : START DEPTH
STOP .F                1774.0 : STOP DEPTH
STEP .F                   0.5 : STEP
NULL .               -9999.25 : NULL VALUE
COMP .                        : COMPANY
WELL .                        : WELL
FLD  .                        : FIELD
LOC  .                        : LOCATION
PROV .                        : PROVINCE
CNTY .                        : COUNTY
STAT .                        : STATE
CTRY .                        : COUNTRY
SRVC .                        : SERVICE COMPANY
DATE .                        : DATE
UWI  .                        : UNIQUE WELL ID
API  .                        : API NUMBER
SLAT .WGS84 1.079064556651396 : SURFACE LATITUDE
SLON .WGS84 6.589844035067003 : SURFACE LONGITUDE
DATUM.F               2776.21 : DEPTH DATUM ELEV
~Curve Information -----------------------------------------
DEPT.F     : 1 MEASURED DEPTH
GRD .GAPI  : GAMMA RAY FROM DENSITY LOG
PEF .B/E   : PHOTOELECTRIC FACTOR
RHOB.G/C3  : BULK DENSITY
DRHO.G/C3  : BULK DENSITY CORRECTION
DTSM.US/F  : DELTA-T SHEAR
DTCO.US/F  : DELTA-T COMPRESSIONAL
DTST.US/F  : DELTA-T STONELEY - MONOPOLE STONELEY
NPHI.DEC   : NEUTRON POROSITY
DPHI.DEC   : DENSITY POROSITY
LLD .OHMM  : LATEROLOG DEEP RESISTIVITY
MSFL.OHMM  : MICRO SPHERICALLY FOCUSED RESISTIVITY
CALR.IN    : CALIPER FROM RESISTIVITY LOG
LLS .OHMM  : LATEROLOG SHALLOW RESISTIVITY
~Params ----------------------------------------------------
~Other -----------------------------------------------------
~ASCII -----------------------------------------------------
# ...
 1502.00000   31.20100    3.57760    2.72100   -0.02410  100.64390   56.63350  202.93860    0.04500    0.06480  183.48950   90.54930   10.33630  220.56040
 1502.50000   25.13370    3.97780    2.77770   -0.02030   99.64570   55.86490  202.95210    0.04440    0.03540  196.39750  173.21190   10.35840  224.48890
 1503.00000   21.79920    4.45710    2.84020   -0.01810   98.00580   54.72780  202.96930    0.03410   -0.00060  216.07340  473.19350   10.37260  243.71530
 1503.50000   19.50880    4.59810    2.88030   -0.02060   97.58170   53.21540  202.98630    0.01920   -0.03100  259.93360  688.27970   10.40540  310.44820
 1504.00000   17.12740    4.71390    2.88950   -0.02430   96.33630   52.94260  202.98330    0.01220   -0.03640  316.81700  232.20010   10.43310  364.47270
 1504.50000   14.26490    4.82790    2.89740   -0.02600   95.59570   52.14570  202.68030    0.00760   -0.04120  419.49560  475.22570   10.45680  474.34230
 1505.00000   11.80840    4.80010    2.90950   -0.02750   94.85520   52.01820  202.73680    0.00450   -0.04780  558.01050 1168.14060   10.47340  666.19370
 1505.50000   10.45600    4.71340    2.92440   -0.02790   94.65710   51.85570  202.78940    0.00080   -0.05860  877.61360 1899.29050   10.46640 1083.80270
 1506.00000    9.57210    4.70360    2.93800   -0.02910   93.57620   50.82920  202.28930   -0.00190   -0.06580 1502.68420 1866.11290   10.47070 1763.19250
 1506.50000    8.95250    4.81420    2.94450   -0.03050   93.18840   50.41580  202.75920   -0.00410   -0.06890 4342.41750 1893.72560   10.47140 1999.44200
 1507.00000    8.76690    4.92050    2.94110   -0.03190   93.10770   50.06550  202.74890   -0.00550   -0.06720 5900.61670 1872.44350   10.48460 2005.40780
 1507.50000    9.03590    5.00180    2.93720   -0.03330   92.94420   50.00110  202.23260   -0.00650   -0.06540 6554.04590 1850.42820   10.48150 2005.37700
 1508.00000    9.21530    5.17980    2.94320   -0.03080   92.85320   49.93670  202.57740   -0.00700   -0.06760 6747.02440 1790.87630   10.48260 2005.34620
 1508.50000    9.89020    5.45530    2.95450   -0.02620   92.87460   49.92400  202.57210   -0.00670   -0.07380 6804.63620 1662.55520   10.49070 2005.31530
 1509.00000   11.28810    5.51930    2.95490   -0.02260   93.24790   50.32190  203.64460   -0.00540   -0.07410 6387.98140 1656.46580   10.49940 2005.28450
 1509.50000   15.78100    5.26880    2.92240   -0.02020   94.98960   51.58210  203.33190   -0.00230   -0.05940 4347.23540 1598.85570   10.50820 2005.25260
 1510.00000   23.50410    4.86510    2.87900   -0.01890   97.04540   53.31240  202.79000    0.00120   -0.03010 2443.37130 1319.10780   10.52700 1975.72840
 1510.50000   35.35290    4.41340    2.81770   -0.01670   99.83020   54.86940  203.61380    0.01690    0.00560  539.50720  750.60350   10.54690 1012.86170
 1511.00000   43.26510    4.08340    2.78230   -0.01590  102.53550   56.78170  204.81200    0.02860    0.02590  272.81680  205.40730   10.56390  314.81810
 1511.50000   46.54110    3.74910    2.76740   -0.01430  105.63370   58.06270  204.26900    0.04420    0.03430  195.92560   87.57140   10.57530  226.07740
 1512.00000   47.08000    3.72030    2.76230   -0.01200  107.81940   59.78690  204.68800    0.05160    0.03650  153.78130  122.98030   10.58020  168.53810
 1512.50000   46.80360    3.93350    2.76530   -0.01070  109.64100   60.61920  204.84170    0.06230    0.03340  133.26580  139.35810   10.58730  141.09480
 1513.00000   45.89220    4.27250    2.78320   -0.01080  110.63460   61.58230  204.88520    0.07190    0.02330   91.79260   33.39060   10.60380  124.55090
 1513.50000   45.93410    4.32450    2.79950   -0.01540  110.65400   63.00830  204.88540    0.07910    0.01490   83.06780   42.09550   10.63350  110.32810
 1514.00000   46.40140    4.13670    2.79290   -0.02030  109.77270   63.23800  204.50040    0.08060    0.02030   74.99140  123.51500   10.63670  101.75920
 1514.50000   46.08070    3.99180    2.77800   -0.02200  108.53160   62.87120  204.03420    0.08210    0.02800   75.50630   67.51560   10.64250   99.35380
 1515.00000   42.84480    3.98860    2.77580   -0.01950  106.66790   61.89960  203.88450    0.08240    0.02920   80.39820   27.81190   10.64970  105.97050
 1515.50000   37.62060    3.98930    2.77890   -0.01900  103.41030   60.40800  203.92680    0.06860    0.02750   96.21920   76.81840   10.66230  122.17220
 1516.00000   32.69200    4.01150    2.78230   -0.01900  101.49700   58.47700  203.94350    0.05000    0.02750  120.16930  148.21040   10.66860  163.41620
 1516.50000   26.64890    4.11320    2.79940   -0.01820   99.56280   55.93180  203.87980    0.03230    0.01180  186.95700  105.49260   10.70410  222.36880
 1517.00000   21.75470    4.25170    2.84740   -0.01540   98.03810   54.94910  203.80840    0.01980   -0.01010  276.32480  159.47970   10.71280  321.63850
 1517.50000   18.10430    4.31690    2.89410   -0.01410   97.49720   54.57980  203.62930    0.01160   -0.03690  392.88610  244.29480   10.70370  452.35550
 1518.00000   15.95510    4.31750    2.91510   -0.01460   96.87430   53.67170  202.98660    0.00880   -0.05120  486.57580  192.56850   10.69230  516.92440
 1518.50000   14.48610    4.50880    2.92620   -0.01500   96.79380   53.21340  202.87210    0.00590   -0.05790  556.02500  147.84600   10.68500  588.28750
 1519.00000   13.81320    4.93960    2.93150   -0.01380   96.68550   53.16810  202.85820    0.00450   -0.06110  622.89930  229.08900   10.68390  655.13010
 1519.50000   14.19910    5.33650    2.92880   -0.01140   96.42920   53.16490  202.87460    0.00370   -0.05780  693.47960  205.76790   10.68330  729.56710
 1520.00000   14.70520    5.48530    2.91780   -0.01160   95.86170   53.10820  202.90260    0.00350   -0.05270  772.05730  206.79310   10.68710  803.84280
 1520.50000   14.76890    5.49410    2.90980   -0.01300   95.74170   52.97140  202.92490    0.00340   -0.04780  822.29810  196.49660   10.69090  867.20700
 1521.00000   13.67430    5.39430    2.90690   -0.01450   95.79480   52.80710  202.90050    0.00210   -0.04670  848.44920  175.60370   10.69310  896.89550
 1521.50000   12.57050    5.36920    2.91110   -0.01720   95.81880   52.17670  202.89120    0.00290   -0.04870  869.38250  148.61670   10.69080  910.71460
 1522.00000   11.81120    5.39250    2.91650   -0.01820   95.11310   51.65130  202.88190    0.00360   -0.05260  939.02000  157.46370   10.69500  985.67480
 1522.50000   11.07950    5.38530    2.92390   -0.01740   94.81060   51.04710  202.88190    0.00390   -0.05700 1117.54490  159.34810   10.69620 1287.96220
 1523.00000   10.64760    5.22500    2.93020   -0.01660   94.80190   50.62070  202.88530    0.00310   -0.06130 1547.45020  165.78520   10.70540 1757.03750
 1523.50000   10.68470    5.06960    2.93610   -0.01650   94.77050   50.59770  202.88870    0.00150   -0.06460 2533.98100  161.51880   10.69910 2025.60850
 1524.00000   11.46510    5.26560    2.94200   -0.01600   94.76780   50.73060  202.89200    0.00040   -0.06750 3801.18580  154.34090   10.69190 2031.65250
 1524.50000   12.37060    5.69270    2.94460   -0.01490   94.77050   51.25610  202.90740   -0.00010   -0.06900 5143.36620  148.47800   10.69060 2037.71440
 1525.00000   14.01690    5.77860    2.94260   -0.01450   94.83590   51.91690  202.96000   -0.00050   -0.06590 4739.36040  146.35090   10.69090 2043.79440
 1525.50000   16.34680    5.47540    2.92240   -0.01720   94.96540   52.04030  202.84940   -0.00050   -0.05280 3254.68430  142.95220   10.68660 2049.89140
 1526.00000   17.55070    5.07460    2.88990   -0.02040   95.60110   52.02410  202.89730   -0.00050   -0.03780 1681.70920  133.32860   10.68880 1980.97630
 1526.50000   17.59280    4.94010    2.88050   -0.02330   95.77050   51.99720  202.90170   -0.00050   -0.03060 1244.68410  116.33020   10.69220 1359.11570
 1527.00000   15.71630    5.10250    2.89580   -0.02290   95.78380   52.05600  202.90610   -0.00060   -0.04190 1263.62940  135.91510   10.69540 1406.11470
 1527.50000   13.91140    5.45650    2.92400   -0.02130   95.74680   52.06910  203.08590   -0.00190   -0.05820 1631.39540  141.98780   10.69550 1853.41000
