~Version ---------------------------------------------------
VERS.   2.0 : CWLS log ASCII Standard -VERSION 2.0
WRAP.    NO : One line per depth step
DLM . SPACE : Column Data Section Delimiter
~Well ------------------------------------------------------
STRT .F                  72.0 : START DEPTH
STOP .F                1774.0 : STOP DEPTH
STEP .F                   0.5 : STEP
NULL .               -9999.25 : NULL VALUE
COMP .                        : COMPANY
WELL .                        : WELL
FLD  .                        : FIELD
LOC  .                        : LOCATION
PROV .                        : PROVINCE
CNTY .                        : COUNTY
STAT .                        : STATE
CTRY .                        : COUNTRY
SRVC .                        : SERVICE COMPANY
DATE .                        : DATE
UWI  .                        : UNIQUE WELL ID
API  .                        : API NUMBER
SLAT .WGS84 1.079064556651396 : SURFACE LATITUDE
SLON .WGS84 6.589844035067003 : SURFACE LONGITUDE
DATUM.F               2776.21 : DEPTH DATUM ELEV
~Curve Information -----------------------------------------
DEPT.F     : 1 MEASURED DEPTH
GRD .GAPI  : GAMMA RAY FROM DENSITY LOG
PEF .B/E   : PHOTOELECTRIC FACTOR
RHOB.G/C3  : BULK DENSITY
DRHO.G/C3  : BULK DENSITY CORRECTION
DTSM.US/F  : DELTA-T SHEAR
DTCO.US/F  : DELTA-T COMPRESSIONAL
DTST.US/F  : DELTA-T STONELEY - MONOPOLE STONELEY
NPHI.DEC   : NEUTRON POROSITY
DPHI.DEC   : DENSITY POROSITY
LLD .OHMM  : LATEROLOG DEEP RESISTIVITY
MSFL.OHMM  : MICRO SPHERICALLY FOCUSED RESISTIVITY
CALR.IN    : CALIPER FROM RESISTIVITY LOG
LLS .OHMM  : LATEROLOG SHALLOW RESISTIVITY
~Params ----------------------------------------------------
~Other -----------------------------------------------------
~ASCII -----------------------------------------------------
# ...
 1528.00000   12.65640    5.59090    2.94670   -0.01850   95.24590   52.01820  203.60240   -0.00400   -0.07030 3071.31420  142.34870   10.68930 2025.20150
 1528.50000   12.11210    5.52440    2.95670   -0.01500   94.76960   52.07280  203.21840   -0.00540   -0.07540 5467.71780  147.88150   10.68030 2027.95960
 1529.00000   12.08030    5.27700    2.95750   -0.01300   94.77540   52.02720  203.39870   -0.00600   -0.07570 7137.94730  148.99110   10.67220 2030.72130
 1529.50000   12.76650    5.11160    2.95250   -0.01490   94.78130   52.16440  203.02110   -0.00600   -0.07200 6871.43700  151.56950   10.68140 2033.48570
 1530.00000   14.35450    4.83950    2.94100   -0.01720   94.77510   52.75560  202.91930   -0.00530   -0.06080 4442.11870  157.58830   10.68950 2036.25500
 1530.50000   17.42260    4.53650    2.91160   -0.01760   95.12900   53.24500  203.09400   -0.00360   -0.04820 2458.09840  156.81070   10.69230 2038.66100
 1531.00000   20.64060    4.29630    2.88360   -0.01660   95.91770   53.72960  203.54830   -0.00200   -0.03150 1115.34700  163.44910   10.68520 1477.36150
 1531.50000   23.13750    4.26190    2.85670   -0.01400   96.49470   53.45150  203.67680    0.00040   -0.01690  595.14650  125.68150   10.68200  729.21550
 1532.00000   23.60510    4.38190    2.83740   -0.01400   95.94500   53.42670  203.68160    0.00290   -0.00360  423.77240  148.71640   10.69200  507.30690
 1532.50000   22.86880    4.55480    2.82460   -0.01480   95.65940   53.47090  203.61670    0.00540   -0.00200  358.38920  127.48590   10.70540  407.90270
 1533.00000   20.10260    4.67030    2.83780   -0.01900   95.60960   53.03540  203.04140    0.00500   -0.01030  352.46430  179.02120   10.71820  400.86270
 1533.50000   16.82600    4.81050    2.87030   -0.01890   95.61660   52.85340  203.65620    0.00370   -0.02930  381.86230  162.47190   10.71330  460.83090
 1534.00000   15.74980    4.99380    2.90350   -0.01760   96.21090   52.80120  203.74040    0.00110   -0.04790  445.56000  215.91850   10.70170  539.64700
 1534.50000   16.88330    5.13600    2.92020   -0.01680   95.49140   52.74170  203.65230   -0.00010   -0.05500  556.27260  262.90430   10.68900  631.94350
 1535.00000   19.89680    5.05440    2.91570   -0.01780   95.52390   52.67880  203.42020    0.00020   -0.05150  580.86000  291.16570   10.67280  687.02230
 1535.50000   21.22140    4.84160    2.90200   -0.02020   96.37130   52.63940  203.58150    0.00180   -0.04380  532.62800  358.07240   10.65310  617.69300
 1536.00000   19.91980    4.63910    2.89760   -0.02180   96.29720   52.60040  203.65420    0.00270   -0.04250  488.40090  247.92970   10.64710  551.25560
 1536.50000   16.97220    4.60290    2.90500   -0.02180   95.67360   52.53940  203.39840    0.00270   -0.04590  493.32280  347.93430   10.64380  546.60430
 1537.00000   13.47470    4.80220    2.92440   -0.01690   94.82020   52.03900  203.27370    0.00080   -0.05680  510.23090  508.23010   10.63790  581.92060
 1537.50000   11.96310    5.16340    2.94180   -0.01300   94.21820   51.99840  203.20750   -0.00210   -0.06790  474.01830  472.10740   10.63170  844.86420
 1538.00000   13.01330    5.32900    2.94150   -0.01480   94.06350   52.32660  203.40660   -0.00490   -0.06730  633.41750  586.38840   10.62530 1226.61940
 1538.50000   16.83030    5.22520    2.92600   -0.01750   94.20530   52.44410  203.73510   -0.00590   -0.05600  696.94660  690.87180   10.61890 1685.76710
 1539.00000   23.92160    4.66780    2.88720   -0.02020   94.19660   52.63820  203.54820   -0.00310   -0.03160  992.83860 1030.83310   10.61670 1762.77830
 1539.50000   30.84230    3.99120    2.84400   -0.02140   94.16590   53.34970  202.85790    0.00070   -0.00890 1177.60050 1121.44450   10.62000 1329.61280
 1540.00000   35.67530    3.66980    2.81930   -0.01810   94.18680   53.90520  202.77200    0.00480    0.00320  544.25110  521.72200   10.63210  805.05200
 1540.50000   35.16820    3.85540    2.83920   -0.01020   94.86770   54.11670  202.75040    0.00930   -0.00670  354.35460  233.21030   10.62880  458.04480
 1541.00000   30.28040    4.17960    2.87580   -0.00660   95.90990   53.62120  202.82590    0.01040   -0.03060  325.31000  244.54650   10.61690  403.52860
 1541.50000   27.26100    4.15570    2.90200   -0.01070   97.02040   53.34160  202.86780    0.00910   -0.04220  316.13250  845.46780   10.60720  407.15500
 1542.00000   28.13210    3.81400    2.89470   -0.01670   98.22380   53.99230  203.29100    0.00980   -0.03670  318.32290  481.75850   10.59750  408.81110
 1542.50000   31.71510    3.52520    2.86270   -0.01960   99.42710   54.86010  203.24930    0.01130   -0.01780  255.65890  935.87970   10.59000  354.11900
 1543.00000   36.22430    3.47880    2.83140   -0.01910  100.35370   55.18440  202.93270    0.02320   -0.00180  188.81400  298.04500   10.58500  256.48540
 1543.50000   37.89650    3.55520    2.81010   -0.01850  100.57170   54.84170  202.85000    0.04110    0.00860  128.68760  148.77200   10.59200  185.77020
 1544.00000   34.61640    3.81360    2.80820   -0.01870   99.43480   54.44090  203.39160    0.05880    0.00820   94.53440  112.60730   10.58610  135.53320
 1544.50000   28.79450    4.10440    2.82470   -0.01840   98.38890   53.71290  203.37550    0.05750   -0.00150  108.90090  111.74520   10.58550  126.72580
 1545.00000   20.94170    4.30950    2.85640   -0.01610   96.83470   52.34050  202.98140    0.04880   -0.01910  142.68530  192.98760   10.58560  159.75890
 1545.50000   14.80000    4.42340    2.89460   -0.01390   95.20170   50.33330  202.89630    0.03180   -0.04190  203.29100 1571.52480   10.58680  253.92230
 1546.00000   11.40510    4.47690    2.92940   -0.01230   94.63960   49.86910  202.88640    0.01730   -0.06140  339.30750  678.55440   10.58850  371.26280
 1546.50000    9.69480    4.52010    2.95090   -0.01240   94.65910   49.82620  202.84800    0.00840   -0.07260  396.17520  385.23250   10.59160  641.99320
 1547.00000    9.95030    4.46780    2.95240   -0.01540   94.67860   49.78630  202.88140    0.00330   -0.07300 1206.28380 1664.80380   10.59960 1663.43980
 1547.50000   10.94800    4.27700    2.93760   -0.01890   94.69810   49.92510  202.86720    0.00080   -0.06230 2438.50460 1960.87730   10.60400 2014.75110
 1548.00000   13.80560    4.07900    2.90970   -0.02000   94.71760   50.61830  202.90820    0.00380   -0.04480 3326.69290 1964.19680   10.61550 2028.02530
 1548.50000   19.20540    3.80170    2.87550   -0.02060   94.73710   51.94470  202.85800    0.00890   -0.02050 3061.89990 1967.52190   10.63080 2042.40360
 1549.00000   27.80290    3.56380    2.83020   -0.02020   94.75650   53.00250  202.90830    0.01390    0.00040 1883.50890 1970.85140   10.63390 1702.73120
 1549.50000   33.20980    3.54310    2.79150   -0.02190   94.77600   53.03550  202.90900    0.01930    0.02080  748.97630 1665.11730   10.63730 1123.35390
 1550.00000   30.77250    3.74730    2.78730   -0.02450   94.82300   53.06660  202.98100    0.02480    0.02680  366.45380  279.59620   10.62870  438.41370
 1550.50000   24.16410    3.95360    2.80980   -0.02700   94.80550   52.31300  202.84930    0.02340    0.01090  378.21110  329.24810   10.61140  405.00440
 1551.00000   16.94700    4.14190    2.86300   -0.02570   95.42830   50.76610  202.24520    0.01560   -0.01690  538.49850 1717.75890   10.60590  686.04650
 1551.50000   11.81470    4.41220    2.91560   -0.02420   96.98880   50.71240  202.76650    0.00780   -0.04580  952.19190 1668.28140   10.61280 1215.87630
 1552.00000   12.23700    4.49840    2.89460   -0.02270  100.18230   52.38010  202.83790    0.00900   -0.04460 2252.41800 1864.33530   10.61540 1870.43910
 1552.50000   16.28460    4.24240    2.79740   -0.02190  104.37730   54.31670  202.85790    0.05100    0.00600 2519.03740 1965.32290   10.61860 1962.39580
 1553.00000   22.04400    3.74580    2.69650   -0.02020  107.28920   55.74760  202.82660    0.11550    0.06820 2199.53880 1970.83200   10.62820 1775.03150
 1553.50000   24.41370    3.59320    2.66510   -0.01740  107.21530   56.99010  202.81210    0.19260    0.09190  493.80350  664.54190   10.63840  876.54750
