~Version ---------------------------------------------------
VERS.   2.0 : CWLS log ASCII Standard -VERSION 2.0
WRAP.    NO : One line per depth step
DLM . SPACE : Column Data Section Delimiter
~Well ------------------------------------------------------
STRT .F                  72.0 : START DEPTH
STOP .F                1774.0 : STOP DEPTH
STEP .F                   0.5 : STEP
NULL .               -9999.25 : NULL VALUE
COMP .                        : COMPANY
WELL .                        : WELL
FLD  .                        : FIELD
LOC  .                        : LOCATION
PROV .                        : PROVINCE
CNTY .                        : COUNTY
STAT .                        : STATE
CTRY .                        : COUNTRY
SRVC .                        : SERVICE COMPANY
DATE .                        : DATE
UWI  .                        : UNIQUE WELL ID
API  .                        : API NUMBER
SLAT .WGS84 1.079064556651396 : SURFACE LATITUDE
SLON .WGS84 6.589844035067003 : SURFACE LONGITUDE
DATUM.F               2776.21 : DEPTH DATUM ELEV
~Curve Information -----------------------------------------
DEPT.F     : 1 MEASURED DEPTH
GRD .GAPI  : GAMMA RAY FROM DENSITY LOG
PEF .B/E   : PHOTOELECTRIC FACTOR
RHOB.G/C3  : BULK DENSITY
DRHO.G/C3  : BULK DENSITY CORRECTION
DTSM.US/F  : DELTA-T SHEAR
DTCO.US/F  : DELTA-T COMPRESSIONAL
DTST.US/F  : DELTA-T STONELEY - MONOPOLE STONELEY
NPHI.DEC   : NEUTRON POROSITY
DPHI.DEC   : DENSITY POROSITY
LLD .OHMM  : LATEROLOG DEEP RESISTIVITY
MSFL.OHMM  : MICRO SPHERICALLY FOCUSED RESISTIVITY
CALR.IN    : CALIPER FROM RESISTIVITY LOG
LLS .OHMM  : LATEROLOG SHALLOW RESISTIVITY
~Params ----------------------------------------------------
~Other -----------------------------------------------------
~ASCII -----------------------------------------------------
# ...
 1736.00000   72.94010    2.74830    2.57650    0.02480  109.30760   60.30000  211.21970    0.22210    0.14540  291.82340   99.27050    8.70530  231.61530
 1736.50000   72.94310    2.73730    2.58070    0.02570  108.81700   59.23080  211.19520    0.21170    0.14210  333.39250  101.83110    8.63570  278.73510
 1737.00000   74.78780    2.78990    2.58040    0.02000  109.04970   58.22190  211.82590    0.20730    0.14200  391.55410  951.13180    8.63320  296.40530
 1737.50000   77.54150    2.90180    2.58390    0.01750  110.09280   57.14550  211.44880    0.20770    0.14040  384.36980  186.75080    8.68880  278.44050
 1738.00000   78.70150    3.04080    2.58840    0.02530  110.54390   56.12550  211.57330    0.20510    0.13700  352.36400  610.63420    8.72050  246.34020
 1738.50000   78.06510    3.05860    2.59120    0.03600  110.87380   55.96190  212.25260    0.19700    0.13660  318.31820  174.14830    8.74100  217.94050
 1739.00000   72.65080    2.96330    2.58410    0.03740  112.03290   56.28320  212.48360    0.18740    0.13990  283.70990   67.41510    8.73970  192.89740
 1739.50000   65.44300    2.87790    2.58800    0.02840  113.86640   56.45620  212.33420    0.18390    0.13760  279.67300  142.35130    8.69850  176.49190
 1740.00000   60.48870    2.80570    2.60910    0.03030  111.89870   56.12710  212.50600    0.18400    0.11760  286.19850  124.37710    8.64530  177.04650
 1740.50000   58.77840    2.77480    2.68120    0.03830  109.74030   55.91090  212.65010    0.17710    0.08990  301.72130  163.56110    8.59210  185.30600
 1741.00000   63.66490    2.83020    2.72500    0.06480  111.60930   57.10780  211.83140    0.15470    0.06000  321.74960  217.25520    8.56640  199.53990
 1741.50000   71.21700    2.90100    2.72580    0.07090  115.39210   58.47430  210.42440    0.12900    0.05790  332.71820  695.68970    8.64440  203.89140
 1742.00000   74.63510    2.92350    2.69760    0.06990  111.06050   56.80650  210.42960    0.11820    0.07010  316.35660  215.15550    8.72570  190.48590
 1742.50000   77.81700    2.92420    2.67610    0.07290  105.82070   55.00240  211.49490    0.11850    0.08600  287.53860  229.79130    8.73450  169.18940
 1743.00000   85.84380    2.91590    2.66680    0.07830  108.88370   55.89280  212.38180    0.13440    0.09160  223.48980  103.61730    8.70980  141.09290
 1743.50000   98.47160    2.91800    2.65670    0.06650  113.72680   57.67480  213.36390    0.15890    0.09750  169.61020  152.71220    8.71360  109.06150
 1744.00000  107.16300    2.98980    2.65550    0.04010  115.61610   59.75350  214.55460    0.18950    0.09880  125.94190   36.16790    8.76150   84.32910
 1744.50000   99.92050    3.06980    2.65860    0.02060  115.78200   61.72130  215.42870    0.21430    0.09730   93.51660   40.17670    8.78690   61.68600
 1745.00000   96.08570    3.16990    2.64920    0.01040  115.47290   63.61420  216.13560    0.23440    0.10150   63.62310   36.32070    8.77380   44.94660
 1745.50000   82.00850    3.31080    2.61250    0.00750  116.33350   64.18390  217.43260    0.24820    0.12090   48.86630   14.80150    8.68970   34.63350
 1746.00000   68.81270    3.33750    2.57680    0.00920  119.08580   65.09830  218.49300    0.25290    0.14280   44.61290   19.53520    8.61410   34.13020
 1746.50000   57.08480    3.26330    2.55990    0.02530  121.74090   65.70890  217.32490    0.24700    0.15230   45.93390   77.21170    8.62380   34.53580
 1747.00000   50.27860    3.08210    2.56270    0.02990  120.90320   65.05920  214.30770    0.23240    0.15350   52.91210 1015.06270    8.67010   39.57520
 1747.50000   46.25960    2.91150    2.57380    0.02310  119.39330   64.05810  213.13100    0.21790    0.14610   59.39240  802.06020    8.68080   44.90500
 1748.00000   44.98550    2.91870    2.58760    0.01140  118.59790   62.99360  213.52250    0.21140    0.13920   63.12540   45.07610    8.66690   45.39150
 1748.50000   44.36740    2.93290    2.59240    0.00480  117.41340   61.94900  214.62020    0.21190    0.13510   61.29870   36.91510    8.60740   46.07690
 1749.00000   43.50390    2.84670    2.58000    0.01070  115.15950   61.43790  217.54880    0.21660    0.14200   61.32760   39.22780    8.54120   43.24540
 1749.50000   43.73580    2.72900    2.56380    0.02710  114.48100   62.17730  219.64510    0.22000    0.15080   61.66540   25.77630    8.53870   41.59510
 1750.00000   44.66690    2.71280    2.56210    0.04320  117.33630   63.21780  220.55910    0.22360    0.15320   64.20360   20.58960    8.55050   43.40170
 1750.50000   -9999.25    2.75880    2.56160    0.05170  122.85030   63.83780  220.59520    0.22740    0.15300   66.88910   42.23980    8.55770   43.71350
 1751.00000   -9999.25    2.83050    2.55820    0.04130  123.66080   63.78450  220.87830    0.23440    0.15470   67.57200   38.07930    8.53520   40.67160
 1751.50000   -9999.25    2.88410    2.55240    0.03690  121.38970   62.98520  221.24350    0.23790    0.15780   65.82020   24.55020    8.56220   39.19690
 1752.00000   -9999.25    2.91050    2.56180    0.04070  118.24610   60.28990  219.97540    0.23790    0.15080   68.21390   44.65240    8.57300   39.19690
 1752.50000   -9999.25    2.92450    2.59410    0.06740  115.58010   58.97090  217.57700    0.23840    0.13140   74.16740   25.39740    8.56160   40.06230
 1753.00000   -9999.25    2.91410    2.62520    0.06860  113.79590   57.87010  217.07360    0.23840    0.11550   82.82970   62.95570    8.51480   44.94220
 1753.50000   -9999.25    2.93860    2.63240    0.04920  114.31950   57.07730  218.00890    0.23260    0.11190  100.33160   89.61660    8.55880   54.98870
 1754.00000   -9999.25    2.95790    2.62950    0.02820  117.71230   56.94800  220.42250    0.22300    0.11380  119.77690   49.80550    8.61560   63.09440
 1754.50000   -9999.25    2.94060    2.62150    0.01320  119.66610   56.97230  220.42450    0.21260    0.11840  127.81150   38.63830    8.64680   68.47980
 1755.00000   -9999.25    2.86910    2.59850    0.00860  118.30550   57.40890  220.84430    0.20800    0.13360  116.38930   18.55150    8.63310   62.56790
 1755.50000   -9999.25    2.82180    2.54870    0.00380  116.53940   58.47470  222.86710    0.21140    0.15750   76.35520   65.92330    8.60770   45.87650
 1756.00000   -9999.25    2.83750    2.52050   -0.00000  116.17300   59.48000  224.25950    0.23390    0.17760   55.80720   44.01840    8.59490   33.27660
 1756.50000   -9999.25    2.86670    2.50350   -0.00280  115.92490   60.57440  222.86150    0.27080    0.18650   39.96500   15.16820    8.57960   24.23890
 1757.00000   -9999.25    2.88410    2.50690    0.00190  115.96850   61.66890  222.78120    0.30120    0.18490   33.11650   12.50770    8.57810   22.54350
 1757.50000   -9999.25    2.86760    2.51300    0.01250  117.00270   62.65580  224.38910    0.30760    0.18040   32.01240   16.78620    8.57060   21.77940
 1758.00000   -9999.25    2.85020    2.52300    0.02970  119.27500   64.61650  224.14890    0.28760    0.17390   34.14550   20.11570    8.52810   20.72150
 1758.50000   -9999.25    2.84340    2.54060    0.04950  117.56580   63.25300  217.41180    0.26850    0.16390   37.16370   28.18720    8.47380   27.53760
 1759.00000   -9999.25    2.86520    2.55030    0.05990   93.11790   48.31230  153.96200    0.26010    0.15870   36.74510   39.84840    8.40540   29.08990
 1759.50000   -9999.25    2.84520    2.53430    0.05460   52.85210   40.03990   58.33980    0.25940    0.16960   35.09240   20.81500    8.41000   27.46900
 1760.00000   -9999.25    2.72500    2.49150    0.03320   48.25830   39.93660   40.75220    0.25970    0.19720   33.51410   31.04480    8.42270   25.93840
 1760.50000   -9999.25    2.60670    2.45340    0.01330   -9999.25   -9999.25   -9999.25    0.26170    0.21660   30.90870   48.50530    8.43560   24.49320
 1761.00000   -9999.25    2.62240    2.46520    0.00540   -9999.25   -9999.25   -9999.25    0.27120    0.21010   29.55550   32.41570    8.46600   24.47020
 1761.50000   -9999.25    2.75090    2.52510    0.00550   -9999.25   -9999.25   -9999.25    0.28500    0.18120   -9999.25   20.43220    8.61060   24.30320
