~Version ---------------------------------------------------
VERS.   2.0 : CWLS log ASCII Standard -VERSION 2.0
WRAP.    NO : One line per depth step
DLM . SPACE : Column Data Section Delimiter
~Well ------------------------------------------------------
STRT .F                  72.0 : START DEPTH
STOP .F                1774.0 : STOP DEPTH
STEP .F                   0.5 : STEP
NULL .               -9999.25 : NULL VALUE
COMP .                        : COMPANY
WELL .                        : WELL
FLD  .                        : FIELD
LOC  .                        : LOCATION
PROV .                        : PROVINCE
CNTY .                        : COUNTY
STAT .                        : STATE
CTRY .                        : COUNTRY
SRVC .                        : SERVICE COMPANY
DATE .                        : DATE
UWI  .                        : UNIQUE WELL ID
API  .                        : API NUMBER
SLAT .WGS84 1.079064556651396 : SURFACE LATITUDE
SLON .WGS84 6.589844035067003 : SURFACE LONGITUDE
DATUM.F               2776.21 : DEPTH DATUM ELEV
~Curve Information -----------------------------------------
DEPT.F     : 1 MEASURED DEPTH
GRD .GAPI  : GAMMA RAY FROM DENSITY LOG
PEF .B/E   : PHOTOELECTRIC FACTOR
RHOB.G/C3  : BULK DENSITY
DRHO.G/C3  : BULK DENSITY CORRECTION
DTSM.US/F  : DELTA-T SHEAR
DTCO.US/F  : DELTA-T COMPRESSIONAL
DTST.US/F  : DELTA-T STONELEY - MONOPOLE STONELEY
NPHI.DEC   : NEUTRON POROSITY
DPHI.DEC   : DENSITY POROSITY
LLD .OHMM  : LATEROLOG DEEP RESISTIVITY
MSFL.OHMM  : MICRO SPHERICALLY FOCUSED RESISTIVITY
CALR.IN    : CALIPER FROM RESISTIVITY LOG
LLS .OHMM  : LATEROLOG SHALLOW RESISTIVITY
~Params ----------------------------------------------------
~Other -----------------------------------------------------
~ASCII -----------------------------------------------------
# ...
 1424.00000   15.16600    3.97550    2.88400   -0.01750   93.24230   53.08470  201.81880    0.00850   -0.03650 1750.01390 1994.25460   10.61710 1968.72010
 1424.50000   15.95990    3.74280    2.86680   -0.01700   93.51420   53.09020  201.83820    0.01260   -0.02350 1719.27220 1738.39620   10.57760 1826.71720
 1425.00000   13.86570    3.96350    2.87720   -0.01780   95.17560   53.09560  201.95060    0.01560   -0.02690  921.90750  570.27580   10.54840 1179.22160
 1425.50000   10.13120    4.38560    2.90990   -0.01820   95.84810   53.10100  202.24800    0.01360   -0.04770  710.89930  265.43590   10.51440  936.67020
 1426.00000    7.48540    4.50180    2.93520   -0.01760   96.07350   53.10650  202.54550    0.00670   -0.06160  707.00920 1073.05380   10.47650  947.74960
 1426.50000    6.63520    4.45940    2.94220   -0.01550   96.47780   53.11190  202.74470    0.00240   -0.06680  878.08440 2016.40640   10.44110 1183.93930
 1427.00000    6.66300    4.34330    2.94600   -0.01060   95.87200   53.11730  202.69440    0.00040   -0.06880 1239.13380 2009.08060   10.40590 1640.58580
 1427.50000    7.02650    4.25430    2.94990   -0.00830   95.72560   53.12280  202.00850    0.00110   -0.07040 1793.76030 2001.78250   10.38950 1972.14590
 1428.00000    7.79710    4.27300    2.94900   -0.00880   94.83360   52.76510  201.90990    0.00120   -0.07120 1801.26090 1994.51090   10.38550 1947.39890
 1428.50000    8.90770    4.38250    2.94830   -0.01340   94.87760   52.14060  201.82470    0.00140   -0.07100 1523.66320 1009.54590   10.36150 1929.39490
 1429.00000    9.46920    4.50520    2.94880   -0.01320   94.88520   52.12290  201.86420    0.00180   -0.07080 1489.48240 2017.46280   10.32240 1912.71310
 1429.50000    9.88130    4.63030    2.95060   -0.01280   94.82130   52.12390  202.15650    0.00190   -0.07240 1612.68250 2014.38500   10.27110 1912.49370
 1430.00000    9.96440    4.69090    2.95080   -0.01510   95.67520   52.52110  202.76390    0.00240   -0.07150 2064.01900 2011.31190   10.23480 1912.42330
 1430.50000   10.42770    4.47710    2.94370   -0.01850   97.05340   52.99530  202.88360    0.00290   -0.06750 2179.49800 2008.24370   10.20380 1912.45790
 1431.00000   11.72900    4.08170    2.92950   -0.01840   98.37020   53.13300  202.87710    0.00340   -0.05890 1598.95540 2005.17990   10.18550 1687.13730
 1431.50000   13.15330    3.76890    2.91820   -0.01760   98.59540   53.13130  202.91620    0.00470   -0.05320 1018.41280 1400.28410   10.17390 1302.44650
 1432.00000   12.76500    3.92850    2.92010   -0.01510   97.30860   53.12960  202.87920    0.00650   -0.05460  663.56970  477.48330   10.16370  818.11460
 1432.50000   10.96270    4.36780    2.93170   -0.01260   95.61720   53.12770  202.84530    0.00780   -0.06130  538.84270  656.91250   10.15770  685.28800
 1433.00000    8.98710    4.64160    2.94520   -0.01240   94.88560   53.10300  202.90880    0.00660   -0.06840  575.56730 1920.77540   10.13600  715.32570
 1433.50000    8.25270    4.46610    2.94910   -0.01340   94.82320   52.81390  202.84260    0.00240   -0.07140  811.99440 1728.45100   10.10830 1018.97260
 1434.00000    7.63170    4.14870    2.94860   -0.01470   94.85700   52.05390  202.83350   -0.00100   -0.07110 1665.06430 1915.58180   10.07580 1823.82420
 1434.50000    6.92970    4.08310    2.95120   -0.01560   94.80130   51.43640  202.83800   -0.00150   -0.07150 3309.66820 1939.18760   10.06280 1983.96390
 1435.00000    6.23510    4.38210    2.95870   -0.01650   94.82190   51.39980  202.86910   -0.00270   -0.07620 5324.86770 1826.96790   10.04920 2001.15830
 1435.50000    5.84820    4.65580    2.96560   -0.01750   94.79780   51.56390  202.85900   -0.00360   -0.08090 7408.80030 2001.21000   10.02940 2018.50070
 1436.00000    6.08100    4.69270    2.96560   -0.01790   94.86710   51.19440  202.57450   -0.00430   -0.08080 10582.68160   -9999.25   10.00960   -9999.25
 1436.50000    6.70830    4.67900    2.96440   -0.01720   94.80510   51.09230  202.41250   -0.00430   -0.07990 13779.91310   -9999.25    9.99800   -9999.25
 1437.00000    6.90110    4.56720    2.96210   -0.01640   94.79540   51.17690  202.58710   -0.00410   -0.07840 14734.95410   -9999.25    9.99420   -9999.25
 1437.50000    6.45870    4.42880    2.95950   -0.01580   94.74970   51.88700  202.03910   -0.00330   -0.07720 15110.84860   -9999.25    9.96750   -9999.25
 1438.00000    5.55120    4.59070    2.96040   -0.01450   94.13090   52.09170  202.43600   -0.00310   -0.07880 15249.31840   -9999.25    9.97990   -9999.25
 1438.50000    5.54290    4.98030    2.96590   -0.01330   93.83420   52.10760  202.79400   -0.00290   -0.08140 15394.80270   -9999.25    9.99230   -9999.25
 1439.00000    6.17670    5.56030    2.96930   -0.01540   93.74160   52.06960  202.93710   -0.00290   -0.08370 15506.39160   -9999.25   10.00470   -9999.25
 1439.50000    6.94110    5.61740    2.96400   -0.01750   93.80120   51.88180  202.90470   -0.00310   -0.08020 15614.36620   -9999.25    9.98480   -9999.25
 1440.00000    7.23060    5.32730    2.95490   -0.01960   93.70930   51.38130  202.66110   -0.00270   -0.07460 15745.72360   -9999.25    9.95820   -9999.25
 1440.50000    7.73940    4.83760    2.95150   -0.02160   92.87240   51.62800  202.68840   -0.00240   -0.07310 15785.31150   -9999.25    9.93160   -9999.25
 1441.00000    8.28940    4.60210    2.95760   -0.02000   93.10140   51.13680  203.05570   -0.00230   -0.07650 15880.47070   -9999.25    9.90800   -9999.25
 1441.50000    8.97880    4.48760    2.96220   -0.01780   93.01050   50.87010  203.78470   -0.00160   -0.07970 15903.04880   -9999.25    9.88640   -9999.25
 1442.00000    8.97520    4.40860    2.95950   -0.01670   92.88220   50.60340  203.86610   -0.00050   -0.07290 15971.25680   -9999.25    9.85270   -9999.25
 1442.50000    9.16720    4.34320    2.93790   -0.01690   92.82910   50.23400  203.92960    0.00120   -0.06290 16016.82710   -9999.25    9.81450   -9999.25
 1443.00000    9.48690    4.28900    2.92020   -0.01700   92.80750   49.85430  204.07310    0.00320   -0.05380 16046.64550   -9999.25    9.79450   -9999.25
 1443.50000    9.58000    4.37400    2.92100   -0.01740   92.67180   50.55850  204.26870    0.00220   -0.05550 16047.08590   -9999.25    9.80010   -9999.25
 1444.00000    8.89500    4.45130    2.93650   -0.01880   92.36560   50.25150  203.84680   -0.00010   -0.06490 16048.58400   -9999.25    9.80950   -9999.25
 1444.50000    8.26790    4.45850    2.95820   -0.02020   92.25360   50.98370  203.10710   -0.00280   -0.07510 15989.82030   -9999.25    9.81870   -9999.25
 1445.00000    8.97110    4.20560    2.95710   -0.02180   92.14160   50.98300  202.87830   -0.00430   -0.07580 15822.23630   -9999.25    9.79640   -9999.25
 1445.50000   11.46630    3.69450    2.92840   -0.02220   92.55380   50.89270  202.68980    0.00130   -0.05900 13049.04300   -9999.25    9.77740   -9999.25
 1446.00000   15.52400    3.30850    2.87080   -0.02060   91.58290   50.62200  201.77040    0.01960   -0.02360 7947.28810 1989.85070    9.76860   -9999.25
 1446.50000   18.31450    3.12450    2.81200   -0.01660   90.72990   50.25440  201.38860    0.04940    0.00820 4492.50390 1782.53310    9.78060   -9999.25
 1447.00000   18.46340    3.34060    2.78210   -0.01290   90.45840   50.10190  201.81970    0.08660    0.02510 3567.36400 1928.96500    9.77680   -9999.25
 1447.50000   16.91990    3.56360    2.78870   -0.00930   90.78360   49.95330  201.86720    0.10670    0.02270 3687.63090 2000.39170    9.78060   -9999.25
 1448.00000   16.27600    3.60190    2.81100   -0.00730   91.63000   49.80460  202.07540    0.08950    0.01020 4331.11080 2002.59030    9.78440   -9999.25
 1448.50000   18.31180    3.48730    2.82930   -0.00650   92.62440   49.78390  202.98660    0.06840   -0.00110 4603.69630 2004.79140    9.79600 2035.52080
 1449.00000   22.88270    3.34710    2.83100   -0.00910   93.02400   50.15390  203.95780    0.04690   -0.00290 2651.38700 2006.99490    9.81630 2028.96400
 1449.50000   25.92160    3.40500    2.82910   -0.01120   95.29060   51.19750  204.74790    0.04260   -0.00170 1220.07470 1702.36110    9.85870 1597.79920
