~Version ---------------------------------------------------
VERS.   2.0 : CWLS log ASCII Standard -VERSION 2.0
WRAP.    NO : One line per depth step
DLM . SPACE : Column Data Section Delimiter
~Well ------------------------------------------------------
STRT .F                  72.0 : START DEPTH
STOP .F                1774.0 : STOP DEPTH
STEP .F                   0.5 : STEP
NULL .               -9999.25 : NULL VALUE
COMP .                        : COMPANY
WELL .                        : WELL
FLD  .                        : FIELD
LOC  .                        : LOCATION
PROV .                        : PROVINCE
CNTY .                        : COUNTY
STAT .                        : STATE
CTRY .                        : COUNTRY
SRVC .                        : SERVICE COMPANY
DATE .                        : DATE
UWI  .                        : UNIQUE WELL ID
API  .                        : API NUMBER
SLAT .WGS84 1.079064556651396 : SURFACE LATITUDE
SLON .WGS84 6.589844035067003 : SURFACE LONGITUDE
DATUM.F               2776.21 : DEPTH DATUM ELEV
~Curve Information -----------------------------------------
DEPT.F     : 1 MEASURED DEPTH
GRD .GAPI  : GAMMA RAY FROM DENSITY LOG
PEF .B/E   : PHOTOELECTRIC FACTOR
RHOB.G/C3  : BULK DENSITY
DRHO.G/C3  : BULK DENSITY CORRECTION
DTSM.US/F  : DELTA-T SHEAR
DTCO.US/F  : DELTA-T COMPRESSIONAL
DTST.US/F  : DELTA-T STONELEY - MONOPOLE STONELEY
NPHI.DEC   : NEUTRON POROSITY
DPHI.DEC   : DENSITY POROSITY
LLD .OHMM  : LATEROLOG DEEP RESISTIVITY
MSFL.OHMM  : MICRO SPHERICALLY FOCUSED RESISTIVITY
CALR.IN    : CALIPER FROM RESISTIVITY LOG
LLS .OHMM  : LATEROLOG SHALLOW RESISTIVITY
~Params ----------------------------------------------------
~Other -----------------------------------------------------
~ASCII -----------------------------------------------------
# ...
 1658.00000   66.58850    2.41040    2.46400   -0.00350  124.75240   73.29150  213.56710    0.17420    0.19810   42.58130   44.20730    8.98050   25.94070
 1658.50000   69.39620    2.36400    2.40110   -0.00220  133.14990   76.38460  217.57330    0.19150    0.23920   34.20920   27.46200    8.91930   21.27420
 1659.00000   69.95350    2.32700    2.36830    0.00660  143.34470   79.84520  220.54430    0.21890    0.26030   27.28470   16.72270    8.90160   17.42790
 1659.50000   69.31310    2.26830    2.34110    0.00790  150.82720   82.42600  222.61120    0.24730    0.27810   21.08330   11.51150    8.83580   14.27690
 1660.00000   68.17430    2.22450    2.32790    0.00530  152.27400   82.99360  223.02770    0.27110    0.29030   18.07410   11.16870    8.81510   12.35990
 1660.50000   67.36170    2.21340    2.33610    0.00310  151.09450   83.04510  223.32550    0.29100    0.28530   16.72220   11.09660    8.82610   11.82450
 1661.00000   66.13430    2.25040    2.39880    0.00190  148.81520   81.91760  223.10480    0.28900    0.25370   17.11110   12.37170    8.83830   11.88110
 1661.50000   64.95650    2.35410    2.45910    0.00190  145.44370   78.89860  221.00430    0.25950    0.22460   18.93200   15.31660    8.84610   13.34390
 1662.00000   63.69580    2.50900    2.49790    0.00200  137.18510   76.51590  218.85640    0.22710    0.19120   22.83050   36.45740    8.90800   15.83020
 1662.50000   61.79870    2.72160    2.52500    0.00070  125.78310   74.44800  216.47920    0.20330    0.17500   24.57050   56.43800    9.04140   17.98470
 1663.00000   58.60820    2.86660    2.54450   -0.00260  121.33350   73.33300  215.11210    0.20290    0.16420   27.16850   15.75020    9.26160   19.11990
 1663.50000   55.50870    2.81670    2.54370   -0.00160  120.64760   72.63680  213.95190    0.20370    0.16240   29.13610   21.02870    9.37820   20.32090
 1664.00000   54.31490    2.61750    2.51770    0.00190  121.88660   72.99470  213.03730    0.20310    0.16920   29.83570   25.54080    9.29580   21.19340
 1664.50000   56.46150    2.39270    2.48710    0.00580  124.88800   73.53850  213.00910    0.19870    0.19350   30.07220   13.46870    9.11670   21.45370
 1665.00000   60.66710    2.35270    2.44160    0.00940  130.04460   76.02320  213.81600    0.19480    0.22140   29.25290   13.66000    8.98120   20.96830
 1665.50000   66.99600    2.33930    2.41220    0.01040  134.09640   77.84220  215.64160    0.19890    0.24000   26.52560   17.46170    8.89070   19.27650
 1666.00000   70.39950    2.38970    2.40640    0.01100  135.90590   78.94610  216.83150    0.21900    0.24300   23.64460   15.90950    8.88270   17.72120
 1666.50000   72.25430    2.44480    2.41450    0.00960  137.49800   79.73750  216.72180    0.23520    0.23840   21.79900   12.05310    8.89070   16.94420
 1667.00000   71.78820    2.44310    2.42130    0.00300  138.30330   80.54690  216.24310    0.23620    0.23490   21.17130   14.45610    8.91790   16.87470
 1667.50000   70.97110    2.39850    2.41310   -0.00530  137.91580   80.26470  216.53930    0.22900    0.23910   21.08140   13.07770    8.92810   17.32380
 1668.00000   71.45310    2.36420    2.40490   -0.00650  136.30050   79.04990  215.26480    0.22850    0.24360   21.03320   14.16900    8.93870   17.63000
 1668.50000   72.39830    2.36360    2.40750   -0.00310  134.43810   77.93570  213.79400    0.23510    0.24350   20.70840   14.69770    8.98510   17.83390
 1669.00000   72.29950    2.39130    2.43200    0.00280  132.24560   76.97150  213.08570    0.24810    0.22950   20.91450   10.41410    9.06240   18.10160
 1669.50000   68.49820    2.47880    2.47050    0.00630  126.49170   75.13260  211.68050    0.25940    0.20980   21.61550   10.21310    9.11960   19.77100
 1670.00000   62.39210    2.55570    2.50550    0.00770  121.49460   71.74400  210.39610    0.25610    0.18190   24.60920   13.90040    9.17020   21.95530
 1670.50000   56.41660    2.59420    2.53760    0.00550  118.90340   70.14410  209.08960    0.23940    0.16690   28.97410   21.05810    9.21000   26.48380
 1671.00000   58.17450    2.56620    2.55060    0.00530  121.72800   69.70920  209.72460    0.21810    0.15900   36.63210   20.11480    9.22090   31.94640
 1671.50000   66.35040    2.49570    2.55070    0.01230  124.36400   70.44900  210.84660    0.19870    0.15870   33.65180   54.69160    9.22550   33.98740
 1672.00000   75.07140    2.47530    2.54590    0.01330  127.13780   72.54390  211.31790    0.18860    0.16200   27.60110   36.15300    9.18650   27.37900
 1672.50000   79.34540    2.56030    2.54430    0.00870  128.56620   74.14530  211.65480    0.19820    0.16020   22.63840   15.77710    9.11460   21.46560
 1673.00000   69.87210    2.69880    2.57370    0.00080  128.85210   74.10580  211.10280    0.22330    0.14480   18.56790   12.28040    9.02740   17.15560
 1673.50000   56.91980    2.80490    2.60940    0.00020  127.74280   72.82260  210.03260    0.24940    0.12070   17.83780   14.84010    8.99330   16.98960
 1674.00000   49.54220    2.85520    2.63240   -0.00020  123.67440   70.04630  207.64650    0.24400    0.11280   21.79900   44.46540    8.93710   19.77850
 1674.50000   52.08210    2.86190    2.61700   -0.00130  118.66110   67.51750  206.65260    0.22640    0.11460   29.56100   42.89140    8.86290   26.43480
 1675.00000   59.58710    2.79640    2.59120   -0.00580  115.34320   64.94640  206.85670    0.21410    0.13050   39.07180   47.47710    8.85410   34.69800
 1675.50000   63.48410    2.71250    2.57190   -0.00670  114.06440   63.94460  206.72930    0.22740    0.14390   48.46750   29.95390    8.89140   41.92420
 1676.00000   62.02470    2.67210    2.57480   -0.00630  112.66890   62.74850  206.57100    0.26200    0.14250   62.69950   55.13370    8.91800   62.64310
 1676.50000   59.70850    2.69760    2.58400   -0.00340  112.05770   61.92280  206.85510    0.26550    0.13800   81.74570  161.40800    8.93300  107.39000
 1677.00000   60.73060    2.66600    2.58000   -0.00050  110.31810   61.06310  206.99480    0.24780    0.13860  169.52950  141.85940    8.94300  184.10030
 1677.50000   64.91910    2.60610    2.55470    0.00080  110.60010   60.97910  207.03080    0.23340    0.15390  227.98640  142.38420    8.93470  285.96010
 1678.00000   68.29330    2.59770    2.53000   -0.00410  111.45410   61.40100  206.98780    0.23740    0.17170  386.70900 1189.15620    8.91040  421.45470
 1678.50000   70.05400    2.66150    2.51850   -0.00630  111.04830   61.99220  206.94780    0.25490    0.18010  542.58290 1479.71780    8.87650  577.16550
 1679.00000   69.83480    2.80660    2.52560   -0.00830  109.70240   61.90510  206.92800    0.27850    0.17400  614.34910 1498.48950    8.88640  640.10790
 1679.50000   67.55430    3.01300    2.55580   -0.01090  107.82200   61.59060  206.94190    0.27080    0.15330  582.08100 1397.12510    8.91570  621.56440
 1680.00000   65.55580    3.15350    2.59070   -0.01390  107.71560   61.24350  206.92440    0.23900    0.13620  486.45370 1812.78310    8.91210  533.81470
 1680.50000   63.92720    3.17800    2.61200   -0.01140  107.72980   60.89640  207.10660    0.20910    0.12490  318.94780  395.11350    8.89380  398.75130
 1681.00000   61.35420    3.05530    2.60050   -0.00760  108.70270   60.92120  207.99580    0.20050    0.13150  190.51000  360.71460    8.89130  258.38060
 1681.50000   58.54340    2.89040    2.58170   -0.00690  112.47270   63.26250  208.80160    0.21810    0.14740  115.09520  122.52320    8.90880  157.38910
 1682.00000   59.64760    2.65080    2.55210   -0.00690  117.74300   66.17060  209.63550    0.22460    0.16380   81.09200  950.91260    8.92760   95.87160
 1682.50000   67.84250    2.42490    2.51750   -0.00710  122.93540   68.85760  210.93960    0.22150    0.18100   62.96410  323.89760    8.93480   75.52380
 1683.00000   78.20610    2.27640    2.48600   -0.00660  126.30060   71.05860  212.22560    0.21200    0.19850   52.29350   60.97390    8.94230   64.08890
 1683.50000   83.56090    2.19460    2.45740   -0.00580  129.66570   73.49470  212.30030    0.20930    0.21160   48.04460   28.93960    8.95740   62.77690
