~Version ---------------------------------------------------
VERS.   2.0 : CWLS log ASCII Standard -VERSION 2.0
WRAP.    NO : One line per depth step
DLM . SPACE : Column Data Section Delimiter
~Well ------------------------------------------------------
STRT .F                  72.0 : START DEPTH
STOP .F                1774.0 : STOP DEPTH
STEP .F                   0.5 : STEP
NULL .               -9999.25 : NULL VALUE
COMP .                        : COMPANY
WELL .                        : WELL
FLD  .                        : FIELD
LOC  .                        : LOCATION
PROV .                        : PROVINCE
CNTY .                        : COUNTY
STAT .                        : STATE
CTRY .                        : COUNTRY
SRVC .                        : SERVICE COMPANY
DATE .                        : DATE
UWI  .                        : UNIQUE WELL ID
API  .                        : API NUMBER
SLAT .WGS84 1.079064556651396 : SURFACE LATITUDE
SLON .WGS84 6.589844035067003 : SURFACE LONGITUDE
DATUM.F               2776.21 : DEPTH DATUM ELEV
~Curve Information -----------------------------------------
DEPT.F     : 1 MEASURED DEPTH
GRD .GAPI  : GAMMA RAY FROM DENSITY LOG
PEF .B/E   : PHOTOELECTRIC FACTOR
RHOB.G/C3  : BULK DENSITY
DRHO.G/C3  : BULK DENSITY CORRECTION
DTSM.US/F  : DELTA-T SHEAR
DTCO.US/F  : DELTA-T COMPRESSIONAL
DTST.US/F  : DELTA-T STONELEY - MONOPOLE STONELEY
NPHI.DEC   : NEUTRON POROSITY
DPHI.DEC   : DENSITY POROSITY
LLD .OHMM  : LATEROLOG DEEP RESISTIVITY
MSFL.OHMM  : MICRO SPHERICALLY FOCUSED RESISTIVITY
CALR.IN    : CALIPER FROM RESISTIVITY LOG
LLS .OHMM  : LATEROLOG SHALLOW RESISTIVITY
~Params ----------------------------------------------------
~Other -----------------------------------------------------
~ASCII -----------------------------------------------------
# ...
 1190.00000   14.30470    0.88330    1.05980   -0.01330  151.21700   86.87010  199.61480    0.56800    1.02170  107.02510    0.97750   24.30160    3.65360
 1190.50000   14.32940    1.08140    1.06810   -0.01290  150.89360   83.78420  204.60410    0.56010    1.01700  118.46320    0.90030   24.30590    4.13110
 1191.00000   14.05430    1.11500    1.07860   -0.00920  151.50030   79.91060  208.65910    0.53570    1.01100  123.31500    0.78560   24.30470    4.38110
 1191.50000   13.46080    1.09590    1.08820   -0.00250  155.20710   79.82990  210.22630    0.50860    1.00560  119.78410    0.54700   24.30750    4.40300
 1192.00000   12.49460    1.05310    1.09450    0.00120  158.45320   79.62030  206.99630    0.53110    1.00270  113.91550    0.47470   24.31060    4.33110
 1192.50000   11.52160    1.00900    1.09800    0.00120  156.05740   77.91850  200.34870    0.58130    1.00100  108.00230    0.38680   24.31380    4.25740
 1193.00000   11.37690    1.01210    1.10080    0.00090  142.09140   72.75000  194.39940    0.62660    0.99950  104.90340    0.34070   24.31500    3.91870
 1193.50000   11.93170    1.02470    1.10500   -0.00090  123.71660   67.26470  191.81010    0.60230    0.99640  102.05500    0.34050   24.29940    3.56230
 1194.00000   13.85360    1.06770    1.11670   -0.00270  112.29710   65.58860  191.14530    0.56400    0.99020   93.60830    0.32800   24.29380    3.03770
 1194.50000   17.02430    1.22970    1.15560   -0.00440  114.29150   68.61810  192.24780    0.53160    0.96850   80.76200    0.26300   23.92930    2.49080
 1195.00000   22.26920    1.56130    1.29120   -0.00140  120.06890   71.15400  193.61950    0.49450    0.89560   69.52130    0.22060   21.51450    1.96050
 1195.50000   29.29490    1.87100    1.59890    0.00830  119.82170   70.27140  194.58120    0.44280    0.68360   69.17390    0.20240   15.92730    1.86150
 1196.00000   34.31730    2.16410    1.95090    0.03270  115.45180   69.27740  196.94990    0.27480    0.49760   79.89320    0.20890   13.94800    2.15040
 1196.50000   39.89540    2.29510    2.13320    0.05250  111.44550   67.68600  197.68760    0.18810    0.35520  103.24010    0.48050   13.78640    3.19240
 1197.00000   40.52340    2.34750    2.26230    0.03770  107.99170   65.94160  195.67270    0.13480    0.32650  129.12070   14.33050   13.66750    5.37200
 1197.50000   40.33430    2.32130    2.19410    0.01630  106.41920   64.03260  194.31860    0.12940    0.38290  135.82580    2.91000   13.55530    6.88730
 1198.00000   41.20010    2.30900    2.08060   -0.00520  104.71330   62.12360  194.47940    0.13930    0.43540  123.70930    2.65860   13.46030    7.72630
 1198.50000   44.17610    2.32230    2.03570   -0.01840  103.42290   59.31420  195.68780    0.15240    0.44970  112.48360   23.28710   13.36590    7.75520
 1199.00000   46.92150    2.50920    2.08470   -0.00290  104.04160   56.45350  197.48290    0.15480    0.41590  107.91100   30.69500   13.33000    8.11080
 1199.50000   48.44920    2.83440    2.20310   -0.00090  108.34750   54.68750  198.85630    0.14180    0.33510  119.27290   33.33330   13.35110    9.91600
 1200.00000   48.35840    2.93450    2.39450    0.00210  108.36720   57.47390  197.87370    0.10560    0.25380  155.81660   35.45730   13.37310   17.52390
 1200.50000   46.35500    2.83820    2.38710    0.00660  116.16190   65.99580  197.04120    0.08660    0.25960  194.40490   37.39910   13.38010   33.46190
 1201.00000   40.78540    2.58610    2.28680    0.00490  119.91750   72.57110  196.30130    0.10980    0.31540  190.82420   42.41130   13.40220   57.46820
 1201.50000   35.33350    2.46360    2.16710    0.00710  117.34990   76.64040  196.54390    0.19140    0.38240  149.78220   19.62620   13.43880   65.73770
 1202.00000   33.00260    2.51720    2.11490    0.01330  113.81880   77.62530  196.10780    0.25660    0.41510  120.09860    2.55820   13.46770   54.37980
 1202.50000   32.69280    2.57630    2.14170    0.02170  112.61780   76.83460  194.73230    0.25620    0.39780  112.18430    0.71730   13.51630   44.17520
 1203.00000   34.38370    2.57290    2.21590    0.02490  113.05610   74.67320  196.10330    0.19430    0.35190  125.15880   15.61630   13.52200   43.11350
 1203.50000   37.40210    2.56310    2.30650    0.02520  115.59540   71.26470  197.99870    0.11530    0.30430  151.70450   74.40780   13.40220   54.60900
 1204.00000   40.83980    2.57620    2.34760    0.02030  117.38380   69.12990  200.42350    0.08780    0.27490  152.25150  132.34930   13.13290   65.67660
 1204.50000   44.67520    2.61800    2.37120    0.01340  118.40410   69.65620  200.83920    0.09940    0.26390  120.41610   61.14130   12.87030   57.25390
 1205.00000   47.16070    2.67600    2.37720    0.00590  119.83640   70.95470  201.38940    0.12400    0.25960   83.79400   33.57010   12.68320   46.84790
 1205.50000   49.51250    2.73460    2.38030    0.00090  121.75590   70.99670  202.09610    0.14070    0.25820   64.83660   27.47120   12.59820   38.31780
 1206.00000   49.65470    2.76090    2.38310    0.00660  120.07930   68.86740  201.61820    0.14270    0.25680   59.06210   31.97870   12.55830   36.22600
 1206.50000   46.80640    2.74760    2.38390    0.01270  113.03390   65.18860  200.99350    0.12970    0.25650   66.09280   42.35620   12.57970   43.97980
 1207.00000   41.34650    2.65730    2.37550    0.02330  106.30820   61.66960  201.35310    0.10790    0.26140   83.80380   76.60520   12.62070   67.42100
 1207.50000   37.14190    2.54480    2.36320    0.03810  104.59190   59.09120  201.77650    0.07900    0.26850  120.68000   64.16440   12.63800   99.09720
 1208.00000   34.20570    2.40360    2.34320    0.04720  108.20250   60.74300  202.03540    0.04730    0.27910  173.78270   40.37830   12.66030  140.85450
 1208.50000   32.74120    2.35050    2.31620    0.05150  115.03410   64.58450  203.61240    0.03250    0.29410  224.09140   15.50810   12.66380  163.19200
 1209.00000   34.58690    2.42220    2.28640    0.05410  129.32560   72.39360  207.54730    0.04620    0.31060  171.46430    3.26020   12.62280  101.23940
 1209.50000   41.40330    2.54610    2.28270    0.03470  144.51940   80.54660  211.26580    0.10060    0.31660   87.57390    5.79530   12.48910   59.16530
 1210.00000   49.25340    2.72970    2.32260    0.01740  158.60020   83.83540  214.52290    0.18290    0.28950   41.66420    8.15550   12.19620   31.34520
 1210.50000   57.64750    2.90190    2.39380    0.00480  163.06040   86.48520  217.09970    0.22560    0.24770   23.04550   12.91400   11.97010   14.98360
 1211.00000   61.09400    3.03620    2.46020   -0.00050  163.83650   87.24340  217.13750    0.24740    0.21220   15.42280    9.46150   11.80200   10.42230
 1211.50000   61.63150    3.07810    2.50530   -0.00310  161.47590   86.94360  215.95800    0.25080    0.18760   11.77240    4.66980   11.67560    7.67230
 1212.00000   58.61640    3.11570    2.52580   -0.00260  154.53850   85.84490  211.50130    0.26110    0.17350   11.03230    6.03630   11.57600    7.07920
 1212.50000   52.13260    3.15180    2.54760   -0.00200  146.13180   81.69600  207.99540    0.27790    0.16280   11.35740    6.58370   11.53990    7.19350
 1213.00000   46.62900    3.12840    2.56700   -0.00750  141.49220   78.07410  206.61640    0.27070    0.15020   13.05090    6.77880   11.51430    8.16250
 1213.50000   44.43050    3.03070    2.58210   -0.01070  140.25880   76.32920  206.08340    0.22470    0.14140   15.98710    7.88870   11.48430    9.29870
 1214.00000   45.98400    3.02510    2.58650   -0.00960  141.41850   75.95880  205.80440    0.18810    0.13860   17.83220   12.05570   11.46910   10.46150
 1214.50000   47.84130    3.07710    2.58390   -0.00540  144.25710   77.11780  205.15140    0.18090    0.14020   19.37090   23.26470   11.45780   10.12230
 1215.00000   48.85130    3.17130    2.57580   -0.00160  147.44490   78.18230  205.09360    0.19700    0.14560   18.71530    6.66320   11.44700    9.23650
 1215.50000   48.82980    3.21690    2.56300   -0.00100  150.61860   80.02340  208.30560    0.20550    0.15260   17.02770    6.92330   11.44130    8.26730
