~Version ---------------------------------------------------
VERS.   2.0 : CWLS log ASCII Standard -VERSION 2.0
WRAP.    NO : One line per depth step
DLM . SPACE : Column Data Section Delimiter
~Well ------------------------------------------------------
STRT .F                  72.0 : START DEPTH
STOP .F                1774.0 : STOP DEPTH
STEP .F                   0.5 : STEP
NULL .               -9999.25 : NULL VALUE
COMP .                        : COMPANY
WELL .                        : WELL
FLD  .                        : FIELD
LOC  .                        : LOCATION
PROV .                        : PROVINCE
CNTY .                        : COUNTY
STAT .                        : STATE
CTRY .                        : COUNTRY
SRVC .                        : SERVICE COMPANY
DATE .                        : DATE
UWI  .                        : UNIQUE WELL ID
API  .                        : API NUMBER
SLAT .WGS84 1.079064556651396 : SURFACE LATITUDE
SLON .WGS84 6.589844035067003 : SURFACE LONGITUDE
DATUM.F               2776.21 : DEPTH DATUM ELEV
~Curve Information -----------------------------------------
DEPT.F     : 1 MEASURED DEPTH
GRD .GAPI  : GAMMA RAY FROM DENSITY LOG
PEF .B/E   : PHOTOELECTRIC FACTOR
RHOB.G/C3  : BULK DENSITY
DRHO.G/C3  : BULK DENSITY CORRECTION
DTSM.US/F  : DELTA-T SHEAR
DTCO.US/F  : DELTA-T COMPRESSIONAL
DTST.US/F  : DELTA-T STONELEY - MONOPOLE STONELEY
NPHI.DEC   : NEUTRON POROSITY
DPHI.DEC   : DENSITY POROSITY
LLD .OHMM  : LATEROLOG DEEP RESISTIVITY
MSFL.OHMM  : MICRO SPHERICALLY FOCUSED RESISTIVITY
CALR.IN    : CALIPER FROM RESISTIVITY LOG
LLS .OHMM  : LATEROLOG SHALLOW RESISTIVITY
~Params ----------------------------------------------------
~Other -----------------------------------------------------
~ASCII -----------------------------------------------------
# ...
 1684.00000   80.19710    2.21670    2.46180   -0.00480  130.50850   74.29030  212.35920    0.21810    0.20690   48.07740   34.01030    8.97980   65.50880
 1684.50000   74.54960    2.39050    2.49660   -0.00350  128.27820   74.07890  211.69940    0.22140    0.18640   50.46300   50.19280    9.00310   70.56360
 1685.00000   72.97260    2.64050    2.53870   -0.00340  126.04370   72.93330  210.51160    0.21660    0.16100   52.87150   60.26080    9.00240   74.60760
 1685.50000   74.49010    2.82010    2.58960   -0.00390  125.18220   72.12810  210.47390    0.21110    0.13150   51.50490   44.25760    9.00170   70.21270
 1686.00000   74.24070    2.89700    2.61430   -0.00410  124.18430   70.78920  210.47700    0.21850    0.12220   44.35430   33.29500    9.00100   62.06580
 1686.50000   70.01080    2.95320    2.62360   -0.00270  122.09640   68.81210  211.01500    0.22980    0.11710   40.22750   24.81400    8.99510   52.45630
 1687.00000   60.17590    3.03090    2.62540   -0.00440  120.28300   67.02540  211.57620    0.23870    0.11580   40.02360   30.55310    8.98330   51.54790
 1687.50000   49.64840    2.99550    2.61390   -0.00620  117.96610   65.52520  211.71930    0.23800    0.12170   51.21790   37.11190    8.99640   60.00210
 1688.00000   41.95700    2.94820    2.58980   -0.00810  115.61300   63.60980  210.08630    0.23460    0.13650   67.66300   91.13010    8.98730   98.81360
 1688.50000   38.08140    2.84040    2.55600   -0.01120  115.08190   63.20280  209.72410    0.23630    0.15500  143.60370  854.83230    8.97700  157.37190
 1689.00000   41.23460    2.72910    2.54200   -0.01370  116.67800   63.84850  210.93920    0.24000    0.16540  232.67390  174.41280    8.95980  241.81470
 1689.50000   49.31570    2.57920    2.53620   -0.01330  119.84470   65.88870  212.01820    0.23260    0.16830  273.66400  228.59300    8.95840  291.10030
 1690.00000   61.14760    2.41380    2.52660   -0.00970  123.69470   67.90190  212.30490    0.21700    0.17380  192.13930  421.72800    8.95710  229.91220
 1690.50000   71.40000    2.36190    2.50850   -0.00620  126.73140   70.52420  212.70350    0.18960    0.18300  117.68420   81.20320    8.95570  147.96190
 1691.00000   78.69500    2.45250    2.50390   -0.00300  129.36920   73.43690  212.39070    0.17870    0.18790   76.87570   46.22850    8.96700   95.22210
 1691.50000   85.07690    2.66940    2.51870   -0.00060  132.22670   75.44500  212.20790    0.17880    0.18090   55.88310   36.22620    8.99610   62.21240
 1692.00000   86.69310    2.74410    2.54890    0.00190  132.66540   75.95100  211.48260    0.18850    0.16530   42.39150   29.39390    9.01240   44.59590
 1692.50000   82.25940    2.72160    2.57260    0.00280  129.80940   75.90940  211.67610    0.20110    0.14880   36.77880   23.76380    8.99960   38.46850
 1693.00000   76.44830    2.54390    2.57560    0.00150  127.80870   75.02110  212.12460    0.21240    0.14490   36.07970   23.51690    8.98690   39.38110
 1693.50000   74.59280    2.47450    2.56400    0.00020  127.78150   74.64510  212.01290    0.21040    0.14940   38.23880   36.76290    8.96490   43.02980
 1694.00000   74.16130    2.56460    2.56310   -0.00000  123.03120   72.66640  211.97930    0.20010    0.15160   40.06400   54.11360    8.95340   47.18190
 1694.50000   69.95750    2.66510    2.57950   -0.00010  118.95100   69.52380  212.10780    0.20210    0.14040   41.68030   41.34760    8.95330   48.38780
 1695.00000   56.65720    2.68660    2.62700    0.00240  115.17900   66.79740  212.02840    0.22310    0.11530   44.80610   26.35130    8.95400   50.11970
 1695.50000   46.12470    2.64270    2.65830    0.00760  114.09660   65.33050  211.15360    0.23900    0.09500   49.30040   32.06280    8.96670   53.25170
 1696.00000   47.67320    2.52120    2.64110    0.01000  114.68980   65.43080  209.73910    0.22020    0.10790   57.47060  536.57300    8.96830   60.59990
 1696.50000   57.65320    2.44880    2.58040    0.00690  121.77840   67.22040  209.49020    0.18380    0.15050   62.75930  636.08960    8.97650   64.93910
 1697.00000   65.02990    2.40680    2.51920    0.00080  126.85850   70.53650  210.25350    0.15620    0.17720   59.19610  153.97330    8.98480   60.70300
 1697.50000   73.28450    2.47360    2.48090   -0.00750  133.41100   73.83760  211.35120    0.17190    0.20000   48.36050   13.37290    8.99300   51.27690
 1698.00000   80.62830    2.53220    2.47940   -0.01170  137.09960   76.85190  212.51070    0.19690    0.20120   39.25360   18.94010    9.00120   43.31460
 1698.50000   86.17320    2.58330    2.48860   -0.01330  139.14880   79.62350  213.36440    0.21930    0.19640   34.30560   11.17300    9.00940   38.59470
 1699.00000   84.47180    2.58680    2.49290   -0.01440  138.50490   78.96270  212.98780    0.23600    0.19340   35.78470   11.04590    9.01760   39.36250
 1699.50000   79.81060    2.57640    2.48470   -0.01580  136.68630   78.05370  212.15750    0.24210    0.19820   41.61120   25.46750    9.02580   45.01650
 1700.00000   75.24340    2.62970    2.47630   -0.01800  135.44350   77.12950  211.14940    0.23790    0.20270   48.86330   27.25400    9.02940   51.57510
 1700.50000   71.60240    2.72620    2.48110   -0.01860  132.22160   75.51040  210.14450    0.23390    0.19850   53.77870   21.75780    9.02080   57.84090
 1701.00000   68.09910    2.82750    2.51430   -0.01500  127.29750   72.81630  209.17880    0.24090    0.17820   58.64180   21.31720    9.01220   61.74050
 1701.50000   59.96530    2.85550    2.54750   -0.01400  120.87160   70.08000  208.67240    0.25650    0.15850   64.61540   34.89730    9.00360   67.86120
 1702.00000   47.41550    2.79400    2.55730   -0.01510  117.49210   67.34950  207.54750    0.26930    0.15560   77.21780   84.82580    8.99500   90.23420
 1702.50000   34.99500    2.68240    2.53690   -0.01620  114.17420   64.69220  206.93340    0.27710    0.16850  110.57450  352.14880    8.98640  129.23980
 1703.00000   33.63630    2.60420    2.51460   -0.01780  112.79200   64.41950  207.35680    0.27450    0.18110  209.09030  428.29470    8.97790  251.30790
 1703.50000   42.02300    2.62400    2.51120   -0.01820  115.67560   65.95980  207.94030    0.26260    0.18150  363.04350 1043.55510    8.96930  437.35760
 1704.00000   56.03510    2.69250    2.52570   -0.01900  118.26500   68.49600  208.03450    0.23390    0.17210  353.83030 1947.18630    8.96280  406.14510
 1704.50000   69.41010    2.70910    2.54320   -0.01890  119.73460   70.34900  208.03250    0.21190    0.16340  204.60600  799.51490    8.95730  248.84930
 1705.00000   72.99340    2.66670    2.54900   -0.01570  119.96350   70.68560  207.97650    0.20090    0.16060   94.68410   51.13170    8.95180  134.65070
 1705.50000   70.40580    2.63280    2.55730   -0.00880  118.61190   69.89190  208.25120    0.20330    0.15580   66.79030   50.52660    8.94630   76.85320
 1706.00000   64.90570    2.68680    2.58140   -0.00260  116.43670   68.42330  208.19580    0.20660    0.14200   67.18810   50.01460    8.94080   76.21360
 1706.50000   59.23690    2.71330    2.61570    0.00220  113.12220   65.55500  207.04500    0.20900    0.12010   71.21030   61.25280    8.93530   78.91390
 1707.00000   52.80200    2.71220    2.65260    0.00370  110.92850   62.27580  206.67100    0.21300    0.10020   75.87510   52.68250    8.92760   96.44470
 1707.50000   47.83030    2.70320    2.67160    0.00330  106.46290   59.24950  205.83190    0.21590    0.08950  101.38350  130.31160    8.90530  134.60280
 1708.00000   45.75700    2.68480    2.67830    0.00120   99.33140   55.51720  206.51490    0.21080    0.08540  151.94900  356.07550    8.89590  188.83740
 1708.50000   45.28950    2.62750    2.68120    0.00010   96.93410   54.05630  206.44730    0.19070    0.08320  231.99620  312.53080    8.90150  287.01290
 1709.00000   45.21880    2.59800    2.68370    0.00140   96.23590   53.01900  206.89660    0.16930    0.08150  371.76780  664.69850    8.90560  407.68380
 1709.50000   43.52060    2.62550    2.69020    0.00430   94.96120   51.92020  207.89740    0.15640    0.07770  508.76140 1631.34440    8.91600  547.81490
