~Version ---------------------------------------------------
VERS.   2.0 : CWLS log ASCII Standard -VERSION 2.0
WRAP.    NO : One line per depth step
DLM . SPACE : Column Data Section Delimiter
~Well ------------------------------------------------------
STRT .F                  72.0 : START DEPTH
STOP .F                1774.0 : STOP DEPTH
STEP .F                   0.5 : STEP
NULL .               -9999.25 : NULL VALUE
COMP .                        : COMPANY
WELL .                        : WELL
FLD  .                        : FIELD
LOC  .                        : LOCATION
PROV .                        : PROVINCE
CNTY .                        : COUNTY
STAT .                        : STATE
CTRY .                        : COUNTRY
SRVC .                        : SERVICE COMPANY
DATE .                        : DATE
UWI  .                        : UNIQUE WELL ID
API  .                        : API NUMBER
SLAT .WGS84 1.079064556651396 : SURFACE LATITUDE
SLON .WGS84 6.589844035067003 : SURFACE LONGITUDE
DATUM.F               2776.21 : DEPTH DATUM ELEV
~Curve Information -----------------------------------------
DEPT.F     : 1 MEASURED DEPTH
GRD .GAPI  : GAMMA RAY FROM DENSITY LOG
PEF .B/E   : PHOTOELECTRIC FACTOR
RHOB.G/C3  : BULK DENSITY
DRHO.G/C3  : BULK DENSITY CORRECTION
DTSM.US/F  : DELTA-T SHEAR
DTCO.US/F  : DELTA-T COMPRESSIONAL
DTST.US/F  : DELTA-T STONELEY - MONOPOLE STONELEY
NPHI.DEC   : NEUTRON POROSITY
DPHI.DEC   : DENSITY POROSITY
LLD .OHMM  : LATEROLOG DEEP RESISTIVITY
MSFL.OHMM  : MICRO SPHERICALLY FOCUSED RESISTIVITY
CALR.IN    : CALIPER FROM RESISTIVITY LOG
LLS .OHMM  : LATEROLOG SHALLOW RESISTIVITY
~Params ----------------------------------------------------
~Other -----------------------------------------------------
~ASCII -----------------------------------------------------
# ...
 1138.00000   26.66100   -9999.25   -9999.25   -9999.25   78.84080   55.31930  226.30110    0.40180   -9999.25   -9999.25   -9999.25   -9999.25   -9999.25
 1138.50000   19.23670   -9999.25   -9999.25   -9999.25   79.08470   55.02070  224.38230    0.30110   -9999.25   -9999.25   -9999.25   -9999.25   -9999.25
 1139.00000   14.28920   -9999.25   -9999.25   -9999.25   79.75870   55.64390  224.43570    0.19440   -9999.25   -9999.25   -9999.25   -9999.25   -9999.25
 1139.50000   11.71820   -9999.25   -9999.25   -9999.25   80.80700   55.69710  225.23270    0.13890   -9999.25   -9999.25   -9999.25   -9999.25   -9999.25
 1140.00000   10.68980   -9999.25   -9999.25   -9999.25   82.38440   55.90320  223.85470    0.11520   -9999.25   -9999.25   -9999.25   -9999.25   -9999.25
 1140.50000   10.70990   -9999.25   -9999.25   -9999.25   84.03390   56.25100  218.09850    0.11420   -9999.25   -9999.25   -9999.25   -9999.25   -9999.25
 1141.00000   11.69960   -9999.25   -9999.25   -9999.25   84.69530   56.38360  208.09700    0.11890   -9999.25   -9999.25   -9999.25   -9999.25   -9999.25
 1141.50000   13.04170   -9999.25   -9999.25   -9999.25   83.96690   55.13900  204.80540    0.12790   -9999.25   -9999.25   -9999.25   -9999.25   -9999.25
 1142.00000   14.57420   -9999.25   -9999.25   -9999.25   85.16740   54.33150  202.78710    0.15250   -9999.25   -9999.25   -9999.25   -9999.25   -9999.25
 1142.50000   16.90370   -9999.25   -9999.25   -9999.25   86.81160   54.02700  201.65940    0.18490   -9999.25   -9999.25   -9999.25   -9999.25   -9999.25
 1143.00000   20.03980   -9999.25   -9999.25   -9999.25   86.69980   53.16210  200.37270    0.23070   -9999.25   -9999.25   -9999.25   -9999.25   -9999.25
 1143.50000   22.90410   -9999.25   -9999.25   -9999.25   83.79530   51.68620  198.71520    0.30820   -9999.25   -9999.25   -9999.25   -9999.25   -9999.25
 1144.00000   22.91440   -9999.25   -9999.25   -9999.25   83.44660   51.97520  196.96530    0.39060   -9999.25   -9999.25   -9999.25   -9999.25   -9999.25
 1144.50000   19.96010   -9999.25   -9999.25   -9999.25   85.15200   53.56560  197.11090    0.43070   -9999.25   -9999.25   -9999.25   -9999.25   -9999.25
 1145.00000   15.66420   -9999.25   -9999.25   -9999.25   84.45710   51.80020  197.91950    0.35660   -9999.25   -9999.25   -9999.25   -9999.25   -9999.25
 1145.50000   11.58300   -9999.25   -9999.25   -9999.25   83.00790   48.50820  196.21320    0.22900   -9999.25   -9999.25   -9999.25   -9999.25   -9999.25
 1146.00000    9.39980   -9999.25   -9999.25   -9999.25   83.66730   47.01930  194.42380    0.13330   -9999.25   -9999.25   -9999.25   -9999.25   -9999.25
 1146.50000    7.85520   -9999.25   -9999.25   -9999.25   86.55370   48.21540  196.26390    0.08000   -9999.25   -9999.25   -9999.25   -9999.25   -9999.25
 1147.00000    7.26110   -9999.25   -9999.25   -9999.25   89.27140   49.44750  202.21530    0.06890   -9999.25   -9999.25   -9999.25   -9999.25   -9999.25
 1147.50000    7.05710   -9999.25   -9999.25   -9999.25   91.49320   51.38770  205.67670    0.06760   -9999.25   -9999.25   -9999.25   -9999.25   -9999.25
 1148.00000    6.87430   -9999.25   -9999.25   -9999.25   95.23960   53.91060  205.47010    0.07390   -9999.25   -9999.25   -9999.25   -9999.25   -9999.25
 1148.50000    7.62680   -9999.25   -9999.25   -9999.25   98.34600   56.41620  205.65120    0.08400   -9999.25   -9999.25   -9999.25   -9999.25   -9999.25
 1149.00000   10.63110   -9999.25   -9999.25   -9999.25   95.60040   55.07910  205.46350    0.09800   -9999.25   -9999.25   -9999.25   -9999.25   -9999.25
 1149.50000   16.82490   -9999.25   -9999.25   -9999.25   83.87340   50.52050  202.01130    0.13380   -9999.25   -9999.25   -9999.25   -9999.25   -9999.25
 1150.00000   23.22750   -9999.25   -9999.25   -9999.25   79.70340   45.99860  198.55910    0.23600   -9999.25   -9999.25   -9999.25   -9999.25   -9999.25
 1150.50000   28.18100   -9999.25   -9999.25   -9999.25   80.77210   46.26220  197.10670    0.38200   -9999.25   -9999.25   -9999.25   -9999.25   -9999.25
 1151.00000   28.81460   -9999.25   -9999.25   -9999.25   82.21790   47.21830  197.45130    0.49070   -9999.25   -9999.25   -9999.25   -9999.25   -9999.25
 1151.50000   26.46980   -9999.25   -9999.25   -9999.25   84.48540   48.56310  197.34110    0.56820   -9999.25   -9999.25   -9999.25   -9999.25   -9999.25
 1152.00000   24.12950    2.50310    1.25060   -0.05100   91.19280   52.10370  198.27960    0.61330    0.91450    0.22110    0.21450    9.07870    0.21980
 1152.50000   21.77350    1.55450    1.34410   -0.04940   98.41720   56.73000  199.46690    0.60370    0.85510    0.21400    0.51570    9.21890    0.20050
 1153.00000   19.03640    1.16720    1.31520   -0.02370  103.24330   60.93300  200.16300    0.58620    0.86800    0.89180    0.91550    9.59230    0.42170
 1153.50000   15.91810    1.08900    1.20790   -0.00730  116.57900   72.89720  200.65270    0.57150    0.91660    2.49700    0.86050   10.56660    1.47460
 1154.00000   14.46160    1.05290    1.13200   -0.00300  128.21800   86.43530  201.04770    0.57690    0.97040    1.97670    0.79140   13.62450    1.21090
 1154.50000   14.46150    1.04600    1.08640   -0.00230  136.52650   96.00540  200.98270    0.60320    1.00230    1.24890    0.76480   16.97780    1.13330
 1155.00000   14.59620    1.04340    1.08180   -0.00190  140.86450   99.25210  200.38730    0.64270    1.01000    3.28170    0.80110   21.29920    2.82220
 1155.50000   14.58750    1.04070    1.08060   -0.00190  138.76630   97.99800  200.09670    0.66250    1.01050    6.42870    0.77330   23.87210    4.05410
 1156.00000   14.67710    1.03810    1.07970   -0.00210  131.38560   93.82820  200.09670    0.64120    1.01130    8.19590    0.75360   24.33290    3.85470
 1156.50000   15.03030    1.02180    1.07850   -0.00390  125.09730   89.72390  200.08090    0.61450    1.01240    9.45730    0.73500   24.34420    3.85000
 1157.00000   14.79550    1.01000    1.07750   -0.00570  124.74610   86.00980  199.47730    0.61450    1.01300   10.92960    0.72070   24.35350    4.06650
 1157.50000   14.47260    1.01060    1.07780   -0.00700  133.42690   87.57850  198.94500    0.61510    1.01260   11.86420    0.71420   24.35350    4.38880
 1158.00000   13.83840    1.04540    1.07980   -0.00680  142.44130   92.96880  199.60230    0.59900    1.01100   12.72060    0.70900   24.11820    4.60950
 1158.50000   13.39780    1.08360    1.08330   -0.00580  148.60260   95.19330  200.89540    0.57130    1.00900   13.60190    0.71110   23.63410    4.82980
 1159.00000   13.94340    1.12110    1.09090   -0.00570  150.02770   92.31220  200.96180    0.54360    1.00470   14.60410    0.69560   23.08040    4.74300
 1159.50000   15.13260    1.13260    1.10670   -0.00720  153.30020   92.13510  200.34980    0.53220    0.99610   16.48270    0.67470   22.53270    4.33930
 1160.00000   16.12310    1.10790    1.11580   -0.00790  153.79500   93.61320  200.38240    0.53160    0.99070   20.51180    0.56030   21.00250    3.92260
 1160.50000   16.62270    1.09350    1.11450   -0.00760  152.25890   95.58220  200.80730    0.53360    0.99170   29.37080    0.55180   19.39580    3.50140
 1161.00000   16.39680    1.08600    1.10170   -0.00730  147.10270   93.83980  199.87900    0.55280    1.00080   42.19890    0.61200   19.68770    3.33550
 1161.50000   16.69710    1.07850    1.09050   -0.00640  135.29550   85.38080  199.34260    0.58160    1.00610   54.32740    0.48980   21.39860    3.14510
 1162.00000   17.33180    1.07100    1.08960   -0.00310  126.68630   76.61190  201.58610    0.59540    1.00600   54.11360    0.44520   23.29860    2.82970
 1162.50000   18.41430    1.06350    1.09260    0.00030  122.59200   66.73230  204.34340    0.60660    1.00330   41.64250    0.44540   24.29480    2.47080
 1163.00000   19.25210    1.07020    1.10130    0.00230  128.71590   64.32960  208.76010    0.62110    0.99830   39.50900    0.55800   24.36500    2.29750
 1163.50000   19.57730    1.08450    1.11050    0.00310  139.32500   64.49650  209.12900    0.63130    0.99330   61.56830    0.66460   24.38020    2.32330
