~Version ---------------------------------------------------
VERS.   2.0 : CWLS log ASCII Standard -VERSION 2.0
WRAP.    NO : One line per depth step
DLM . SPACE : Column Data Section Delimiter
~Well ------------------------------------------------------
STRT .F                 1247.0 : START DEPTH
STOP .F                 4200.0 : STOP DEPTH
STEP .F                    0.5 : STEP
NULL .                -9999.25 : NULL VALUE
COMP .                         : COMPANY
WELL .                         : WELL
FLD  .                         : FIELD
LOC  .                         : LOCATION
PROV .                         : PROVINCE
CNTY .                         : COUNTY
STAT .                         : STATE
CTRY .                         : COUNTRY
SRVC .                         : SERVICE COMPANY
DATE .                         : DATE
UWI  .                         : UNIQUE WELL ID
API  .                         : API NUMBER
SLAT .WGS84  4.628471960570394 : SURFACE LATITUDE
SLON .WGS84 2.0789785591842076 : SURFACE LONGITUDE
DATUM.F                 1034.1 : DEPTH DATUM ELEV
~Curve Information -----------------------------------------
DEPT   .F     : 1 MEASURED DEPTH
SPR    .MV    : SPONTANEOUS POTENTIAL FROM RESISTIVITY LOG
SFLU   .OHMM  : SHALLOW FOCUSED RESISTIVITY (UNAVERAGED)
ILD    .OHMM  : INDUCTION DEEP RESISTIVITY
ILM    .OHMM  : INDUCTION MEDIUM RESISTIVITY
NPHI_LS.DEC   : NEUTRON POROSITY LIMESTONE
DPHI_LS.DEC   : DENSITY POROSITY LIMESTONE
CALD   .IN    : CALIPER FROM DENSITY LOG
PEF    .B/E   : PHOTOELECTRIC FACTOR
DRHO   .G/C3  : BULK DENSITY CORRECTION
RHOB   .G/C3  : BULK DENSITY
GRS    .GAPI  : GAMMA RAY FROM SONIC LOG
DTCO   .US/F  : DELTA-T COMPRESSIONAL
DTSM   .US/F  : DELTA-T SHEAR
~Params ----------------------------------------------------
~Other -----------------------------------------------------
~ASCII -----------------------------------------------------
# ...
 4185.00000  -24.79990    5.13520    4.93150    5.03330    0.27110    0.12710    7.94700    2.49460    0.08140    2.49460   -9999.25   87.48100  156.60160
 4185.50000  -25.20180    5.23140    4.93020    5.02660    0.27500    0.12370    7.89200    2.46330    0.05920    2.50100   -9999.25   86.57640  157.82910
 4186.00000  -25.60380    5.31720    4.92890    5.02000    0.27890    0.11710    7.78880    2.49090    0.04290    2.50980   -9999.25   85.38340  158.05270
 4186.50000  -25.90410    5.30370    4.92750    5.01340    0.28210    0.11100    7.69390    2.58620    0.03210    2.52020   -9999.25   84.52020  157.89600
 4187.00000  -25.92330    5.29220    4.92620    5.01290    0.28340    0.10950    7.63160    2.69590    0.01920    2.52280   -9999.25   84.19180  157.70400
 4187.50000  -27.00820    5.41930    4.92490    5.01240   -9999.25    0.10940    7.55430    2.76590    0.00740    2.52290   -9999.25   84.05680  156.76420
 4188.00000  -27.42770    5.49010    4.92360    5.01200   -9999.25    0.10870    7.47710    2.71950    0.00460    2.52410   -9999.25   83.97980  154.92190
 4188.50000  -27.72700    5.24460    4.92220    5.01990   -9999.25    0.10620    7.44570    2.66060    0.01860    2.52840   -9999.25   -9999.25   -9999.25
 4189.00000  -28.02640    4.85060    4.92060    5.03100   -9999.25    0.10370    7.45790    2.61280    0.03220    2.53260   -9999.25   -9999.25   -9999.25
 4189.50000  -27.81710    4.68340    4.91780    5.04210   -9999.25    0.10030    7.48920    2.57740    0.04580    2.53670   -9999.25   -9999.25   -9999.25
 4190.00000  -27.48420    4.67290    4.91500    5.05330   -9999.25    0.09880    7.50380    2.54930    0.05960    2.53880   -9999.25   -9999.25   -9999.25
 4190.50000  -27.15140    4.66990    4.91230    5.06450   -9999.25    0.10230    7.48070    2.53140    0.06870    2.53330   -9999.25   -9999.25   -9999.25
 4191.00000  -26.81860    4.66690    4.90950    5.07570   -9999.25    0.10750    7.44600    2.51350    0.07230    2.52590   -9999.25   -9999.25   -9999.25
 4191.50000   -9999.25   -9999.25   -9999.25   -9999.25   -9999.25    0.11280    7.33950    2.50610    0.07790    2.51870   -9999.25   -9999.25   -9999.25
 4192.00000   -9999.25   -9999.25   -9999.25   -9999.25   -9999.25    0.11340    7.16140    2.54670    0.08360    2.51600   -9999.25   -9999.25   -9999.25
 4192.50000   -9999.25   -9999.25   -9999.25   -9999.25   -9999.25    0.11220    6.77710    2.64860    0.08750    2.51810   -9999.25   -9999.25   -9999.25
 4193.00000   -9999.25   -9999.25   -9999.25   -9999.25   -9999.25    0.10700    6.34030    2.76180    0.09000    2.52910   -9999.25   -9999.25   -9999.25
 4193.50000   -9999.25   -9999.25   -9999.25   -9999.25   -9999.25    0.10250    5.75980    2.79410    0.10210    2.53670   -9999.25   -9999.25   -9999.25
 4194.00000   -9999.25   -9999.25   -9999.25   -9999.25   -9999.25    0.09800    5.96980    2.65750    0.10960    2.54350   -9999.25   -9999.25   -9999.25
 4194.50000   -9999.25   -9999.25   -9999.25   -9999.25   -9999.25    0.09350    6.17980    2.52710    0.11000    2.55030   -9999.25   -9999.25   -9999.25
 4195.00000   -9999.25   -9999.25   -9999.25   -9999.25   -9999.25    0.09060    6.58680    2.49310    0.10730    2.55750   -9999.25   -9999.25   -9999.25
 4195.50000   -9999.25   -9999.25   -9999.25   -9999.25   -9999.25    0.08990    6.97060    2.50020    0.10230    2.55900   -9999.25   -9999.25   -9999.25
 4196.00000   -9999.25   -9999.25   -9999.25   -9999.25   -9999.25    0.08990    7.05840    2.52010    0.08610    2.55640   -9999.25   -9999.25   -9999.25
 4196.50000   -9999.25   -9999.25   -9999.25   -9999.25   -9999.25    0.09510    7.14610    2.53180    0.07700    2.54710   -9999.25   -9999.25   -9999.25
 4197.00000   -9999.25   -9999.25   -9999.25   -9999.25   -9999.25    0.09650    7.23380    2.53680    0.07760    2.54490   -9999.25   -9999.25   -9999.25
 4197.50000   -9999.25   -9999.25   -9999.25   -9999.25   -9999.25    0.10380    7.32160    2.54690    0.08180    2.53230   -9999.25   -9999.25   -9999.25
 4198.00000   -9999.25   -9999.25   -9999.25   -9999.25   -9999.25    0.12140    7.49780    2.57790    0.08440    2.48480   -9999.25   -9999.25   -9999.25
 4198.50000   -9999.25   -9999.25   -9999.25   -9999.25   -9999.25    0.16200    7.69270    2.62780    0.07500    2.43290   -9999.25   -9999.25   -9999.25
 4199.00000   -9999.25   -9999.25   -9999.25   -9999.25   -9999.25    0.18990    7.83140    2.66580    0.07200    2.38650   -9999.25   -9999.25   -9999.25
 4199.50000   -9999.25   -9999.25   -9999.25   -9999.25   -9999.25    0.20680    7.97010    2.69600    0.06980    2.35630   -9999.25   -9999.25   -9999.25
 4200.00000   -9999.25   -9999.25   -9999.25   -9999.25   -9999.25    0.23460    7.57000    2.69570    0.06430    2.32170   -9999.25   -9999.25   -9999.25
