~Version ---------------------------------------------------
VERS.   2.0 : CWLS log ASCII Standard -VERSION 2.0
WRAP.    NO : One line per depth step
DLM . SPACE : Column Data Section Delimiter
~Well ------------------------------------------------------
STRT .F                 1247.0 : START DEPTH
STOP .F                 4200.0 : STOP DEPTH
STEP .F                    0.5 : STEP
NULL .                -9999.25 : NULL VALUE
COMP .                         : COMPANY
WELL .                         : WELL
FLD  .                         : FIELD
LOC  .                         : LOCATION
PROV .                         : PROVINCE
CNTY .                         : COUNTY
STAT .                         : STATE
CTRY .                         : COUNTRY
SRVC .                         : SERVICE COMPANY
DATE .                         : DATE
UWI  .                         : UNIQUE WELL ID
API  .                         : API NUMBER
SLAT .WGS84  4.628471960570394 : SURFACE LATITUDE
SLON .WGS84 2.0789785591842076 : SURFACE LONGITUDE
DATUM.F                 1034.1 : DEPTH DATUM ELEV
~Curve Information -----------------------------------------
DEPT   .F     : 1 MEASURED DEPTH
SPR    .MV    : SPONTANEOUS POTENTIAL FROM RESISTIVITY LOG
SFLU   .OHMM  : SHALLOW FOCUSED RESISTIVITY (UNAVERAGED)
ILD    .OHMM  : INDUCTION DEEP RESISTIVITY
ILM    .OHMM  : INDUCTION MEDIUM RESISTIVITY
NPHI_LS.DEC   : NEUTRON POROSITY LIMESTONE
DPHI_LS.DEC   : DENSITY POROSITY LIMESTONE
CALD   .IN    : CALIPER FROM DENSITY LOG
PEF    .B/E   : PHOTOELECTRIC FACTOR
DRHO   .G/C3  : BULK DENSITY CORRECTION
RHOB   .G/C3  : BULK DENSITY
GRS    .GAPI  : GAMMA RAY FROM SONIC LOG
DTCO   .US/F  : DELTA-T COMPRESSIONAL
DTSM   .US/F  : DELTA-T SHEAR
~Params ----------------------------------------------------
~Other -----------------------------------------------------
~ASCII -----------------------------------------------------
# ...
 2651.00000  -93.90170   15.35290    1.78850    2.17840    0.19670    0.20440    7.67810    2.02820   -0.00470    2.36050   45.53690   84.02230  155.25040
 2651.50000  -94.10810   14.06510    1.73570    2.07300    0.20140    0.20440    7.64260    2.06430   -0.00680    2.36100   47.21520   84.24920  156.33790
 2652.00000  -94.31450   12.23820    1.72760    1.99850    0.21210    0.20510    7.68630    2.08540   -0.00880    2.36050   50.05220   84.23800  157.30130
 2652.50000  -93.15300   10.19790    1.73550    2.01550    0.22640    0.20690    7.72610    2.10930   -0.01190    2.35750   54.29920   84.66340  158.26470
 2653.00000  -91.87440    9.36860    1.75800    2.07720    0.23140    0.20910    7.77870    2.16380   -0.01530    2.35320   59.36760   85.37920  159.22810
 2653.50000  -91.43590    8.67510    1.78090    2.14590    0.22870    0.21030    7.84500    2.21870   -0.01310    2.35000   61.99480   86.06710  160.04540
 2654.00000  -90.99740    8.51300    1.80730    2.21670    0.22640    0.20970    7.91300    2.21360   -0.00650    2.35230   63.06880   86.11010  160.24810
 2654.50000  -90.55900    8.26750    1.84390    2.27280    0.22620    0.20870    7.89590    2.18970   -0.00270    2.35420   62.98520   85.95850  160.68100
 2655.00000  -90.77850    7.94700    1.87070    2.30320    0.22850    0.20850    7.86370    2.16540   -0.00150    2.35460   61.57470   85.98290  161.43050
 2655.50000  -91.06110    7.28240    1.87870    2.33400    0.23460    0.20910    7.83720    2.17360    0.00110    2.35470   58.90940   86.27570  163.75990
 2656.00000  -91.83130    6.88050    1.86160    2.33040    0.23940    0.21030    7.80470    2.19950    0.00370    2.35300   57.14820   85.59870  165.00480
 2656.50000  -92.85160    7.02940    1.82390    2.30200    0.23750    0.20980    7.76850    2.22190    0.00530    2.35530   56.54070   86.10650  163.59140
 2657.00000  -93.76690    7.48330    1.78350    2.25670    0.23300    0.20810    7.73240    2.23430    0.00600    2.35920   55.36350   86.10090  159.89050
 2657.50000  -94.64210    8.00950    1.76690    2.21340    0.22910    0.20620    7.69620    2.23670    0.00610    2.36080   54.18640   85.32570  157.26570
 2658.00000  -95.50220    8.73890    1.75050    2.17140    0.22530    0.20440    7.66660    2.20310    0.00430    2.36230   52.29590   84.61190  157.10800
 2658.50000  -96.36220    9.44520    1.73740    2.13440    0.22200    0.20310    7.65020    2.14400    0.00100    2.36310   50.16330   83.98990  157.10410
 2659.00000  -96.38190   10.00050    1.72910    2.13500    0.21980    0.20340    7.64600    2.07010   -0.00260    2.36340   49.96240   83.82710  158.34700
 2659.50000  -96.06310   10.46550    1.72960    2.15080    0.21840    0.20400    7.64380    2.00350   -0.00540    2.36370   51.35990   83.89380  159.91260
 2660.00000  -95.08530   10.04540    1.74260    2.16660    0.21870    0.20200    7.66610    2.01640   -0.00530    2.36550   55.46410   83.72540  160.01520
 2660.50000  -92.99790    8.71490    1.76260    2.18160    0.21900    0.18830    7.70920    2.09570   -0.00500    2.38800   59.07430   83.48230  156.13730
 2661.00000  -89.77200    7.97780    1.78280    2.19680    0.21930    0.18350    7.75230    2.19310   -0.00460    2.39620   59.68410   83.27870  152.25930
 2661.50000  -86.98430    7.31730    1.80200    2.21200    0.21920    0.18320    7.75540    2.20660   -0.00380    2.39680   58.68120   82.98610  150.18760
 2662.00000  -84.94380    7.01790    1.80190    2.22740    0.21520    0.18590    7.74290    2.16620   -0.00210    2.39200   57.15320   82.41690  148.50900
 2662.50000  -84.58730    7.29910    1.80170    2.22460    0.20610    0.18640    7.70360    2.09050   -0.00050    2.39110   56.12010   81.65160  148.45690
 2663.00000  -84.73340    7.72900    1.79130    2.21790    0.19950    0.17950    7.69470    2.01340    0.00170    2.40310   55.38350   80.87400  149.22480
 2663.50000  -84.81510    8.17740    1.76670    2.21090    0.19290    0.17560    7.68570    1.99330    0.00500    2.40980   54.69480   78.76520  148.47070
 2664.00000  -84.72450    8.56110    1.74600    2.15900    0.18730    0.17460    7.67680    2.08150    0.00830    2.41150   57.02340   78.05520  149.27180
 2664.50000  -84.16250    8.58080    1.75410    2.10830    0.19260    0.19800    7.68590    2.15380    0.01120    2.37150   65.22940   80.15130  158.61480
 2665.00000  -79.67360    7.11540    1.76230    2.05880    0.21670    0.23780    7.75810    2.21220    0.01190    2.30950   75.07520   84.95350  164.42930
 2665.50000  -74.24410    5.53250    1.77050    2.01050    0.25390    0.28850    7.89030    2.22050    0.01190    2.21670   80.36310   86.16720  168.24900
 2666.00000  -68.72910    4.15320    1.76040    2.00050    0.27380    0.30890    7.95520    2.22050    0.01190    2.18020   75.81400   87.65650  167.04070
 2666.50000  -66.76320    3.92670    1.72450    1.99200    0.25890    0.28300    7.91420    2.14870    0.01190    2.22610   68.06430   89.30840  163.97920
 2667.00000  -67.25980    4.75940    1.68340    1.98360    0.24200    0.24670    7.83120    2.10630    0.01070    2.28810   57.14590   88.80610  161.18110
 2667.50000  -75.56550    6.43890    1.64330    1.97520    0.22510    0.21040    7.78740    2.04820    0.00320    2.35020   47.15700   86.39480  159.54810
 2668.00000  -83.89390    9.50330    1.60420    1.92390    0.21060    0.20920    7.77170    2.00320   -0.00430    2.35220   42.41150   83.72920  159.14030
 2668.50000  -89.45750   10.54200    1.56600    1.86080    0.20430    0.21610    7.75970    2.04240   -0.01080    2.34030   46.83210   83.62500  159.41370
 2669.00000  -91.29250    9.06600    1.51570    1.80980    0.20610    0.21560    7.76500    2.15680   -0.01150    2.34120   53.84720   85.92530  161.28460
 2669.50000  -89.66180    7.18830    1.45620    1.76080    0.21990    0.20580    7.77180    2.26030   -0.00930    2.35800   62.11110   87.58400  163.12720
 2670.00000  -88.16090    5.49010    1.39910    1.71450    0.23660    0.19130    7.77870    2.27030   -0.00710    2.38280   60.75850   88.22140  163.82750
 2670.50000  -88.19720    5.61840    1.34420    1.66940    0.23800    0.19180    7.78180    2.20860   -0.00490    2.38190   54.80150   87.10540  163.90360
 2671.00000  -91.59020    7.07490    1.29150    1.62540    0.22880    0.20200    7.78110    2.12540   -0.00320    2.36430   48.73330   85.77550  160.94980
 2671.50000  -96.38380    8.85810    1.24080    1.58270    0.22020    0.21320    7.78040    2.03990   -0.00480    2.34450   45.06980   83.72740  157.40460
 2672.00000 -101.38760   10.04160    1.19210    1.51720    0.21310    0.21950    7.77980    1.97920   -0.00780    2.33260   43.91300   83.11040  157.11380
 2672.50000 -106.61300   10.40890    1.14360    1.45190    0.20880    0.22050    7.77910    1.93290   -0.00860    2.33130   43.94550   83.14050  157.85030
 2673.00000 -108.91850   10.58800    1.09420    1.38940    0.20810    0.22020    7.77840    1.90880   -0.00650    2.33370   43.48510   83.00140  158.75090
 2673.50000 -109.84960   10.76190    1.04700    1.32960    0.20790    0.21970    7.77770    1.90980   -0.00440    2.33350   42.90160   83.24310  159.44510
 2674.00000 -109.99840   10.84460    1.02630    1.28770    0.20860    0.22080    7.78900    1.90460   -0.00290    2.32970   43.15030   83.86960  159.63800
 2674.50000 -109.70440   10.50500    1.01990    1.29450    0.20950    0.22360    7.78100    1.87890   -0.00330    2.32580   43.37460   83.87470  159.64330
 2675.00000 -109.41040    9.48140    1.01370    1.31560    0.21500    0.22560    7.77340    1.85330   -0.00380    2.32270   41.93860   83.19160  159.58390
 2675.50000 -109.71060    8.90350    1.00870    1.33710    0.21690    0.22460    7.77040    1.83370   -0.00420    2.32530   39.76480   82.25330  159.49410
 2676.00000 -110.06250    9.48240    1.00810    1.34090    0.21530    0.22420    7.76750    1.81610   -0.00430    2.32820   38.18560   82.97110  164.81940
 2676.50000 -110.06250   10.67820    1.01100    1.33450    0.21360    0.22530    7.76450    1.83720   -0.00390    2.32500   39.58580   84.06970  170.24260
