~Version ---------------------------------------------------
VERS.   2.0 : CWLS log ASCII Standard -VERSION 2.0
WRAP.    NO : One line per depth step
DLM . SPACE : Column Data Section Delimiter
~Well ------------------------------------------------------
STRT .F                 1247.0 : START DEPTH
STOP .F                 4200.0 : STOP DEPTH
STEP .F                    0.5 : STEP
NULL .                -9999.25 : NULL VALUE
COMP .                         : COMPANY
WELL .                         : WELL
FLD  .                         : FIELD
LOC  .                         : LOCATION
PROV .                         : PROVINCE
CNTY .                         : COUNTY
STAT .                         : STATE
CTRY .                         : COUNTRY
SRVC .                         : SERVICE COMPANY
DATE .                         : DATE
UWI  .                         : UNIQUE WELL ID
API  .                         : API NUMBER
SLAT .WGS84  4.628471960570394 : SURFACE LATITUDE
SLON .WGS84 2.0789785591842076 : SURFACE LONGITUDE
DATUM.F                 1034.1 : DEPTH DATUM ELEV
~Curve Information -----------------------------------------
DEPT   .F     : 1 MEASURED DEPTH
SPR    .MV    : SPONTANEOUS POTENTIAL FROM RESISTIVITY LOG
SFLU   .OHMM  : SHALLOW FOCUSED RESISTIVITY (UNAVERAGED)
ILD    .OHMM  : INDUCTION DEEP RESISTIVITY
ILM    .OHMM  : INDUCTION MEDIUM RESISTIVITY
NPHI_LS.DEC   : NEUTRON POROSITY LIMESTONE
DPHI_LS.DEC   : DENSITY POROSITY LIMESTONE
CALD   .IN    : CALIPER FROM DENSITY LOG
PEF    .B/E   : PHOTOELECTRIC FACTOR
DRHO   .G/C3  : BULK DENSITY CORRECTION
RHOB   .G/C3  : BULK DENSITY
GRS    .GAPI  : GAMMA RAY FROM SONIC LOG
DTCO   .US/F  : DELTA-T COMPRESSIONAL
DTSM   .US/F  : DELTA-T SHEAR
~Params ----------------------------------------------------
~Other -----------------------------------------------------
~ASCII -----------------------------------------------------
# ...
 1871.00000  -36.49880    3.85100    4.68970    4.00700    0.38080    0.26430   11.02270    2.97060    0.06900    2.25810   82.51890  100.19890  170.61260
 1871.50000  -35.93800    3.88800    4.52840    3.98990    0.35380    0.24650   11.02060    3.07840    0.05260    2.28740   81.63810   98.74010  166.83630
 1872.00000  -35.31770    4.08480    4.39500    4.05880    0.33490    0.22260   11.01690    3.18080    0.04090    2.33880   81.18200   97.15960  159.02600
 1872.50000  -34.90360    4.30030    4.32940    4.02550    0.33690    0.21450   10.95430    3.17270    0.03130    2.34770   81.84320   95.19300  149.26750
 1873.00000  -34.62570    4.19570    4.23390    3.71570    0.35280    0.22040   10.82740    3.06410    0.02180    2.32940   85.08440   93.27420  144.83330
 1873.50000  -34.34780    3.87440    4.07520    3.34030    0.36870    0.23490   10.70270    2.98080    0.01290    2.30330   88.86430   95.46220  138.50940
 1874.00000  -33.67280    3.33290    3.95090    3.00280    0.38160    0.24770   10.59350    2.99930    0.00620    2.28590   91.58170   99.11730  135.87880
 1874.50000  -32.97740    2.89750    3.80530    2.85830    0.39420    0.24540   10.54930    3.08810    0.00120    2.29370   92.73870  102.84830  134.61980
 1875.00000  -32.28190    2.51890    3.72580    2.99470    0.37820    0.22840   10.59830    3.18080   -0.00020    2.31340   90.78250  103.47320  134.62520
 1875.50000  -32.01050    2.43740    3.72670    3.33980    0.34840    0.20590   10.66690    3.24550   -0.00160    2.35770   86.73020  101.61050  134.63060
 1876.00000  -31.90180    2.60850    3.91990    3.63370    0.30690    0.17530   10.69140    3.22180   -0.00230    2.41870   80.88070   98.83950  134.63600
 1876.50000  -31.79300    3.27450    4.12540    3.93800    0.26940    0.15280   10.66750    3.10240   -0.00140    2.44840   75.94730   95.15600  133.80780
 1877.00000  -31.61500    4.39910    4.50580    4.26780    0.25450    0.14750   10.62240    2.95860   -0.00040    2.45800   72.03250   91.62160  132.55840
 1877.50000  -31.36960    5.23090    4.92120    4.62520    0.24940    0.15970   10.56870    2.90150    0.00220    2.43680   69.90230   85.41960  125.74550
 1878.00000  -31.12420    5.52970    5.31500    5.01250    0.24570    0.17930   10.53010    2.92950    0.00720    2.40330   71.11580   81.72870  121.25740
 1878.50000  -31.64430    5.59900    5.41290    5.22860    0.24740    0.19290   10.56170    2.86500    0.01490    2.38010   72.00970   79.38080  115.92080
 1879.00000  -32.60170    5.53440    5.37220    5.31810    0.25700    0.21480   10.64960    2.76490    0.02670    2.34110   71.59990   78.21680  112.83560
 1879.50000  -33.55910    5.37100    5.31750    5.20730    0.27010    0.23290   10.95240    2.73210    0.04020    2.31160   71.03770   77.11400  112.40350
 1880.00000  -34.51660    5.00240    5.26330    5.06290    0.27830    0.23750   11.39100    2.81960    0.05370    2.30390   71.26680   75.97570  112.97890
 1880.50000  -35.47400    4.58220    5.19650    4.97100    0.28630    0.21590   11.68580    2.92000    0.06270    2.34050   72.83690   78.78320  122.66350
 1881.00000  -36.16540    4.34000    5.10440    4.90200    0.29410    0.19340   11.78190    2.91560    0.06810    2.37920   74.01160   86.61040  136.98820
 1881.50000  -36.13490    4.30120    5.01390    4.83410    0.30120    0.18090   11.69100    2.87200    0.06950    2.40500   73.92590   91.59650  148.68790
 1882.00000  -35.47480    4.45170    4.92500    4.76710    0.30620    0.16970   11.59960    2.86820    0.06940    2.42330   73.14370   91.15290  151.94530
 1882.50000  -35.01010    4.46780    4.83760    4.70370    0.31390    0.17030   11.53430    2.91130    0.06760    2.40960   72.35880   90.29800  154.44670
 1883.00000  -34.66310    4.45180    4.75180    4.62660    0.32150    0.19530   11.53010    2.99010    0.06530    2.37510   71.40410   90.10710  159.58310
 1883.50000  -34.38900    4.44050    4.66760    4.52950    0.33890    0.21160   11.67050    3.01520    0.06390    2.35500   70.44940   89.42780  162.83110
 1884.00000  -34.11490    4.38490    4.58480    4.43450    0.34550    0.21080   11.99070    3.00690    0.06310    2.35040   69.89290   88.52300  165.53400
 1884.50000  -34.74000    4.27080    4.50350    4.34140    0.34920    0.20470   12.21630    2.84140    0.06150    2.36120   69.86710   87.74000  168.37450
 1885.00000  -35.30910    4.15960    4.42360    4.25030    0.35340    0.20200   12.23220    2.85660    0.05770    2.36140   69.84120   88.34490  174.86120
 1885.50000  -35.44990    4.07010    4.34410    4.16120    0.36060    0.20420   12.24170    2.95770    0.04820    2.36070   70.56670   89.75600  182.16730
 1886.00000  -35.46230    4.03070    4.26600    4.07380    0.37150    0.20080   12.25120    3.12060    0.04530    2.36610   71.72340   91.84150  184.50860
 1886.50000  -35.47470    3.99160    4.19940    3.98830    0.38000    0.19570   12.29820    3.19060    0.04270    2.37540   73.26830   97.23350  186.06380
 1887.00000  -35.48700    3.92260    4.15510    3.93700    0.38270    0.20400   12.32910    3.16310    0.04020    2.36120   75.99420   99.72020  186.01350
 1887.50000  -34.71810    3.82210    4.11120    3.90090    0.38030    0.21440   12.21140    3.14710    0.02920    2.34190   77.84190   99.14870  185.98820
 1888.00000  -33.45370    3.69810    4.06970    3.86500    0.37850    0.21110   12.02510    3.15240    0.01890    2.34890   79.82540   98.26040  187.05670
 1888.50000  -32.42830    3.60630    4.03790    3.82950    0.37700    0.20530   11.99490    3.17840    0.01070    2.35900   80.28860   99.19970  188.21060
 1889.00000  -32.42830    3.58460    4.00650    3.79430    0.37700    0.20340   11.95940    3.15520    0.00250    2.36230   79.78610  100.29430  189.28060
 1889.50000  -33.48640    3.59440    3.97530    3.75940    0.37770    0.20540   11.92740    3.09410    0.00140    2.35880   79.55330  101.29430  189.45700
 1890.00000  -34.61530    3.61000    3.94430    3.73990    0.37620    0.21030   11.88750    3.11430    0.00340    2.35040   79.56120  102.93100  189.38150
 1890.50000  -35.73220    3.62570    3.91350    3.72460    0.37160    0.21110   11.78180    3.14770    0.00300    2.34880   79.93410  103.84850  189.34880
 1891.00000  -36.69110    3.64150    3.87050    3.73610    0.36380    0.20930   11.68840    3.16420    0.00150    2.35210   81.64870  103.92970  189.42500
 1891.50000  -37.77460    3.64340    3.82350    3.75070    0.35460    0.20850   11.63210    3.11260    0.00010    2.35350   83.27660  103.92150  189.49730
 1892.00000  -39.00490    3.63010    3.79100    3.73590    0.33830    0.21220   11.58870    3.10200   -0.00130    2.34710   84.87440  103.81420  189.26090
 1892.50000  -40.22310    3.55190    3.77900    3.63840    0.33030    0.21740   11.54530    3.17050   -0.00220    2.33820   85.29580  103.30370  189.26170
 1893.00000  -41.23110    3.47540    3.76710    3.54340    0.33320    0.21650   11.47810    3.33690   -0.00260    2.33950   86.18780  102.79330  189.26240
 1893.50000  -42.23920    3.36680    3.75290    3.45090    0.34150    0.20620   11.37600    3.49790   -0.00230    2.35810   87.09120  102.56090  189.26320
 1894.00000  -43.24730    3.26130    3.73500    3.33430    0.36300    0.21120   11.15740    3.55900   -0.00170    2.34910   94.28470  102.91780  189.26400
 1894.50000  -44.64980    3.20350    3.57420    3.25830    0.39150    0.22770   11.11590    3.35910   -0.00100    2.31830  106.24770  104.04780  189.27150
 1895.00000  -46.30020    3.13720    3.34690    3.18390    0.41730    0.26880   11.20960    3.13570   -0.00030    2.24980  119.42200  104.79230  189.28290
 1895.50000  -48.27950    3.04840    3.30690    3.11880    0.43570    0.30190   11.61680    2.91220    0.00130    2.19030  130.34600  105.89690  189.29160
 1896.00000  -50.01370    2.99470    3.33500    3.09320    0.42240    0.33190   12.20440    2.76790    0.00500    2.13950  125.34120  107.36800  189.27100
 1896.50000  -49.50770    2.97870    3.37930    3.17710    0.39360    0.32990   12.56270    3.00140    0.00820    2.15140  109.92540  106.63270  189.26430
