~Version ---------------------------------------------------
VERS.   2.0 : CWLS log ASCII Standard -VERSION 2.0
WRAP.    NO : One line per depth step
DLM . SPACE : Column Data Section Delimiter
~Well ------------------------------------------------------
STRT .F                 1247.0 : START DEPTH
STOP .F                 4200.0 : STOP DEPTH
STEP .F                    0.5 : STEP
NULL .                -9999.25 : NULL VALUE
COMP .                         : COMPANY
WELL .                         : WELL
FLD  .                         : FIELD
LOC  .                         : LOCATION
PROV .                         : PROVINCE
CNTY .                         : COUNTY
STAT .                         : STATE
CTRY .                         : COUNTRY
SRVC .                         : SERVICE COMPANY
DATE .                         : DATE
UWI  .                         : UNIQUE WELL ID
API  .                         : API NUMBER
SLAT .WGS84  4.628471960570394 : SURFACE LATITUDE
SLON .WGS84 2.0789785591842076 : SURFACE LONGITUDE
DATUM.F                 1034.1 : DEPTH DATUM ELEV
~Curve Information -----------------------------------------
DEPT   .F     : 1 MEASURED DEPTH
SPR    .MV    : SPONTANEOUS POTENTIAL FROM RESISTIVITY LOG
SFLU   .OHMM  : SHALLOW FOCUSED RESISTIVITY (UNAVERAGED)
ILD    .OHMM  : INDUCTION DEEP RESISTIVITY
ILM    .OHMM  : INDUCTION MEDIUM RESISTIVITY
NPHI_LS.DEC   : NEUTRON POROSITY LIMESTONE
DPHI_LS.DEC   : DENSITY POROSITY LIMESTONE
CALD   .IN    : CALIPER FROM DENSITY LOG
PEF    .B/E   : PHOTOELECTRIC FACTOR
DRHO   .G/C3  : BULK DENSITY CORRECTION
RHOB   .G/C3  : BULK DENSITY
GRS    .GAPI  : GAMMA RAY FROM SONIC LOG
DTCO   .US/F  : DELTA-T COMPRESSIONAL
DTSM   .US/F  : DELTA-T SHEAR
~Params ----------------------------------------------------
~Other -----------------------------------------------------
~ASCII -----------------------------------------------------
# ...
 3405.00000  -16.21140    3.92500    3.67850    3.74580    0.28500    0.13690    9.62740    2.98250    0.04240    2.47580  111.76290   48.82600   93.71190
 3405.50000  -15.95380    3.96860    3.67670    3.74400    0.27790    0.13250    9.64690    3.03960    0.04720    2.48340  110.29840   48.89820   93.90800
 3406.00000  -15.80260    3.97630    3.67490    3.74220    0.27030    0.13020    9.67950    3.06600    0.05010    2.48740  108.85440   51.47290   93.71740
 3406.50000  -15.88780    3.93160    3.66910    3.73630    0.26390    0.13080    9.71200    3.07080    0.05010    2.48630  106.01980   51.81840   93.49460
 3407.00000  -15.97290    3.88850    3.66130    3.72840    0.26410    0.13180    9.75170    3.07560    0.04790    2.48450  105.06640   51.04620   93.49830
 3407.50000  -16.05810    3.86990    3.65350    3.72040    0.27060    0.13100    9.81550    3.08290    0.04490    2.48600  106.64060   49.73470   93.50170
 3408.00000  -16.28950    3.85140    3.64580    3.71250    0.27800    0.12930    9.87930    3.12020    0.04350    2.48880  108.64280   48.16180   93.27750
 3408.50000  -16.69040    3.83300    3.63800    3.70460    0.28290    0.12840    9.88140    3.13420    0.04550    2.49040  109.94510   46.64110   92.51110
 3409.00000  -17.07030    3.81460    3.63030    3.69680    0.28790    0.12910    9.85990    3.09880    0.04820    2.48930  109.37420   45.11640   92.34700
 3409.50000  -17.30450    3.79860    3.62260    3.68890    0.29290    0.13010    9.83780    3.05200    0.05020    2.48750  107.41900   44.17180   92.55000
 3410.00000  -17.65050    3.78560    3.60690    3.67320    0.29670    0.13020    9.81490    3.00530    0.04780    2.48740  105.34590   43.35320   93.07910
 3410.50000  -17.99640    3.77260    3.58920    3.65520    0.29940    0.13090    9.79600    2.93710    0.04420    2.48620  105.59930   42.80390   93.49690
 3411.00000  -18.34240    3.75630    3.57150    3.63720    0.30080    0.13260    9.77340    2.91330    0.04390    2.48320  106.80140   42.77260   93.49920
 3411.50000  -18.68840    3.73980    3.55800    3.62310    0.30200    0.13780    9.75750    2.89400    0.04360    2.47450  107.91620   42.93540   93.54590
 3412.00000  -18.63190    3.72330    3.55200    3.61700    0.30340    0.14060    9.74380    2.89270    0.04370    2.46610  108.27650   42.99270   93.69430
 3412.50000  -17.94770    3.70690    3.54590    3.61080    0.30510    0.14120    9.77080    2.89150    0.04770    2.46620  108.39810   42.96390   93.49020
 3413.00000  -17.07690    3.68550    3.53990    3.60470    0.30680    0.13700    9.81700    2.92080    0.05510    2.47570  108.58290   42.99990   93.68890
 3413.50000  -16.20610    3.66090    3.53390    3.59850    0.30740    0.13150    9.87790    2.98820    0.06250    2.48560  107.52570   43.20930   94.19360
 3414.00000  -15.45370    3.63650    3.52790    3.59240    0.30610    0.12870    9.93880    3.06190    0.06620    2.49190  104.91200   43.56930   95.21860
 3414.50000  -14.72580    3.61220    3.52910    3.59380    0.30350    0.13240    9.95720    3.11450    0.06160    2.48420  104.20540   43.56490   95.16580
 3415.00000  -13.99790    3.61640    3.53840    3.60330    0.29620    0.14070    9.95230    3.10630    0.05280    2.46770  105.75100   43.65150   95.05850
 3415.50000  -13.27000    3.68710    3.54780    3.61280    0.28570    0.14800    9.94750    3.07800    0.04400    2.45410  107.55730   43.91410   96.19520
 3416.00000  -12.81010    3.80850    3.56370    3.62940    0.28300    0.15470    9.94260    3.08030    0.03650    2.44880  107.54680   44.11650   96.09520
 3416.50000  -12.59310    3.89130    3.58330    3.64940    0.28950    0.15220    9.94700    3.10900    0.03870    2.45540  107.02040   44.30610   95.43430
 3417.00000  -12.57630    3.87540    3.60310    3.66960    0.29670    0.14420    9.95810    3.16410    0.04570    2.46400  107.67300   44.59410   95.85420
 3417.50000  -12.55950    3.80720    3.58120    3.64780    0.29820    0.13530    9.96910    3.13990    0.05280    2.47870  109.74240   44.95230   97.04090
 3418.00000  -12.54270    3.68940    3.54980    3.61580    0.29370    0.12390    9.98030    3.07870    0.05860    2.49820  110.85530   45.06280   97.40070
 3418.50000  -12.65000    3.57530    3.51860    3.58410    0.29330    0.12290   10.00730    3.00440    0.05880    2.49990  109.96940   45.10490   97.40780
 3419.00000  -12.97740    3.53210    3.51710    3.58150    0.29310    0.12670    9.99310    2.98700    0.05360    2.49330  106.92090   44.92630   96.28710
 3419.50000  -13.31160    3.55130    3.51630    3.58070    0.29720    0.13310    9.89400    2.97690    0.04550    2.48230  105.22410   45.05180   96.46160
 3420.00000  -13.69980    3.63250    3.54460    3.61060    0.29630    0.13990    9.77620    2.97610    0.03660    2.47060  106.19650   44.75530   96.13660
 3420.50000  -13.99020    3.78520    3.57450    3.64110    0.27620    0.14420    9.65090    2.97490    0.03380    2.46340  107.65430   44.22610   95.71090
 3421.00000  -14.28310    3.93260    3.60470    3.67180    0.26750    0.14360    9.56070    2.98870    0.03480    2.46440  107.92510   43.61420   93.50870
 3421.50000  -14.57590    4.04010    3.63510    3.70270    0.26550    0.14100    9.47050    3.00240    0.03590    2.46900  107.76750   43.00240   92.56550
 3422.00000  -14.86880    4.05780    3.66490    3.73280    0.27280    0.14060    9.38030    3.01610    0.03630    2.46940  107.60620   42.39060   91.65730
 3422.50000  -15.16170    3.98830    3.69060    3.75890    0.28200    0.15140    9.29060    3.02990    0.03630    2.45360  107.56500   41.97860   90.93790
 3423.00000  -15.47210    3.79720    3.71640    3.78520    0.28530    0.16240    9.25030    3.06530    0.03350    2.43210  107.59770   42.25360   91.06460
 3423.50000  -15.79300    3.78450    3.74250    3.81180    0.28780    0.16670    9.22470    3.15800    0.02830    2.42460  107.77130   43.69390   91.92890
 3424.00000  -16.11400    3.81790    3.76870    3.83850    0.29020    0.16760    9.21880    3.22860    0.02320    2.42470  110.16860   47.39870   92.59350
 3424.50000  -16.20460    4.02200    3.77080    3.84020    0.29330    0.16650    9.23370    3.22620    0.01800    2.42580  112.50720   49.19150   92.85800
 3425.00000  -15.88220    3.93110    3.75210    3.82110    0.30010    0.16810    9.24860    3.10660    0.01770    2.42500  114.55270   49.23560   93.19760
 3425.50000  -15.55970    3.87250    3.67710    3.75160    0.29970    0.16280    9.26360    2.95590    0.02050    2.43250  114.70040   49.09100   93.20560
 3426.00000  -15.06700    3.77430    3.59810    3.67100    0.29840    0.15420    9.19680    2.85790    0.02300    2.44640  112.10050   49.01320   92.45730
 3426.50000  -14.34960    3.67860    3.55650    3.62220    0.29880    0.14740    9.18220    2.81480    0.02390    2.45800  111.66480   49.01570   91.36160
 3427.00000  -13.63220    3.62310    3.53290    3.59820    0.30440    0.14370    9.18030    2.80780    0.02480    2.46450  113.04140   49.01820   91.71070
 3427.50000  -12.91490    3.63470    3.51490    3.57910    0.31140    0.14630    9.18240    2.81440    0.02580    2.45970  113.62410   49.02060   92.93600
 3428.00000  -12.19750    3.65610    3.51490    3.57910    0.31300    0.15580    9.24340    2.86250    0.02620    2.44190  113.12820   48.96960   94.73690
 3428.50000  -11.19740    3.68590    3.51490    3.57910    0.31300    0.16370    9.30430    2.94140    0.02610    2.42660  112.30180   48.69390   97.02040
 3429.00000   -9.93670    3.68670    3.49110    3.55950    0.31080    0.16620    9.36720    3.02900    0.02610    2.42890  111.58630   47.84400   97.98610
 3429.50000  -10.05820    3.61140    3.42950    3.49680    0.30650    0.15820    9.48470    3.07270    0.02570    2.43910  110.75730   46.49880   95.29590
 3430.00000  -10.67420    3.53190    3.36910    3.43520    0.30060    0.14960    9.56420    3.02290    0.02410    2.45450  109.96770   45.32850   95.00790
 3430.50000  -11.31470    3.45850    3.30970    3.37460    0.29760    0.15710    9.58670    2.96930    0.02200    2.44120  109.97260   45.22060   95.00620
