~Version ---------------------------------------------------
VERS.   2.0 : CWLS log ASCII Standard -VERSION 2.0
WRAP.    NO : One line per depth step
DLM . SPACE : Column Data Section Delimiter
~Well ------------------------------------------------------
STRT .F                 1247.0 : START DEPTH
STOP .F                 4200.0 : STOP DEPTH
STEP .F                    0.5 : STEP
NULL .                -9999.25 : NULL VALUE
COMP .                         : COMPANY
WELL .                         : WELL
FLD  .                         : FIELD
LOC  .                         : LOCATION
PROV .                         : PROVINCE
CNTY .                         : COUNTY
STAT .                         : STATE
CTRY .                         : COUNTRY
SRVC .                         : SERVICE COMPANY
DATE .                         : DATE
UWI  .                         : UNIQUE WELL ID
API  .                         : API NUMBER
SLAT .WGS84  4.628471960570394 : SURFACE LATITUDE
SLON .WGS84 2.0789785591842076 : SURFACE LONGITUDE
DATUM.F                 1034.1 : DEPTH DATUM ELEV
~Curve Information -----------------------------------------
DEPT   .F     : 1 MEASURED DEPTH
SPR    .MV    : SPONTANEOUS POTENTIAL FROM RESISTIVITY LOG
SFLU   .OHMM  : SHALLOW FOCUSED RESISTIVITY (UNAVERAGED)
ILD    .OHMM  : INDUCTION DEEP RESISTIVITY
ILM    .OHMM  : INDUCTION MEDIUM RESISTIVITY
NPHI_LS.DEC   : NEUTRON POROSITY LIMESTONE
DPHI_LS.DEC   : DENSITY POROSITY LIMESTONE
CALD   .IN    : CALIPER FROM DENSITY LOG
PEF    .B/E   : PHOTOELECTRIC FACTOR
DRHO   .G/C3  : BULK DENSITY CORRECTION
RHOB   .G/C3  : BULK DENSITY
GRS    .GAPI  : GAMMA RAY FROM SONIC LOG
DTCO   .US/F  : DELTA-T COMPRESSIONAL
DTSM   .US/F  : DELTA-T SHEAR
~Params ----------------------------------------------------
~Other -----------------------------------------------------
~ASCII -----------------------------------------------------
# ...
 2079.00000  -29.37260    3.25220    3.82970    3.42170    0.35800    0.21560   10.21600    3.08110   -0.00190    2.34130   99.88390  109.14710  114.23520
 2079.50000  -29.48150    3.24760    3.91340    3.51230    0.35000    0.21160   10.29550    3.05350   -0.00150    2.34810   99.59570  107.85290  114.24510
 2080.00000  -29.59030    3.28250    4.00950    3.61410    0.34970    0.20770   10.33380    2.99460   -0.00060    2.35480   99.78350  106.59420  114.24280
 2080.50000  -30.14730    3.31780    4.11060    3.71890    0.34920    0.20320   10.32830    3.00620    0.00020    2.36250  100.37400  105.34250  114.24050
 2081.00000  -30.79960    3.35340    4.21430    3.82680    0.34090    0.19800   10.33980    3.03520    0.00100    2.37140  101.14040  104.24300  114.23820
 2081.50000  -31.45190    3.42580    4.32060    3.93780    0.32720    0.19180   10.44740    3.03460    0.00180    2.38190  100.43840  102.98740  114.23910
 2082.00000  -32.23370    3.55660    4.41400    4.05200    0.30830    0.18240   10.75490    2.91070    0.00340    2.39810   97.83310  100.55240  114.27900
 2082.50000  -33.04650    3.74160    4.45380    4.16470    0.29450    0.17250   11.37100    2.90900    0.00490    2.41490   95.14070   99.10700  114.23600
 2083.00000  -33.85930    3.96960    4.49520    4.27030    0.29840    0.16580   11.70190    2.94420    0.00480    2.42670   91.91630   98.87640  114.23600
 2083.50000  -34.47030    4.07220    4.53690    4.33110    0.30880    0.16650   11.83760    2.97940    0.00370    2.42530   89.35230   97.70250  114.23600
 2084.00000  -34.78080    4.04810    4.57900    4.35830    0.31310    0.17150   12.06140    3.01630    0.00250    2.41660   90.23120   97.14810  114.23600
 2084.50000  -35.09130    4.02150    4.62150    4.38580    0.29730    0.17410   12.28510    3.05630    0.00180    2.41230   92.01140   96.99200  114.23600
 2085.00000  -35.40180    3.99330    4.63640    4.41340    0.30140    0.17420   12.32100    3.09000    0.00270    2.41210   91.89810   96.32870  114.23600
 2085.50000  -35.71230    4.03070    4.63850    4.44810    0.30620    0.17330   12.17220    3.10090    0.00460    2.41350   90.57450   95.03580  114.23600
 2086.00000  -35.79420    4.10240    4.60820    4.47540    0.30550    0.17180   12.07060    3.02990    0.00530    2.41620   89.06370   93.48730  114.23750
 2086.50000  -35.80200    4.17530    4.56830    4.49670    0.29170    0.17020   11.96680    2.90390    0.00550    2.41890   87.34540   91.17830  114.24990
 2087.00000  -35.35010    4.25730    4.58410    4.51570    0.27680    0.16880   11.94990    2.85360    0.00540    2.42120   87.07050   90.02420  114.26230
 2087.50000  -34.87470    4.36270    4.62060    4.53470    0.26070    0.16800   12.42190    2.88220    0.00540    2.42260   86.25570   90.37410  114.27470
 2088.00000  -34.39920    4.33930    4.67260    4.55380    0.26320    0.16930   12.97850    2.93060    0.00530    2.42040   87.05790   92.28050  114.27080
 2088.50000  -33.90950    4.28020    4.74150    4.57290    0.26600    0.17070   13.06300    2.97550    0.00450    2.41800   89.51850   94.24580  114.27690
 2089.00000  -32.93200    4.22190    4.81150    4.59220    0.26390    0.17200   12.89980    2.99890    0.00340    2.41570   89.73420   96.47720  114.26560
 2089.50000  -32.50690    4.27130    4.84730    4.61620    0.25790    0.16980   12.61410    3.01170    0.00220    2.41960   88.93990   97.34290  114.26850
 2090.00000  -32.71700    4.47530    4.83490    4.64040    0.24010    0.16520   12.32400    3.00140    0.00100    2.42740   84.89970   95.78270  114.27140
 2090.50000  -33.38000    4.69890    4.79880    4.65850    0.23960    0.16070   12.08550    2.89480    0.00040    2.43510   83.58780   94.31140  114.27430
 2091.00000  -34.04290    4.77960    4.75890    4.63740    0.24210    0.15830   12.03500    2.84430    0.00040    2.43940   84.01770   92.84020  114.27730
 2091.50000  -34.70590    4.60430    4.71220    4.61170    0.24340    0.16200   12.09210    2.81970    0.00310    2.43290   84.71320   91.18040  114.28020
 2092.00000  -35.46940    4.35070    4.63030    4.57870    0.23670    0.16730   12.13990    2.81460    0.00570    2.42420   85.40860   88.72340  114.28310
 2092.50000  -36.42610    4.23480    4.60210    4.54590    0.22700    0.18100   12.01720    2.82320    0.01170    2.40440   84.55610   88.63500  114.28420
 2093.00000  -37.38290    4.21160    4.57420    4.51330    0.21740    0.18930   11.99240    2.76390    0.02330    2.38820   83.19100   89.05610  114.28420
 2093.50000  -38.33960    4.20610    4.53350    4.47950    0.21960    0.19600   12.16340    2.66010    0.03760    2.37910   80.05920   89.52400  114.28420
 2094.00000  -39.29630    4.07970    4.49130    4.43100    0.22420    0.19610   12.36650    2.54210    0.05860    2.37680   77.61000   89.92120  114.28420
 2094.50000  -40.25310    3.99180    4.49210    4.41260    0.22320    0.19600   12.57670    2.50060    0.07070    2.37550   75.63570   89.67230  114.27770
 2095.00000  -41.24660    4.17730    4.51590    4.41020    0.22040    0.19680   12.64920    2.49470    0.07410    2.37360   76.90350   88.78620  114.26930
 2095.50000  -42.03760    4.50990    4.50800    4.41980    0.21450    0.19970   12.69610    2.49480    0.07330    2.36860   78.33760   88.52520  114.29460
 2096.00000  -42.67970    4.63060    4.49590    4.42940    0.20710    0.20130   12.51970    2.49490    0.06410    2.36530   79.29490   88.63720  114.30220
 2096.50000  -43.43380    4.50810    4.48390    4.42810    0.19790    0.19240   12.36700    2.51520    0.05820    2.38110   79.29490   88.70890  114.30990
 2097.00000  -44.18790    4.34290    4.47190    4.41620    0.19340    0.18720   12.21440    2.53790    0.05610    2.39000   77.92870   88.78060  114.31760
 2097.50000  -44.94200    4.36940    4.46440    4.40880    0.18760    0.19000   12.09250    2.60090    0.05310    2.38800   75.21670   88.77060  114.25720
 2098.00000  -45.69610    4.40130    4.46070    4.40520    0.18100    0.18830   11.98480    2.64730    0.05010    2.38970   72.55100   86.17840  114.26010
 2098.50000  -46.64990    4.39770    4.45710    4.40160    0.17960    0.15720   11.79000    2.73860    0.05660    2.44210   69.95610   82.62130  114.26300
 2099.00000  -47.97700    4.37060    4.45340    4.39800    0.18220    0.14800   11.72070    2.70170    0.06800    2.45750   69.93900   80.45770  114.26590
 2099.50000  -49.30400    4.35260    4.44980    4.39440    0.19310    0.17620   11.66040    2.56340    0.07280    2.40720   70.00310   79.98310  114.26880
 2100.00000  -50.54370    4.34920    4.53580    4.47440    0.27320    0.24900   11.79060    2.37880    0.07170    2.30080   74.05130   80.68330  115.90180
 2100.50000  -51.45540    4.31520    4.62450    4.56190    0.30010    0.31290   11.92220    2.35040    0.05930    2.18870   78.60820   82.00260  118.68680
 2101.00000  -52.36720    4.26670    4.71500    4.65120    0.30490    0.30520   12.04720    2.44560    0.05330    2.18600   82.89560   83.10200  124.90040
 2101.50000  -52.55870    4.21170    4.80720    4.74230    0.29210    0.26560   12.52940    2.50650    0.04940    2.25390   87.10640   87.23150  128.60390
 2102.00000  -51.29260    4.27400    4.87100    4.80860    0.27580    0.22240   12.66100    2.50550    0.04600    2.33340   89.99430   95.18460  130.70490
 2102.50000  -50.02650    4.54900    4.92820    4.86500    0.26370    0.22330   12.35280    2.58990    0.03910    2.32810   89.87280   98.99500  131.10420
 2103.00000  -48.27860    4.72790    4.98600    4.92200    0.26130    0.22730   12.10680    2.60120    0.02880    2.32120   88.17420   95.59750  131.46050
 2103.50000  -46.38670    4.79780    4.99220    4.93020    0.26020    0.21770   11.92380    2.65010    0.03850    2.33740   85.94690   89.47150  131.81670
 2104.00000  -44.49490    4.71780    4.95040    4.88590    0.26990    0.20620   11.86950    2.63600    0.06320    2.35720   85.66650   87.87480  131.90870
 2104.50000  -43.74100    4.54500    4.81480    4.73310    0.28270    0.21630   11.92190    2.52390    0.06400    2.34010   89.82050   87.33480  132.33520
