~Version ---------------------------------------------------
VERS.   2.0 : CWLS log ASCII Standard -VERSION 2.0
WRAP.    NO : One line per depth step
DLM . SPACE : Column Data Section Delimiter
~Well ------------------------------------------------------
STRT .F                 1247.0 : START DEPTH
STOP .F                 4200.0 : STOP DEPTH
STEP .F                    0.5 : STEP
NULL .                -9999.25 : NULL VALUE
COMP .                         : COMPANY
WELL .                         : WELL
FLD  .                         : FIELD
LOC  .                         : LOCATION
PROV .                         : PROVINCE
CNTY .                         : COUNTY
STAT .                         : STATE
CTRY .                         : COUNTRY
SRVC .                         : SERVICE COMPANY
DATE .                         : DATE
UWI  .                         : UNIQUE WELL ID
API  .                         : API NUMBER
SLAT .WGS84  4.628471960570394 : SURFACE LATITUDE
SLON .WGS84 2.0789785591842076 : SURFACE LONGITUDE
DATUM.F                 1034.1 : DEPTH DATUM ELEV
~Curve Information -----------------------------------------
DEPT   .F     : 1 MEASURED DEPTH
SPR    .MV    : SPONTANEOUS POTENTIAL FROM RESISTIVITY LOG
SFLU   .OHMM  : SHALLOW FOCUSED RESISTIVITY (UNAVERAGED)
ILD    .OHMM  : INDUCTION DEEP RESISTIVITY
ILM    .OHMM  : INDUCTION MEDIUM RESISTIVITY
NPHI_LS.DEC   : NEUTRON POROSITY LIMESTONE
DPHI_LS.DEC   : DENSITY POROSITY LIMESTONE
CALD   .IN    : CALIPER FROM DENSITY LOG
PEF    .B/E   : PHOTOELECTRIC FACTOR
DRHO   .G/C3  : BULK DENSITY CORRECTION
RHOB   .G/C3  : BULK DENSITY
GRS    .GAPI  : GAMMA RAY FROM SONIC LOG
DTCO   .US/F  : DELTA-T COMPRESSIONAL
DTSM   .US/F  : DELTA-T SHEAR
~Params ----------------------------------------------------
~Other -----------------------------------------------------
~ASCII -----------------------------------------------------
# ...
 3795.00000  -16.55180    4.03700    3.88430    3.98470    0.26940    0.13680    9.02870    2.80200    0.07680    2.47600  113.54810   91.88350  187.91830
 3795.50000  -14.86330    3.67470    3.69680    3.80760    0.28390    0.13200    9.03560    2.80680    0.07730    2.48420  116.46820   93.06030  189.25030
 3796.00000  -13.39850    3.36400    3.52330    3.58780    0.28740    0.12360    9.00100    2.83500    0.06940    2.49860  117.69180   94.05520  186.54100
 3796.50000  -12.70210    3.32960    3.52140    3.58580    0.28910    0.12240    8.96420    2.86070    0.05600    2.50070  117.47360   96.48940  183.38330
 3797.00000  -13.23020    3.31280    3.51990    3.63300    0.29090    0.13020    8.92280    2.83110    0.04370    2.48660  116.93290   97.22660  180.24550
 3797.50000  -13.70540    3.36860    3.75220    3.87290    0.29260    0.13750    8.88130    2.78270    0.03180    2.47480  113.73280   97.45050  170.22980
 3798.00000  -14.06790    3.43770    4.02780    4.18460    0.28190    0.13760    8.86160    2.74190    0.02310    2.47470  106.32350   96.89730  159.27370
 3798.50000  -14.70910    3.82270    4.37600    4.55190    0.24110    0.13180    8.85960    2.70160    0.01520    2.48460   96.23160   92.57870  157.29350
 3799.00000  -15.49490    4.68580    4.62650    4.82590    0.19840    0.12150    8.85750    2.75350    0.01020    2.50180   92.01460   86.08410  158.01960
 3799.50000  -16.28080    6.13430    4.60830    4.82330    0.16760    0.10690    8.86590    2.81380    0.00720    2.52720   95.80550   81.28010  161.47780
 3800.00000  -16.86810    6.10800    4.44150    4.82060    0.19840    0.10850    8.89120    2.77500    0.00630    2.52830  105.05900   82.32390  166.64700
 3800.50000  -17.28630    4.86880    4.28060    4.77760    0.23430    0.12180    8.92140    2.73140    0.00720    2.50240  113.37190   86.09620  173.32540
 3801.00000  -17.27840    4.12410    4.19240    4.55610    0.25930    0.13280    8.95220    2.76790    0.00950    2.48370  113.57430   90.14080  180.24960
 3801.50000  -17.27050    3.66200    4.30420    4.34490    0.27000    0.13230    8.95520    2.82270    0.01460    2.48370  110.80340   92.81080  179.93490
 3802.00000  -17.50070    3.65370    3.94710    4.17570    0.25820    0.12300    8.86940    2.85390    0.02710    2.49820  106.18840   93.54120  177.59970
 3802.50000  -18.71190    4.04630    3.88830    4.12210    0.22540    0.11390    8.78560    2.80690    0.02880    2.51310  101.63170   91.33200  174.90540
 3803.00000  -19.88120    4.47260    4.03260    4.13290    0.20740    0.10830    8.75000    2.71880    0.02400    2.52260   97.65790   85.84150  172.59240
 3803.50000  -20.32580    4.92210    4.18360    4.22680    0.19020    0.10130    8.71440    2.65370    0.01920    2.53730   95.42720   79.46550  170.48500
 3804.00000  -20.76180    5.41680    4.27620    4.32280    0.19370    0.09680    8.68860    2.63520    0.01410    2.54880   96.88690   76.21410  169.92320
 3804.50000  -21.19780    5.55490    4.28890    4.37940    0.20320    0.09710    8.68160    2.67260    0.00860    2.54880   99.01720   75.71830  171.35760
 3805.00000  -21.63380    5.43290    4.18800    4.28070    0.21920    0.10020    8.67460    2.72850    0.00370    2.53970  103.25230   77.38220  174.26770
 3805.50000  -22.08190    5.06190    4.08410    4.16950    0.24420    0.10830    8.66760    2.78670    0.00270    2.52480  107.80200   79.83420  174.09390
 3806.00000  -21.31150    4.40470    3.98910    4.06610    0.27060    0.11940    8.83210    2.82680    0.00520    2.50880  112.25120   84.08960  164.45350
 3806.50000  -20.41320    4.00220    3.94600    4.02020    0.27080    0.13230    8.96690    2.85090    0.00790    2.48530  117.06280   88.17930  150.35110
 3807.00000  -19.47680    3.88240    3.93440    4.00620    0.27080    0.13710    9.01780    2.88490    0.01070    2.47770  121.71980   91.08170  149.61940
 3807.50000  -18.05080    3.84240    3.93650    4.00840    0.27290    0.13750    9.01800    2.90300    0.01340    2.47480  124.10890   93.10430  149.49470
 3808.00000  -16.86210    3.85450    3.93870    4.01050    0.28140    0.13910    8.87620    2.93040    0.01500    2.47200  125.19060   93.78170  149.49730
 3808.50000  -17.03650    4.00770    3.94080    4.01270    0.28610    0.13980    8.73500    2.96330    0.01370    2.47090  125.65270   93.28580  149.55410
 3809.00000  -17.21090    4.34740    3.94290    4.01490    0.28310    0.13880    8.68910    2.98720    0.01240    2.47260  126.36520   92.66700  149.61090
 3809.50000  -17.32600    4.66460    3.88530    3.96530    0.28160    0.13650    8.68350    3.01150    0.01180    2.47650  127.07770   92.11990  149.61800
 3810.00000  -17.08690    4.89940    3.81390    3.88760    0.28740    0.13390    8.70940    3.04390    0.01100    2.48180  127.46180   91.59740  149.61740
 3810.50000  -16.80210    4.69020    3.75480    3.82730    0.29760    0.13360    8.74140    3.06950    0.01100    2.48190  127.54520   91.29020  149.61400
 3811.00000  -15.83160    4.26260    3.69660    3.76780    0.30870    0.13620    8.71410    3.09330    0.01100    2.47670  127.49110   91.53490  149.58760
 3811.50000  -14.86110    3.98940    3.61230    3.69030    0.31170    0.13880    8.68740    3.13280    0.01130    2.47150  127.11890   92.27670  149.56100
 3812.00000  -14.66960    3.73730    3.50960    3.58550    0.31050    0.13890    8.75690    3.21950    0.01420    2.47210  125.44520   92.75480  149.53440
 3812.50000  -14.75710    3.53780    3.40990    3.48360    0.30740    0.13820    8.78030    3.20160    0.02290    2.47380  120.65620   92.66720  149.46380
 3813.00000  -14.84450    3.55170    3.31300    3.38470    0.30870    0.13750    8.76620    3.16640    0.02730    2.47480  118.23780   92.54940  149.43760
 3813.50000  -14.93200    3.58280    3.22230    3.28850    0.32390    0.13690    8.70870    3.14820    0.02520    2.47580  117.48950   92.79190  149.43960
 3814.00000  -15.01940    3.60800    3.19240    3.25180    0.33890    0.13540    8.65470    3.16830    0.02270    2.47830  118.59140   93.25320  149.51310
 3814.50000  -15.07450    3.60610    3.16270    3.22160    0.34440    0.13520    8.61770    3.21560    0.02080    2.47720  120.02340   94.15970  149.50430
 3815.00000  -15.07590    3.54360    3.15580    3.21500    0.33880    0.13660    8.60290    3.24960    0.01910    2.47440  120.28930   95.20380  149.49560
 3815.50000  -15.20150    3.48210    3.18730    3.24710    0.32620    0.13880    8.60100    3.23490    0.01640    2.47150  119.66180   95.19990  149.48720
 3816.00000  -15.33120    3.36050    3.21910    3.27940    0.31720    0.13930    8.64130    3.14800    0.01330    2.46940  119.12470   94.62770  149.47880
 3816.50000  -15.46090    3.40870    3.25120    3.31210    0.31650    0.13920    8.71040    3.05060    0.00900    2.47060  119.32370   94.19570  149.47030
 3817.00000  -15.59060    3.57560    3.28360    3.34510    0.31940    0.13920    8.73700    3.02230    0.00520    2.47170  120.02880   94.19470  149.45270
 3817.50000  -15.24600    3.75060    3.31630    3.37850    0.31870    0.13920    8.67720    3.04280    0.00310    2.47210  120.49610   94.19360  149.43360
 3818.00000  -14.68140    3.89520    3.35510    3.41870    0.31560    0.14030    8.65930    3.06730    0.00120    2.47010  121.08080   94.15810  149.41450
 3818.50000  -13.64500    3.96270    3.39560    3.46000    0.30780    0.14240    8.64160    3.07640   -0.00050    2.46660  122.39740   94.08320  149.41060
 3819.00000  -13.16670    3.96050    3.43670    3.50180    0.29870    0.14310    8.65760    3.04470    0.00120    2.46540  124.12330   94.00670  149.41470
 3819.50000  -12.68850    3.91000    3.47230    3.53690    0.29870    0.14210    8.67210    3.02340    0.00290    2.46700  125.09640   93.91720  149.41890
 3820.00000  -12.21020    3.83360    3.50260    3.56770    0.30630    0.14480    8.68660    3.02470    0.00460    2.46010  123.07600   94.20510  149.42170
 3820.50000  -11.96680    3.75870    3.53990    3.60640    0.31190    0.14710    8.69290    3.02960    0.00630    2.45710  121.01740   94.99950  149.42460
