~Version ---------------------------------------------------
VERS.   2.0 : CWLS log ASCII Standard -VERSION 2.0
WRAP.    NO : One line per depth step
DLM . SPACE : Column Data Section Delimiter
~Well ------------------------------------------------------
STRT .F                 1247.0 : START DEPTH
STOP .F                 4200.0 : STOP DEPTH
STEP .F                    0.5 : STEP
NULL .                -9999.25 : NULL VALUE
COMP .                         : COMPANY
WELL .                         : WELL
FLD  .                         : FIELD
LOC  .                         : LOCATION
PROV .                         : PROVINCE
CNTY .                         : COUNTY
STAT .                         : STATE
CTRY .                         : COUNTRY
SRVC .                         : SERVICE COMPANY
DATE .                         : DATE
UWI  .                         : UNIQUE WELL ID
API  .                         : API NUMBER
SLAT .WGS84  4.628471960570394 : SURFACE LATITUDE
SLON .WGS84 2.0789785591842076 : SURFACE LONGITUDE
DATUM.F                 1034.1 : DEPTH DATUM ELEV
~Curve Information -----------------------------------------
DEPT   .F     : 1 MEASURED DEPTH
SPR    .MV    : SPONTANEOUS POTENTIAL FROM RESISTIVITY LOG
SFLU   .OHMM  : SHALLOW FOCUSED RESISTIVITY (UNAVERAGED)
ILD    .OHMM  : INDUCTION DEEP RESISTIVITY
ILM    .OHMM  : INDUCTION MEDIUM RESISTIVITY
NPHI_LS.DEC   : NEUTRON POROSITY LIMESTONE
DPHI_LS.DEC   : DENSITY POROSITY LIMESTONE
CALD   .IN    : CALIPER FROM DENSITY LOG
PEF    .B/E   : PHOTOELECTRIC FACTOR
DRHO   .G/C3  : BULK DENSITY CORRECTION
RHOB   .G/C3  : BULK DENSITY
GRS    .GAPI  : GAMMA RAY FROM SONIC LOG
DTCO   .US/F  : DELTA-T COMPRESSIONAL
DTSM   .US/F  : DELTA-T SHEAR
~Params ----------------------------------------------------
~Other -----------------------------------------------------
~ASCII -----------------------------------------------------
# ...
 3041.00000  -40.84370    4.42970    4.54700    4.63030    0.26570    0.12650    9.15560    2.82730    0.01950    2.49450  115.58520   86.06670  177.97500
 3041.50000  -40.65880    4.42870    4.53130    4.61440    0.26820    0.12810    9.15520    2.84960    0.01850    2.49290  115.75160   85.90030  178.82350
 3042.00000  -40.70260    4.42090    4.51570    4.59850    0.26960    0.12810    9.15450    2.90150    0.01880    2.49160  114.94940   85.81150  182.33690
 3042.50000  -40.91340    4.40890    4.50020    4.58260    0.26030    0.13110    9.14980    2.95570    0.02400    2.48840  113.81270   85.20850  182.25030
 3043.00000  -41.05370    4.39680    4.48470    4.56690    0.25210    0.13420    9.15160    2.94390    0.03050    2.48210  112.75680   85.60090  181.01310
 3043.50000  -41.16920    4.38480    4.46930    4.55110    0.25360    0.13790    9.17010    2.90680    0.03690    2.47430  111.70090   86.66460  179.66460
 3044.00000  -41.10140    4.35030    4.45390    4.53550    0.26930    0.14040    9.18860    2.80750    0.04290    2.46990  112.07530   88.72700  177.42120
 3044.50000  -40.95060    4.31490    4.43850    4.51980    0.28260    0.13980    9.22590    2.74620    0.04850    2.47090  112.65540   90.52430  177.19660
 3045.00000  -40.79980    4.31360    4.42130    4.50240    0.28090    0.13460    9.24100    2.72770    0.04920    2.47980  112.63360   91.04240  175.29070
 3045.50000  -40.64900    4.34440    4.40210    4.48290    0.27180    0.12260    9.26680    2.73820    0.04850    2.50030  112.50870   90.97150  174.00770
 3046.00000  -40.49820    4.36340    4.42540    4.50970    0.25990    0.11480    9.29260    2.77390    0.04550    2.51360  110.76900   90.54300  170.33960
 3046.50000  -40.48580    4.40130    4.48260    4.56800    0.24930    0.11340    9.31350    2.84450    0.04300    2.51600  108.41100   87.50110  166.48030
 3047.00000  -40.67840    4.43970    4.50060    4.58290    0.24690    0.12180    9.31180    2.91130    0.04160    2.50170  106.93160   85.32600  163.15780
 3047.50000  -40.90010    4.42930    4.49940    4.58160    0.24970    0.13050    9.31000    2.97800    0.04020    2.48670  106.09570   84.02630  160.01100
 3048.00000  -41.14270    4.40700    4.49810    4.58030    0.25930    0.13800    9.30820    2.97190    0.03880    2.47390  106.21210   83.13750  159.36300
 3048.50000  -41.38520    4.38480    4.49070    4.57280    0.26740    0.13380    9.31940    2.95000    0.03740    2.48110  106.73130   83.47540  159.38150
 3049.00000  -41.62780    4.37900    4.47730    4.55920    0.26740    0.12630    9.34050    2.90220    0.03610    2.49390  107.78500   83.95930  160.11510
 3049.50000  -41.76120    4.37000    4.46400    4.54570    0.26190    0.12520    9.36160    2.82760    0.03420    2.49570  108.83180   84.84340  162.58940
 3050.00000  -41.26450    4.38120    4.45070    4.53210    0.25760    0.12800    9.38280    2.78340    0.03260    2.49090  109.58510   86.36670  166.04850
 3050.50000  -40.62670    4.36750    4.43750    4.51860    0.25840    0.12630    9.40590    2.80090    0.03100    2.49410  110.37240   87.61690  168.37030
 3051.00000  -39.98890    4.34440    4.42430    4.50520    0.26610    0.12070    9.45040    2.83660    0.02940    2.50370  111.95590   88.11840  170.60090
 3051.50000  -39.35120    4.32200    4.41120    4.49180    0.26630    0.12020    9.49770    2.84500    0.02770    2.50450  114.10410   87.73020  171.78390
 3052.00000  -38.89630    4.30640    4.35810    4.44090    0.26020    0.12590    9.54660    2.84230    0.01920    2.49470  114.00560   86.98180  171.66930
 3052.50000  -38.91450    4.27290    4.29610    4.37770    0.25880    0.12970    9.59560    2.83960    0.01750    2.48820  111.96400   85.49980  170.76830
 3053.00000  -38.94330    4.16740    4.23490    4.31540    0.26440    0.13100    9.64450    2.85420    0.01890    2.48600  109.93300   84.41840  169.75280
 3053.50000  -38.97210    4.06440    4.17460    4.25400    0.26960    0.13230    9.69440    2.89320    0.02080    2.48380  109.15670   83.58330  169.94210
 3054.00000  -38.99450    4.00940    4.15240    4.22820    0.27310    0.13500    9.75320    2.93910    0.02280    2.47930  109.14530   83.92130  172.63080
 3054.50000  -39.01420    4.05380    4.20190    4.28430    0.26070    0.13890    9.81460    2.98280    0.02410    2.47130  109.23250   84.99350  175.62580
 3055.00000  -39.67380    4.16620    4.27570    4.35950    0.24250    0.14090    9.79110    3.00350    0.02540    2.46650  109.31970   86.00650  178.60310
 3055.50000  -40.62760    4.24320    4.32450    4.40360    0.23980    0.13970    9.74430    2.96920    0.02720    2.46820  109.80650   86.63210  182.11290
 3056.00000  -41.58140    4.25610    4.33480    4.41400    0.24930    0.13780    9.70620    2.89150    0.02950    2.47380  110.91040   86.28310  182.87420
 3056.50000  -41.98190    4.25060    4.34510    4.42450    0.26620    0.13450    9.66800    2.79930    0.03190    2.48010  112.01420   85.79980  181.02420
 3057.00000  -41.56210    4.23920    4.33700    4.41770    0.27230    0.13250    9.64050    2.71060    0.03380    2.48350  113.11800   85.68270  179.19240
 3057.50000  -41.14220    4.22770    4.29530    4.37520    0.27460    0.13040    9.66500    2.73430    0.03360    2.48700  114.22330   86.02400  177.53990
 3058.00000  -40.72240    4.21630    4.26330    4.34140    0.27520    0.12640    9.69340    2.80880    0.03320    2.49390  115.32940   86.68600  176.45150
 3058.50000  -40.38260    4.16080    4.23700    4.31410    0.27470    0.12320    9.70090    2.88970    0.03140    2.49940  115.96840   86.67610  176.95000
 3059.00000  -40.31480    4.09780    4.21090    4.28700    0.27070    0.12250    9.70840    2.93810    0.02870    2.50060  115.54580   86.78720  177.58420
 3059.50000  -40.24700    4.05950    4.18490    4.26080    0.26360    0.12180    9.70480    2.98620    0.02350    2.50180  115.52210   86.94190  178.21570
 3060.00000  -40.17910    4.04300    4.15910    4.23520    0.25650    0.12270    9.65940    3.02830    0.01590    2.50010  116.10190   86.94470  178.51430
 3060.50000  -40.09280    4.02670    4.14760    4.22400    0.25620    0.12640    9.63120    3.06560    0.01210    2.49370  117.51940   86.76040  178.27310
 3061.00000  -39.53240    4.01040    4.17280    4.24970    0.26810    0.12920    9.64560    3.11360    0.01090    2.48910  117.56950   86.64750  178.44500
 3061.50000  -38.97190    4.00650    4.21040    4.28890    0.27480    0.12690    9.66730    3.16540    0.01120    2.49300  117.09160   86.85820  179.78560
 3062.00000  -38.41150    4.03430    4.24930    4.32350    0.28040    0.12190    9.71450    3.16640    0.01140    2.50160  115.43310   87.61490  181.81640
 3062.50000  -38.23410    4.09920    4.28860    4.33680    0.27990    0.12320    9.66540    3.09010    0.01160    2.49930  114.36270   88.37160  183.35000
 3063.00000  -38.15230    4.16510    4.32820    4.35010    0.27540    0.12900    9.60890    2.92690    0.01330    2.48930  114.36530   88.62190  181.97970
 3063.50000  -37.99700    4.20650    4.34830    4.36350    0.27030    0.13410    9.56080    2.81680    0.01540    2.48050  115.72010   88.50130  180.42280
 3064.00000  -37.84070    4.22050    4.34820    4.37690    0.26250    0.13380    9.54370    2.86600    0.02100    2.48110  117.37490   88.33620  179.62430
 3064.50000  -37.68450    4.23450    4.34810    4.39040    0.25910    0.12840    9.52430    2.96260    0.02650    2.49070  117.91230   88.19450  177.30390
 3065.00000  -37.52820    4.25200    4.34800    4.40390    0.26080    0.12390    9.50480    3.09090    0.02950    2.49570  115.92000   88.09840  175.16740
 3065.50000  -37.37200    4.28390    4.34790    4.41750    0.26260    0.12290    9.48530    3.17770    0.03080    2.49740  113.08810   87.88850  171.69650
 3066.00000  -37.24790    4.29720    4.34790    4.42720    0.26440    0.12270    9.49690    3.20040    0.03220    2.49950  110.53170   87.36550  168.36000
 3066.50000  -37.24830    4.31830    4.33490    4.41430    0.26560    0.12090    9.52570    3.12000    0.03290    2.50300  111.85360   86.77780  165.13310
