~Version ---------------------------------------------------
VERS.   2.0 : CWLS log ASCII Standard -VERSION 2.0
WRAP.    NO : One line per depth step
DLM . SPACE : Column Data Section Delimiter
~Well ------------------------------------------------------
STRT .F                 1247.0 : START DEPTH
STOP .F                 4200.0 : STOP DEPTH
STEP .F                    0.5 : STEP
NULL .                -9999.25 : NULL VALUE
COMP .                         : COMPANY
WELL .                         : WELL
FLD  .                         : FIELD
LOC  .                         : LOCATION
PROV .                         : PROVINCE
CNTY .                         : COUNTY
STAT .                         : STATE
CTRY .                         : COUNTRY
SRVC .                         : SERVICE COMPANY
DATE .                         : DATE
UWI  .                         : UNIQUE WELL ID
API  .                         : API NUMBER
SLAT .WGS84  4.628471960570394 : SURFACE LATITUDE
SLON .WGS84 2.0789785591842076 : SURFACE LONGITUDE
DATUM.F                 1034.1 : DEPTH DATUM ELEV
~Curve Information -----------------------------------------
DEPT   .F     : 1 MEASURED DEPTH
SPR    .MV    : SPONTANEOUS POTENTIAL FROM RESISTIVITY LOG
SFLU   .OHMM  : SHALLOW FOCUSED RESISTIVITY (UNAVERAGED)
ILD    .OHMM  : INDUCTION DEEP RESISTIVITY
ILM    .OHMM  : INDUCTION MEDIUM RESISTIVITY
NPHI_LS.DEC   : NEUTRON POROSITY LIMESTONE
DPHI_LS.DEC   : DENSITY POROSITY LIMESTONE
CALD   .IN    : CALIPER FROM DENSITY LOG
PEF    .B/E   : PHOTOELECTRIC FACTOR
DRHO   .G/C3  : BULK DENSITY CORRECTION
RHOB   .G/C3  : BULK DENSITY
GRS    .GAPI  : GAMMA RAY FROM SONIC LOG
DTCO   .US/F  : DELTA-T COMPRESSIONAL
DTSM   .US/F  : DELTA-T SHEAR
~Params ----------------------------------------------------
~Other -----------------------------------------------------
~ASCII -----------------------------------------------------
# ...
 3223.00000  -30.21950    3.42770    3.87060    3.49630    0.35240    0.22510    7.97020    3.19660    0.02830    2.32510  122.20580   92.34260  101.16580
 3223.50000  -31.21320    3.39390    3.85740    3.44700    0.35910    0.23380    7.99810    3.15090    0.05270    2.30900  120.23980   82.92000  101.48260
 3224.00000  -32.27580    3.28930    3.84420    3.39840    0.36800    0.23970    8.04940    3.10510    0.08120    2.29630  119.67490   74.27340  102.79900
 3224.50000  -33.59200    3.14440    3.84330    3.37900    0.37500    0.23480    8.15780    3.04520    0.10330    2.30970  119.77540   72.26340  104.42450
 3225.00000  -34.62700    2.96030    3.88050    3.46520    0.37260    0.22300    8.27440    2.97940    0.10840    2.32920  120.25530   74.42570  107.37450
 3225.50000  -34.39300    2.78430    3.94970    3.63420    0.35330    0.21460    8.38100    2.89300    0.11130    2.34300  121.16610   76.18670  110.59140
 3226.00000  -33.10800    2.93250    4.02020    3.81150    0.32510    0.20810    8.46620    2.79520    0.09350    2.35420  122.38100   77.63540  112.74080
 3226.50000  -31.82310    3.27590    4.12750    3.99750    0.29900    0.20030    8.53430    2.62790    0.07230    2.36760  123.30400   79.56160  114.70360
 3227.00000  -30.56450    3.73190    4.24720    4.13890    0.28530    0.19450    8.64190    2.50620    0.06110    2.37750  123.00680   80.88900  117.36070
 3227.50000  -29.08300    4.10120    4.37750    4.25450    0.27920    0.18880    8.74130    2.47560    0.05390    2.38720  121.93420   81.43630  119.74620
 3228.00000  -28.66290    4.47900    4.53540    4.37340    0.27620    0.17440    8.88630    2.54080    0.04850    2.41180  120.49090   81.83270  119.88200
 3228.50000  -29.66170    4.56990    4.69890    4.49560    0.27160    0.15510    9.05580    2.58140    0.04380    2.44480  118.69180   82.44970  118.35770
 3229.00000  -30.66050    4.60930    4.80090    4.61800    0.26480    0.14410    9.09040    2.58700    0.03870    2.46320  116.45140   82.71230  117.90690
 3229.50000  -31.22880    4.61490    4.83560    4.71290    0.25440    0.14000    9.08930    2.57450    0.02720    2.46980  112.72830   82.32420  118.75960
 3230.00000  -31.60090    4.65760    4.87050    4.74910    0.24010    0.14500    9.08820    2.51740    0.02500    2.46230  109.59950   79.79670  120.68380
 3230.50000  -32.06130    4.70000    4.90860    4.78410    0.24050    0.14880    9.08710    2.48400    0.02400    2.45630  107.02150   79.45770  117.07020
 3231.00000  -33.55650    4.69870    4.96490    4.78280    0.24400    0.14700    9.14040    2.48420    0.02400    2.45640  104.61930   80.74540  120.13340
 3231.50000  -35.05170    4.69740    4.97790    4.78150    0.24360    0.13690    9.19420    2.52800    0.02690    2.47590   99.42950   82.13550  125.73530
 3232.00000  -36.54690    4.70080    4.95370    4.78020    0.23440    0.11900    9.02510    2.65430    0.03170    2.50650   93.34940   82.73950  130.75550
 3232.50000  -38.04200    4.70010    4.91200    4.77890    0.22560    0.11280    8.97860    2.96450    0.03650    2.51720   89.43700   82.73950  135.17850
 3233.00000  -39.37400    4.66890    4.86040    4.77760    0.23540    0.12470    8.98760    2.85440    0.03810    2.50020   88.08650   83.87290  139.66020
 3233.50000  -40.77650    4.56730    4.80190    4.70920    0.25230    0.14460    8.99670    2.60480    0.03980    2.46230   88.61590   84.95830  144.03710
 3234.00000  -41.68610    4.46790    4.74410    4.63410    0.25810    0.16200    8.96390    2.38980    0.04390    2.43260   90.96710   83.48640  145.86710
 3234.50000  -41.51940    4.45650    4.68690    4.56030    0.25240    0.16040    8.94090    2.28930    0.05860    2.43570   93.79860   82.64140  147.69670
 3235.00000  -41.35260    4.41620    4.63050    4.47810    0.23660    0.15600    8.97180    2.25170    0.06660    2.44360   93.93630   81.97960  158.15140
 3235.50000  -40.99740    4.37420    4.57470    4.40390    0.22590    0.15810    9.00120    2.25650    0.06660    2.43960   93.98550   81.40040  161.25610
 3236.00000  -40.53090    4.28460    4.48630    4.35920    0.22440    0.16040    9.02160    2.29580    0.05260    2.43570   94.85140   80.00440  163.64700
 3236.50000  -40.06440    4.16760    4.35290    4.27560    0.24440    0.15710    8.99690    2.40280    0.04960    2.44140   97.08020   80.89000  166.40790
 3237.00000  -39.59790    4.04350    4.22330    4.16380    0.24820    0.15860    8.94340    2.47750    0.04820    2.43870   99.97520   82.66390  175.14410
 3237.50000  -39.13140    3.92300    4.09770    4.05490    0.25190    0.16120    8.87060    2.54910    0.04560    2.43420  101.08790   84.72760  182.40770
 3238.00000  -39.21010    3.83960    4.03530    3.94490    0.25560    0.16670    8.81340    2.59320    0.04100    2.42490   99.85050   86.69880  181.66810
 3238.50000  -39.31820    3.80000    4.00740    3.83760    0.25960    0.17260    8.77300    2.61460    0.04120    2.41510   97.60460   86.99640  178.21590
 3239.00000  -39.31820    3.79900    3.98140    3.78800    0.26400    0.17770    8.73250    2.63190    0.04420    2.40620   97.59540   87.54620  177.39340
 3239.50000  -38.77710    3.79370    3.96460    3.77700    0.26290    0.17960    8.69210    2.65710    0.04490    2.40310   97.68920   88.98910  176.42910
 3240.00000  -38.11920    3.75580    3.94280    3.77580    0.24910    0.16890    8.65160    2.57380    0.03600    2.42120   95.81590   89.92120  175.28400
 3240.50000  -37.35200    3.64900    3.84870    3.72420    0.22870    0.15550    8.60720    2.45850    0.02710    2.43950   91.28480   89.72800  173.28790
 3241.00000  -36.58490    3.56530    3.77060    3.62290    0.21440    0.14940    8.55140    2.31730    0.01620    2.45520   85.37650   89.30700  169.63490
 3241.50000  -36.53050    3.48360    3.71050    3.52440    0.21050    0.14620    8.49510    2.25230    0.00650    2.46000   81.13300   88.59690  166.94040
 3242.00000  -36.74720    3.32180    3.65130    3.42860    0.20710    0.14610    8.43880    2.23750   -0.00060    2.46010   77.09140   87.57020  164.72720
 3242.50000  -38.06610    3.00320    3.54780    3.33530    0.20360    0.14980    8.38260    2.23220   -0.00200    2.45380   72.60850   85.25220  163.89630
 3243.00000  -40.92100    2.91100    3.43640    3.24460    0.19930    0.15650    8.32630    2.22690   -0.00340    2.44240   67.05480   83.61980  162.02670
 3243.50000  -45.85140    3.75930    3.32850    3.15700    0.19340    0.16300    8.25360    2.21770   -0.00370    2.42940   60.73890   82.05970  159.17000
 3244.00000  -50.79090    5.32640    3.22400    3.07050    0.18730    0.16570    8.24410    2.24270   -0.00280    2.42790   55.64790   80.63690  155.62630
 3244.50000  -55.66760    7.62160    3.05940    2.98030    0.18060    0.16030    8.25000    2.40360   -0.00080    2.43710   52.43430   79.13940  152.17290
 3245.00000  -57.94810    6.85040    2.90200    2.84540    0.17340    0.15170    8.25590    2.56840    0.00120    2.45070   50.59020   76.96140  150.15600
 3245.50000  -59.68930    5.35880    2.75270    2.71120    0.16610    0.14450    8.26170    2.69010    0.00310    2.46300   49.07570   75.95030  148.32710
 3246.00000  -60.81450    4.19450    2.61110    2.58330    0.16340    0.14090    8.26630    2.61950    0.00510    2.46920   48.22570   77.46750  145.35880
 3246.50000  -61.39830    3.07980    2.57890    2.47750    0.17300    0.14530    8.26870    2.47900    0.00500    2.46160   48.33860   80.93370  144.23400
 3247.00000  -61.60730    2.24410    2.55860    2.46210    0.18660    0.15990    8.29170    2.35000    0.00380    2.43310   49.16790   82.47630  146.20230
 3247.50000  -61.41330    2.39780    2.54540    2.48770    0.19760    0.17590    8.30810    2.22410    0.00200    2.40580   49.46690   84.29060  150.26690
 3248.00000  -61.13410    3.37600    2.54510    2.51360    0.18470    0.18380    8.29690    2.18330   -0.00060    2.39230   48.02580   85.21630  154.31190
 3248.50000  -60.79210    8.23840    2.57780    2.53980    0.15370    0.18320    8.26940    2.24930   -0.00270    2.39600   44.91570   82.59700  152.45830
