~Version ---------------------------------------------------
VERS.   2.0 : CWLS log ASCII Standard -VERSION 2.0
WRAP.    NO : One line per depth step
DLM . SPACE : Column Data Section Delimiter
~Well ------------------------------------------------------
STRT .F                 1247.0 : START DEPTH
STOP .F                 4200.0 : STOP DEPTH
STEP .F                    0.5 : STEP
NULL .                -9999.25 : NULL VALUE
COMP .                         : COMPANY
WELL .                         : WELL
FLD  .                         : FIELD
LOC  .                         : LOCATION
PROV .                         : PROVINCE
CNTY .                         : COUNTY
STAT .                         : STATE
CTRY .                         : COUNTRY
SRVC .                         : SERVICE COMPANY
DATE .                         : DATE
UWI  .                         : UNIQUE WELL ID
API  .                         : API NUMBER
SLAT .WGS84  4.628471960570394 : SURFACE LATITUDE
SLON .WGS84 2.0789785591842076 : SURFACE LONGITUDE
DATUM.F                 1034.1 : DEPTH DATUM ELEV
~Curve Information -----------------------------------------
DEPT   .F     : 1 MEASURED DEPTH
SPR    .MV    : SPONTANEOUS POTENTIAL FROM RESISTIVITY LOG
SFLU   .OHMM  : SHALLOW FOCUSED RESISTIVITY (UNAVERAGED)
ILD    .OHMM  : INDUCTION DEEP RESISTIVITY
ILM    .OHMM  : INDUCTION MEDIUM RESISTIVITY
NPHI_LS.DEC   : NEUTRON POROSITY LIMESTONE
DPHI_LS.DEC   : DENSITY POROSITY LIMESTONE
CALD   .IN    : CALIPER FROM DENSITY LOG
PEF    .B/E   : PHOTOELECTRIC FACTOR
DRHO   .G/C3  : BULK DENSITY CORRECTION
RHOB   .G/C3  : BULK DENSITY
GRS    .GAPI  : GAMMA RAY FROM SONIC LOG
DTCO   .US/F  : DELTA-T COMPRESSIONAL
DTSM   .US/F  : DELTA-T SHEAR
~Params ----------------------------------------------------
~Other -----------------------------------------------------
~ASCII -----------------------------------------------------
# ...
 2833.00000  -96.04190    9.14960    1.40200    1.65950    0.21910    0.20740    7.71010    2.31210   -0.01010    2.35510   54.01280   83.67610  162.52790
 2833.50000  -92.90020    8.91840    1.43120    1.73190    0.21570    0.20940    7.71740    2.33540   -0.01020    2.35180   57.78440   81.83350  164.52350
 2834.00000  -88.34520    8.14290    1.46170    1.80750    0.21300    0.21350    7.75870    2.34960   -0.00750    2.34490   63.96290   82.25820  166.26060
 2834.50000  -82.16430    7.06170    1.49270    1.88050    0.21580    0.22410    7.79860    2.35340   -0.00430    2.32670   68.94230   84.37380  167.37030
 2835.00000  -76.30780    5.74560    1.52250    1.92770    0.23160    0.24070    7.84190    2.31390   -0.00340    2.29850   71.54220   86.92910  168.48010
 2835.50000  -71.22420    4.61760    1.53400    1.98700    0.25750    0.26650    7.95670    2.26540   -0.00340    2.25430   70.53460   89.12130  168.85690
 2836.00000  -67.66740    4.67630    1.54560    2.01770    0.26880    0.28740    7.98190    2.23340   -0.00340    2.21860   66.21360   90.12960  167.70940
 2836.50000  -70.83400    5.90130    1.54540    1.95450    0.25730    0.28450    7.94720    2.22970   -0.00340    2.22340   59.78440   89.88640  163.87340
 2837.00000  -76.88090    7.57570    1.53910    1.88600    0.24330    0.26720    7.90860    2.26430   -0.00340    2.25300   56.84510   87.19770  159.11490
 2837.50000  -82.92770    8.54350    1.51880    1.81500    0.22580    0.23820    7.86990    2.29290   -0.00310    2.29880   56.51840   83.71970  154.63970
 2838.00000  -88.65050    8.62630    1.47500    1.76390    0.21640    0.21660    7.87230    2.29860   -0.00250    2.33500   57.81000   84.04300  157.05910
 2838.50000  -89.74450    8.31200    1.43250    1.72130    0.21750    0.21070    7.90860    2.30720   -0.00200    2.34870   59.18400   85.05620  161.83330
 2839.00000  -90.42240    8.00900    1.38900    1.67960    0.22560    0.20870    7.94480    2.37370   -0.00140    2.35340   58.94470   85.96480  164.11780
 2839.50000  -90.98510    8.12490    1.34440    1.63900    0.23380    0.20890    7.98100    2.43060   -0.00090    2.35430   56.69360   86.48290  163.17400
 2840.00000  -91.54780    8.77070    1.30130    1.59930    0.23960    0.21090    8.00570    2.35340   -0.00080    2.34920   53.72200   87.00100  165.44900
 2840.50000  -92.37440    8.84260    1.25960    1.55980    0.23820    0.21660    8.00250    2.18720   -0.00080    2.33960   51.66060   87.09760  166.69640
 2841.00000  -93.32910    8.81150    1.23480    1.52100    0.23600    0.21900    7.93030    2.06260   -0.00080    2.33560   50.64600   86.66060  165.99720
 2841.50000  -93.68580    8.54560    1.22390    1.48390    0.23390    0.21780    7.91930    1.98660   -0.00080    2.33750   50.14780   86.02580  163.80110
 2842.00000  -93.17860    9.16290    1.21320    1.46020    0.23210    0.21910    7.95350    2.00710   -0.00080    2.33530   50.53540   86.01370  162.57350
 2842.50000  -92.35480    9.50150    1.19970    1.43690    0.23050    0.22190    7.96310    2.04390   -0.00120    2.33060   52.07620   86.44100  164.23100
 2843.00000  -91.53090    8.58090    1.18570    1.42460    0.22950    0.21960    7.97280    2.06410   -0.00190    2.33440   54.31760   86.86840  166.98200
 2843.50000  -91.37940    7.20520    1.17260    1.41320    0.23210    0.21430    7.96710    2.11330   -0.00250    2.34350   57.16880   87.19090  165.92300
 2844.00000  -91.37760    6.53310    1.17270    1.41810    0.24100    0.21150    7.96090    2.14960   -0.00310    2.34820   55.26720   87.39920  165.30350
 2844.50000  -90.79930    6.74850    1.19010    1.42650    0.24530    0.21510    7.95460    2.14360   -0.00340    2.33890   51.46410   87.60740  166.00650
 2845.00000  -90.07920    7.83830    1.22500    1.43500    0.24220    0.22320    7.93570    2.14090   -0.00340    2.32620   47.59060   87.40890  168.14690
 2845.50000  -89.35920    8.42610    1.26760    1.44350    0.23510    0.22890    7.91360    2.13650   -0.00280    2.31940   47.49160   86.03540  169.85300
 2846.00000  -88.63920    8.36710    1.31420    1.47630    0.22870    0.23180    7.89840    2.17790   -0.00120    2.31680   54.97830   83.89010  169.94240
 2846.50000  -85.76870    6.17930    1.36260    1.57020    0.23350    0.22510    7.95950    2.29320    0.00080    2.33270   66.35930   84.10900  169.95030
 2847.00000  -80.02360    4.67730    1.41280    1.67500    0.23920    0.20980    8.11490    2.36940    0.00290    2.35540   71.59590   86.43550  172.31180
 2847.50000  -74.27850    3.70760    1.47010    1.78680    0.24560    0.19760    8.10680    2.33100    0.00690    2.37210   72.22800   87.88040  172.97000
 2848.00000  -68.64190    4.08220    1.54170    1.90600    0.24360    0.19300    7.94230    2.27890    0.01050    2.38000   70.46920   89.98940  170.47110
 2848.50000  -63.18650    6.19010    1.61670    1.96050    0.23570    0.20110    7.84590    2.25010    0.01110    2.36520   68.62280   91.85760  167.92960
 2849.00000  -57.73110    7.76920    1.68060    2.00510    0.23080    0.20670    7.86280    2.27660    0.00920    2.35510   70.97770   91.33970  166.63290
 2849.50000  -52.27570    7.90950    1.70640    2.01690    0.23430    0.20110    7.96000    2.36040    0.00740    2.36140   75.99110   90.45510  168.01770
 2850.00000  -52.19560    7.28170    1.69410    2.02120    0.24560    0.18990    7.93320    2.46810    0.00460    2.38530   80.83160   89.44320  168.60580
 2850.50000  -57.52620    6.41690    1.60980    2.01280    0.25590    0.18200    7.82330    2.50090    0.00170    2.39870   77.56080   89.15170  169.25550
 2851.00000  -66.15600    6.44750    1.52600    1.97970    0.25690    0.17880    7.71330    2.41050    0.00030    2.40440   70.96080   89.03130  169.93330
 2851.50000  -74.64160    7.22520    1.44660    1.82970    0.24930    0.18380    7.66130    2.27840   -0.00000    2.39570   59.40030   89.08560  170.67340
 2852.00000  -82.75510    8.27060    1.37140    1.69230    0.23940    0.20160    7.63100    2.18180   -0.00070    2.36140   50.86010   89.32760  171.51270
 2852.50000  -87.84210    9.42110    1.30410    1.58750    0.22610    0.22100    7.66900    2.19940   -0.00180    2.33120   46.37510   89.68200  171.97150
 2853.00000  -90.22710    9.27960    1.25140    1.48410    0.22640    0.22940    7.72110    2.23820   -0.00290    2.31780   48.00160   89.96440  171.54370
 2853.50000  -91.99520    8.62850    1.20090    1.40890    0.22780    0.23090    7.72160    2.25890   -0.00400    2.31320   50.11080   89.87490  171.94050
 2854.00000  -92.85150    8.08090    1.15750    1.39080    0.22840    0.22630    7.71430    2.24860   -0.00510    2.31990   52.71700   89.00710  171.50830
 2854.50000  -93.50090    7.81230    1.12760    1.39030    0.22760    0.22050    7.65350    2.22960   -0.00610    2.33200   52.96780   87.59570  170.73360
 2855.00000  -94.73750    7.87080    1.11520    1.39740    0.22460    0.21500    7.59640    2.18330   -0.00700    2.34240   50.32760   87.24360  169.53040
 2855.50000  -97.59010    8.49110    1.10940    1.39770    0.22130    0.21830    7.54450    2.12310   -0.00800    2.33670   46.86630   87.44460  168.23170
 2856.00000 -103.65270    9.41330    1.10370    1.38260    0.21860    0.22950    7.51790    2.04350   -0.00890    2.32320   43.11140   87.34190  166.76540
 2856.50000 -108.99710   10.16350    1.07640    1.34600    0.21410    0.23600    7.51830    2.00550   -0.00820    2.30730   39.19230   87.04220  165.17820
 2857.00000 -112.35240   10.98990    1.04770    1.31160    0.20830    0.23580    7.51870    1.99230   -0.00650    2.30510   36.94490   86.76700  164.81160
 2857.50000 -112.66130   11.62520    1.02230    1.26380    0.20350    0.23320    7.51920    1.97650   -0.00450    2.30960   36.11530   86.15810  164.05180
 2858.00000 -112.56250   11.29980    1.00420    1.21700    0.20700    0.23090    7.51780    1.96500   -0.00300    2.31410   36.89910   85.64460  163.96450
 2858.50000 -112.42290   10.65010    0.99490    1.19650    0.21320    0.22880    7.51470    1.95740   -0.00290    2.31870   39.21290   86.02630  164.23320
