~Version ---------------------------------------------------
VERS.   2.0 : CWLS log ASCII Standard -VERSION 2.0
WRAP.    NO : One line per depth step
DLM . SPACE : Column Data Section Delimiter
~Well ------------------------------------------------------
STRT .F                 1247.0 : START DEPTH
STOP .F                 4200.0 : STOP DEPTH
STEP .F                    0.5 : STEP
NULL .                -9999.25 : NULL VALUE
COMP .                         : COMPANY
WELL .                         : WELL
FLD  .                         : FIELD
LOC  .                         : LOCATION
PROV .                         : PROVINCE
CNTY .                         : COUNTY
STAT .                         : STATE
CTRY .                         : COUNTRY
SRVC .                         : SERVICE COMPANY
DATE .                         : DATE
UWI  .                         : UNIQUE WELL ID
API  .                         : API NUMBER
SLAT .WGS84  4.628471960570394 : SURFACE LATITUDE
SLON .WGS84 2.0789785591842076 : SURFACE LONGITUDE
DATUM.F                 1034.1 : DEPTH DATUM ELEV
~Curve Information -----------------------------------------
DEPT   .F     : 1 MEASURED DEPTH
SPR    .MV    : SPONTANEOUS POTENTIAL FROM RESISTIVITY LOG
SFLU   .OHMM  : SHALLOW FOCUSED RESISTIVITY (UNAVERAGED)
ILD    .OHMM  : INDUCTION DEEP RESISTIVITY
ILM    .OHMM  : INDUCTION MEDIUM RESISTIVITY
NPHI_LS.DEC   : NEUTRON POROSITY LIMESTONE
DPHI_LS.DEC   : DENSITY POROSITY LIMESTONE
CALD   .IN    : CALIPER FROM DENSITY LOG
PEF    .B/E   : PHOTOELECTRIC FACTOR
DRHO   .G/C3  : BULK DENSITY CORRECTION
RHOB   .G/C3  : BULK DENSITY
GRS    .GAPI  : GAMMA RAY FROM SONIC LOG
DTCO   .US/F  : DELTA-T COMPRESSIONAL
DTSM   .US/F  : DELTA-T SHEAR
~Params ----------------------------------------------------
~Other -----------------------------------------------------
~ASCII -----------------------------------------------------
# ...
 4003.00000  -22.61290   16.79200    8.56770    8.89220    0.20230    0.05970    8.14590    3.66000   -0.00490    2.60790   92.13200   69.75910  133.04640
 4003.50000  -23.71920    8.71490    6.98670    7.59640    0.24890    0.07560    8.18320    3.51120   -0.00260    2.57940  108.21750   75.44690  141.07930
 4004.00000  -23.98540    6.74970    5.76620    6.17080    0.27950    0.08310    8.22050    3.41990   -0.00040    2.56600  120.03520   80.25670  147.34950
 4004.50000  -24.17700    6.20500    5.60290    5.72490    0.29660    0.08460    8.25020    3.39030    0.00180    2.56900  124.17400   83.95570  149.87720
 4005.00000  -24.17700    5.91100    5.46460    5.57330    0.30980    0.08020    8.25140    3.43850    0.00240    2.57450  123.08660   85.68270  148.78390
 4005.50000  -24.17700    5.92950    5.42870    5.52790    0.31010    0.07630    8.25270    3.49640    0.00290    2.57960  121.92640   86.69850  147.44050
 4006.00000  -24.32530    6.07100    5.42020    5.51940    0.30160    0.07520    8.25500    3.47610    0.00290    2.58240  120.09960   86.66720  142.81750
 4006.50000  -25.00340    6.36480    5.40620    5.50520    0.29630    0.07470    8.25730    3.52580    0.00270    2.58230  117.52140   83.81560  134.40950
 4007.00000  -25.68150    6.69580    5.39220    5.49100    0.28630    0.07610    8.26080    3.59040    0.00250    2.57980  114.93580   81.51460  128.56810
 4007.50000  -26.85610    7.02420    5.32620    5.43220    0.28270    0.08480    8.39150    3.65330    0.00220    2.56500  114.42090   80.76110  122.66050
 4008.00000  -29.39030    6.93350    5.02700    5.32570    0.29580    0.11020    8.56740    3.55980    0.00350    2.52150  115.68820   80.76210  126.93950
 4008.50000  -31.92520    6.09000    4.79890    5.21640    0.31860    0.13680    8.66680    3.28720    0.01460    2.47600  118.70600   80.76310  147.43440
 4009.00000  -35.16190    5.46320    4.90050    5.10920    0.32110    0.14840    8.68960    3.12270    0.02580    2.45620  122.40200   82.18970  164.95240
 4009.50000  -35.16980    5.24460    4.95290    5.13260    0.30750    0.13190    8.64240    2.99660    0.03580    2.48440  124.19660   85.13120  172.36030
 4010.00000  -31.16860    5.39630    5.00660    5.22210    0.29600    0.09550    8.49600    3.08750    0.03780    2.54680  123.97340   88.27900  167.13170
 4010.50000  -26.08930    5.67640    5.09250    5.29220    0.29000    0.06700    8.38230    3.17270    0.03110    2.59590  122.41830   90.40600  159.30700
 4011.00000  -20.90080    5.91320    5.18000    5.32020    0.28530    0.06650    8.27710    3.12470    0.01680    2.59620  121.76110   89.43030  157.00320
 4011.50000  -15.71820    6.00430    5.14290    5.25700    0.28300    0.07210    8.19050    3.05730    0.00480    2.58680  121.51210   86.95440  159.07370
 4012.00000  -13.46040    5.90370    5.02590    5.12150    0.28550    0.08000    8.19480    2.99940   -0.00200    2.57310  121.23070   84.31710  157.75700
 4012.50000  -13.11360    5.52450    5.06400    5.22840    0.29300    0.08220    8.22690    3.04300   -0.00090    2.56950  120.55830   83.13730  155.16310
 4013.00000  -13.98190    5.16280    5.40880    5.58140    0.30170    0.08110    8.25900    3.13670    0.00200    2.57130  118.83910   84.04970  154.41470
 4013.50000  -14.85020    5.04510    5.76780    5.90780    0.30700    0.08000    8.28960    3.25980    0.00500    2.57320  116.09740   85.28920  155.65240
 4014.00000  -15.46370    5.07880    6.00270    6.14850    0.29910    0.08070    8.28980    3.31920    0.00800    2.57200  112.65700   85.31300  154.58760
 4014.50000  -15.87350    6.20440    6.24710    6.39900    0.27710    0.08560    8.26250    3.25420    0.01070    2.56380  107.82610   83.67800  149.84120
 4015.00000  -16.28330    7.41180    6.50160    6.65970    0.25350    0.09390    8.25440    3.13760    0.00660    2.54940  102.74890   82.35930  147.05180
 4015.50000  -16.69310    9.09480    6.76640    6.92900    0.23530    0.10160    8.27530    3.08190   -0.00070    2.53370  101.71540   80.66280  143.24480
 4016.00000  -17.14270   10.71210    6.93240    7.05930    0.22900    0.10520    8.29620    3.08130   -0.00460    2.52840  102.55610   78.01390  144.10400
 4016.50000  -17.06050   10.28730    6.91100    7.03770    0.25040    0.10430    8.31710    3.09230    0.00020    2.53160  107.32040   74.81120  147.67610
 4017.00000  -16.97830    8.97360    6.88400    7.01030    0.28830    0.10420    8.41740    3.06930    0.00500    2.53180  111.48090   75.07030  150.31660
 4017.50000  -18.09040    7.58800    6.87080    6.99650    0.32940    0.11170    8.65590    3.00230    0.00980    2.51990  115.21440   79.00370  153.69770
 4018.00000  -19.59240    6.73400    6.86900    6.99460    0.33700    0.13040    9.05470    2.93990    0.01050    2.48700  115.84240   82.64610  159.56550
 4018.50000  -21.27160    6.67080    7.10210    7.28800    0.33320    0.14110    9.08640    2.98720    0.01330    2.46870  113.88890   86.29270  163.12650
 4019.00000  -22.02920    6.65750    7.54880    7.81570    0.32010    0.12770    8.63830    3.09240    0.01340    2.49560  109.92930   88.55230  161.57760
 4019.50000  -21.46720    7.06020    8.13790    8.47150    0.30180    0.10960    8.28840    3.25070    0.01170    2.52630  105.83570   89.66660  155.91260
 4020.00000  -20.71250    8.57110    8.95060    9.34250    0.28700    0.09800    8.14950    3.40900    0.00370    2.54770  104.18330   88.14080  152.15180
 4020.50000  -20.48180   10.00630    9.86810   10.40400    0.27280    0.09740    8.11990    3.49980   -0.00420    2.53470  105.12480   85.71630  149.83640
 4021.00000  -20.76620   10.96610   10.87970   11.58770    0.26150    0.10700    8.11480    3.37930   -0.01190    2.51630  102.73890   84.16720  147.10780
 4021.50000  -20.90430   12.48580   11.99500   12.57480    0.25530    0.12070    8.10980    3.14680   -0.01610    2.49450   96.50100   83.24580  144.78510
 4022.00000  -20.67060   14.69210   13.22460   13.45160    0.24530    0.13530    8.10480    3.01420   -0.01700    2.47730   90.50030   82.98600  143.69750
 4022.50000  -20.43690   17.32670   14.08910   14.38960    0.24120    0.14290    8.09970    2.99070   -0.01830    2.46130   86.05510   82.93790  143.25750
 4023.00000  -20.32600   19.97140   14.89830   15.33040    0.24070    0.14910    8.09470    2.95010   -0.01960    2.45220   85.88290   83.01010  143.44070
 4023.50000  -20.39460   21.04240   15.34270   16.13200    0.24040    0.15320    8.08960    2.90500   -0.02080    2.44610   86.79630   82.35410  144.28520
 4024.00000  -20.46320   21.93360   15.67610   16.66840    0.24110    0.15580    8.08500    2.86090   -0.02210    2.44070   88.47540   80.74520  144.76400
 4024.50000  -20.53190   22.44410   15.58500   17.17350    0.24280    0.15780    8.08040    2.82400   -0.02210    2.44080   89.23520   81.22700  146.06130
 4025.00000  -20.60050   23.26880   15.49450   16.87330    0.24570    0.15730    8.07590    2.88280   -0.02200    2.44030   90.59680   82.41160  146.97940
 4025.50000  -20.66910   24.69310   14.84690   16.07750    0.24850    0.15750    8.07130    2.98020   -0.02220    2.43840   92.05240   83.10650  150.03520
 4026.00000  -20.62080   23.19030   14.01990   14.75750    0.25360    0.15850    8.07630    3.15030   -0.02250    2.43870   95.36310   83.15640  150.14690
 4026.50000  -20.47250   17.43680   13.02620   13.50230    0.26110    0.15040    8.09000    3.30620   -0.02290    2.45080  101.92090   83.29780  149.98860
 4027.00000  -19.41600   13.12590   12.10290   12.52590    0.26950    0.14050    8.10450    3.32090   -0.02290    2.46960  106.34560   83.56000  149.72790
 4027.50000  -17.14630   11.72730   11.24510   11.63790    0.27680    0.13070    8.11920    3.19550   -0.02260    2.48840  107.09030   83.41380  149.46010
 4028.00000  -15.10670   11.88130   10.59290   10.90280    0.28380    0.12530    8.13390    3.00790   -0.02230    2.49560  104.85630   83.26770  149.42450
 4028.50000  -13.76130   12.56330   10.02560   10.37890    0.28860    0.12290    8.14870    2.98520   -0.02180    2.49970  102.70150   83.12150  149.84680
