~Version ---------------------------------------------------
VERS.   2.0 : CWLS log ASCII Standard -VERSION 2.0
WRAP.    NO : One line per depth step
DLM . SPACE : Column Data Section Delimiter
~Well ------------------------------------------------------
STRT .F                 1247.0 : START DEPTH
STOP .F                 4200.0 : STOP DEPTH
STEP .F                    0.5 : STEP
NULL .                -9999.25 : NULL VALUE
COMP .                         : COMPANY
WELL .                         : WELL
FLD  .                         : FIELD
LOC  .                         : LOCATION
PROV .                         : PROVINCE
CNTY .                         : COUNTY
STAT .                         : STATE
CTRY .                         : COUNTRY
SRVC .                         : SERVICE COMPANY
DATE .                         : DATE
UWI  .                         : UNIQUE WELL ID
API  .                         : API NUMBER
SLAT .WGS84  4.628471960570394 : SURFACE LATITUDE
SLON .WGS84 2.0789785591842076 : SURFACE LONGITUDE
DATUM.F                 1034.1 : DEPTH DATUM ELEV
~Curve Information -----------------------------------------
DEPT   .F     : 1 MEASURED DEPTH
SPR    .MV    : SPONTANEOUS POTENTIAL FROM RESISTIVITY LOG
SFLU   .OHMM  : SHALLOW FOCUSED RESISTIVITY (UNAVERAGED)
ILD    .OHMM  : INDUCTION DEEP RESISTIVITY
ILM    .OHMM  : INDUCTION MEDIUM RESISTIVITY
NPHI_LS.DEC   : NEUTRON POROSITY LIMESTONE
DPHI_LS.DEC   : DENSITY POROSITY LIMESTONE
CALD   .IN    : CALIPER FROM DENSITY LOG
PEF    .B/E   : PHOTOELECTRIC FACTOR
DRHO   .G/C3  : BULK DENSITY CORRECTION
RHOB   .G/C3  : BULK DENSITY
GRS    .GAPI  : GAMMA RAY FROM SONIC LOG
DTCO   .US/F  : DELTA-T COMPRESSIONAL
DTSM   .US/F  : DELTA-T SHEAR
~Params ----------------------------------------------------
~Other -----------------------------------------------------
~ASCII -----------------------------------------------------
# ...
 3613.00000  -20.06310    3.98260    4.50770    4.62610    0.28530    0.15850    8.64420    2.67510   -0.00030    2.43990  114.40850   89.89560  174.42240
 3613.50000  -20.28100    4.94260    4.72680    5.03240    0.25880    0.14510    8.52750    2.61550   -0.00030    2.45780  115.14600   82.18910  165.82230
 3614.00000  -20.54880    5.71600    4.97530    5.15620    0.25420    0.13920    8.45910    2.63800    0.00140    2.46910  114.39890   76.99690  159.77010
 3614.50000  -20.81650    6.21120    5.02950    5.12570    0.26060    0.14070    8.45910    2.68220    0.00430    2.47210  114.16960   76.22960  164.90290
 3615.00000  -20.65340    6.09760    5.01830    5.09310    0.28170    0.14700    8.58030    2.75190    0.01020    2.45910  115.65770   78.19040  171.86710
 3615.50000  -20.36730    5.35830    4.80210    4.99700    0.31200    0.15340    8.75330    2.98330    0.01650    2.44760  118.24430   84.56330  163.17710
 3616.00000  -20.19050    4.71140    4.44450    4.90260    0.35860    0.15990    8.78060    3.17340    0.01730    2.43660  120.89020   89.48260  140.55320
 3616.50000  -21.22140    4.17920    3.99010    4.83480    0.39490    0.16590    8.55640    3.29480    0.01350    2.42630  123.39190   93.10080  122.79690
 3617.00000  -22.33210    3.72040    4.04810    4.85440    0.41370    0.17030    8.35230    3.30820    0.00980    2.41880  125.17000   90.99800  121.46440
 3617.50000  -23.57500    3.31630    4.53250    5.10010    0.40200    0.17080    8.17630    3.13680    0.00600    2.41800  125.20720   88.97180  124.78460
 3618.00000  -24.89060    3.25920    5.09740    5.37620    0.35710    0.16700    8.16530    2.93270    0.00200    2.42450  120.46630   91.49620  136.84920
 3618.50000  -24.78310    3.85130    5.78410    6.10060    0.30420    0.16120    8.20900    2.71030   -0.00320    2.43420  109.99500   95.55310  146.65530
 3619.00000  -23.41350    5.37210    6.56340    6.92260    0.27170    0.15520    8.24720    2.47920   -0.00840    2.44310  100.75530   94.89560  148.06770
 3619.50000  -22.15380    6.91100    7.21850    7.93560    0.25380    0.14950    8.26030    2.33440   -0.01360    2.45160   91.79190   92.55580  148.60440
 3620.00000  -21.85540   10.65820    7.87480    8.89130    0.23980    0.14920    8.27340    2.18640   -0.01880    2.45170   84.71840   87.11620  151.54850
 3620.50000  -22.33730   13.44540    8.46200    8.94530    0.22170    0.15500    8.28510    2.17040   -0.01980    2.44000   80.62690   82.38660  154.83250
 3621.00000  -24.20600   16.01540    8.61230    9.05140    0.20750    0.16490    8.28620    2.20550   -0.01500    2.42500   81.23950   80.33920  158.82630
 3621.50000  -25.42830   18.18100    8.61310    8.98710    0.20370    0.17750    8.27810    2.27990   -0.01200    2.40550   84.20490   80.44840  162.73810
 3622.00000  -26.40680   16.85720    8.34560    8.97660    0.23050    0.19270    8.27740    2.40430    0.00440    2.38070   90.15730   80.48730  165.78220
 3622.50000  -26.59570    9.39300    7.88840    8.86580    0.25180    0.20890    8.27680    2.47080    0.01640    2.35300   93.89390   80.03050  164.21570
 3623.00000  -26.78450    6.09850    7.64220    8.17300    0.25410    0.22660    8.27620    2.44100    0.03110    2.32200   92.98150   78.92200  160.80880
 3623.50000  -26.97340    5.82810    7.48290    7.74920    0.24180    0.22770    8.27560    2.47960    0.05170    2.32790   90.58440   78.80330  157.66330
 3624.00000  -26.98260    5.84970    7.27330    7.45040    0.22320    0.20940    8.27140    2.62540    0.07430    2.35800   89.18980   79.12130  154.51720
 3624.50000  -27.05350    7.12110    6.71210    6.96530    0.21200    0.18210    8.26150    2.76790    0.09490    2.39870   93.57270   76.67650  150.76720
 3625.00000  -27.28400    7.65030    6.19210    6.42570    0.22850    0.16900    8.24880    2.72310    0.11270    2.41970  100.88240   74.63080  144.86850
 3625.50000  -27.51450    7.38670    5.71240    5.92790    0.25460    0.16280    8.31860    2.64260    0.13010    2.43170  108.42970   74.07460  141.56260
 3626.00000  -27.77930    6.76190    5.26260    5.46870    0.30980    0.15990    8.43470    2.62870    0.14590    2.43660  114.89780   75.04940  142.63570
 3626.50000  -28.47210    5.73570    4.83200    5.02270    0.35560    0.16700    8.54480    2.79500    0.14000    2.42450  117.96900   77.96030  145.58130
 3627.00000  -29.97860    4.80630    4.43660    4.61160    0.38560    0.18480    8.64690    3.06130    0.11770    2.39520  119.13070   81.99000  148.64800
 3627.50000  -32.13210    4.25400    4.07360    4.23430    0.40880    0.19760    8.71170    3.33290    0.08750    2.37210  120.29230   89.84300  151.68250
 3628.00000  -34.28560    3.79410    3.96160    4.03700    0.42470    0.20390    8.79360    3.45190    0.07370    2.36140  122.38250   94.91950  152.95720
 3628.50000  -36.74580    3.53660    3.94070    4.01280    0.43890    0.21260    8.87900    3.28870    0.05920    2.33930  123.71310   94.53880  153.32290
 3629.00000  -36.09790    3.56310    3.94250    4.01460    0.43710    0.22320    8.85590    3.12560    0.05630    2.32240  122.31520   90.47560  153.70120
 3629.50000  -34.85330    3.33530    3.94430    4.01650    0.41570    0.23380    8.77180    2.96250    0.05870    2.31050  119.16950   84.71200  157.55720
 3630.00000  -33.60870    3.31610    3.99040    4.09890    0.35850    0.22770    8.55990    2.79620    0.06530    2.32610  114.62130   81.46930  162.93340
 3630.50000  -32.36470    3.55040    4.05520    4.29760    0.29400    0.20980    8.52260    2.65360    0.07190    2.35100  110.01260   84.05450  171.19750
 3631.00000  -31.16630    4.41660    4.12110    4.30430    0.23980    0.18590    8.54830    2.52700    0.08160    2.39210  108.25350   89.08300  178.35340
 3631.50000  -29.96790    5.31740    4.18810    4.28750    0.23990    0.18710    8.64780    2.40710    0.09140    2.39010  112.32000   90.13350  180.31110
 3632.00000  -28.76950    5.77940    4.26690    4.35240    0.28120    0.20850    8.81420    2.45960    0.10130    2.35360  120.25430   87.73640  181.96330
 3632.50000  -27.57110    5.12870    4.41420    4.53880    0.34120    0.23240    8.99110    2.53320    0.11590    2.31260  127.24940   87.62130  184.63400
 3633.00000  -26.37270    4.49770    4.65400    4.78530    0.36600    0.24240    9.05720    2.70250    0.13200    2.29700  126.54080   90.33090  187.94950
 3633.50000  -25.88260    4.05590    4.90700    5.04510    0.35560    0.24620    8.98780    2.70570    0.13260    2.29070  121.27930   94.46620  189.14330
 3634.00000  -27.62670    4.02360    5.17360    5.31910    0.32800    0.23520    8.61960    2.61410    0.12240    2.30780  112.09720   96.03160  189.14130
 3634.50000  -29.08800    4.88020    5.54470    5.75280    0.27540    0.21460    8.30550    2.50600    0.09600    2.34340   97.76690   93.54870  188.81700
 3635.00000  -29.34620    6.70790    6.13610    6.49110    0.24700    0.19480    8.20670    2.40970    0.06160    2.38010   90.99810   90.06560  186.95800
 3635.50000  -28.34670    9.48980    7.01990    7.42580    0.22350    0.17510    8.15670    2.37410    0.02520    2.41060   87.06110   86.42880  183.22740
 3636.00000  -26.56810   11.86090    8.03110    8.48720    0.21580    0.16300    8.14350    2.36760    0.00000    2.42640   85.41760   84.16140  177.15690
 3636.50000  -24.78960   13.05910    9.14540    9.65320    0.21060    0.16160    8.14190    2.36450   -0.00220    2.43510   84.31580   80.66330  171.60020
 3637.00000  -23.03940   14.47980    9.87430   10.22540    0.20150    0.16580    8.14030    2.34310   -0.00190    2.43000   82.17410   79.47920  168.38000
 3637.50000  -21.33340   16.83200   10.00320   10.28970    0.19200    0.17440    8.13870    2.36820   -0.00160    2.41580   80.99290   78.37490  159.06940
 3638.00000  -20.02960   17.89210    9.53590   10.15810    0.19160    0.18320    8.13680    2.41070    0.00150    2.39590   82.18740   76.24960  136.96400
 3638.50000  -19.82870   14.83850    8.95420    9.36600    0.20050    0.18500    8.19450    2.52320    0.02430    2.39360   88.78030   73.49570  108.66620
