~Version ---------------------------------------------------
VERS.   2.0 : CWLS log ASCII Standard -VERSION 2.0
WRAP.    NO : One line per depth step
DLM . SPACE : Column Data Section Delimiter
~Well ------------------------------------------------------
STRT .F                 1247.0 : START DEPTH
STOP .F                 4200.0 : STOP DEPTH
STEP .F                    0.5 : STEP
NULL .                -9999.25 : NULL VALUE
COMP .                         : COMPANY
WELL .                         : WELL
FLD  .                         : FIELD
LOC  .                         : LOCATION
PROV .                         : PROVINCE
CNTY .                         : COUNTY
STAT .                         : STATE
CTRY .                         : COUNTRY
SRVC .                         : SERVICE COMPANY
DATE .                         : DATE
UWI  .                         : UNIQUE WELL ID
API  .                         : API NUMBER
SLAT .WGS84  4.628471960570394 : SURFACE LATITUDE
SLON .WGS84 2.0789785591842076 : SURFACE LONGITUDE
DATUM.F                 1034.1 : DEPTH DATUM ELEV
~Curve Information -----------------------------------------
DEPT   .F     : 1 MEASURED DEPTH
SPR    .MV    : SPONTANEOUS POTENTIAL FROM RESISTIVITY LOG
SFLU   .OHMM  : SHALLOW FOCUSED RESISTIVITY (UNAVERAGED)
ILD    .OHMM  : INDUCTION DEEP RESISTIVITY
ILM    .OHMM  : INDUCTION MEDIUM RESISTIVITY
NPHI_LS.DEC   : NEUTRON POROSITY LIMESTONE
DPHI_LS.DEC   : DENSITY POROSITY LIMESTONE
CALD   .IN    : CALIPER FROM DENSITY LOG
PEF    .B/E   : PHOTOELECTRIC FACTOR
DRHO   .G/C3  : BULK DENSITY CORRECTION
RHOB   .G/C3  : BULK DENSITY
GRS    .GAPI  : GAMMA RAY FROM SONIC LOG
DTCO   .US/F  : DELTA-T COMPRESSIONAL
DTSM   .US/F  : DELTA-T SHEAR
~Params ----------------------------------------------------
~Other -----------------------------------------------------
~ASCII -----------------------------------------------------
# ...
 1689.00000  -37.59400    3.29110    3.93010    3.57510    0.38850    0.21290   11.65030    2.86920   -0.00300    2.34620   66.61760   80.14010  112.32810
 1689.50000  -38.03470    3.14140    3.97400    3.68840    0.36870    0.21560   11.52390    2.83790   -0.00520    2.34150   65.40600   68.49300  114.15310
 1690.00000  -38.47530    3.03210    4.43500    3.86300    0.29450    0.21270   11.32910    2.94890   -0.00640    2.35760   60.50440   64.84060  115.88880
 1690.50000  -38.91590    3.13810    4.85180    4.24160    0.20660    0.18800   11.07380    3.11190   -0.00620    2.38850   52.94770   65.55460  117.22400
 1691.00000  -39.98850    4.32560    5.38880    4.69690    0.16940    0.15820   10.77950    3.17320   -0.00500    2.44040   44.72830   65.33240  115.83820
 1691.50000  -41.20090    7.71030    6.59110    6.00340    0.18140    0.14850   10.67100    2.84340   -0.00380    2.45220   38.81900   63.84420  113.58570
 1692.00000  -42.41340   12.85720    7.13750    6.95640    0.26430    0.20360   11.00490    2.35480   -0.00260    2.36130   36.78870   62.47800  114.51360
 1692.50000  -43.62580   15.07540    6.53710    6.26970    0.32690    0.38530   12.05640    2.05730   -0.00120    2.04950   40.10570   65.70760  120.03850
 1693.00000  -44.83820   12.10580    5.74070    5.54400    0.36550    0.44390   13.60920    1.94290    0.00100    1.99880   44.70010   72.46170  126.69970
 1693.50000  -45.36230    6.47180    5.32830    4.90230    0.38480    0.44870   13.73570    1.91310    0.00140    1.99900   51.24590   83.70450  137.88110
 1694.00000  -45.20300    4.14090    5.02370    4.51140    0.37750    0.44880   12.96530    2.01330    0.00140    1.99920   55.48130   93.75610  149.44420
 1694.50000  -45.29080    3.39760    5.03570    4.43630    0.35150    0.44900   12.21370    2.19740    0.00140    1.99950   57.82400  102.11740  157.30100
 1695.00000  -45.37860    3.33490    5.08640    4.51560    0.31940    0.44070   11.79550    2.42490    0.00300    2.00680   55.60640  103.41200  157.67200
 1695.50000  -45.46650    3.43450    5.19660    4.73650    0.24040    0.31770   11.46470    2.61430    0.00610    2.16710   52.39110   99.37240  150.35370
 1696.00000  -45.55430    3.89090    5.42560    5.28150    0.18460    0.24590   10.85010    2.86950    0.00940    2.28970   46.32680   88.74480  137.30890
 1696.50000  -46.29830    5.40020    6.34870    6.05700    0.14110    0.18940   10.48710    3.16950    0.01010    2.38620   38.82400   78.61910  121.82490
 1697.00000  -47.60290    6.96240    7.42880    6.94630    0.11610    0.15310   10.42630    3.20920    0.01070    2.44800   33.37690   70.79940  121.13370
 1697.50000  -48.51860   10.60720    8.69270    7.96620    0.12080    0.12260   10.45480    3.20070    0.01140    2.50200   30.25940   67.20640  126.16840
 1698.00000  -49.41570   13.17220   10.15540    9.13580    0.13400    0.11710   10.50400    3.18220    0.01200    2.51410   29.67630   64.27440  131.47220
 1698.50000  -50.31280   13.28900   10.75410   10.34580    0.14400    0.12240   10.59060    3.15930    0.01290    2.50480   30.19840   61.14840  129.98950
 1699.00000  -51.21000   12.23760   11.17890   10.70790    0.15790    0.13060   10.67720    3.13640    0.01430    2.49280   31.12110   58.08870  121.74710
 1699.50000  -51.92710   10.94540   11.17890   10.92170    0.18110    0.14550   10.77180    3.10070    0.01590    2.46960   32.80760   58.25840  121.77870
 1700.00000  -51.92110    9.49940   11.12760   10.70130    0.26350    0.17480   11.09520    3.06250    0.01820    2.41070   37.41550   60.57400  122.37710
 1700.50000  -51.69070    8.12250    9.90400    8.99900    0.33540    0.21220   11.70190    3.06930    0.02020    2.34680   47.26290   63.03470  122.76750
 1701.00000  -49.02730    6.65380    8.10720    7.21280    0.35720    0.24040   12.40240    3.11180    0.02010    2.30480   54.60180   65.88630  120.09230
 1701.50000  -46.08290    4.77570    6.59380    5.88430    0.35340    0.25020   12.67460    3.15430    0.01910    2.28540   63.15000   74.83360  119.81460
 1702.00000  -40.96280    3.51850    5.36280    4.92270    0.35300    0.24460   12.31260    3.16950    0.01750    2.28860   68.04330   81.32150  123.06290
 1702.50000  -37.69230    3.29980    4.71640    4.12290    0.36650    0.24350   11.71970    3.12530    0.01600    2.29510   71.44070   88.41950  137.35490
 1703.00000  -35.93910    3.28580    4.16650    3.73230    0.38100    0.24590   11.55910    3.02300    0.01090    2.29230   73.34090   92.76090  146.05670
 1703.50000  -34.18590    3.24420    3.93000    3.44910    0.39240    0.24650   11.48150    2.96900    0.00490    2.29020   74.56120   96.73900  152.90180
 1704.00000  -33.00860    3.10670    3.92970    3.36370    0.39170    0.23890   11.48040    2.97660    0.00390    2.30020   74.53740  100.10700  154.31070
 1704.50000  -32.33380    3.00810    3.95460    3.35180    0.36390    0.22240   11.51220    3.03390    0.00390    2.32980   69.44050   95.82150  153.94320
 1705.00000  -32.10380    2.97630    4.07560    3.43740    0.30590    0.20740   11.53960    3.09090    0.00380    2.35550   64.60780   89.13070  153.98220
 1705.50000  -34.31670    3.07510    4.24380    3.75630    0.20990    0.19300   11.44400    3.10030    0.00210    2.37880   58.73570   85.06870  156.74510
 1706.00000  -38.59980    3.52890    4.64840    4.14280    0.22460    0.23710   11.51570    2.69520   -0.00120    2.30480   51.50190   85.07700  160.90360
 1706.50000  -41.11090    4.71690    5.28210    4.47120    0.25190    0.37100   12.17780    2.13370   -0.00770    2.05000   47.44980   88.27400  163.60100
 1707.00000  -43.38590    5.84390    6.10090    4.89640    0.30640    0.39560   13.77110    1.82580   -0.01420    2.00160   47.57070   88.01080  160.12030
 1707.50000  -44.35430    6.13220    6.48310    5.63690    0.31310    0.39410   13.82230    1.94120   -0.01690    2.00160   48.46640   85.89690  154.36720
 1708.00000  -43.26290    5.10090    7.39920    6.48950    0.26680    0.38240   12.90540    2.37480   -0.01160    2.00160   48.99790   82.33070  146.20750
 1708.50000  -42.17150    4.72750    8.91010    7.52760    0.17730    0.34170   11.09990    3.20850   -0.00250    2.15680   45.19270   79.03230  137.44620
 1709.00000  -41.08010    6.41880   10.12690    9.05630    0.10610    0.20490   10.38210    3.89830    0.00610    2.36560   37.67240   77.72570  130.23420
 1709.50000  -40.00220   12.75220    9.42030   10.57290    0.08320    0.11620    9.99900    4.15820    0.01470    2.51170   33.66040   76.50640  127.00220
 1710.00000  -38.92810   30.14320    8.47120   10.84920    0.15470    0.08770   10.10780    3.96570    0.01780    2.56000   34.53000   74.28430  125.17700
 1710.50000  -37.86220   32.85580    7.61770    9.84100    0.21880    0.11790   10.35570    3.59900    0.01780    2.49440   42.82110   71.55070  122.73600
 1711.00000  -36.80010   21.28480    6.86020    7.56090    0.30810    0.16670   10.52970    3.26780    0.01780    2.42490   52.43370   70.04300  118.76380
 1711.50000  -34.88050    8.19240    6.19180    5.36140    0.35300    0.19730   10.80110    3.11750    0.01670    2.37280   62.87810   73.56290  119.66010
 1712.00000  -31.49410    4.37560    5.58850    4.31180    0.37290    0.21070   10.98330    3.12420    0.01440    2.35160   70.37860   83.56810  124.38230
 1712.50000  -28.10770    2.75420    5.10160    4.05100    0.38030    0.20520   11.07870    3.20050    0.01030    2.35950   74.35560   94.68310  131.26290
 1713.00000  -25.76640    2.60870    4.75590    3.97680    0.36990    0.19910   11.19440    3.33530    0.00620    2.36960   72.66730  100.81100  137.33530
 1713.50000  -25.59280    2.85510    4.43370    3.90400    0.35780    0.19270   11.26930    3.46830    0.00290    2.38040   69.42500  101.79670  137.47020
 1714.00000  -25.68020    3.38100    4.16140    3.87800    0.35190    0.18700   11.33210    3.56700   -0.00080    2.39020   66.10220  100.04970  137.58720
 1714.50000  -25.79590    4.10900    4.03160    3.87840    0.35250    0.18260   11.38910    3.52640   -0.00490    2.39770   64.17130   96.78370  137.70420
