~Version ---------------------------------------------------
VERS.   2.0 : CWLS log ASCII Standard -VERSION 2.0
WRAP.    NO : One line per depth step
DLM . SPACE : Column Data Section Delimiter
~Well ------------------------------------------------------
STRT .F                 1247.0 : START DEPTH
STOP .F                 4200.0 : STOP DEPTH
STEP .F                    0.5 : STEP
NULL .                -9999.25 : NULL VALUE
COMP .                         : COMPANY
WELL .                         : WELL
FLD  .                         : FIELD
LOC  .                         : LOCATION
PROV .                         : PROVINCE
CNTY .                         : COUNTY
STAT .                         : STATE
CTRY .                         : COUNTRY
SRVC .                         : SERVICE COMPANY
DATE .                         : DATE
UWI  .                         : UNIQUE WELL ID
API  .                         : API NUMBER
SLAT .WGS84  4.628471960570394 : SURFACE LATITUDE
SLON .WGS84 2.0789785591842076 : SURFACE LONGITUDE
DATUM.F                 1034.1 : DEPTH DATUM ELEV
~Curve Information -----------------------------------------
DEPT   .F     : 1 MEASURED DEPTH
SPR    .MV    : SPONTANEOUS POTENTIAL FROM RESISTIVITY LOG
SFLU   .OHMM  : SHALLOW FOCUSED RESISTIVITY (UNAVERAGED)
ILD    .OHMM  : INDUCTION DEEP RESISTIVITY
ILM    .OHMM  : INDUCTION MEDIUM RESISTIVITY
NPHI_LS.DEC   : NEUTRON POROSITY LIMESTONE
DPHI_LS.DEC   : DENSITY POROSITY LIMESTONE
CALD   .IN    : CALIPER FROM DENSITY LOG
PEF    .B/E   : PHOTOELECTRIC FACTOR
DRHO   .G/C3  : BULK DENSITY CORRECTION
RHOB   .G/C3  : BULK DENSITY
GRS    .GAPI  : GAMMA RAY FROM SONIC LOG
DTCO   .US/F  : DELTA-T COMPRESSIONAL
DTSM   .US/F  : DELTA-T SHEAR
~Params ----------------------------------------------------
~Other -----------------------------------------------------
~ASCII -----------------------------------------------------
# ...
 1481.00000  -13.27460    3.08150    3.51120    3.25370    0.44650    0.22030   15.13200    2.87000    0.00810    2.33340   80.36980   78.95360  122.36660
 1481.50000  -13.96030    3.01250    3.48440    3.23310    0.45600    0.21980   15.27270    2.76580    0.00810    2.33420   81.03610   80.88610  123.15360
 1482.00000  -14.64610    2.94650    3.47240    3.22650    0.46330    0.21680   15.37730    2.68520    0.00810    2.33940   79.81470   79.74410  123.28670
 1482.50000  -15.27620    2.90480    3.47530    3.22010    0.46720    0.20720   15.46780    2.69830    0.00800    2.35370   76.30360   77.42210  121.77820
 1483.00000  -15.48570    2.91790    3.51580    3.21380    0.44660    0.19460   15.50740    2.82140    0.02380    2.37670   74.33210   75.91640  119.57440
 1483.50000  -15.69520    3.01270    3.55670    3.21290    0.41830    0.18200   15.48200    2.88760    0.02270    2.39260   74.62290   75.19710  117.48610
 1484.00000  -15.83210    3.13040    3.59810    3.30430    0.39050    0.18260   15.45120    2.94320    0.01730    2.39860   76.71620   74.38730  116.51100
 1484.50000  -15.84510    3.22970    3.63990    3.35430    0.38530    0.18710   15.49450    2.99890    0.01200    2.39010   78.35610   73.64470  115.53580
 1485.00000  -15.85810    3.24170    3.68230    3.38580    0.38360    0.18830   15.63100    2.99510    0.00620    2.38810   79.25240   73.62300  115.75530
 1485.50000  -15.56060    3.24420    3.72540    3.41750    0.38410    0.18680   15.90000    2.96210    0.00020    2.39060   79.49470   75.55840  119.75470
 1486.00000  -15.08560    3.32970    3.76810    3.46700    0.38480    0.18200   16.18910    2.94060   -0.00050    2.39890   80.32980   77.54150  123.64140
 1486.50000  -14.77050    3.41450    3.79870    3.52710    0.38550    0.17460   16.12680    2.94080   -0.00070    2.41150   81.52540   78.22850  123.76600
 1487.00000  -14.58080    3.41890    3.82960    3.58820    0.38620    0.17420   15.77940    2.93770   -0.00030    2.41210   81.76170   77.43800  122.46000
 1487.50000  -14.39120    3.41940    3.86080    3.58530    0.39160    0.17900   15.68310    2.94500    0.00010    2.40460   80.76480   76.24920  122.18160
 1488.00000  -14.20160    3.42000    3.86870    3.54320    0.40650    0.19250   15.48360    2.93630   -0.00180    2.38080   79.12090   75.43090  118.62630
 1488.50000  -14.04970    3.35730    3.81120    3.49550    0.42170    0.20500   15.18140    2.90000   -0.00390    2.35950   78.13820   76.16460  115.68860
 1489.00000  -13.93500    3.28010    3.75450    3.42860    0.42210    0.21140   15.00820    2.82400   -0.00560    2.34850   77.55870   77.00850  113.84220
 1489.50000  -13.41380    3.20640    3.70620    3.36300    0.41480    0.21710   15.01880    2.75350   -0.00730    2.33880   76.93390   77.23050  114.91810
 1490.00000  -12.93190    3.16640    3.68010    3.31660    0.39650    0.22220   15.56740    2.73100   -0.00780    2.32740   76.21480   77.21010  113.57730
 1490.50000  -12.54440    3.14060    3.65430    3.28000    0.37790    0.22510   16.14560    2.72560   -0.00740    2.32390   75.71820   77.05860  114.04390
 1491.00000  -12.15690    3.14000    3.62860    3.24380    0.37570    0.22690   16.42190    2.72970   -0.00680    2.32210   75.73600   75.49260  115.26360
 1491.50000  -11.76940    3.14420    3.59650    3.20800    0.39310    0.22730   16.57780    2.73370   -0.00610    2.32150   75.75380   74.23790  117.32310
 1492.00000  -11.44160    3.14850    3.58700    3.18240    0.40930    0.22650   16.09340    2.69480   -0.00590    2.32280   75.36120   75.27320  119.08840
 1492.50000  -11.65520    3.14770    3.58700    3.19660    0.41380    0.22650   15.82580    2.64640   -0.00620    2.32280   74.24770   81.24470  120.85370
 1493.00000  -12.14820    3.09150    3.61420    3.23340    0.38890    0.22660   15.61180    2.63410   -0.00650    2.32270   72.36510   84.44330  120.67970
 1493.50000  -12.64120    3.03790    3.67260    3.31560    0.37290    0.22410   15.43470    2.69040   -0.00640    2.32700   69.74900   82.58800  118.78610
 1494.00000  -13.19200    3.05370    3.73170    3.39980    0.37060    0.21820   15.34110    2.78750   -0.00560    2.33540   67.65550   78.50270  119.32830
 1494.50000  -13.78250    3.10030    3.75340    3.45760    0.38350    0.20740   15.25150    2.91380   -0.00480    2.35590   67.71390   75.28400  120.74670
 1495.00000  -14.48370    3.21340    3.78160    3.50600    0.39650    0.19850   15.16190    2.91460   -0.00390    2.36970   67.49150   75.50600  121.22430
 1495.50000  -15.26050    3.33560    3.82690    3.55500    0.39630    0.19530   15.08300    2.88050   -0.00380    2.37610   67.26550   75.17960  117.73800
 1496.00000  -16.12480    3.46240    3.87270    3.60480    0.39310    0.19180   14.95580    2.86760   -0.00350    2.38210   67.39330   72.81350  115.94390
 1496.50000  -17.17790    3.63060    3.91910    3.65070    0.39000    0.18720   14.74630    2.92850   -0.00220    2.39000   68.07740   68.46120  114.87590
 1497.00000  -18.23110    3.79110    3.96600    3.69460    0.38790    0.18210   14.20010    2.97120   -0.00120    2.39730   69.09350   64.97220  114.59640
 1497.50000  -19.28420    3.85120    4.01250    3.73900    0.38710    0.17660   14.30760    2.96900    0.00020    2.40630   71.49120   64.15520  114.31690
 1498.00000  -19.13220    3.68810    4.01990    3.74460    0.38860    0.17650   14.43900    2.95590    0.00180    2.40780   74.21570   64.55860  114.00640
 1498.50000  -18.72100    3.49620    3.97630    3.66970    0.39530    0.17980   14.53750    2.96590    0.00330    2.40170   77.35240   64.84670  113.13070
 1499.00000  -17.80250    3.36750    3.93420    3.59630    0.40210    0.18340   14.55470    3.00430    0.00490    2.39650   78.77090   63.87450  112.15340
 1499.50000  -16.59520    3.26770    3.89260    3.52440    0.41150    0.18640   14.55600    3.02580    0.00650    2.39130   79.48760   62.06130  111.32210
 1500.00000  -15.72730    3.18520    3.85150    3.50080    0.41650    0.18940   14.56420    2.95810    0.00720    2.38620   79.95160   56.95440  110.49080
 1500.50000  -15.11170    3.13120    3.81080    3.48900    0.42140    0.19210   14.58200    2.82920    0.00730    2.38150   79.95760   57.14930  110.21300
 1501.00000  -14.49600    3.09210    3.77050    3.47950    0.42670    0.19320   14.61250    2.87070    0.00580    2.37950   77.73010   58.88200  110.31870
 1501.50000  -13.88040    3.06340    3.73950    3.47000    0.43450    0.18880   14.64310    3.00170    0.00420    2.38710   74.12070   60.00630  111.02830
 1502.00000  -13.26480    3.03850    3.71880    3.42400    0.43930    0.18110   14.72870    3.15970    0.00180    2.40020   69.85680   62.63460  114.68790
 1502.50000  -12.58950    3.11130    3.66080    3.38750    0.43280    0.17780   14.93130    3.29830   -0.00050    2.40600   67.12980   69.16320  118.71780
 1503.00000  -12.11040    3.28810    3.60370    3.36520    0.43000    0.18140   16.05290    3.37130   -0.00250    2.40090   66.56890   73.75670  120.75190
 1503.50000  -11.63130    3.28810    3.54750    3.26360    0.43410    0.19040   16.19210    3.36150   -0.00190    2.38560   66.48510   75.11740  122.59550
 1504.00000  -11.32190    3.20580    3.49220    3.17230    0.45610    0.20750   15.59310    3.11680   -0.00120    2.35510   66.59290   73.44000  123.53750
 1504.50000  -11.55070    3.07290    3.44770    3.10070    0.46310    0.23030   15.34700    2.90670   -0.00070    2.31600   67.44640   71.34760  124.40040
 1505.00000  -11.77960    2.94560    3.41660    3.05700    0.44580    0.25100   15.72370    2.79350   -0.00070    2.28060   68.44170   71.55570  123.48330
 1505.50000  -12.00840    2.82350    3.38590    3.03900    0.42410    0.25910   16.13600    2.72800   -0.00080    2.26680   69.49380   72.77960  120.75850
 1506.00000  -12.37710    2.75780    3.35550    3.02120    0.40390    0.26190   15.76750    2.71910   -0.00170    2.26190   68.68300   74.60930  119.91190
 1506.50000  -12.86190    2.76020    3.36400    2.99380    0.39480    0.26140   15.39890    2.73840   -0.00570    2.26290   66.20730   74.84060  122.50610
