~Version ---------------------------------------------------
VERS.   2.0 : CWLS log ASCII Standard -VERSION 2.0
WRAP.    NO : One line per depth step
DLM . SPACE : Column Data Section Delimiter
~Well ------------------------------------------------------
STRT .F                 1247.0 : START DEPTH
STOP .F                 4200.0 : STOP DEPTH
STEP .F                    0.5 : STEP
NULL .                -9999.25 : NULL VALUE
COMP .                         : COMPANY
WELL .                         : WELL
FLD  .                         : FIELD
LOC  .                         : LOCATION
PROV .                         : PROVINCE
CNTY .                         : COUNTY
STAT .                         : STATE
CTRY .                         : COUNTRY
SRVC .                         : SERVICE COMPANY
DATE .                         : DATE
UWI  .                         : UNIQUE WELL ID
API  .                         : API NUMBER
SLAT .WGS84  4.628471960570394 : SURFACE LATITUDE
SLON .WGS84 2.0789785591842076 : SURFACE LONGITUDE
DATUM.F                 1034.1 : DEPTH DATUM ELEV
~Curve Information -----------------------------------------
DEPT   .F     : 1 MEASURED DEPTH
SPR    .MV    : SPONTANEOUS POTENTIAL FROM RESISTIVITY LOG
SFLU   .OHMM  : SHALLOW FOCUSED RESISTIVITY (UNAVERAGED)
ILD    .OHMM  : INDUCTION DEEP RESISTIVITY
ILM    .OHMM  : INDUCTION MEDIUM RESISTIVITY
NPHI_LS.DEC   : NEUTRON POROSITY LIMESTONE
DPHI_LS.DEC   : DENSITY POROSITY LIMESTONE
CALD   .IN    : CALIPER FROM DENSITY LOG
PEF    .B/E   : PHOTOELECTRIC FACTOR
DRHO   .G/C3  : BULK DENSITY CORRECTION
RHOB   .G/C3  : BULK DENSITY
GRS    .GAPI  : GAMMA RAY FROM SONIC LOG
DTCO   .US/F  : DELTA-T COMPRESSIONAL
DTSM   .US/F  : DELTA-T SHEAR
~Params ----------------------------------------------------
~Other -----------------------------------------------------
~ASCII -----------------------------------------------------
# ...
 2443.00000  -37.47190    6.48500    5.27900    5.38780    0.22800    0.17360    8.50250    2.63250    0.00350    2.41310   86.78380   90.88670  159.55120
 2443.50000  -36.84770    6.20950    5.34450    5.44020    0.23070    0.16820    8.56070    2.58030    0.00300    2.42230   87.82540   90.48420  158.86800
 2444.00000  -36.22350    6.14630    5.39500    5.49310    0.23350    0.16350    8.54960    2.49950    0.00170    2.43030   89.15690   89.88070  158.42880
 2444.50000  -36.01260    6.34380    5.44600    5.54640    0.23520    0.15880    8.55290    2.44740    0.00090    2.43830   89.37740   89.28730  158.56560
 2445.00000  -36.14570    6.69430    5.49740    5.60030    0.23380    0.15420    8.55700    2.47060    0.00080    2.44630   89.03340   88.56980  158.37290
 2445.50000  -36.71730    7.03110    5.53720    5.63980    0.23250    0.15100    8.56110    2.50780   -0.00070    2.45170   86.24260   87.85240  157.81390
 2446.00000  -37.89660    8.30590    5.57090    5.67410    0.23110    0.15280    8.56420    2.50960   -0.00140    2.44880   82.50130   87.16920  157.25480
 2446.50000  -39.55230   10.76580    5.60470    5.70850    0.23130    0.16450    8.56390    2.48690    0.00130    2.42860   77.28150   86.71730  156.60830
 2447.00000  -41.28860   12.65840    5.63870    5.74320    0.23180    0.17470    8.57870    2.49230    0.00510    2.41120   74.95520   86.23530  155.66850
 2447.50000  -41.08620   13.22000    5.61300    5.77640    0.23360    0.18120    8.60190    2.51140    0.01030    2.40010   77.17230   85.84980  154.72880
 2448.00000  -40.77070   10.78110    5.55930    5.77120    0.23750    0.18200    8.62360    2.57610    0.02560    2.39870   84.64780   87.15980  156.20300
 2448.50000  -40.40250    6.79550    5.50610    5.74450    0.24580    0.18090    8.64110    2.61450    0.04690    2.40510   92.79370   89.70760  159.84820
 2449.00000  -39.02750    5.58940    5.46960    5.70520    0.25360    0.17670    8.65860    2.59830    0.05770    2.41150   98.50560   89.90260  162.05240
 2449.50000  -37.62520    5.60860    5.46580    5.66620    0.25600    0.17080    8.66100    2.54880    0.04710    2.41900   97.48230   90.12400  163.21020
 2450.00000  -36.22290    6.23850    5.46190    5.68420    0.25460    0.16480    8.60930    2.50850    0.03530    2.42820   92.44300   92.47140  163.22340
 2450.50000  -35.70930    6.81770    5.55020    5.70960    0.24770    0.16100    8.57950    2.47620    0.02340    2.43480   87.22660   92.66330  161.92110
 2451.00000  -36.19340    7.19820    5.66210    5.76830    0.23420    0.16080    8.58550    2.45830    0.01170    2.43510   82.91320   90.83570  160.65820
 2451.50000  -36.97010    7.80850    5.72030    5.82760    0.21960    0.16110    8.59150    2.46800    0.00690    2.43460   81.32170   88.59310  159.73120
 2452.00000  -37.74670    8.10810    5.77910    5.88750    0.21550    0.16090    8.59750    2.47990    0.02960    2.43480   82.96360   87.53450  158.83560
 2452.50000  -38.52340    7.59540    5.83560    5.94390    0.23140    0.15910    8.60350    2.49960    0.06190    2.43800   87.63780   87.10950  158.03870
 2453.00000  -39.34550    6.76480    5.78950    5.89700    0.24210    0.15800    8.67400    2.51250    0.06970    2.43990   90.30330   87.08030  158.02880
 2453.50000  -40.17930    5.84790    5.74380    5.85050    0.25690    0.15370    8.75030    2.52740    0.07600    2.44720   90.70260   87.82190  160.40860
 2454.00000  -41.01310    5.94660    5.69850    5.80430    0.25330    0.14740    8.83850    2.55990    0.07670    2.45800   89.36770   89.49760  165.93190
 2454.50000  -41.90750    6.54560    5.64760    5.75850    0.24790    0.15420    8.90950    2.63160    0.06520    2.44630   87.55950   90.28960  171.50800
 2455.00000  -43.28610    6.68970    5.51000    5.62200    0.25000    0.16120    8.98050    2.69320    0.05050    2.43430   88.64610   90.05330  172.61880
 2455.50000  -44.66470    6.16780    5.38870    5.49830    0.25560    0.16280    9.05150    2.79790    0.04120    2.43150   89.75100   89.49830  173.03960
 2456.00000  -45.27880    5.70490    5.27010    5.37730    0.25450    0.15940    9.10490    2.80070    0.04460    2.43730   90.98230   89.47220  172.37320
 2456.50000  -44.36920    5.40240    5.15410    5.25890    0.24910    0.15460    9.15410    2.74750    0.04870    2.44560   92.11560   90.36710  168.78160
 2457.00000  -42.94810    5.54070    5.10870    5.20200    0.24160    0.15020    9.21010    2.67280    0.04870    2.45310   92.73510   90.65460  163.82050
 2457.50000  -41.43020    5.73710    5.11190    5.20530    0.24110    0.14840    9.22760    2.60150    0.04920    2.45610   93.35450   90.12320  160.74260
 2458.00000  -40.69160    5.71830    5.12930    5.22470    0.25730    0.15140    9.22900    2.52730    0.05080    2.45100   93.46190   89.60380  158.89760
 2458.50000  -40.87910    5.55590    5.17720    5.27340    0.26360    0.15770    9.23030    2.50490    0.05290    2.44020   92.13330   89.79740  157.05260
 2459.00000  -41.33410    5.35210    5.22550    5.32260    0.25670    0.16710    9.23170    2.51740    0.04930    2.42410   89.34280   91.19420  155.55100
 2459.50000  -42.30820    5.46880    5.28300    5.38270    0.24330    0.17340    9.19160    2.57540    0.04500    2.41330   85.33970   92.07130  155.35580
 2460.00000  -43.28230    6.00940    5.34950    5.45050    0.23230    0.16930    9.16740    2.63490    0.03500    2.42050   82.96310   92.00430  158.66760
 2460.50000  -43.17050    7.72260    5.41680    5.51910    0.22770    0.16380    9.14370    2.66230    0.02330    2.42980   83.39240   91.51590  171.99110
 2461.00000  -42.67820    7.99520    5.48500    5.58860    0.22810    0.16040    9.11990    2.71650    0.01190    2.43570   84.56560   90.77820  180.25360
 2461.50000  -40.99740    7.45920    5.55400    5.65900    0.23330    0.15810    9.09620    2.72730    0.00550    2.43960   86.59380   89.62520  180.40300
 2462.00000  -38.79870    6.37470    5.62990    5.73710    0.23650    0.16000    9.07240    2.60460    0.00360    2.43630   87.20350   88.82210  180.06150
 2462.50000  -36.70530    6.48160    5.70800    5.81670    0.22920    0.16410    9.04780    2.59630    0.00390    2.42940   87.10240   89.07450  180.15330
 2463.00000  -36.64180    6.93970    5.78720    5.89750    0.22480    0.16980    9.02310    2.65460    0.00430    2.41960   86.40350   89.41560  180.28100
 2463.50000  -36.53980    7.34480    5.82850    5.93580    0.22670    0.17070    9.02680    2.70180    0.00460    2.41820   85.65500   89.06810  179.71420
 2464.00000  -36.41350    7.00620    5.85110    5.95810    0.22920    0.16560    9.06280    2.66130    0.00500    2.42670   84.65080   88.24470  177.62470
 2464.50000  -36.37300    7.65540    5.85110    5.95810    0.22780    0.16170    9.09880    2.56310    0.00530    2.43350   83.32430   87.49880  176.85330
 2465.00000  -36.29240    8.89760    5.81510    5.92290    0.22000    0.16320    9.15230    2.48460    0.00440    2.43090   81.63930   87.27650  176.81850
 2465.50000  -36.20630   11.33620    5.76950    5.87650    0.21510    0.16510    9.22770    2.49130    0.00330    2.42760   80.13570   87.28620  176.82170
 2466.00000  -37.18110   10.60870    5.72430    5.83040    0.21880    0.16250    9.29550    2.50830    0.00220    2.43210   80.68760   87.35870  176.38780
 2466.50000  -39.73850    8.57600    5.67940    5.78470    0.22370    0.15600    9.32630    2.52530    0.00350    2.44310   82.01900   87.42380  175.92690
 2467.00000  -40.21870    7.06240    5.63490    5.73940    0.22860    0.15340    9.32150    2.58120    0.00560    2.44760   86.07280   88.16870  174.22630
 2467.50000  -40.49950    6.50110    5.55350    5.66270    0.23240    0.15440    9.34130    2.64870    0.00770    2.44590   89.95760   88.94770  170.46500
 2468.00000  -39.52930    6.22610    5.49930    5.60170    0.23630    0.15490    9.36100    2.74790    0.00970    2.44510   93.57690   90.11210  167.48880
 2468.50000  -38.51390    5.66120    5.54370    5.64640    0.24020    0.15310    9.34350    2.74230    0.01150    2.44810   96.06470   91.95940  165.20880
