~Version ---------------------------------------------------
VERS.   2.0 : CWLS log ASCII Standard -VERSION 2.0
WRAP.    NO : One line per depth step
DLM . SPACE : Column Data Section Delimiter
~Well ------------------------------------------------------
STRT .F                 1247.0 : START DEPTH
STOP .F                 4200.0 : STOP DEPTH
STEP .F                    0.5 : STEP
NULL .                -9999.25 : NULL VALUE
COMP .                         : COMPANY
WELL .                         : WELL
FLD  .                         : FIELD
LOC  .                         : LOCATION
PROV .                         : PROVINCE
CNTY .                         : COUNTY
STAT .                         : STATE
CTRY .                         : COUNTRY
SRVC .                         : SERVICE COMPANY
DATE .                         : DATE
UWI  .                         : UNIQUE WELL ID
API  .                         : API NUMBER
SLAT .WGS84  4.628471960570394 : SURFACE LATITUDE
SLON .WGS84 2.0789785591842076 : SURFACE LONGITUDE
DATUM.F                 1034.1 : DEPTH DATUM ELEV
~Curve Information -----------------------------------------
DEPT   .F     : 1 MEASURED DEPTH
SPR    .MV    : SPONTANEOUS POTENTIAL FROM RESISTIVITY LOG
SFLU   .OHMM  : SHALLOW FOCUSED RESISTIVITY (UNAVERAGED)
ILD    .OHMM  : INDUCTION DEEP RESISTIVITY
ILM    .OHMM  : INDUCTION MEDIUM RESISTIVITY
NPHI_LS.DEC   : NEUTRON POROSITY LIMESTONE
DPHI_LS.DEC   : DENSITY POROSITY LIMESTONE
CALD   .IN    : CALIPER FROM DENSITY LOG
PEF    .B/E   : PHOTOELECTRIC FACTOR
DRHO   .G/C3  : BULK DENSITY CORRECTION
RHOB   .G/C3  : BULK DENSITY
GRS    .GAPI  : GAMMA RAY FROM SONIC LOG
DTCO   .US/F  : DELTA-T COMPRESSIONAL
DTSM   .US/F  : DELTA-T SHEAR
~Params ----------------------------------------------------
~Other -----------------------------------------------------
~ASCII -----------------------------------------------------
# ...
 1299.00000   -9999.25   -9999.25   -9999.25   -9999.25    0.50360   -9999.25   -9999.25   -9999.25   -9999.25   -9999.25   58.44790   -9999.25   -9999.25
 1299.50000   -9999.25   -9999.25   -9999.25   -9999.25    0.51300   -9999.25   -9999.25   -9999.25   -9999.25   -9999.25   58.56960   -9999.25   -9999.25
 1300.00000   -9999.25   -9999.25   -9999.25   -9999.25    0.52240   -9999.25   -9999.25   -9999.25   -9999.25   -9999.25   58.40150   -9999.25   -9999.25
 1300.50000   -9999.25   -9999.25   -9999.25   -9999.25    0.53100   -9999.25   -9999.25   -9999.25   -9999.25   -9999.25   58.14270   -9999.25   -9999.25
 1301.00000   -9999.25   -9999.25   -9999.25   -9999.25    0.53690   -9999.25   -9999.25   -9999.25   -9999.25   -9999.25   58.56600   -9999.25   -9999.25
 1301.50000   -9999.25   -9999.25   -9999.25   -9999.25    0.52780   -9999.25   -9999.25   -9999.25   -9999.25   -9999.25   59.13550   -9999.25   -9999.25
 1302.00000   -9999.25   -9999.25   -9999.25   -9999.25    0.48460   -9999.25   -9999.25   -9999.25   -9999.25   -9999.25   60.97840   -9999.25   -9999.25
 1302.50000   -9999.25   -9999.25   -9999.25   -9999.25    0.44360   -9999.25   -9999.25   -9999.25   -9999.25   -9999.25   62.71770   -9999.25   -9999.25
 1303.00000   -9999.25   -9999.25   -9999.25   -9999.25    0.45040   -9999.25   -9999.25   -9999.25   -9999.25   -9999.25   63.52090   -9999.25   -9999.25
 1303.50000   -9999.25   -9999.25   -9999.25   -9999.25    0.46550   -9999.25   -9999.25   -9999.25   -9999.25   -9999.25   63.78150   -9999.25   -9999.25
 1304.00000   -9999.25   -9999.25   -9999.25   -9999.25    0.49760   -9999.25   -9999.25   -9999.25   -9999.25   -9999.25   62.32130   -9999.25   -9999.25
 1304.50000   -9999.25   -9999.25   -9999.25   -9999.25    0.51070   -9999.25   -9999.25   -9999.25   -9999.25   -9999.25   61.00040   -9999.25   -9999.25
 1305.00000   -9999.25   -9999.25   -9999.25   -9999.25    0.51910   -9999.25   -9999.25   -9999.25   -9999.25   -9999.25   60.45910   -9999.25   -9999.25
 1305.50000   -9999.25   -9999.25   -9999.25   -9999.25    0.51220   -9999.25   -9999.25   -9999.25   -9999.25   -9999.25   62.63120   -9999.25   -9999.25
 1306.00000   12.35070    0.20810   -9999.25   -9999.25    0.50370   -9999.25    8.65000    3.48100   -0.24260   -9999.25   66.08090  100.68600  142.73190
 1306.50000   12.62540    0.44020   -9999.25   -9999.25    0.49600   -9999.25    9.05790    2.40560   -0.20610   -9999.25   70.53750   99.84170  142.44500
 1307.00000    2.56090    1.75050 1863.00940 1925.70190    0.48820   -9999.25    9.67120    2.10800   -0.11290   -9999.25   73.28510  101.46450  142.40070
 1307.50000   -7.28780    3.37490  932.71610 1706.26920    0.47360   -9999.25   10.48100    1.78420   -0.03500   -9999.25   75.50840  103.89000  142.38870
 1308.00000  -14.77670    4.85620   27.95830 1216.68360    0.44610   -9999.25   11.57640    1.78380   -0.00960   -9999.25   77.67830  106.01010  142.37660
 1308.50000  -22.74870    2.56090    1.86370  616.81160    0.42260   -9999.25   11.75810    2.00410    0.01530   -9999.25   80.64640  102.96470  142.36460
 1309.00000  -21.06020    3.76810    2.66670   38.32470    0.40340    0.45060   11.08700    2.24150    0.03290    1.99970   84.16470   98.70760  142.32790
 1309.50000  -16.18970    5.34160    5.86410    5.50800    0.38000    0.41240   10.91070    2.41470    0.05570    1.99970   86.57420   95.46040  142.32580
 1310.00000  -14.61940    6.51010   40.71700    6.84230    0.38520    0.34180   11.34910    2.41510    0.08960    2.12550   86.34130   94.94020  142.41550
 1310.50000  -14.26370    7.93420  941.55820    8.49980    0.39830    0.29840   11.75200    2.35220    0.10140    2.19970   86.38380   96.19240  142.39790
 1311.00000  -13.90790    9.21560  644.23190   10.55880    0.40140    0.29650   11.96260    2.39890    0.10470    2.20280   86.71740   98.55880  142.38040
 1311.50000  -13.86170    9.28430  110.70510   11.36160    0.40320    0.30070   11.77990    2.54720    0.08160    2.19570   88.03230  101.38110  142.36280
 1312.00000  -13.94240    8.32520   18.56540    9.75420    0.41320    0.31050   11.35560    2.72030    0.06100    2.17890   89.27160  101.95220  142.34690
 1312.50000  -14.06610    7.28750    8.97110    8.24940    0.42690    0.32060   10.90790    2.78710    0.04990    2.16180   90.18000  101.13440  142.33530
 1313.00000  -14.34590    6.66850    7.37880    7.11260    0.44340    0.33040   10.98170    2.73400    0.04280    2.14500   90.21840  100.02990  142.34160
 1313.50000  -15.07150    6.39140    7.02690    9.56120    0.43030    0.33460   11.13180    2.65170    0.04180    2.13790   89.16920   98.92540  142.33600
 1314.00000  -15.79700    6.57090    7.60440   17.30040    0.40430    0.32660   12.06660    2.54640    0.04030    2.15160   87.85030   98.38280  142.32760
 1314.50000  -16.60110    6.69240    8.53180   17.11890    0.37160    0.30850   11.93090    2.42680    0.03850    2.18250   87.17710   98.15750  142.31920
 1315.00000  -17.50340    6.70860    8.93850    9.85110    0.36760    0.29850   11.60880    2.40300    0.03450    2.19970   87.64700   97.03790  142.22880
 1315.50000  -18.40580    7.02200    8.48380    8.66710    0.37310    0.31230   11.45290    2.44540    0.02790    2.17590   89.03430   97.00210  141.15580
 1316.00000  -19.30820    7.25400    8.19370    7.92920    0.38580    0.35650   11.47610    2.50260    0.02120    2.10030   89.78790   99.43170  139.50070
 1316.50000  -19.86120    7.25640    7.89850    7.26550    0.40010    0.41920   11.64780    2.40850    0.01620    1.99930   88.93770  101.78310  137.88980
 1317.00000  -19.99210    7.10880    7.75040    7.23280    0.41430    0.44940   11.86190    2.30570    0.01220    1.99990   87.95740   98.55060  136.83740
 1317.50000  -20.12290    6.27520    7.63230    7.21460    0.41590    0.44970   11.98580    2.32480    0.00830   -9999.25   86.75180   94.67320  138.64050
 1318.00000  -20.25380    5.75310    7.59350    7.26130    0.39620    0.44950   11.86430    2.35670    0.00120   -9999.25   85.52540   95.40750  144.25740
 1318.50000  -20.46660    5.68150    7.64670    7.44500    0.36980    0.44930   11.57780    2.27100   -0.00370   -9999.25   81.44690  101.90990  148.58500
 1319.00000  -20.71200    6.31640    7.84420    7.64590    0.35320    0.44910   11.57790    2.11500   -0.00080   -9999.25   76.90940  106.73300  149.22960
 1319.50000  -20.95750    7.41230    8.04790    7.79750    0.33830    0.44890   11.79580    2.01480    0.00430   -9999.25   73.86310  105.77050  149.32550
 1320.00000  -21.24850    8.41820    8.19750    7.95210    0.32610    0.44870   12.07660    2.04120    0.00960   -9999.25   72.96780  105.43840  149.90380
 1320.50000  -21.70160    8.79420    8.27470    8.10980    0.31790    0.44840   11.98660    2.01320    0.01620   -9999.25   73.88680  106.24360  150.30420
 1321.00000  -22.15460    8.75000    8.50480    8.27060    0.32290    0.44820   11.78440    1.90730    0.02250    2.00060   74.91860  104.29320  149.45320
 1321.50000  -21.80410    8.64020    8.77890    8.43530    0.32930    0.44800   11.96030    1.81430    0.02790    1.99990   74.66940   98.18800  146.14780
 1322.00000  -21.05830    8.44140    9.05010    8.70200    0.31990    0.44780   12.35230    1.97910    0.03410    1.99950   74.21610   87.44480  136.62460
 1322.50000  -20.29770    8.35890    9.28350    8.86780    0.30980    0.42750   12.13810    2.16590    0.04260    1.99950   73.94350   76.46650  126.62400
 1323.00000  -19.73200    8.42720    9.40070    8.90100    0.31470    0.35780   11.85110    2.27280    0.06040    2.10620   74.49190   68.69050  118.03910
 1323.50000  -19.16630    8.55140    9.45180    8.94410    0.33510    0.35820   12.03260    2.28870    0.07620    2.09370   75.23390   65.80060  115.74280
 1324.00000  -18.60060    8.11370    9.39730    8.67100    0.37240    0.42370   12.71010    2.28560    0.07060    2.00080   75.97580   63.75060  117.80530
 1324.50000  -18.03490    7.47570    8.91960    8.01030    0.40410    0.44830   13.08620    2.27900    0.04930    1.99980   76.06670   63.12090  121.28430
