~Version ---------------------------------------------------
VERS.   2.0 : CWLS log ASCII Standard -VERSION 2.0
WRAP.    NO : One line per depth step
DLM . SPACE : Column Data Section Delimiter
~Well ------------------------------------------------------
STRT .F                 1247.0 : START DEPTH
STOP .F                 4200.0 : STOP DEPTH
STEP .F                    0.5 : STEP
NULL .                -9999.25 : NULL VALUE
COMP .                         : COMPANY
WELL .                         : WELL
FLD  .                         : FIELD
LOC  .                         : LOCATION
PROV .                         : PROVINCE
CNTY .                         : COUNTY
STAT .                         : STATE
CTRY .                         : COUNTRY
SRVC .                         : SERVICE COMPANY
DATE .                         : DATE
UWI  .                         : UNIQUE WELL ID
API  .                         : API NUMBER
SLAT .WGS84  4.628471960570394 : SURFACE LATITUDE
SLON .WGS84 2.0789785591842076 : SURFACE LONGITUDE
DATUM.F                 1034.1 : DEPTH DATUM ELEV
~Curve Information -----------------------------------------
DEPT   .F     : 1 MEASURED DEPTH
SPR    .MV    : SPONTANEOUS POTENTIAL FROM RESISTIVITY LOG
SFLU   .OHMM  : SHALLOW FOCUSED RESISTIVITY (UNAVERAGED)
ILD    .OHMM  : INDUCTION DEEP RESISTIVITY
ILM    .OHMM  : INDUCTION MEDIUM RESISTIVITY
NPHI_LS.DEC   : NEUTRON POROSITY LIMESTONE
DPHI_LS.DEC   : DENSITY POROSITY LIMESTONE
CALD   .IN    : CALIPER FROM DENSITY LOG
PEF    .B/E   : PHOTOELECTRIC FACTOR
DRHO   .G/C3  : BULK DENSITY CORRECTION
RHOB   .G/C3  : BULK DENSITY
GRS    .GAPI  : GAMMA RAY FROM SONIC LOG
DTCO   .US/F  : DELTA-T COMPRESSIONAL
DTSM   .US/F  : DELTA-T SHEAR
~Params ----------------------------------------------------
~Other -----------------------------------------------------
~ASCII -----------------------------------------------------
# ...
 2261.00000 -117.93860  100.79450    2.25810    3.61040    0.11250    0.09870    8.17310    3.07440    0.03260    2.54120   26.27690   65.08620  118.11780
 2261.50000 -118.07880   79.67640    2.23950    3.62100    0.13030    0.11030    8.19750    3.00190    0.02610    2.52630   26.99720   68.96600  131.67670
 2262.00000 -116.76490   53.17970    2.09130    3.02380    0.15830    0.13400    8.06140    2.87800    0.01700    2.49310   27.81610   77.03830  147.62660
 2262.50000 -113.35660   33.57100    2.00490    2.53130    0.19290    0.16950    7.95730    2.77530    0.00840    2.43410   29.19430   84.22360  164.20840
 2263.00000 -109.49040   21.12780    1.94610    2.29130    0.21300    0.19810    7.94050    2.68380    0.00600    2.38040   34.34980   87.32480  169.88040
 2263.50000 -104.38890   13.11110    1.93090    2.14580    0.21680    0.21240    7.97040    2.75090    0.00360    2.34330   42.18930   88.16550  168.03990
 2264.00000  -99.28740   10.71890    1.94480    2.33140    0.18110    0.19310    8.00040    2.94880    0.00270    2.37900   47.42040   88.72510  162.50680
 2264.50000  -95.97490   13.49520    2.05800    2.56700    0.13440    0.15300    8.03040    3.18960    0.00220    2.44120   46.09240   87.06430  145.90760
 2265.00000  -96.77920   20.60060    2.19300    2.90110    0.10800    0.10160    8.03470    3.32060    0.00140    2.52080   34.34190   80.98740  131.34700
 2265.50000  -98.57150   36.81010    2.32270    3.31030    0.10810    0.07100    8.03350    3.36330    0.00080    2.57590   28.10480   72.07760  124.01450
 2266.00000 -100.36380   41.49930    2.46010    3.77730    0.10870    0.06570    8.01350    3.32910    0.00070    2.59570   25.44500   65.52320  117.56950
 2266.50000 -102.16540   38.13990    2.56390    3.93640    0.11060    0.09470    7.98110    3.29280    0.00190    2.55780   25.93870   63.40980  114.45200
 2267.00000 -103.97630   33.51960    2.41820    3.69170    0.11420    0.10640    7.97050    3.26690    0.00460    2.53590   28.25520   65.86410  119.74160
 2267.50000 -103.43270   29.45900    2.16090    3.31430    0.13430    0.11100    8.01050    3.17560    0.00730    2.52190   31.10820   70.77750  131.01520
 2268.00000 -101.41690   22.69610    1.98100    2.71190    0.17240    0.12230    8.04740    2.90550    0.00910    2.50570   35.80270   75.37700  142.37590
 2268.50000  -98.38460   15.35050    1.82880    2.27620    0.21530    0.15290    8.03530    2.64850    0.00750    2.46490   40.96700   79.97970  152.20320
 2269.00000  -94.93890   11.17200    1.69850    2.03250    0.23740    0.18670    7.98210    2.54180    0.00320    2.40800   44.73510   85.44780  165.64070
 2269.50000  -91.44340    8.28520    1.64370    1.94870    0.25590    0.20640    7.95570    2.55510    0.00010    2.36180   48.73570   89.61210  172.93400
 2270.00000  -85.30760    6.84540    1.64340    1.96390    0.25560    0.21260    7.98420    2.64440   -0.00010    2.34480   52.24930   89.62050  172.50340
 2270.50000  -79.22640    6.84540    1.64870    2.02850    0.22090    0.20210    7.98800    2.76120   -0.00010    2.36450   54.78100   87.86620  167.52630
 2271.00000  -73.46040    7.57840    1.65800    2.10250    0.21110    0.18450    7.99190    2.75640    0.00100    2.39490   56.43240   88.15900  163.81480
 2271.50000  -68.50290    7.80290    1.73910    2.17910    0.23280    0.16600    7.99570    2.66110    0.00260    2.42620   58.55310   90.11390  160.10830
 2272.00000  -64.87560    6.74290    1.83200    2.25850    0.26880    0.17090    7.99950    2.49770    0.00430    2.41800   60.13840   90.83760  154.42130
 2272.50000  -64.85200    5.05940    1.91470    2.34090    0.28310    0.18800    8.00650    2.36400    0.00830    2.38800   59.66190   90.94410  150.59830
 2273.00000  -66.91060    5.28480    2.00120    2.44590    0.26700    0.20490    8.03760    2.30410    0.01240    2.35990   52.97360   92.14290  147.00320
 2273.50000  -70.95630    7.64470    2.09160    2.55900    0.21430    0.21360    8.06870    2.35540    0.01410    2.34490   43.72710   91.75290  140.70530
 2274.00000  -78.17140   12.48470    2.19940    2.67740    0.17160    0.20700    8.09970    2.45650    0.01190    2.35610   34.51310   86.91040  139.92510
 2274.50000  -81.21370   20.38890    2.31810    2.85610    0.13540    0.18780    8.12530    2.56480    0.00930    2.38750   31.46150   84.17190  139.44020
 2275.00000  -81.41390   25.61060    2.53400    3.05720    0.11200    0.16820    8.13900    2.64350    0.00830    2.42550   31.86200   81.70370  138.93750
 2275.50000  -80.44270   26.84550    2.80640    3.32400    0.11530    0.14870    8.28780    2.73240    0.00890    2.45670   35.11010   76.95710  137.67240
 2276.00000  -71.89080   20.69660    3.10380    3.65320    0.12570    0.13090    8.45420    2.82140    0.01000    2.48060   40.56820   70.02010  136.35940
 2276.50000  -62.77070   13.91160    3.42340    3.87710    0.14080    0.12390    8.64400    2.89740    0.01640    2.50130   47.26560   66.81110  136.16670
 2277.00000  -55.96840    8.23270    3.72360    3.97480    0.15860    0.12480    8.85650    2.94100    0.02510    2.49790   55.27430   67.82800  137.09540
 2277.50000  -48.97270    5.93530    3.91740    4.07500    0.18740    0.14030    9.05280    2.93070    0.03420    2.47400   66.29390   71.08280  137.88090
 2278.00000  -43.92720    5.34890    3.95210    4.05180    0.22220    0.16860    9.24810    2.85680    0.04370    2.42290   72.63920   76.51440  140.17620
 2278.50000  -41.21230    5.55830    3.93790    4.01190    0.27320    0.20540    9.42410    2.76500    0.05600    2.35880   77.30950   81.65150  141.83250
 2279.00000  -38.49750    5.51500    3.93320    4.00600    0.29740    0.22910    9.49730    2.70450    0.07120    2.31700   80.31060   86.72500  141.07810
 2279.50000  -35.86120    5.41080    4.00360    4.09590    0.32020    0.23550    9.50840    2.62540    0.09430    2.30730   83.98050   90.35570  132.95360
 2280.00000  -33.86490    5.46010    4.14400    4.23940    0.32020    0.22930    9.51270    2.54380    0.11010    2.31800   85.51840   94.00160  125.44240
 2280.50000  -33.09330    6.15580    4.31980    4.44960    0.30820    0.20930    9.49130    2.57250    0.10680    2.35210   82.46740   95.45950  119.69140
 2281.00000  -34.04320    6.82390    4.58090    4.71860    0.27840    0.17230    9.42220    2.62100    0.09540    2.41540   75.01640   92.74050  119.82030
 2281.50000  -35.93730    6.61070    4.85780    4.99990    0.23690    0.14530    9.36120    2.65100    0.07120    2.46020   68.56950   86.90750  120.06160
 2282.00000  -37.81050    6.53610    4.99390    5.24320    0.18100    0.13510    9.34430    2.69080    0.04040    2.47910   57.94840   80.92160  119.78630
 2282.50000  -39.78540    7.75690    5.03020    5.45390    0.16300    0.13200    9.38720    2.75020    0.01760    2.48440   50.68100   74.75250  113.30590
 2283.00000  -40.73280    9.64930    5.00810    5.22310    0.18360    0.13620    9.48210    2.71140    0.01920    2.47730   52.78450   70.40970  107.89050
 2283.50000  -40.93280    8.86950    4.94780    5.02610    0.23440    0.16330    9.57710    2.63810    0.02970    2.43590   57.66510   71.81550  108.07610
 2284.00000  -39.93670    6.98420    4.74530    4.83660    0.31820    0.20180    9.67200    2.50510    0.04160    2.36330   69.94900   78.10340  116.66070
 2284.50000  -37.65440    4.66750    4.45340    4.62310    0.34900    0.24390    9.78360    2.52760    0.05660    2.30200   80.53080   85.78200  125.03350
 2285.00000  -35.37210    4.04580    4.11980    4.38140    0.34420    0.23960    9.84190    2.59490    0.07160    2.30080   86.68490   90.71340  127.46210
 2285.50000  -33.08990    3.86220    3.96750    4.25200    0.32960    0.22450    9.71360    2.69560    0.08670    2.32440   90.85000   94.57530  129.40040
 2286.00000  -31.09960    4.13390    3.95800    4.16300    0.32000    0.19480    9.58160    2.77940    0.09760    2.38180   93.47110   96.97690  129.32480
 2286.50000  -30.60800    4.63530    3.97500    4.10410    0.32360    0.18740    9.50510    2.73330    0.09770    2.38650   93.31920   95.50400  129.24920
