~Version ---------------------------------------------------
VERS.   2.0 : CWLS log ASCII Standard -VERSION 2.0
WRAP.    NO : One line per depth step
DLM . SPACE : Column Data Section Delimiter
~Well ------------------------------------------------------
STRT .F                3446.5 : START DEPTH
STOP .F               12711.0 : STOP DEPTH
STEP .F                   0.5 : STEP
NULL .               -9999.25 : NULL VALUE
COMP .                        : COMPANY
WELL .                        : WELL
FLD  .                        : FIELD
LOC  .                        : LOCATION
PROV .                        : PROVINCE
CNTY .                        : COUNTY
STAT .                        : STATE
CTRY .                        : COUNTRY
SRVC .                        : SERVICE COMPANY
DATE .                        : DATE
UWI  .                        : UNIQUE WELL ID
API  .                        : API NUMBER
SLAT .WGS84 5.979132254332001 : SURFACE LATITUDE
SLON .WGS84 4.182919849344202 : SURFACE LONGITUDE
DATUM.F               2177.96 : DEPTH DATUM ELEV
~Curve Information -----------------------------------------
DEPT.F     : 
DTCO.US/F  : COMPRESSIONAL-WAVE INTERVAL TRANSIT TIME ACOUSTIC SLOWNESS
DTSM.US/F  : SHEAR-WAVE INTERVAL TRANSIT TIME DELTA-T
GRR .GAPI  : GAMMA RAY
SFLU.OHMM  : INDUCTION LOG DEEP
ILM .OHMM  : INDUCTION LOG MEDIUM
ILD .OHMM  : INDUCTION LOG DEEP
SPR .MV    : SPONTANEOUS POTENTIAL
IDPH.OHMM  : INDUCTION DEEP PHASOR RES
IMPH.OHMM  : INDUCTION MEDIUM PHASOR RES.
CALD.IN    : CALIPER FROM DENSITY LOG
DRHO.G/C3  : DENSITY CORRECTION
PEF .B/E   : PHOTOELECTRIC FACTOR
RHOB.G/C3  : BULK DENSITY
DPHI.DEC   : DENSITY POROSITY LIMESTONE
NPHI.DEC   : NEUTRON POROSITY LIMESTONE
~Params ----------------------------------------------------
~Other -----------------------------------------------------
~ASCII -----------------------------------------------------
# ...
 12679.00000   72.38790  124.98880  121.00080   10.68330   -9999.25   -9999.25    1.34150    9.18140    9.88400    6.14970    0.06940   -9999.25    2.67610    0.01480    0.18800
 12679.50000   72.28730  125.13820  120.10500   12.36040   -9999.25   -9999.25    1.31160    9.04350    9.44020    6.14800    0.06350   -9999.25    2.66560    0.02190    0.17740
 12680.00000   72.18670  125.13820  118.33210   15.19930   -9999.25   -9999.25    1.28000    9.41560    9.18740    6.14620    0.05470   -9999.25    2.64980    0.02540    0.17330
 12680.50000   72.08610  125.28750  108.66440   16.04600   -9999.25   -9999.25    1.25540    9.93650    9.18630    6.14440    0.04280   -9999.25    2.62640    0.04110    0.17310
 12681.00000   71.98550  125.43690  105.13710   15.82350   -9999.25   -9999.25    1.23080   10.63080    9.58010    6.14270    0.03330   -9999.25    2.61110    0.04760    0.17860
 12681.50000   71.88490  125.58630  102.19250   16.47750   -9999.25   -9999.25    1.20960   11.11290   10.01100    6.14060    0.01370   -9999.25    2.61020    0.05150    0.18290
 12682.00000   71.78420  125.58630  100.70480   17.39320   -9999.25   -9999.25    1.18150   11.61380   10.46040    6.13900   -0.00710   -9999.25    2.62060    0.05340    0.18750
 12682.50000   71.68360  125.58630  101.56340   17.86770   -9999.25   -9999.25    1.15690   12.06620   11.01040    6.13730   -0.01870   -9999.25    2.62910    0.04700    0.19060
 12683.00000   71.58300  125.58630  104.17640   17.54240   -9999.25   -9999.25    1.12820   12.32000   11.54900    6.10640   -0.01650   -9999.25    2.63480    0.04220    0.19140
 12683.50000   71.48240  125.58630  107.66670   16.91190   -9999.25   -9999.25    1.09540   12.48500   11.86370    6.07540   -0.01730   -9999.25    2.63910    0.03860    0.19020
 12684.00000   71.38180  125.58630  110.27970   16.90760   -9999.25   -9999.25    1.07700   12.48140   11.88840    6.07370   -0.01590   -9999.25    2.64340    0.03690    0.18910
 12684.50000   71.27430  125.73560  111.13840   16.90340   -9999.25   -9999.25    1.04620   12.31060   11.86060    6.07190   -0.01600   -9999.25    2.64620    0.03600    0.18730
 12685.00000   71.87470  125.73560  111.11980   16.67100   -9999.25   -9999.25    1.02150   11.77590   11.70000    6.07020   -0.01310   -9999.25    2.64610    0.03480    0.18610
 12685.50000   72.17630  125.88500  108.17520   16.22010   -9999.25   -9999.25    0.99690   10.92280   11.50620    6.06840   -0.01160   -9999.25    2.64600    0.03430    0.18670
 12686.00000   72.02990  126.48250  104.93310   15.56840   -9999.25   -9999.25    0.97230   10.14750   11.23240    6.06670   -0.01030   -9999.25    2.64260    0.03420    0.18810
 12686.50000   72.03290  127.22930  104.03730   14.15520   -9999.25   -9999.25    0.94360    9.49810   10.86010    6.06460   -0.01070   -9999.25    2.63890    0.03610    0.18980
 12687.00000   71.88640  127.67740  106.65040   12.98710   -9999.25   -9999.25    0.91080    9.00700   10.49590    6.06290   -0.01580   -9999.25    2.63560    0.03720    0.19100
 12687.50000   71.88950  128.12550  111.01780   11.53620   -9999.25   -9999.25    0.88620    8.76440   10.07790    6.06130   -0.02130   -9999.25    2.62820    0.03910    0.19200
 12688.00000   72.19170  129.02170  115.38520   10.48710   -9999.25   -9999.25    0.86160    8.76220    9.54670    6.05960   -0.02440   -9999.25    2.62240    0.04210    0.19200
 12688.50000   72.79210  130.21660  119.75260   10.34300   -9999.25   -9999.25    0.83690    8.89280    9.16500    6.05790   -0.02810   -9999.25    2.61360    0.04570    0.19140
 12689.00000   73.39250  131.26210  122.36570   10.62520   -9999.25   -9999.25    0.81230    9.02840    9.02560    6.05610   -0.02810   -9999.25    2.60770    0.04900    0.19090
 12689.50000   72.94740  132.15830  121.61400   11.21560   -9999.25   -9999.25    0.78770    9.29130    8.91980    6.02510   -0.02820   -9999.25    2.60760    0.05420   -9999.25
 12690.00000   72.95030  132.45710  119.68770   11.83890   -9999.25   -9999.25    0.75820    9.56160    8.91860    6.02340   -0.02970   -9999.25    2.61050    0.05620   -9999.25
 12690.50000   73.10260  132.15830  118.79200   12.61070   -9999.25   -9999.25    0.73360    9.74990    9.10370    6.02160   -0.02810   -9999.25    2.61370    0.05510   -9999.25
 12691.00000   73.40430  131.70790  118.77340   13.18970   -9999.25   -9999.25    0.70160    9.88020    9.41090    6.00430   -0.02510   -9999.25    2.61830    0.05190   -9999.25
 12691.50000   73.55660  130.62550  117.00050   13.73480   -9999.25   -9999.25    1.26180   10.14850    9.79880    5.98860   -0.02210   -9999.25    2.62280    0.04840   -9999.25
 12692.00000   73.26080  129.12360  115.22760   13.91970   -9999.25   -9999.25    1.23990   10.28410   10.06570    5.98690   -0.01960   -9999.25    2.62810    0.04320   -9999.25
 12692.50000   72.66620  127.07990  108.62660   14.10590   -9999.25   -9999.25    1.21250    9.97540   10.20130    5.98520   -0.01750   -9999.25    2.63110    0.04440   -9999.25
 12693.00000   71.92230  125.58630  100.71060   14.29520   -9999.25   -9999.25    1.18790    9.68840    9.88070    5.98360   -0.01830   -9999.25    2.63310    0.04620   -9999.25
 12693.50000   70.70890  124.83940   99.37630   13.90850   -9999.25   -9999.25    1.16080    9.28310    9.49280    5.98190   -0.01980   -9999.25    2.63300    0.04620   -9999.25
 12694.00000   69.67000  124.39130  101.11560   13.41120   -9999.25   -9999.25    1.13620    8.97290    9.16860    5.98010   -0.01990   -9999.25    2.63290    0.04440   -9999.25
 12694.50000   70.13950  124.24200  103.28760   12.46830   -9999.25   -9999.25    1.10180    8.73130    8.77230    5.97840   -0.01990   -9999.25    2.63280    0.04200   -9999.25
 12695.00000   71.33740  124.69010  104.58380   11.80590   -9999.25   -9999.25    1.07710    8.49610    8.32490    5.97660   -0.02000   -9999.25    2.63270    0.04240   -9999.25
 12695.50000   71.93770  126.48250  105.00070   11.17870   -9999.25   -9999.25    1.05250    8.25880    8.10200    5.97490   -0.02000   -9999.25    2.62610    0.04480   -9999.25
 12696.00000   72.38880  129.46980  105.85940   10.44190   -9999.25   -9999.25    1.02790    8.02130    7.88510    5.97310   -0.02010   -9999.25    2.61450    0.04810   -9999.25
 12696.50000   73.13850  132.00900  107.15660    9.49230   -9999.25   -9999.25    1.00330    7.82760    7.76880    5.97100   -0.01970   -9999.25    2.60880    0.05370   -9999.25
 12697.00000   73.52400  133.91750  108.89250    8.86670   -9999.25   -9999.25    0.97870    7.77210    7.57000    5.96940   -0.01720   -9999.25    2.60630    0.05680   -9999.25
 12697.50000   -9999.25   -9999.25  105.36350    8.35770   -9999.25   -9999.25    0.95000    7.92950    7.46760    5.96770   -0.01580   -9999.25    2.60770    0.05740   -9999.25
 12698.00000   -9999.25   -9999.25  102.70580    9.35590   -9999.25   -9999.25    0.91720    8.14490    7.67080    5.96600   -0.01300   -9999.25    2.61190    0.05680   -9999.25
 12698.50000   -9999.25   -9999.25  102.25790   10.28670   -9999.25   -9999.25    0.89250    8.25370    7.80640    5.96430   -0.01150   -9999.25    2.61760    0.05510   -9999.25
 12699.00000   -9999.25   -9999.25  103.54590   11.62150   -9999.25   -9999.25    0.86800    8.37010    7.91890    5.99190   -0.01450   -9999.25    2.61930    0.05160   -9999.25
 12699.50000   -9999.25   -9999.25  103.52730   12.60520   -9999.25   -9999.25    0.84330    8.49770    8.03210    5.99010   -0.01750   -9999.25    2.61460    0.04980   -9999.25
 12700.00000   -9999.25   -9999.25  103.07020   13.48770   -9999.25   -9999.25    0.81870    8.70590    8.14200    6.01780   -0.01750   -9999.25    2.60870    0.05160   -9999.25
 12700.50000   -9999.25   -9999.25  102.61300   12.57320   -9999.25   -9999.25    0.77220    8.70320    8.24720    6.01580   -0.01760   -9999.25    2.60410    0.05500   -9999.25
 12701.00000   -9999.25   -9999.25  102.73710   11.65860   -9999.25   -9999.25    0.72570    8.58350    8.35240    6.01400   -0.01730   -9999.25    2.60130    0.05690   -9999.25
