~Version ---------------------------------------------------
VERS.   2.0 : CWLS log ASCII Standard -VERSION 2.0
WRAP.    NO : One line per depth step
DLM . SPACE : Column Data Section Delimiter
~Well ------------------------------------------------------
STRT .F                3446.5 : START DEPTH
STOP .F               12711.0 : STOP DEPTH
STEP .F                   0.5 : STEP
NULL .               -9999.25 : NULL VALUE
COMP .                        : COMPANY
WELL .                        : WELL
FLD  .                        : FIELD
LOC  .                        : LOCATION
PROV .                        : PROVINCE
CNTY .                        : COUNTY
STAT .                        : STATE
CTRY .                        : COUNTRY
SRVC .                        : SERVICE COMPANY
DATE .                        : DATE
UWI  .                        : UNIQUE WELL ID
API  .                        : API NUMBER
SLAT .WGS84 5.979132254332001 : SURFACE LATITUDE
SLON .WGS84 4.182919849344202 : SURFACE LONGITUDE
DATUM.F               2177.96 : DEPTH DATUM ELEV
~Curve Information -----------------------------------------
DEPT.F     : 
DTCO.US/F  : COMPRESSIONAL-WAVE INTERVAL TRANSIT TIME ACOUSTIC SLOWNESS
DTSM.US/F  : SHEAR-WAVE INTERVAL TRANSIT TIME DELTA-T
GRR .GAPI  : GAMMA RAY
SFLU.OHMM  : INDUCTION LOG DEEP
ILM .OHMM  : INDUCTION LOG MEDIUM
ILD .OHMM  : INDUCTION LOG DEEP
SPR .MV    : SPONTANEOUS POTENTIAL
IDPH.OHMM  : INDUCTION DEEP PHASOR RES
IMPH.OHMM  : INDUCTION MEDIUM PHASOR RES.
CALD.IN    : CALIPER FROM DENSITY LOG
DRHO.G/C3  : DENSITY CORRECTION
PEF .B/E   : PHOTOELECTRIC FACTOR
RHOB.G/C3  : BULK DENSITY
DPHI.DEC   : DENSITY POROSITY LIMESTONE
NPHI.DEC   : NEUTRON POROSITY LIMESTONE
~Params ----------------------------------------------------
~Other -----------------------------------------------------
~ASCII -----------------------------------------------------
# ...
 11756.50000   64.61400  114.54670   55.41110   34.98960   -9999.25   -9999.25   -2.25740   18.94250   17.90030    6.65650   -0.02640   -9999.25    2.63540    0.03970    0.05100
 11757.00000   65.07090  114.85200   56.26770   32.24050   -9999.25   -9999.25   -2.85690   18.03370   17.15160    6.68190   -0.02500   -9999.25    2.63760    0.03800    0.05330
 11757.50000   65.67710  116.94970   58.00140   29.70740   -9999.25   -9999.25   -2.86790   17.68390   16.65890    6.68130   -0.02220   -9999.25    2.64060    0.03920    0.05630
 11758.00000   69.27060  118.15120   60.17370   25.69350   -9999.25   -9999.25   -2.29410   17.80820   16.11170    6.68070   -0.02230   -9999.25    2.64920    0.03920    0.06000
 11758.50000   73.90970  116.96290   61.46890   24.76950   -9999.25   -9999.25   -2.30510   18.39480   15.67580    6.68010   -0.02230   -9999.25    2.65350    0.03570    0.06390
 11759.00000   75.55920  113.38470   62.76400   25.55540   -9999.25   -9999.25   -2.31610   19.40750   15.66980    6.67950   -0.02240   -9999.25    2.64760    0.03050    0.06850
 11759.50000   70.49180  108.25910   63.18200   29.66480   -9999.25   -9999.25   -2.91190   21.90850   15.89220    6.70820   -0.02240   -9999.25    2.64730    0.03200    0.06630
 11760.00000   63.03220  101.55160   57.34940   43.97380   -9999.25   -9999.25   -2.92290   25.18450   17.52320    6.70760   -0.02310   -9999.25    2.65480    0.03350    0.05810
 11760.50000   57.63050   91.30000   49.10220  100.67880   -9999.25   -9999.25   -2.93570   30.12590   26.50950    6.70690   -0.02550   -9999.25    2.68230    0.03010    0.03470
 11761.00000   53.84320   89.66190   37.67800  227.39530   -9999.25   -9999.25   -3.53520   37.23720   40.96780    6.70630   -0.02640   -9999.25    2.70980    0.02090    0.01480
 11761.50000   51.55960   92.65740   40.27860  271.23090   -9999.25   -9999.25   -4.13100   46.45080   51.40900    6.70580   -0.02860   -9999.25    2.73170    0.00910    0.01010
 11762.00000   51.26740   96.99560   41.14550  256.18470   -9999.25   -9999.25   -4.14200   56.30640   52.80140    6.70520   -0.02860   -9999.25    2.73430   -0.01310    0.00770
 11762.50000   52.02520   98.19710   42.43030  203.75060   -9999.25   -9999.25   -4.73780   67.09580   52.77830    6.70460   -0.02870   -9999.25    2.72920   -0.01710    0.01120
 11763.00000   52.33270   97.90490   48.11150  203.68550   -9999.25   -9999.25   -5.33360   71.75350   51.35020    6.70410   -0.03020   -9999.25    2.69720   -0.01730    0.01460
 11763.50000   52.49080   97.46180   54.66980  192.85140   -9999.25   -9999.25   -5.92940   70.75360   49.84380    6.70350   -0.03180   -9999.25    2.67320   -0.01240    0.01560
 11764.00000   53.54510   97.91810   56.84210  119.83800   -9999.25   -9999.25   -6.13640   67.82060   47.95390    6.70290   -0.03470   -9999.25    2.65690   -0.00300    0.01500
 11764.50000   56.83990   99.56770   57.69870   90.06620   -9999.25   -9999.25   -6.53790   64.97560   48.59040    6.70230   -0.03780   -9999.25    2.64500    0.01220    0.01130
 11765.00000   60.88150  100.76920   50.37130  124.74310   -9999.25   -9999.25   -6.55260   63.09740   49.54180    6.70180   -0.04070   -9999.25    2.63750    0.03260    0.01080
 11765.50000   63.72820   99.99120   42.73480  150.82510   -9999.25   -9999.25   -5.97330   60.84180   49.87890    6.70680   -0.04220   -9999.25    2.63390    0.03680    0.01430
 11766.00000   64.33460   99.13930   40.97010  159.19660   -9999.25   -9999.25   -5.40500   59.18020   49.85600    6.72990   -0.04200   -9999.25    2.62950    0.03860    0.02070
 11766.50000   63.74780   99.74500   46.20230  105.86070   -9999.25   -9999.25   -5.41610   57.57150   48.50700    6.72920   -0.03860   -9999.25    2.63240    0.04340    0.02010
 11767.00000   63.00760  100.79710   47.93600   85.15320   -9999.25   -9999.25   -4.84230   56.76930   47.19450    6.72870   -0.03460   -9999.25    2.63670    0.04390    0.01960
 11767.50000   64.36280  100.95300   47.03820   92.35510   -9999.25   -9999.25   -4.26840   54.48430   45.23890    6.72810   -0.03160   -9999.25    2.64100    0.04020    0.01900
 11768.00000   66.31330  100.65930   47.01750   97.48120   -9999.25   -9999.25   -3.69470   51.95840   43.34950    6.72750   -0.03160   -9999.25    2.64380    0.03610    0.01850
 11768.50000   68.26380  103.50540   47.87410  101.50360   -9999.25   -9999.25   -3.90180   45.99210   41.90360    6.72690   -0.03530   -9999.25    2.64080    0.03610    0.01850
 11769.00000   65.88270  109.48660   50.18730   88.58200   -9999.25   -9999.25   -4.30700   38.12960   39.54720    6.72620   -0.03390   -9999.25    2.63780    0.03730    0.01870
 11769.50000   61.11180  111.89930   54.84000   49.37640   -9999.25   -9999.25   -4.31800   30.00790   34.97500    6.72560   -0.03250   -9999.25    2.63450    0.03880    0.02020
 11770.00000   57.83450  107.70740   59.20540   35.88080   -9999.25   -9999.25   -4.32900   24.46290   30.53900    6.72510   -0.03110   -9999.25    2.63140    0.04110    0.02440
 11770.50000   59.03820  108.31860   64.44790   24.34380   -9999.25   -9999.25   -3.17040   21.07060   26.66570    6.72450   -0.02970   -9999.25    2.62720    0.04230    0.03620
 11771.00000   62.05940  109.38040   70.56760   22.43120   -9999.25   -9999.25   -3.18140   19.15750   21.46880    6.72390   -0.02980   -9999.25    2.62320    0.04470    0.04700
 11771.50000   62.34170  110.56670   74.93290   22.42400   -9999.25   -9999.25   -2.60760   17.88770   16.29850    6.72340   -0.02700   -9999.25    2.62800    0.04820    0.05600
 11772.00000   61.90240  112.81370   76.22810   23.66860   -9999.25   -9999.25   -2.62040   17.10800   15.09170    6.72280   -0.02700   -9999.25    2.63770    0.04540    0.06230
 11772.50000   63.85500  114.76200   71.38290   24.98240   -9999.25   -9999.25   -3.21990   16.14270   14.61070    6.72220   -0.02420   -9999.25    2.64500    0.03950    0.06350
 11773.00000   64.16030  115.96190   68.43580   26.01320   -9999.25   -9999.25   -3.81570   15.02690   14.19100    6.75090   -0.02520   -9999.25    2.64720    0.03480    0.06010
 11773.50000   63.27510  112.53470   69.57690   25.65400   -9999.25   -9999.25   -4.41150   14.17850   13.71080    6.75480   -0.03100   -9999.25    2.64040    0.03260    0.05890
 11774.00000   62.23830  111.64340   70.44380   23.64260   -9999.25   -9999.25   -4.42240   13.98970   13.33980    6.77900   -0.03370   -9999.25    2.63160    0.03770    0.05950
 11774.50000   61.20150  113.29470   71.30030   21.77770   -9999.25   -9999.25   -4.43340   13.98260   12.97890    6.77840   -0.03470   -9999.25    2.62290    0.04610    0.06130
 11775.00000   60.31400  113.00250   70.39220   18.74900   -9999.25   -9999.25   -4.44440   13.97550   12.62770    6.78750   -0.03330   -9999.25    2.61120    0.04960    0.06600
 11775.50000   59.57600  111.96350   65.98560   16.81280   -9999.25   -9999.25   -4.45550   13.96040   12.99130    6.81790   -0.03100   -9999.25    2.63870    0.05210    0.07010
 11776.00000   59.13660  110.62580   59.82460   16.13630   -9999.25   -9999.25   -4.46820   13.58810   13.31950    6.83510   -0.02610   -9999.25    2.66090    0.05490    0.07070
 11776.50000   59.16360  112.20330   51.03200   19.24690   -9999.25   -9999.25   -4.48300   13.34430   13.49570    6.83450   -0.02320   -9999.25    2.67720    0.04690    0.06550
 11777.00000   60.20190  114.52250   48.37980   40.06880   -9999.25   -9999.25   -4.49390   13.13500   13.48920    6.83390   -0.02040   -9999.25    2.69360    0.02520    0.04880
 11777.50000   60.21060  113.33580   54.48920   43.26130   -9999.25   -9999.25   -4.50490   12.23100   13.66740    6.83320   -0.01900   -9999.25    2.70990    0.01180    0.04050
 11778.00000   60.36870  113.64110   64.99480   34.64680   -9999.25   -9999.25   -3.92930   10.91960   13.47770    6.83270   -0.01900   -9999.25    2.71240   -0.00620    0.05010
 11778.50000   61.87110  116.48560   76.37770   13.13850   -9999.25   -9999.25   -3.35740    9.66320   12.25560    6.83210   -0.01910   -9999.25    2.68630    0.00020    0.06480
