~Version ---------------------------------------------------
VERS.   2.0 : CWLS log ASCII Standard -VERSION 2.0
WRAP.    NO : One line per depth step
DLM . SPACE : Column Data Section Delimiter
~Well ------------------------------------------------------
STRT .F                3446.5 : START DEPTH
STOP .F               12711.0 : STOP DEPTH
STEP .F                   0.5 : STEP
NULL .               -9999.25 : NULL VALUE
COMP .                        : COMPANY
WELL .                        : WELL
FLD  .                        : FIELD
LOC  .                        : LOCATION
PROV .                        : PROVINCE
CNTY .                        : COUNTY
STAT .                        : STATE
CTRY .                        : COUNTRY
SRVC .                        : SERVICE COMPANY
DATE .                        : DATE
UWI  .                        : UNIQUE WELL ID
API  .                        : API NUMBER
SLAT .WGS84 5.979132254332001 : SURFACE LATITUDE
SLON .WGS84 4.182919849344202 : SURFACE LONGITUDE
DATUM.F               2177.96 : DEPTH DATUM ELEV
~Curve Information -----------------------------------------
DEPT.F     : 
DTCO.US/F  : COMPRESSIONAL-WAVE INTERVAL TRANSIT TIME ACOUSTIC SLOWNESS
DTSM.US/F  : SHEAR-WAVE INTERVAL TRANSIT TIME DELTA-T
GRR .GAPI  : GAMMA RAY
SFLU.OHMM  : INDUCTION LOG DEEP
ILM .OHMM  : INDUCTION LOG MEDIUM
ILD .OHMM  : INDUCTION LOG DEEP
SPR .MV    : SPONTANEOUS POTENTIAL
IDPH.OHMM  : INDUCTION DEEP PHASOR RES
IMPH.OHMM  : INDUCTION MEDIUM PHASOR RES.
CALD.IN    : CALIPER FROM DENSITY LOG
DRHO.G/C3  : DENSITY CORRECTION
PEF .B/E   : PHOTOELECTRIC FACTOR
RHOB.G/C3  : BULK DENSITY
DPHI.DEC   : DENSITY POROSITY LIMESTONE
NPHI.DEC   : NEUTRON POROSITY LIMESTONE
~Params ----------------------------------------------------
~Other -----------------------------------------------------
~ASCII -----------------------------------------------------
# ...
 8920.50000   -9999.25   -9999.25   86.91890   33.58610   23.24630   20.63050   -0.24560   -9999.25   -9999.25   10.54940    0.07360    2.58120    2.55040    0.08330    0.15180
 8921.00000   -9999.25   -9999.25   89.54230   33.12930   24.53940   20.70870   -0.25650   -9999.25   -9999.25   10.57840    0.06960    2.68090    2.56190    0.07930    0.17170
 8921.50000   -9999.25   -9999.25   94.79720   28.55050   22.84970   21.19360   -0.26930   -9999.25   -9999.25   10.60730    0.06570    2.75940    2.57060    0.08040    0.18730
 8922.00000   -9999.25   -9999.25  101.36800   24.50260   18.45190   21.64690    0.30640   -9999.25   -9999.25   10.60700    0.06170    2.74470    2.57780    0.09020    0.19480
 8922.50000   -9999.25   -9999.25  105.30720   21.20190   18.70160   21.77150    0.29000   -9999.25   -9999.25   10.64250    0.05770    2.70090    2.56330    0.09260    0.19330
 8923.00000   -9999.25   -9999.25  107.49200   21.19790   18.69870   21.47740    0.27900   -9999.25   -9999.25   10.66500    0.05370    2.64250    2.54870    0.07720    0.18910
 8923.50000   -9999.25   -9999.25  108.06680   21.48270   18.69560   20.62210    0.85290   -9999.25   -9999.25   10.70460    0.04980    2.64240    2.55240    0.06330    0.18880
 8924.00000   -9999.25   -9999.25  110.10310   21.77000   18.44140   19.20350    1.42680   -9999.25   -9999.25   10.72280    0.04800    2.64220    2.56790    0.05220    0.19260
 8924.50000   -9999.25   -9999.25  107.46330   21.76590   17.94560   18.18850    1.41580   -9999.25   -9999.25   10.72250    0.04790    2.67460    2.58570    0.04640    0.19550
 8925.00000   -9999.25   -9999.25  102.63060   21.76170   17.22780   17.33540    1.98970   -9999.25   -9999.25   10.69300    0.04790    2.70500    2.60020    0.05230    0.19960
 8925.50000   -9999.25   -9999.25  100.86800   20.98960   16.31570   16.70430    2.56350   -9999.25   -9999.25   10.66340    0.04780    2.74180    2.60950    0.06250    0.20360
 8926.00000   -9999.25   -9999.25   98.66680   20.05840   16.31350   16.82970    2.54710   -9999.25   -9999.25   10.66310    0.04780    2.77360    2.62090    0.06780    0.20300
 8926.50000   -9999.25   -9999.25   98.22000   20.60370   16.50080   17.52550    3.12280   -9999.25   -9999.25   10.63360    0.04630    2.81610    2.62670    0.07050    0.20080
 8927.00000   -9999.25   -9999.25   98.79330   21.74320   17.11650   18.00490    3.11000   -9999.25   -9999.25   10.60410    0.04190    2.84510    2.60490    0.06950    0.19340
 8927.50000   -9999.25   -9999.25  104.33990   22.94570   17.93080   18.52900    3.68390   -9999.25   -9999.25   10.60380    0.03450    2.81590    2.59470    0.06680    0.18320
 8928.00000   -9999.25   -9999.25   99.94570   24.21470   18.67310   19.07250    3.67290   -9999.25   -9999.25   10.58360    0.02570    2.72840    2.58740    0.06320    0.17350
 8928.50000   -9999.25   -9999.25   94.67440   25.55390   19.44620   19.74020    3.46590   -9999.25   -9999.25   10.61170    0.01840    2.65500    2.58760    0.05890    0.16550
 8929.00000   -9999.25   -9999.25   92.47320   26.60820   20.31840   20.63780    3.06450   -9999.25   -9999.25   10.61040    0.01240    2.64080    2.59270    0.05600    0.15970
 8929.50000   -9999.25   -9999.25   95.09660   30.03530   21.45310   22.04680    3.04990   -9999.25   -9999.25   10.63860    0.00950    2.71240    2.60030    0.05310    0.15340
 8930.00000   -9999.25   -9999.25   97.28140   31.27130   22.38440   22.95830    1.86930   -9999.25   -9999.25   10.66660    0.01140    2.83940    2.60590    0.04970    0.14880
 8930.50000   -9999.25   -9999.25  101.07210   31.69150   22.87140   23.26940    1.27360   -9999.25   -9999.25   10.66550    0.01340    2.95230    2.61050    0.04270    0.14470
 8931.00000   -9999.25   -9999.25   94.62930   31.68440   22.55970   23.62230    0.09310   -9999.25   -9999.25   10.66950    0.01530    2.98180    2.61470    0.03570    0.14180
 8931.50000   -9999.25   -9999.25   92.42810   31.25350   22.25290   24.22990    0.08210   -9999.25   -9999.25   10.69260    0.01820    2.96020    2.61900    0.04580    0.14260
 8932.00000   -9999.25   -9999.25   94.61290   29.60440   21.95030   24.22810    0.07120   -9999.25   -9999.25   10.72070    0.02100    2.96010    2.62620    0.05730    0.14420
 8932.50000   -9999.25   -9999.25   94.60470   27.79310   21.33120   24.05010    0.64510   -9999.25   -9999.25   10.71930    0.02100    2.97450    2.63340    0.06550    0.14230
 8933.00000   -9999.25   -9999.25   94.15800   26.20550   20.78550   22.94890    0.62860   -9999.25   -9999.25   10.71790    0.02390    2.98890    2.63920    0.06850    0.14190
 8933.50000   -9999.25   -9999.25   93.27260   26.55750   20.12270   22.33500    1.20800   -9999.25   -9999.25   10.77530    0.02530    3.00340    2.64060    0.06310    0.14220
 8934.00000   -9999.25   -9999.25   96.47750   26.91350   19.54480   21.44560    1.19160   -9999.25   -9999.25   10.77420    0.02680    3.00120    2.62530    0.05650    0.14430
 8934.50000   -9999.25   -9999.25   99.83520   26.54500   18.64000   20.84140    1.18170   -9999.25   -9999.25   10.77300    0.02670    2.97050    2.60510    0.05050    0.15300
 8935.00000   -9999.25   -9999.25   90.61230   26.18390   17.89440   20.31350    0.58490   -9999.25   -9999.25   10.77190    0.02670    2.95930    2.58650    0.04530    0.15880
 8935.50000   -9999.25   -9999.25   88.84980   25.13950   17.17870   20.03930    0.57390   -9999.25   -9999.25   10.77080    0.02660    3.02990    2.59010    0.03600    0.16120
 8936.00000   -9999.25   -9999.25   89.28020   24.79760   16.71670   20.03790    0.56120   -9999.25   -9999.25   10.76960    0.02600    3.06860    2.61140    0.02320    0.16350
 8936.50000   -9999.25   -9999.25   96.72810   25.47170   16.71440   20.03630   -0.03820   -9999.25   -9999.25   10.76840    0.02440    2.95880    2.62290    0.02150    0.16760
 8937.00000   -9999.25   -9999.25  107.24620   25.81310   17.02370   20.03520    0.54110   -9999.25   -9999.25   10.76730    0.02280    2.78400    2.63160    0.02680    0.17300
 8937.50000   -9999.25   -9999.25  109.86960   23.79720   17.76160   20.03380    0.52470   -9999.25   -9999.25   10.76610    0.02060    2.69650    2.64310    0.02810    0.17730
 8938.00000   -9999.25   -9999.25  109.42280   22.84800   18.62230   20.03250    0.51380   -9999.25   -9999.25   10.79400    0.02060    2.76910    2.66220    0.02950    0.17920
 8938.50000   -9999.25   -9999.25  110.28770   24.11160   19.65810   20.03110    1.08760   -9999.25   -9999.25   10.82210    0.01910    2.85780    2.66620    0.03350    0.17340
 8939.00000   -9999.25   -9999.25  109.40240   26.14170   20.75160   20.02980    1.07670   -9999.25   -9999.25   10.82100    0.01760    2.91440    2.66250    0.04010    0.16730
 8939.50000   -9999.25   -9999.25  103.69240   26.85240   21.94340   20.02840    1.65050   -9999.25   -9999.25   10.81990    0.01750    2.83470    2.65840    0.04860    0.16040
 8940.00000   -9999.25   -9999.25   97.54390   27.09060   23.25180   20.85610    2.21890   -9999.25   -9999.25   10.84800    0.01460    2.81220    2.65530    0.06490    0.15030
 8940.50000   -9999.25   -9999.25   97.53570   29.90180   24.63760   21.71840    2.20800   -9999.25   -9999.25   10.87610    0.01420    2.86640    2.65280    0.07370    0.14220
 8941.00000   -9999.25   -9999.25   97.38040   33.30700   26.10720   22.31250    2.19710   -9999.25   -9999.25   10.88290    0.01160    2.96620    2.63700    0.07960    0.13990
 8941.50000   -9999.25   -9999.25   95.32220   36.11140   27.94800   23.29350    1.01650   -9999.25   -9999.25   10.93240    0.00950    3.10290    2.61380    0.08600    0.13470
 8942.00000   -9999.25   -9999.25   90.92800   39.15190   27.94450   24.35080   -0.16400   -9999.25   -9999.25   10.94520    0.00640    3.20460    2.59050    0.08730    0.12140
 8942.50000   -9999.25   -9999.25   85.65670   43.02550   27.94090   25.80120   -1.34450   -9999.25   -9999.25   10.98810    0.00570    3.14630    2.57750    0.07590    0.10800
 8943.00000   -9999.25   -9999.25   90.03450   44.79600   27.56090   27.14620   -1.94210   -9999.25   -9999.25   10.98700    0.02020    3.04420    2.56400    0.06280    0.10460
