~Version ---------------------------------------------------
VERS.   2.0 : CWLS log ASCII Standard -VERSION 2.0
WRAP.    NO : One line per depth step
DLM . SPACE : Column Data Section Delimiter
~Well ------------------------------------------------------
STRT .F                3446.5 : START DEPTH
STOP .F               12711.0 : STOP DEPTH
STEP .F                   0.5 : STEP
NULL .               -9999.25 : NULL VALUE
COMP .                        : COMPANY
WELL .                        : WELL
FLD  .                        : FIELD
LOC  .                        : LOCATION
PROV .                        : PROVINCE
CNTY .                        : COUNTY
STAT .                        : STATE
CTRY .                        : COUNTRY
SRVC .                        : SERVICE COMPANY
DATE .                        : DATE
UWI  .                        : UNIQUE WELL ID
API  .                        : API NUMBER
SLAT .WGS84 5.979132254332001 : SURFACE LATITUDE
SLON .WGS84 4.182919849344202 : SURFACE LONGITUDE
DATUM.F               2177.96 : DEPTH DATUM ELEV
~Curve Information -----------------------------------------
DEPT.F     : 
DTCO.US/F  : COMPRESSIONAL-WAVE INTERVAL TRANSIT TIME ACOUSTIC SLOWNESS
DTSM.US/F  : SHEAR-WAVE INTERVAL TRANSIT TIME DELTA-T
GRR .GAPI  : GAMMA RAY
SFLU.OHMM  : INDUCTION LOG DEEP
ILM .OHMM  : INDUCTION LOG MEDIUM
ILD .OHMM  : INDUCTION LOG DEEP
SPR .MV    : SPONTANEOUS POTENTIAL
IDPH.OHMM  : INDUCTION DEEP PHASOR RES
IMPH.OHMM  : INDUCTION MEDIUM PHASOR RES.
CALD.IN    : CALIPER FROM DENSITY LOG
DRHO.G/C3  : DENSITY CORRECTION
PEF .B/E   : PHOTOELECTRIC FACTOR
RHOB.G/C3  : BULK DENSITY
DPHI.DEC   : DENSITY POROSITY LIMESTONE
NPHI.DEC   : NEUTRON POROSITY LIMESTONE
~Params ----------------------------------------------------
~Other -----------------------------------------------------
~ASCII -----------------------------------------------------
# ...
 9886.50000   -9999.25   -9999.25  123.50530    6.57260    6.92630    6.51760   -2.26210   -9999.25   -9999.25    9.28660    0.00540    3.12680    2.56000    0.09680    0.24550
 9887.00000   -9999.25   -9999.25  125.55890    6.45650    6.93600    6.69760   -2.25650   -9999.25   -9999.25    9.25700    0.00680    3.15750    2.53780    0.10470    0.24990
 9887.50000   -9999.25   -9999.25  128.34600    7.32530    7.36830    6.79010   -2.25090   -9999.25   -9999.25    9.25650    0.00820    3.19140    2.52880    0.09370    0.24400
 9888.00000   -9999.25   -9999.25  126.59790    8.27360    7.99630    6.88390   -2.24530   -9999.25   -9999.25    9.25610    0.00530    3.23260    2.55040    0.07530    0.23870
 9888.50000   -9999.25   -9999.25  125.28840    8.73450    8.42500    6.97900   -2.23970   -9999.25   -9999.25    9.25570    0.00080    3.22090    2.58820    0.06270    0.23660
 9889.00000   -9999.25   -9999.25  125.73330    8.97540    8.45450    7.27510   -2.23410   -9999.25   -9999.25    9.25530   -0.00230    3.13910    2.60420    0.06100    0.23660
 9889.50000   -9999.25   -9999.25  126.17820   10.00130    8.33650    7.60240   -2.81330   -9999.25   -9999.25    9.25480   -0.00360    3.09500    2.60130    0.06270    0.23540
 9890.00000   -9999.25   -9999.25  127.06170   10.41690    8.50990    8.04550   -2.80680   -9999.25   -9999.25    9.25440   -0.00020    3.09460    2.59990    0.06390    0.23140
 9890.50000   -9999.25   -9999.25  128.82240   10.75280    8.74680    8.55330   -3.15220   -9999.25   -9999.25    9.25390    0.00140    3.13780    2.59550    0.06510    0.22510
 9891.00000   -9999.25   -9999.25  130.14450   11.15000    9.23750    9.31080   -3.96330   -9999.25   -9999.25    9.25350    0.00210    3.21020    2.59340    0.06630    0.22330
 9891.50000   -9999.25   -9999.25  133.22100   11.93120   10.02400    9.93230   -3.95770   -9999.25   -9999.25    9.25300    0.00210    3.22430    2.58970    0.06810    0.22390
 9892.00000   -9999.25   -9999.25  137.90430   13.11660   11.02600   10.77420   -4.53970   -9999.25   -9999.25    9.25260    0.00200    3.22040    2.58760    0.06990    0.22680
 9892.50000   -9999.25   -9999.25  143.61090   14.03560   11.97560   11.68720   -4.53130   -9999.25   -9999.25    9.25220   -0.00090    3.16950    2.58110    0.07310    0.23670
 9893.00000   -9999.25   -9999.25  149.90970   14.81760   12.94130   13.74930   -4.52570   -9999.25   -9999.25    9.25170   -0.00100    3.10780    2.54770    0.08690    0.25150
 9893.50000   -9999.25   -9999.25  171.40720   17.19400   15.81280   16.61870   -3.93530   -9999.25   -9999.25    9.25130   -0.00100    3.04590    2.49560    0.10520    0.26510
 9894.00000   -9999.25   -9999.25  177.11530   24.10400   20.81200   19.81700   -3.92970   -9999.25   -9999.25    9.28010   -0.00140    2.97460    2.46080    0.12790    0.26020
 9894.50000   -9999.25   -9999.25  174.49000   31.58460   26.57740   22.71810   -3.92410   -9999.25   -9999.25    9.27970   -0.00310    2.93050    2.42830    0.15520    0.25700
 9895.00000   -9999.25   -9999.25  172.30330   54.22050   31.98100   24.69170   -3.91850   -9999.25   -9999.25    9.30850   -0.00400    2.85730    2.40280    0.17380    0.26250
 9895.50000   -9999.25   -9999.25  171.87100   76.01080   39.22230   26.49230   -3.91290   -9999.25   -9999.25    9.30800   -0.00700    2.81310    2.38820    0.18370    0.27030
 9896.00000   -9999.25   -9999.25  186.78960  100.50980   42.92590   27.65940   -3.90640   -9999.25   -9999.25    9.32280   -0.00850    2.78370    2.37530    0.19770    0.27690
 9896.50000   -9999.25   -9999.25  209.60290  105.14920   42.93990   28.57920   -3.89880   -9999.25   -9999.25    9.36560   -0.01000    2.80120    2.35340    0.20710    0.28350
 9897.00000   -9999.25   -9999.25  230.66180   96.99330   39.06290   26.57290   -3.30850   -9999.25   -9999.25    9.36510   -0.01000    2.91460    2.33910    0.21350    0.28200
 9897.50000   -9999.25   -9999.25  239.43830   80.29980   34.58490   24.56960   -3.30290   -9999.25   -9999.25    9.36470   -0.00550    3.21330    2.37530    0.21940    0.26110
 9898.00000   -9999.25   -9999.25  232.88560   52.84220   29.00310   20.95320   -3.29730   -9999.25   -9999.25    9.36430   -0.00070    3.49960    2.46810    0.15920    0.21070
 9898.50000   -9999.25   -9999.25  187.70140   32.50280   24.46840   17.81760   -2.70690   -9999.25   -9999.25    9.39310    0.00540    3.94590    2.52460    0.09780    0.18520
 9899.00000   -9999.25   -9999.25  163.14630   17.23240   19.14240   13.97040   -2.70130   -9999.25   -9999.25    9.39650    0.01090    4.07650    2.63330    0.04640    0.15910
 9899.50000   -9999.25   -9999.25  150.43230   11.03780   14.55950   11.40740   -3.28050   -9999.25   -9999.25    9.42150    0.01480    3.68310    2.68010    0.01390    0.14230
 9900.00000   -9999.25   -9999.25  111.99070    9.13810   11.54410    9.63290   -3.27490   -9999.25   -9999.25    9.42110    0.01900    3.49340    2.69230    0.00580    0.16490
 9900.50000   -9999.25   -9999.25  110.96140   10.04340    9.55190    8.47390   -2.55250   -9999.25   -9999.25    9.46260    0.02190    3.40570    2.69480    0.00620    0.18790
 9901.00000   -9999.25   -9999.25  114.02530    8.54030    8.14580    7.60540   -2.12350   -9999.25   -9999.25    9.49440    0.02620    3.41160    2.69090    0.00840    0.20240
 9901.50000   -9999.25   -9999.25  116.65270    7.70050    7.24680    6.55450   -2.71660   -9999.25   -9999.25    9.53670    0.02920    3.47260    2.68690    0.01450    0.21650
 9902.00000   -9999.25   -9999.25  120.15720    7.29510    6.43660    5.87640   -2.72500   -9999.25   -9999.25    9.59470    0.03390    3.52080    2.68400    0.02270    0.22870
 9902.50000   -9999.25   -9999.25  124.53900    7.06770    6.02830    5.34380   -2.73340   -9999.25   -9999.25    9.59430    0.03710    3.40760    2.67530    0.03020    0.23220
 9903.00000   -9999.25   -9999.25  121.02600    7.35920    5.61930    5.20920   -2.74180   -9999.25   -9999.25    9.62310    0.03980    3.28700    2.66080    0.03900    0.23630
 9903.50000   -9999.25   -9999.25  117.07440    7.45880    5.40190    5.32190   -2.75160   -9999.25   -9999.25    9.62270    0.04280    3.25740    2.63760    0.04310    0.24000
 9904.00000   -9999.25   -9999.25  113.56150    7.55970    5.47570    5.52730   -2.76280   -9999.25   -9999.25    9.62220    0.04500    3.22790    2.63900    0.03600    0.24490
 9904.50000   -9999.25   -9999.25  112.24150    7.55920    5.55050    5.72220   -2.77120   -9999.25   -9999.25    9.65110    0.04500    3.19840    2.64620    0.02940    0.24850
 9905.00000   -9999.25   -9999.25  112.23730    7.55870    5.70310    5.89340   -2.19480   -9999.25   -9999.25    9.65060    0.04060    3.16740    2.65200    0.02400    0.24260
 9905.50000   -9999.25   -9999.25  117.78120    7.55820    5.86060    6.04690   -2.20240   -9999.25   -9999.25    9.65010    0.03320    3.15390    2.65780    0.02120    0.23620
 9906.00000   -9999.25   -9999.25  129.03770    7.45640    6.02920    6.12970   -2.21160   -9999.25   -9999.25    9.66590    0.03030    3.15810    2.66500    0.03260    0.23170
 9906.50000   -9999.25   -9999.25  135.02960    7.45590    6.20290    6.13010   -2.22000   -9999.25   -9999.25    9.67850    0.03510    3.19670    2.66300    0.04720    0.22990
 9907.00000   -9999.25   -9999.25  136.78190    7.45530    6.27120    6.13050   -2.22840   -9999.25   -9999.25    9.70730    0.04080    3.21080    2.63960    0.05830    0.23050
 9907.50000   -9999.25   -9999.25  131.51240    7.35470    6.27120    6.21430   -2.23680   -9999.25   -9999.25    9.70680    0.05620    3.21030    2.62280    0.05960    0.23570
 9908.00000   -9999.25   -9999.25  127.12220    7.25560    6.27120    6.26040   -2.02650   -9999.25   -9999.25    9.70640    0.09530    3.19530    2.59980    0.05150    0.23750
 9908.50000   -9999.25   -9999.25  125.36360    7.15780    6.27120    6.29980   -1.66880   -9999.25   -9999.25    9.76450    0.12640    3.13670    2.61510    0.03870    0.23760
 9909.00000   -9999.25   -9999.25  127.99100    7.06130    6.27120    6.30020   -1.67890   -9999.25   -9999.25    9.76400    0.14100    3.04890    2.63150    0.03500    0.24080
