~Version ---------------------------------------------------
VERS.   2.0 : CWLS log ASCII Standard -VERSION 2.0
WRAP.    NO : One line per depth step
DLM . SPACE : Column Data Section Delimiter
~Well ------------------------------------------------------
STRT .F                3446.5 : START DEPTH
STOP .F               12711.0 : STOP DEPTH
STEP .F                   0.5 : STEP
NULL .               -9999.25 : NULL VALUE
COMP .                        : COMPANY
WELL .                        : WELL
FLD  .                        : FIELD
LOC  .                        : LOCATION
PROV .                        : PROVINCE
CNTY .                        : COUNTY
STAT .                        : STATE
CTRY .                        : COUNTRY
SRVC .                        : SERVICE COMPANY
DATE .                        : DATE
UWI  .                        : UNIQUE WELL ID
API  .                        : API NUMBER
SLAT .WGS84 5.979132254332001 : SURFACE LATITUDE
SLON .WGS84 4.182919849344202 : SURFACE LONGITUDE
DATUM.F               2177.96 : DEPTH DATUM ELEV
~Curve Information -----------------------------------------
DEPT.F     : 
DTCO.US/F  : COMPRESSIONAL-WAVE INTERVAL TRANSIT TIME ACOUSTIC SLOWNESS
DTSM.US/F  : SHEAR-WAVE INTERVAL TRANSIT TIME DELTA-T
GRR .GAPI  : GAMMA RAY
SFLU.OHMM  : INDUCTION LOG DEEP
ILM .OHMM  : INDUCTION LOG MEDIUM
ILD .OHMM  : INDUCTION LOG DEEP
SPR .MV    : SPONTANEOUS POTENTIAL
IDPH.OHMM  : INDUCTION DEEP PHASOR RES
IMPH.OHMM  : INDUCTION MEDIUM PHASOR RES.
CALD.IN    : CALIPER FROM DENSITY LOG
DRHO.G/C3  : DENSITY CORRECTION
PEF .B/E   : PHOTOELECTRIC FACTOR
RHOB.G/C3  : BULK DENSITY
DPHI.DEC   : DENSITY POROSITY LIMESTONE
NPHI.DEC   : NEUTRON POROSITY LIMESTONE
~Params ----------------------------------------------------
~Other -----------------------------------------------------
~ASCII -----------------------------------------------------
# ...
 7977.50000   -9999.25   -9999.25   74.49350   54.85260   15.70670   15.30290    0.98610   -9999.25   -9999.25    9.97660    0.01190    3.35330    2.43110    0.02470    0.17960
 7978.00000   -9999.25   -9999.25   93.61580   40.17660   12.34250   14.89150    0.97640   -9999.25   -9999.25   10.09750    0.01460    3.28620    2.51590    0.03940    0.18270
 7978.50000   -9999.25   -9999.25  111.19860   21.85680   11.03990   14.29730    0.96730   -9999.25   -9999.25   10.21840    0.03050    3.42370    2.59240    0.13840    0.18220
 7979.00000   -9999.25   -9999.25  120.05600   17.19610   11.94470   14.10160    0.95890   -9999.25   -9999.25   10.29330    0.02960    3.58550    2.63640    0.17860    0.17730
 7979.50000   -9999.25   -9999.25  121.94760   17.47890   12.89630   14.09700    0.95050   -9999.25   -9999.25   10.24630    0.02130    3.76870    2.66090    0.16060    0.14770
 7980.00000   -9999.25   -9999.25  106.53920   18.94810   13.88900   14.32300    1.52970   -9999.25   -9999.25   10.12850    0.01780    3.94180    2.67250    0.12530    0.10780
 7980.50000   -9999.25   -9999.25  100.36830   21.10310   14.66000   15.54650    1.51990   -9999.25   -9999.25   10.06920    0.02060    4.27300    2.69270    0.07810    0.07420
 7981.00000   -9999.25   -9999.25   98.15640   23.82270   15.06130   16.60800    0.92330   -9999.25   -9999.25   10.00990    0.02370    4.59260    2.71000    0.03170    0.04980
 7981.50000   -9999.25   -9999.25   93.00980   31.02650   15.89730   17.30780    0.91490   -9999.25   -9999.25   10.00910    0.02790    4.86860    2.72730    0.01310    0.03480
 7982.00000   -9999.25   -9999.25   81.85260   46.11890   17.23910   18.14210    0.90660   -9999.25   -9999.25   10.03750    0.02940    5.07190    2.74780    0.00670    0.05340
 7982.50000   -9999.25   -9999.25   73.92220   67.54150   19.24130   18.66630    0.89680   -9999.25   -9999.25   10.03650    0.03220    4.94030    2.75330   -0.00550    0.08610
 7983.00000   -9999.25   -9999.25   71.71030   74.47440   19.73170   18.16310    0.88770   -9999.25   -9999.25   10.03570    0.03370    4.13840    2.69030   -0.02030    0.13530
 7983.50000   -9999.25   -9999.25   74.18940   68.19830   17.53270   17.67480    0.87930   -9999.25   -9999.25   10.02590    0.03510    3.74590    2.66980   -0.02940    0.16160
 7984.00000   -9999.25   -9999.25   84.87860   54.89690   16.40150   17.43280    0.87090   -9999.25   -9999.25   10.00470    0.03650    3.42010    2.65450   -0.02850    0.16190
 7984.50000   -9999.25   -9999.25   99.38220   36.10690   15.89730   17.42710    0.86190   -9999.25   -9999.25   10.00380    0.03640    3.38060    2.66970   -0.01340    0.15840
 7985.00000   -9999.25   -9999.25  100.24950   20.75630   15.89730   17.42150    0.85210   -9999.25   -9999.25   10.00290    0.03930    3.53860    2.68160    0.01150    0.15490
 7985.50000   -9999.25   -9999.25   98.91730   18.62470   16.55460   16.92730    0.84370   -9999.25   -9999.25    9.97270    0.03870    3.68470    2.68590    0.02860    0.16510
 7986.00000   -9999.25   -9999.25   97.58310   22.19190   17.00780   16.24430    1.42360   -9999.25   -9999.25    9.97180    0.02800    3.82160    2.65850    0.02670    0.18170
 7986.50000   -9999.25   -9999.25   96.54420   25.39250   17.23910   15.78840    1.41520   -9999.25   -9999.25    9.97100    0.01580    3.88760    2.64250    0.01850    0.18350
 7987.00000   -9999.25   -9999.25   95.79750   26.55230   16.77970   15.62220    1.99370   -9999.25   -9999.25    9.97010    0.02350    3.71230    2.62360    0.01270    0.18580
 7987.50000   -9999.25   -9999.25   95.34510   25.83800   16.55460   16.48140    1.98530   -9999.25   -9999.25    9.96930    0.03180    3.67420    2.61770    0.00810    0.19160
 7988.00000   -9999.25   -9999.25   96.06470   24.36100   16.31200   16.47480    1.97620   -9999.25   -9999.25   10.00000    0.04010    3.74030    2.61480    0.03430    0.21020
 7988.50000   -9999.25   -9999.25   98.83600   23.54300   15.85760   16.46820    1.96780   -9999.25   -9999.25   10.12090    0.04780    3.76890    2.60890    0.03960    0.21770
 7989.00000   -9999.25   -9999.25  102.78240   23.21970   15.68400   16.46290    1.95880   -9999.25   -9999.25   10.24180    0.05360    3.73910    2.59690    0.04570    0.23050
 7989.50000   -9999.25   -9999.25  112.88720   22.74560   15.89730   16.02030    1.95040   -9999.25   -9999.25   10.32500    0.04770    3.66480    2.58010    0.05110    0.23860
 7990.00000   -9999.25   -9999.25  126.95100   22.73710   15.99810   15.58950    1.94060   -9999.25   -9999.25   10.40640    0.03600    3.59100    2.56550    0.05510    0.24270
 7990.50000   -9999.25   -9999.25  132.94820   22.12400   15.99230   15.58450    1.93220   -9999.25   -9999.25   10.53270    0.02130    3.56270    2.55240    0.05750    0.23730
 7991.00000   -9999.25   -9999.25  133.52210   20.67280   15.26610   14.76250    1.92390   -9999.25   -9999.25   10.60820    0.01980    3.56220    2.53830    0.06160    0.23210
 7991.50000   -9999.25   -9999.25  132.18890   19.05760   14.26930   14.50720    1.91550   -9999.25   -9999.25   10.75160    0.02120    3.55670    2.50620    0.07000    0.23410
 7992.00000   -9999.25   -9999.25  129.75700   16.87100   13.33760   13.89480    2.10180   -9999.25   -9999.25   10.92620    0.01630    3.45460    2.43830    0.08220    0.26310
 7992.50000   -9999.25   -9999.25  125.71130   15.83590   11.81110   12.78130    2.48490   -9999.25   -9999.25   11.18850    0.00990    3.21940    2.28800    0.09610    0.29360
 7993.00000   -9999.25   -9999.25  123.79050   14.66800   10.30460   11.45110    2.18240   -9999.25   -9999.25   11.56780    0.00350    2.99430    2.08480    0.10780    0.32420
 7993.50000   -9999.25   -9999.25  125.97740   13.13020    9.34330   11.18230    1.87990   -9999.25   -9999.25   11.65650    0.00460    2.83130    2.01360    0.29210    0.35250
 7994.00000   -9999.25   -9999.25  128.60420   12.35070    8.58440   11.56080    1.87080   -9999.25   -9999.25   11.18330    0.01490    2.87450    2.00000    0.30000    0.29020
 7994.50000   -9999.25   -9999.25  135.18990   12.17960    8.31380   11.87260    1.86100   -9999.25   -9999.25   10.96850    0.02470    3.12130    2.25020    0.30000    0.23020
 7995.00000   -9999.25   -9999.25  132.68270   12.56640   12.43640   12.35800    1.85270   -9999.25   -9999.25   10.80420    0.02680    3.33910    2.49640    0.29770    0.19430
 7995.50000   -9999.25   -9999.25  130.17750   13.19830   16.33650   12.86330    1.25600   -9999.25   -9999.25   10.86180    0.02090    3.46960    2.63110    0.28210    0.17920
 7996.00000   -9999.25   -9999.25  127.01150   14.30770   17.71100   13.38930    1.24770   -9999.25   -9999.25   10.86080    0.02080    3.52720    2.64690    0.15930    0.17610
 7996.50000   -9999.25   -9999.25  122.60010   16.59380   17.23910   13.93670    1.23790   -9999.25   -9999.25   10.85990    0.02370    3.32880    2.65270    0.08840    0.18740
 7997.00000   -9999.25   -9999.25  116.94140   18.73230   16.33250   14.36170    1.22950   -9999.25   -9999.25   10.88830    0.02660    3.23500    2.65550    0.04610    0.19260
 7997.50000   -9999.25   -9999.25  116.92890   19.76570   15.89730   15.03010    1.51450   -9999.25   -9999.25   10.91670    0.02950    3.36680    2.66120    0.03320    0.19260
 7998.00000   -9999.25   -9999.25  119.70020   17.97930   15.47370   15.91470    1.80030   -9999.25   -9999.25   10.91570    0.02360    3.50180    2.66270    0.03130    0.19070
 7998.50000   -9999.25   -9999.25  121.44720   16.91050   15.47370   16.89550    1.79120   -9999.25   -9999.25   10.91480    0.02640    3.66200    2.66400    0.02960    0.18480
 7999.00000   -9999.25   -9999.25  121.87460   16.67830   15.68400   17.14610    1.78290   -9999.25   -9999.25   10.91400    0.02640    3.83710    2.64830    0.02730    0.17960
 7999.50000   -9999.25   -9999.25  124.20600   16.67300   15.89730   16.09680    2.36130   -9999.25   -9999.25   10.91310    0.02270    3.89300    2.63620    0.02500    0.17550
 8000.00000   -9999.25   -9999.25  127.56600   17.33230   15.38560   15.03790    2.35290   -9999.25   -9999.25   10.91230    0.01460    3.69710    2.60680    0.02380    0.18520
