~Version ---------------------------------------------------
VERS.   2.0 : CWLS log ASCII Standard -VERSION 2.0
WRAP.    NO : One line per depth step
DLM . SPACE : Column Data Section Delimiter
~Well ------------------------------------------------------
STRT .F                3446.5 : START DEPTH
STOP .F               12711.0 : STOP DEPTH
STEP .F                   0.5 : STEP
NULL .               -9999.25 : NULL VALUE
COMP .                        : COMPANY
WELL .                        : WELL
FLD  .                        : FIELD
LOC  .                        : LOCATION
PROV .                        : PROVINCE
CNTY .                        : COUNTY
STAT .                        : STATE
CTRY .                        : COUNTRY
SRVC .                        : SERVICE COMPANY
DATE .                        : DATE
UWI  .                        : UNIQUE WELL ID
API  .                        : API NUMBER
SLAT .WGS84 5.979132254332001 : SURFACE LATITUDE
SLON .WGS84 4.182919849344202 : SURFACE LONGITUDE
DATUM.F               2177.96 : DEPTH DATUM ELEV
~Curve Information -----------------------------------------
DEPT.F     : 
DTCO.US/F  : COMPRESSIONAL-WAVE INTERVAL TRANSIT TIME ACOUSTIC SLOWNESS
DTSM.US/F  : SHEAR-WAVE INTERVAL TRANSIT TIME DELTA-T
GRR .GAPI  : GAMMA RAY
SFLU.OHMM  : INDUCTION LOG DEEP
ILM .OHMM  : INDUCTION LOG MEDIUM
ILD .OHMM  : INDUCTION LOG DEEP
SPR .MV    : SPONTANEOUS POTENTIAL
IDPH.OHMM  : INDUCTION DEEP PHASOR RES
IMPH.OHMM  : INDUCTION MEDIUM PHASOR RES.
CALD.IN    : CALIPER FROM DENSITY LOG
DRHO.G/C3  : DENSITY CORRECTION
PEF .B/E   : PHOTOELECTRIC FACTOR
RHOB.G/C3  : BULK DENSITY
DPHI.DEC   : DENSITY POROSITY LIMESTONE
NPHI.DEC   : NEUTRON POROSITY LIMESTONE
~Params ----------------------------------------------------
~Other -----------------------------------------------------
~ASCII -----------------------------------------------------
# ...
 9564.50000   -9999.25   -9999.25  108.02220   21.19330   14.55910   15.24280   -2.27610   -9999.25   -9999.25   10.02860    0.00210    3.40300    2.67840    0.01490    0.16350
 9565.00000   -9999.25   -9999.25  106.27190   22.07230   15.06350   15.63610   -2.86640   -9999.25   -9999.25   10.02780    0.00060    3.34250    2.68270    0.01790    0.17740
 9565.50000   -9999.25   -9999.25  103.20590   22.67950   15.48170   15.63820   -2.87190   -9999.25   -9999.25   10.05640    0.00060    3.28640    2.67250    0.02110    0.18670
 9566.00000   -9999.25   -9999.25   99.70330   23.62020   15.69710   15.54010   -2.87740   -9999.25   -9999.25   10.05560    0.00050    3.26120    2.66380    0.02420    0.19490
 9566.50000   -9999.25   -9999.25   96.19860   24.27050   15.46210   15.22540   -3.46760   -9999.25   -9999.25   10.07040   -0.00240    3.31660    2.65940    0.02730    0.20390
 9567.00000   -9999.25   -9999.25  103.65890   23.31070   14.52000   14.04040   -3.47370   -9999.25   -9999.25   10.08330   -0.00250    3.37640    2.66240    0.02080    0.21370
 9567.50000   -9999.25   -9999.25  109.36470   20.09530   13.16720   12.94770   -3.82980   -9999.25   -9999.25   10.08250   -0.00100    3.42790    2.66840    0.01800    0.22000
 9568.00000   -9999.25   -9999.25  113.75480   18.78560   12.39730   12.26060   -4.07160   -9999.25   -9999.25   10.08180    0.00040    3.46310    2.67270    0.01800    0.22450
 9568.50000   -9999.25   -9999.25  118.14490   17.56120   11.35120   11.75280   -4.66190   -9999.25   -9999.25   10.08110    0.00190    3.49180    2.67670    0.01860    0.22480
 9569.00000   -9999.25   -9999.25  121.21920   16.63980   10.75450   11.41880   -4.66740   -9999.25   -9999.25   10.08040    0.00340    3.53500    2.66320    0.01940    0.22280
 9569.50000   -9999.25   -9999.25  122.97770   15.55530   10.32820   11.01390   -5.25770   -9999.25   -9999.25   10.07960    0.00620    3.46180    2.65350    0.02560    0.21880
 9570.00000   -9999.25   -9999.25  123.85900   14.60890   10.05430   10.72140   -5.26320   -9999.25   -9999.25   10.07890    0.00610    3.46140    2.65560    0.02960    0.21240
 9570.50000   -9999.25   -9999.25  116.40900   13.59450    9.92140   10.43670   -5.85340   -9999.25   -9999.25   10.07740    0.00760    3.43190    2.65640    0.03160    0.20700
 9571.00000   -9999.25   -9999.25  114.65870   13.59620   10.05980   10.15960   -6.44460   -9999.25   -9999.25   10.04820    0.00900    3.40230    2.65780    0.02910    0.20330
 9571.50000   -9999.25   -9999.25  116.41720   13.59800   10.06260    9.88700   -5.86710   -9999.25   -9999.25   10.04750    0.00900    3.37200    2.65780    0.02580    0.20090
 9572.00000   -9999.25   -9999.25  119.49150   13.66080   10.06580    9.60660   -5.87260   -9999.25   -9999.25   10.04680    0.01120    3.33970    2.65630    0.02580    0.21030
 9572.50000   -9999.25   -9999.25  121.25000   12.88620    9.66690    9.33360   -5.87810   -9999.25   -9999.25   10.04610    0.01180    3.27650    2.65630    0.02590    0.21600
 9573.00000   -9999.25   -9999.25  123.00850   11.88470    9.15870    9.01570   -5.88360   -9999.25   -9999.25   10.04530    0.01330    3.19680    2.64750    0.02720    0.21720
 9573.50000   -9999.25   -9999.25  124.03620   10.81400    8.55840    8.64360   -5.30430   -9999.25   -9999.25   10.04460    0.01470    3.23350    2.59970    0.04110    0.22120
 9574.00000   -9999.25   -9999.25  124.77320    9.93280    7.63980    8.41400   -5.30980   -9999.25   -9999.25   10.03040    0.01610    3.43250    2.55460    0.06280    0.24490
 9574.50000   -9999.25   -9999.25  123.46150    8.71530    7.27810    8.30200   -5.31520   -9999.25   -9999.25   10.01390    0.01900    3.56380    2.57270    0.08460    0.25550
 9575.00000   -9999.25   -9999.25  117.76380    8.14730    7.65430    8.13650   -4.73590   -9999.25   -9999.25   10.01320    0.02340    3.61720    2.64140    0.06570    0.25320
 9575.50000   -9999.25   -9999.25  109.87320    8.71750    8.17870    7.95920   -4.15660   -9999.25   -9999.25   10.01230    0.03210    3.58580    2.67530    0.03590    0.23110
 9576.00000   -9999.25   -9999.25  103.73700    9.32770    8.34280    7.83830   -4.16480   -9999.25   -9999.25   10.01160    0.04120    3.48520    2.66730    0.01900    0.21850
 9576.50000   -9999.25   -9999.25  112.51300   10.11620    8.12160    7.65880   -4.17030   -9999.25   -9999.25   10.01090    0.05450    3.39750    2.66990    0.01840    0.21670
 9577.00000   -9999.25   -9999.25  120.41190   10.25510    8.01420    7.50020   -4.17580   -9999.25   -9999.25   10.01020    0.06500    3.36440    2.67890    0.02150    0.21560
 9577.50000   -9999.25   -9999.25  124.80120    9.46040    7.67430    7.25780   -4.18130   -9999.25   -9999.25   10.00950    0.07440    3.44030    2.68730    0.01900    0.21560
 9578.00000   -9999.25   -9999.25  127.87830    8.72360    7.14640    7.06500   -4.18680   -9999.25   -9999.25   10.00880    0.08650    3.49810    2.68690    0.00860    0.22290
 9578.50000   -9999.25   -9999.25  122.61920    8.15500    6.74540    6.97090   -4.19320   -9999.25   -9999.25   10.00800    0.09710    3.55590    2.61830    0.01550    0.23940
 9579.00000   -9999.25   -9999.25  119.55320    7.72710    6.41210    6.78580   -3.61290   -9999.25   -9999.25   10.00730    0.10920    3.55530    2.57630    0.06120    0.26010
 9579.50000   -9999.25   -9999.25  120.87310    7.22350    6.45970    6.67220   -3.62120   -9999.25   -9999.25   10.00660    0.11670    3.48220    2.57450    0.07240    0.26460
 9580.00000   -9999.25   -9999.25  121.75440    6.84450    6.54950    6.48270   -3.62660   -9999.25   -9999.25   10.00580    0.11730    3.46530    2.61100    0.07760    0.26210
 9580.50000   -9999.25   -9999.25  122.19710    6.66300    6.73140    6.38440   -3.63210   -9999.25   -9999.25   10.00510    0.11520    3.44660    2.62980    0.05900    0.26150
 9581.00000   -9999.25   -9999.25  119.71890    6.66380    6.82510    6.26030   -3.63760   -9999.25   -9999.25   10.00440    0.10930    3.38220    2.63560    0.04360    0.25920
 9581.50000   -9999.25   -9999.25  112.11970    6.75540    6.82690    6.26120   -3.64310   -9999.25   -9999.25   10.00370    0.09030    3.29640    2.64150    0.04120    0.24670
 9582.00000   -9999.25   -9999.25  109.05360    7.03590    6.79620    6.34730   -3.64860   -9999.25   -9999.25   10.00290    0.06100    3.24150    2.64470    0.03880    0.23650
 9582.50000   -9999.25   -9999.25  105.11030    7.32770    6.69400    6.43460   -3.65460   -9999.25   -9999.25    9.98730    0.02440    3.19650    2.64890    0.03420    0.23110
 9583.00000   -9999.25   -9999.25  109.06180    7.52930    6.56030    6.43540   -3.66030   -9999.25   -9999.25    9.97220    0.00540    3.14390    2.65000    0.02990    0.22920
 9583.50000   -9999.25   -9999.25  112.57470    7.63270    6.47360    6.40350   -3.66640   -9999.25   -9999.25    9.97140    0.00100    3.09190    2.61690    0.02880    0.22920
 9584.00000   -9999.25   -9999.25  115.21040    7.73740    6.38790    6.22170   -3.67270   -9999.25   -9999.25   10.00000    0.01100    3.20170    2.56150    0.04360    0.23150
 9584.50000   -9999.25   -9999.25  118.28470    7.95020    6.30000    6.01720   -3.67830   -9999.25   -9999.25    9.99920    0.02800    3.41960    2.52680    0.06920    0.23730
 9585.00000   -9999.25   -9999.25  120.48180    7.80980    6.22030    5.93700   -3.68420   -9999.25   -9999.25   10.02780    0.04680    3.47740    2.52510    0.09470    0.25070
 9585.50000   -9999.25   -9999.25  115.66340    7.23540    6.13790    5.85810   -3.68970   -9999.25   -9999.25   10.05630    0.05990    3.54970    2.56870    0.10680    0.26590
 9586.00000   -9999.25   -9999.25  113.91310    6.58360    6.10180    5.78010   -3.69570   -9999.25   -9999.25   10.08480    0.07080    3.46200    2.60060    0.08520    0.27720
 9586.50000   -9999.25   -9999.25  114.35580    6.32300    6.05880    5.70320   -3.70340   -9999.25   -9999.25   10.11330    0.05660    3.09770    2.47300    0.06220    0.27590
 9587.00000   -9999.25   -9999.25  116.11430    6.40980    5.89840    5.70410   -3.70750   -9999.25   -9999.25   10.23330    0.02900    2.95020    2.36870    0.10600    0.26900
