~Version ---------------------------------------------------
VERS.   2.0 : CWLS log ASCII Standard -VERSION 2.0
WRAP.    NO : One line per depth step
DLM . SPACE : Column Data Section Delimiter
~Well ------------------------------------------------------
STRT .F                3446.5 : START DEPTH
STOP .F               12711.0 : STOP DEPTH
STEP .F                   0.5 : STEP
NULL .               -9999.25 : NULL VALUE
COMP .                        : COMPANY
WELL .                        : WELL
FLD  .                        : FIELD
LOC  .                        : LOCATION
PROV .                        : PROVINCE
CNTY .                        : COUNTY
STAT .                        : STATE
CTRY .                        : COUNTRY
SRVC .                        : SERVICE COMPANY
DATE .                        : DATE
UWI  .                        : UNIQUE WELL ID
API  .                        : API NUMBER
SLAT .WGS84 5.979132254332001 : SURFACE LATITUDE
SLON .WGS84 4.182919849344202 : SURFACE LONGITUDE
DATUM.F               2177.96 : DEPTH DATUM ELEV
~Curve Information -----------------------------------------
DEPT.F     : 
DTCO.US/F  : COMPRESSIONAL-WAVE INTERVAL TRANSIT TIME ACOUSTIC SLOWNESS
DTSM.US/F  : SHEAR-WAVE INTERVAL TRANSIT TIME DELTA-T
GRR .GAPI  : GAMMA RAY
SFLU.OHMM  : INDUCTION LOG DEEP
ILM .OHMM  : INDUCTION LOG MEDIUM
ILD .OHMM  : INDUCTION LOG DEEP
SPR .MV    : SPONTANEOUS POTENTIAL
IDPH.OHMM  : INDUCTION DEEP PHASOR RES
IMPH.OHMM  : INDUCTION MEDIUM PHASOR RES.
CALD.IN    : CALIPER FROM DENSITY LOG
DRHO.G/C3  : DENSITY CORRECTION
PEF .B/E   : PHOTOELECTRIC FACTOR
RHOB.G/C3  : BULK DENSITY
DPHI.DEC   : DENSITY POROSITY LIMESTONE
NPHI.DEC   : NEUTRON POROSITY LIMESTONE
~Params ----------------------------------------------------
~Other -----------------------------------------------------
~ASCII -----------------------------------------------------
# ...
 9242.50000   -9999.25   -9999.25  114.29770    9.83590    7.91590    7.17860    2.83570   -9999.25   -9999.25   11.54780    0.16440    3.24870    2.57970    0.07820    0.26280
 9243.00000   -9999.25   -9999.25  114.86380   10.23860    8.01960    7.07760    2.81900   -9999.25   -9999.25   11.65720    0.16870    3.21250    2.57820    0.08010    0.26410
 9243.50000   -9999.25   -9999.25  120.39890   10.51480    8.12420    7.07300    2.80220   -9999.25   -9999.25   11.79640    0.17310    3.22630    2.57520    0.07510    0.26610
 9244.00000   -9999.25   -9999.25  123.89090   10.46330    7.89450    7.06850    2.78260   -9999.25   -9999.25   11.96030    0.17600    3.25470    2.57190    0.07310    0.26690
 9244.50000   -9999.25   -9999.25  127.38300   10.31890    7.58220    7.25760    2.76580   -9999.25   -9999.25   12.06230    0.18040    3.29130    2.56160    0.07320    0.26300
 9245.00000   -9999.25   -9999.25  128.68200    9.94840    7.47540    7.35160    2.74350   -9999.25   -9999.25   11.97350    0.18220    3.31150    2.54060    0.07580    0.26350
 9245.50000   -9999.25   -9999.25  129.10380    9.54970    7.60840    7.34650    2.72670   -9999.25   -9999.25   10.65690    0.18460    3.28160    2.51970    0.07980    0.26530
 9246.00000   -9999.25   -9999.25  129.96420    9.16700    7.86890    7.34150    2.71000   -9999.25   -9999.25   10.71450    0.16740    3.13530    2.49870    0.08730    0.26940
 9246.50000   -9999.25   -9999.25  126.43870    9.28800    8.04280    7.35380    2.69320   -9999.25   -9999.25   10.71370    0.15220    2.98900    2.48140    0.10070    0.27580
 9247.00000   -9999.25   -9999.25  118.96580    9.66830    8.08950    7.43150    2.67650   -9999.25   -9999.25   10.74210    0.13940    2.78450    2.46810    0.12120    0.28040
 9247.50000   -9999.25   -9999.25  115.00170   10.06420    7.97500    7.42640    2.65970   -9999.25   -9999.25   10.74120    0.14200    2.78360    2.47050    0.13810    0.28280
 9248.00000   -9999.25   -9999.25  113.08200   10.47620    7.65250    7.42050    2.64290   -9999.25   -9999.25   10.74040    0.14950    2.88810    2.52850    0.14110    0.27700
 9248.50000   -9999.25   -9999.25  112.77520   10.75890    7.54500    7.31610    2.62620   -9999.25   -9999.25   10.71020    0.15510    2.99160    2.57910    0.12940    0.26660
 9249.00000   -9999.25   -9999.25  113.62720   10.61050    7.33880    7.31140    2.60940   -9999.25   -9999.25   10.70940    0.16090    3.07840    2.60810    0.10810    0.25840
 9249.50000   -9999.25   -9999.25  115.80340   10.13920    7.33450    7.30670    2.58990   -9999.25   -9999.25   10.70080    0.16670    3.11960    2.61390    0.08620    0.25130
 9250.00000   -9999.25   -9999.25  118.41830    9.68990    7.65170    7.30190    2.57310   -9999.25   -9999.25   10.67840    0.16960    3.10050    2.58770    0.06290    0.24640
 9250.50000   -9999.25   -9999.25  115.33130    9.25750    7.86700    7.29700    2.55080   -9999.25   -9999.25   10.67750    0.17250    3.02970    2.57280    0.05480    0.24760
 9251.00000   -9999.25   -9999.25  114.87600    9.50730    8.01830    7.29210    2.53400   -9999.25   -9999.25   10.67660    0.17540    2.96870    2.56250    0.06190    0.24570
 9251.50000   -9999.25   -9999.25  118.80660    9.76380    8.20420    7.28710    2.51720   -9999.25   -9999.25   10.70500    0.16920    2.90780    2.56000    0.07680    0.24740
 9252.00000   -9999.25   -9999.25  122.73720    9.89330    8.08590    7.28220    2.50050   -9999.25   -9999.25   10.73320    0.15860    2.83540    2.56280    0.08250    0.25650
 9252.50000   -9999.25   -9999.25  127.10640   10.15960    7.50760    7.27730    2.48370   -9999.25   -9999.25   10.76160    0.14640    2.79100    2.56030    0.08410    0.26040
 9253.00000   -9999.25   -9999.25  131.76430   10.29380    7.60570    7.27240    2.46690   -9999.25   -9999.25   10.76070    0.13720    2.86310    2.55940    0.08290    0.26140
 9253.50000   -9999.25   -9999.25  133.64760   10.42970    7.91700    7.26660    2.45020   -9999.25   -9999.25   10.78910    0.14950    3.02250    2.58500    0.08410    0.26220
 9254.00000   -9999.25   -9999.25  130.55650   11.00440    8.13020    7.36140    1.84860   -9999.25   -9999.25   10.81750    0.17150    3.09460    2.61910    0.08650    0.26280
 9254.50000   -9999.25   -9999.25  125.71510   11.30130    7.90780    7.25730    1.83190   -9999.25   -9999.25   10.81670    0.18420    3.15210    2.64080    0.08300    0.26280
 9255.00000   -9999.25   -9999.25  121.75100   11.29620    7.69140    7.15510    1.81230   -9999.25   -9999.25   10.78560    0.19480    3.14950    2.63640    0.06670    0.26290
 9255.50000   -9999.25   -9999.25  117.78690   11.09070    7.56530    7.05440    1.79470   -9999.25   -9999.25   10.75640    0.18860    3.01670    2.58860    0.04800    0.26060
 9256.00000   -9999.25   -9999.25  115.13860   10.98520    7.47650    7.04960    1.77320   -9999.25   -9999.25   10.72630    0.15440    3.00440    2.53920    0.03630    0.25190
 9256.50000   -9999.25   -9999.25  112.92880   10.98090    7.47190    7.01630    1.75640   -9999.25   -9999.25   10.72540    0.11200    3.05080    2.51170    0.04810    0.25080
 9257.00000   -9999.25   -9999.25  114.22780   10.97670    7.46730    6.96200    1.73970   -9999.25   -9999.25   10.72460    0.09150    3.08020    2.49710    0.07110    0.25300
 9257.50000   -9999.25   -9999.25  115.96550   11.27290    7.46280    6.94080    1.72290   -9999.25   -9999.25   10.72370    0.07830    3.07500    2.48680    0.10060    0.26160
 9258.00000   -9999.25   -9999.25  117.70310   11.26850    7.35690    6.92080    1.70620   -9999.25   -9999.25   10.72280    0.06650    3.07420    2.48690    0.11870    0.27530
 9258.50000   -9999.25   -9999.25  120.75230   10.67180    7.35270    6.83740    1.68940   -9999.25   -9999.25   10.72190    0.07820    3.06590    2.49000    0.12890    0.28180
 9259.00000   -9999.25   -9999.25  123.07420   10.38340    7.24940    6.83300    1.67260   -9999.25   -9999.25   10.72090    0.09670    3.05810    2.49440    0.13280    0.28220
 9259.50000   -9999.25   -9999.25  127.73210   10.10280    7.05120    6.82860    1.65590   -9999.25   -9999.25   10.72000    0.13150    2.99920    2.49930    0.12830    0.28170
 9260.00000   -9999.25   -9999.25  130.34700    9.82980    6.95220    6.64210    1.63910   -9999.25   -9999.25   10.74850    0.14070    2.86740    2.50730    0.12200    0.28170
 9260.50000   -9999.25   -9999.25  132.52320    9.52090    6.65480    6.46060    1.61950   -9999.25   -9999.25   10.80610    0.15120    2.79400    2.51470    0.11890    0.28400
 9261.00000   -9999.25   -9999.25  133.82220    9.30380    6.36930    6.19520    1.59720   -9999.25   -9999.25   10.86370    0.16720    2.76410    2.52290    0.11890    0.28700
 9261.50000   -9999.25   -9999.25  130.73530    9.05240    6.09700    6.01820    1.58040   -9999.25   -9999.25   10.92130    0.18620    2.76340    2.53580    0.11130    0.28870
 9262.00000   -9999.25   -9999.25  126.77110    8.80780    5.94430    5.84620    1.56370   -9999.25   -9999.25   10.95010    0.20860    2.77730    2.55600    0.09330    0.30780
 9262.50000   -9999.25   -9999.25  122.80700    8.45480    5.81050    5.67940    1.54690   -9999.25   -9999.25   10.98050    0.22060    2.79110    2.56180    0.08450    0.31890
 9263.00000   -9999.25   -9999.25  118.40430    8.11590    5.76400    5.51690    1.53020   -9999.25   -9999.25   11.04020    0.23280    2.81150    2.56320    0.07870    0.32270
 9263.50000   -9999.25   -9999.25  118.82610    7.58310    5.64750    5.35950    1.51340   -9999.25   -9999.25   11.02180    0.24150    3.01970    2.55880    0.07870    0.32360
 9264.00000   -9999.25   -9999.25  120.26810    7.08520    5.49310    5.17840    1.49660   -9999.25   -9999.25   10.90840    0.25000    3.26860    2.54860    0.08300    0.32360
 9264.50000   -9999.25   -9999.25  120.98560    6.71000    5.34300    5.15010    1.47990   -9999.25   -9999.25   10.84700    0.25000    3.44990    2.53090    0.08790    0.32340
 9265.00000   -9999.25   -9999.25  118.76750    6.44110    5.26790    5.11540    1.46310   -9999.25   -9999.25   10.79820    0.24430    3.40630    2.52060    0.09440    0.32010
