~Version ---------------------------------------------------
VERS.   2.0 : CWLS log ASCII Standard -VERSION 2.0
WRAP.    NO : One line per depth step
DLM . SPACE : Column Data Section Delimiter
~Well ------------------------------------------------------
STRT .F                3446.5 : START DEPTH
STOP .F               12711.0 : STOP DEPTH
STEP .F                   0.5 : STEP
NULL .               -9999.25 : NULL VALUE
COMP .                        : COMPANY
WELL .                        : WELL
FLD  .                        : FIELD
LOC  .                        : LOCATION
PROV .                        : PROVINCE
CNTY .                        : COUNTY
STAT .                        : STATE
CTRY .                        : COUNTRY
SRVC .                        : SERVICE COMPANY
DATE .                        : DATE
UWI  .                        : UNIQUE WELL ID
API  .                        : API NUMBER
SLAT .WGS84 5.979132254332001 : SURFACE LATITUDE
SLON .WGS84 4.182919849344202 : SURFACE LONGITUDE
DATUM.F               2177.96 : DEPTH DATUM ELEV
~Curve Information -----------------------------------------
DEPT.F     : 
DTCO.US/F  : COMPRESSIONAL-WAVE INTERVAL TRANSIT TIME ACOUSTIC SLOWNESS
DTSM.US/F  : SHEAR-WAVE INTERVAL TRANSIT TIME DELTA-T
GRR .GAPI  : GAMMA RAY
SFLU.OHMM  : INDUCTION LOG DEEP
ILM .OHMM  : INDUCTION LOG MEDIUM
ILD .OHMM  : INDUCTION LOG DEEP
SPR .MV    : SPONTANEOUS POTENTIAL
IDPH.OHMM  : INDUCTION DEEP PHASOR RES
IMPH.OHMM  : INDUCTION MEDIUM PHASOR RES.
CALD.IN    : CALIPER FROM DENSITY LOG
DRHO.G/C3  : DENSITY CORRECTION
PEF .B/E   : PHOTOELECTRIC FACTOR
RHOB.G/C3  : BULK DENSITY
DPHI.DEC   : DENSITY POROSITY LIMESTONE
NPHI.DEC   : NEUTRON POROSITY LIMESTONE
~Params ----------------------------------------------------
~Other -----------------------------------------------------
~ASCII -----------------------------------------------------
# ...
 11441.50000   93.42200  153.91460  109.90080    6.55860   -9999.25   -9999.25  -10.82020    5.00640    5.49880    7.60890   -0.02720   -9999.25    2.57200    0.07690    0.27610
 11442.00000   88.63690  149.28800  110.76000    5.96170   -9999.25   -9999.25  -10.84260    5.61180    5.82470    7.60740   -0.03370   -9999.25    2.57130    0.07700    0.26330
 11442.50000   79.86320  140.62770  110.29950    5.64460   -9999.25   -9999.25  -10.27370    6.37630    6.21370    7.60590   -0.01560   -9999.25    2.55600    0.07760    0.25870
 11443.00000   66.39640  131.51930  110.27900    7.30340   -9999.25   -9999.25  -10.88720    7.29120    8.18520    7.60430   -0.00090   -9999.25    2.52400    0.08170    0.27210
 11443.50000   59.08040  118.82620  112.01800   11.12440   -9999.25   -9999.25  -10.90640    7.91820   10.15630    7.60280    0.01060   -9999.25    2.47550    0.10080    0.27390
 11444.00000   55.94590  111.51020  113.75690   15.40750   -9999.25   -9999.25  -10.92550    8.46340   11.46530    7.60120   -0.04250   -9999.25    2.45940    0.13780    0.26310
 11444.50000   56.09890  110.61690  113.72610   19.14210   -9999.25   -9999.25  -10.94470    8.92990   12.09780    7.49140   -0.06600   -9999.25    2.48030    0.14550    0.24310
 11445.00000   59.53720  113.60720  104.90790   18.12390   -9999.25   -9999.25  -10.96380    9.29560   11.89440    7.34450   -0.07210   -9999.25    2.54690    0.12640    0.21680
 11445.50000   67.45650  119.90500   99.60870   16.47470   -9999.25   -9999.25  -10.79180    9.70630   11.60950    7.23280   -0.06910   -9999.25    2.59760    0.11220    0.16090
 11446.00000   72.68720  126.45910   97.82870   15.38790   -9999.25   -9999.25  -10.41730   10.55020   11.44990    7.18540   -0.05550   -9999.25    2.64100    0.06760    0.14760
 11446.50000   73.88510  123.02660   96.92830   13.99020   -9999.25   -9999.25   -9.85160   11.06780   11.29190    7.15430   -0.03820   -9999.25    2.64680    0.03490    0.14640
 11447.00000   75.82980  118.69800   97.34770   13.24370   -9999.25   -9999.25   -9.88030   11.21230   11.13690    7.12350   -0.02800   -9999.25    2.65570    0.02190    0.15360
 11447.50000   76.43010  121.24010   99.08180   14.55790   -9999.25   -9999.25   -9.89950   11.20610   11.13340    7.12190   -0.02080   -9999.25    2.66140    0.02100    0.16840
 11448.00000   73.33830  123.48350  101.69510   15.78920   -9999.25   -9999.25   -9.91870   11.20110   10.98040    7.12040   -0.02060   -9999.25    2.66070    0.02370    0.18160
 11448.50000   70.16340  122.73890  102.55430   16.89350   -9999.25   -9999.25   -9.93780   11.04570   10.94220    7.08870   -0.02530   -9999.25    2.65710    0.02540    0.18740
 11449.00000   68.97140  124.83360  103.85340   17.11910   -9999.25   -9999.25   -9.37210   10.88450   10.77050    7.05880   -0.02830   -9999.25    2.65230    0.02670    0.17690
 11449.50000   69.27300  124.53780  115.26980   15.77420   -9999.25   -9999.25   -9.40080   10.74100   10.39250    7.02790   -0.02840   -9999.25    2.64850    0.02840    0.16820
 11450.00000   69.87340  123.34580  122.28740   14.14770   -9999.25   -9999.25   -9.41420   10.54430   10.11160    7.02630   -0.02680   -9999.25    2.64640    0.03020    0.16180
 11450.50000   70.47380  124.69170  121.38710   12.85600   -9999.25   -9999.25   -9.43910   10.37810    9.83900    7.02470   -0.02570   -9999.25    2.64630    0.03140    0.16070
 11451.00000   70.92480  126.18680  118.87140   12.33870   -9999.25   -9999.25   -9.45830   10.29840    9.70400    7.02310   -0.02570   -9999.25    2.64630    0.03030    0.16360
 11451.50000   71.52520  128.57810  116.93680   12.67450   -9999.25   -9999.25   -8.89260   10.29380    9.57070    7.05050   -0.02580   -9999.25    2.64620    0.02920    0.18070
 11452.00000   72.12560  130.67070  116.47640   13.01940   -9999.25   -9999.25   -8.91180   10.27460    9.56740    7.04890   -0.02590   -9999.25    2.64610    0.03050    0.20000
 11452.50000   72.27790  131.88010  114.25640   13.19330   -9999.25   -9999.25   -8.93090   10.14190    9.56420    7.04740   -0.02600   -9999.25    2.64610    0.03410    0.20100
 11453.00000   72.28080  132.31660  108.95730   13.92560   -9999.25   -9999.25   -8.95330    9.84780    9.43270    7.04590   -0.02610   -9999.25    2.64600    0.03700    0.19950
 11453.50000   72.28380  131.27290  104.97780   15.31130   -9999.25   -9999.25   -8.97880    9.60310    9.30260    7.07360   -0.02620   -9999.25    2.64600    0.03750    0.19470
 11454.00000   72.13730  129.93000  103.63760   17.05950   -9999.25   -9999.25   -8.99790    9.41160    9.17490    7.07190   -0.02620   -9999.25    2.64590    0.03460    0.18710
 11454.50000   71.54350  128.28850  104.19820   17.29010   -9999.25   -9999.25   -9.01710    9.33710    8.92760    7.07030   -0.02630   -9999.25    2.64590    0.03340    0.17990
 11455.00000   70.65020  127.09500  118.54220   15.92910   -9999.25   -9999.25   -9.03620    9.33300    8.53610    7.09820   -0.02640   -9999.25    2.62550    0.04270    0.17590
 11455.50000   70.65310  129.18760  123.80020   12.30150   -9999.25   -9999.25   -8.47050    9.32890    7.82440    7.09630   -0.02470   -9999.25    2.59940    0.05460    0.17170
 11456.00000   70.80540  132.47510  127.29880   10.03060   -9999.25   -9999.25   -7.90490    9.32310    7.13510    7.09470   -0.01690   -9999.25    2.61670    0.05870    0.19900
 11456.50000   71.10710  134.86640  128.15800    9.36890   -9999.25   -9999.25   -7.92730    9.07160    6.61940    7.09280   -0.00060   -9999.25    2.66740    0.03830    0.21710
 11457.00000   74.39600  138.45270  126.37790    7.33560   -9999.25   -9999.25   -7.35840    9.06730    6.47610    7.06210    0.02590   -9999.25    2.70080   -0.00020    0.24040
 11457.50000   77.68500  144.42870  122.83830    6.94310   -9999.25   -9999.25   -7.38710    9.06300    6.80050    7.06050    0.05970   -9999.25    2.72060   -0.01540    0.24570
 11458.00000   78.28530  147.56680  118.12460    7.53030   -9999.25   -9999.25   -7.99110    9.00700    7.37220    7.02980    0.07250   -9999.25    2.73240   -0.01180    0.24230
 11458.50000   79.03510  147.71770  113.98920    9.35550   -9999.25   -9999.25   -9.17980    9.05440    7.80110    7.02820    0.04810   -9999.25    2.68630    0.01510    0.22600
 11459.00000   80.97980  145.60180  112.20910   12.10670   -9999.25   -9999.25   -9.78370    9.04980    8.26330    7.02660    0.01390   -9999.25    2.66410    0.03140    0.20670
 11459.50000   78.46150  139.20720  112.18860   13.49230   -9999.25   -9999.25  -10.97250    9.04580    8.70630    7.01820   -0.00810   -9999.25    2.65320    0.03850    0.18550
 11460.00000   75.31050  133.38340  113.04780   13.67250   -9999.25   -9999.25  -11.57960    9.11130    8.95930    6.94550   -0.01840   -9999.25    2.64520    0.04140    0.17790
 11460.50000   73.52100  129.50130  112.58740   12.88660   -9999.25   -9999.25  -11.60510    9.16090    9.25920    6.86290   -0.02140   -9999.25    2.63940    0.04080    0.17650
 11461.00000   72.77640  128.00910  109.04770   12.59230   -9999.25   -9999.25  -11.62430    9.28150    9.25580    6.84470   -0.02300   -9999.25    2.63350    0.03880    0.17860
 11461.50000   73.37750  127.71150  106.53210   12.76050   -9999.25   -9999.25  -11.64340    9.27630    9.25290    6.81360   -0.02310   -9999.25    2.63340    0.03420    0.18010
 11462.00000   73.52980  127.86270  105.04770   12.93090   -9999.25   -9999.25  -11.66250    9.27130    9.24980    6.81210   -0.02460   -9999.25    2.63630    0.03630    0.17930
 11462.50000   73.68210  128.31230  112.05500   12.92680   -9999.25   -9999.25  -11.68170    9.26720    9.27810    6.78130   -0.02470   -9999.25    2.64230    0.03810    0.17820
 11463.00000   73.98370  128.61250  112.92450   13.09940   -9999.25   -9999.25  -11.70080    9.26310    9.36980    6.77980   -0.02480   -9999.25    2.64490    0.03650    0.17790
 11463.50000   74.58410  129.36070  111.13410   12.91860   -9999.25   -9999.25  -11.52890    9.25870    9.36610    6.74900   -0.02480   -9999.25    2.64190    0.03470    0.17970
