~Version ---------------------------------------------------
VERS.   2.0 : CWLS log ASCII Standard -VERSION 2.0
WRAP.    NO : One line per depth step
DLM . SPACE : Column Data Section Delimiter
~Well ------------------------------------------------------
STRT .F                3446.5 : START DEPTH
STOP .F               12711.0 : STOP DEPTH
STEP .F                   0.5 : STEP
NULL .               -9999.25 : NULL VALUE
COMP .                        : COMPANY
WELL .                        : WELL
FLD  .                        : FIELD
LOC  .                        : LOCATION
PROV .                        : PROVINCE
CNTY .                        : COUNTY
STAT .                        : STATE
CTRY .                        : COUNTRY
SRVC .                        : SERVICE COMPANY
DATE .                        : DATE
UWI  .                        : UNIQUE WELL ID
API  .                        : API NUMBER
SLAT .WGS84 5.979132254332001 : SURFACE LATITUDE
SLON .WGS84 4.182919849344202 : SURFACE LONGITUDE
DATUM.F               2177.96 : DEPTH DATUM ELEV
~Curve Information -----------------------------------------
DEPT.F     : 
DTCO.US/F  : COMPRESSIONAL-WAVE INTERVAL TRANSIT TIME ACOUSTIC SLOWNESS
DTSM.US/F  : SHEAR-WAVE INTERVAL TRANSIT TIME DELTA-T
GRR .GAPI  : GAMMA RAY
SFLU.OHMM  : INDUCTION LOG DEEP
ILM .OHMM  : INDUCTION LOG MEDIUM
ILD .OHMM  : INDUCTION LOG DEEP
SPR .MV    : SPONTANEOUS POTENTIAL
IDPH.OHMM  : INDUCTION DEEP PHASOR RES
IMPH.OHMM  : INDUCTION MEDIUM PHASOR RES.
CALD.IN    : CALIPER FROM DENSITY LOG
DRHO.G/C3  : DENSITY CORRECTION
PEF .B/E   : PHOTOELECTRIC FACTOR
RHOB.G/C3  : BULK DENSITY
DPHI.DEC   : DENSITY POROSITY LIMESTONE
NPHI.DEC   : NEUTRON POROSITY LIMESTONE
~Params ----------------------------------------------------
~Other -----------------------------------------------------
~ASCII -----------------------------------------------------
# ...
 10204.00000   -9999.25   -9999.25  118.33890    6.15270    5.79370    5.86500   -5.80740   -9999.25   -9999.25   11.17040    0.15280    2.76280    2.23890    0.27900    0.30630
 10204.50000   -9999.25   -9999.25  118.31800    6.40430    6.28840    5.86310   -5.82970   -9999.25   -9999.25   11.02390    0.15890    2.70890    2.27490    0.26330    0.29450
 10205.00000   -9999.25   -9999.25  123.54490    6.75670    6.83710    5.86120   -6.43690   -9999.25   -9999.25   10.93560    0.16610    2.65780    2.31690    0.23940    0.28860
 10205.50000   -9999.25   -9999.25  122.93930    7.22540    7.15010    5.85930   -6.45910   -9999.25   -9999.25   10.81810    0.16020    2.59910    2.37130    0.21600    0.28110
 10206.00000   -9999.25   -9999.25  118.68210    7.93820    7.00030    5.85730   -6.48150   -9999.25   -9999.25   10.67130    0.14850    2.78770    2.40860    0.20060    0.27700
 10206.50000   -9999.25   -9999.25  115.60000    8.37500    6.67540    5.85530   -7.08860   -9999.25   -9999.25   10.64150    0.13970    2.87450    2.41240    0.18950    0.27680
 10207.00000   -9999.25   -9999.25  113.82980    8.83590    6.49420    5.85330   -7.11090   -9999.25   -9999.25   10.73660    0.12790    2.85850    2.33510    0.17750    0.27700
 10207.50000   -9999.25   -9999.25  113.37160    8.83190    6.40420    5.85140   -7.13320   -9999.25   -9999.25   10.82290    0.12040    2.77930    2.22040    0.19040    0.27640
 10208.00000   -9999.25   -9999.25  114.66260    8.03290    6.31550    5.84940   -7.15920   -9999.25   -9999.25   10.88390    0.11320    2.69810    2.13250    0.26510    0.27290
 10208.50000   -9999.25   -9999.25  116.39100    7.57140    6.22790    5.76850   -7.18150   -9999.25   -9999.25   10.96080    0.12350    2.71110    2.12670    0.30000    0.26580
 10209.00000   -9999.25   -9999.25  118.11930    7.39980    6.14150    5.68920   -6.62650   -9999.25   -9999.25   10.96020    0.13320    2.80800    2.12950    0.30000    0.25520
 10209.50000   -9999.25   -9999.25  119.84770    7.70060    6.13900    5.68740   -6.64880   -9999.25   -9999.25   10.84260    0.14290    2.92950    2.17290    0.30000    0.25100
 10210.00000   -9999.25   -9999.25  120.70140    7.69710    6.13650    5.53380   -6.67110   -9999.25   -9999.25   10.72510    0.15260    3.10320    2.20190    0.30000    0.24770
 10210.50000   -9999.25   -9999.25  120.82230    7.79890    6.13400    5.45290   -6.69350   -9999.25   -9999.25   10.69160    0.16230    3.27740    2.23310    0.29670    0.25020
 10211.00000   -9999.25   -9999.25  121.82140    7.90070    6.04890    5.38250   -6.71350   -9999.25   -9999.25   10.81170    0.16760    3.35260    2.25690    0.28020    0.26840
 10211.50000   -9999.25   -9999.25  131.99850    7.89720    5.80490    5.47340   -6.73580   -9999.25   -9999.25   10.90110    0.15750    3.15980    2.24220    0.26690    0.29160
 10212.00000   -9999.25   -9999.25  135.91350    7.68320    5.64740    5.60190   -6.76040   -9999.25   -9999.25   10.89280    0.15240    3.21750    2.22480    0.27330    0.30150
 10212.50000   -9999.25   -9999.25  132.83130    7.37490    5.42010    5.67600   -6.78270   -9999.25   -9999.25   10.80140    0.15390    3.27760    2.21840    0.28560    0.30960
 10213.00000   -9999.25   -9999.25  128.87460    7.07880    5.27300    5.55610   -6.80660   -9999.25   -9999.25   10.78020    0.15680    3.30370    2.22060    0.28740    0.31080
 10213.50000   -9999.25   -9999.25  127.10440    7.07520    5.12530    5.44630   -6.83100   -9999.25   -9999.25   10.95520    0.16110    3.22080    2.23340    0.28560    0.31140
 10214.00000   -9999.25   -9999.25  125.77150    7.16700    4.92330    5.15780   -6.86080   -9999.25   -9999.25   11.18820    0.16840    3.04220    2.25070    0.27820    0.31410
 10214.50000   -9999.25   -9999.25  127.93720    7.06770    4.85490    5.01860   -6.88310   -9999.25   -9999.25   11.15840    0.17430    3.01670    2.25690    0.26860    0.33080
 10215.00000   -9999.25   -9999.25  129.66560    6.96970    4.87510    4.94950   -6.90540   -9999.25   -9999.25   11.15780    0.17880    3.08490    2.23620    0.26170    0.34520
 10215.50000   -9999.25   -9999.25  129.20740    6.78090    4.94630    4.94790   -6.92770   -9999.25   -9999.25   11.18650    0.18140    3.12610    2.20340    0.27430    0.35440
 10216.00000   -9999.25   -9999.25  124.51920    6.50880    4.98240    4.93640   -6.95010   -9999.25   -9999.25   11.24590    0.17400    3.09630    2.16270    0.28570    0.32940
 10216.50000   -9999.25   -9999.25  123.91420    6.08100    4.98000    4.87810   -6.97230   -9999.25   -9999.25   11.36470    0.14300    2.97930    2.07710    0.29720    0.31080
 10217.00000   -9999.25   -9999.25  123.88640    5.83700    4.97810    4.87650   -6.99470   -9999.25   -9999.25   11.43260    0.10110    2.92050    2.03780    0.29850    0.29110
 10217.50000   -9999.25   -9999.25  122.11620    5.83430    5.11300    4.87480   -7.01700   -9999.25   -9999.25   11.12000    0.08470    2.87560    2.07340    0.29860    0.26330
 10218.00000   -9999.25   -9999.25  124.71920    5.83170    5.32330    4.87320   -7.03930   -9999.25   -9999.25   10.50120    0.09340    2.82770    2.21490    0.29860    0.25690
 10218.50000   -9999.25   -9999.25  126.44760    6.04270    5.61790    4.87130   -6.47680   -9999.25   -9999.25   10.42280    0.09930    2.77330    2.38070    0.28400    0.25750
 10219.00000   -9999.25   -9999.25  127.73860    6.17710    5.21920    4.86970   -6.50280   -9999.25   -9999.25   10.41220    0.10210    2.84080    2.38340    0.19760    0.25880
 10219.50000   -9999.25   -9999.25  128.15500    6.31540    4.87060    4.80270   -6.52140   -9999.25   -9999.25   10.45080    0.10510    2.90940    2.36160    0.18120    0.26070
 10220.00000   -9999.25   -9999.25  124.63560    6.39690    4.70390    4.80120   -6.41480   -9999.25   -9999.25   10.50870    0.10980    2.85580    2.36750    0.18410    0.27150
 10220.50000   -9999.25   -9999.25  121.99080    6.48150    4.76620    4.79960   -6.32600   -9999.25   -9999.25   10.59590    0.11580    2.65430    2.37620    0.19620    0.29160
 10221.00000   -9999.25   -9999.25  121.96980    6.47800    4.82930    4.78960   -6.23710   -9999.25   -9999.25   10.65840    0.12380    2.53730    2.35020    0.19880    0.30980
 10221.50000   -9999.25   -9999.25  121.94540    6.47510    4.89330    4.73190   -6.14830   -9999.25   -9999.25   10.77550    0.13300    2.43490    2.32830    0.20060    0.32460
 10222.00000   -9999.25   -9999.25  121.63390    6.38540    5.09420    4.73030   -6.05940   -9999.25   -9999.25   10.84470    0.14140    2.36160    2.38120    0.21910    0.33700
 10222.50000   -9999.25   -9999.25  120.14740    6.38250    5.52400    4.72870   -6.08170   -9999.25   -9999.25   10.90880    0.15150    2.49270    2.42730    0.21570    0.34230
 10223.00000   -9999.25   -9999.25  118.81450    6.29400    5.82970    4.76090   -6.10400   -9999.25   -9999.25   10.91470    0.16170    2.58380    2.45730    0.18070    0.33710
 10223.50000   -9999.25   -9999.25  117.48170    6.29120    6.15240    4.85480   -6.12630   -9999.25   -9999.25   10.82620    0.16750    2.65700    2.48170    0.14750    0.31680
 10224.00000   -9999.25   -9999.25  123.58320    6.28790    6.23400    5.05420   -6.15230   -9999.25   -9999.25   10.76720    0.16600    2.71750    2.48240    0.12990    0.30170
 10224.50000   -9999.25   -9999.25  128.81010    6.45620    6.10890    5.05260   -6.18210   -9999.25   -9999.25   10.67890    0.15430    2.70210    2.47870    0.13530    0.29770
 10225.00000   -9999.25   -9999.25  128.78920    7.38630    5.76800    5.05100   -6.20440   -9999.25   -9999.25   10.59060    0.14500    2.67100    2.47430    0.13750    0.30020
 10225.50000   -9999.25   -9999.25  129.64290    8.33720    5.44700    5.04930   -6.81150   -9999.25   -9999.25   10.41340    0.13270    2.65730    2.41820    0.15520    0.30410
 10226.00000   -9999.25   -9999.25  132.24590    8.56160    5.21310    5.04760   -6.83380   -9999.25   -9999.25   10.32260    0.12270    2.70620    2.32290    0.19720    0.30150
