~Version ---------------------------------------------------
VERS.   2.0 : CWLS log ASCII Standard -VERSION 2.0
WRAP.    NO : One line per depth step
DLM . SPACE : Column Data Section Delimiter
~Well ------------------------------------------------------
STRT .F                3446.5 : START DEPTH
STOP .F               12711.0 : STOP DEPTH
STEP .F                   0.5 : STEP
NULL .               -9999.25 : NULL VALUE
COMP .                        : COMPANY
WELL .                        : WELL
FLD  .                        : FIELD
LOC  .                        : LOCATION
PROV .                        : PROVINCE
CNTY .                        : COUNTY
STAT .                        : STATE
CTRY .                        : COUNTRY
SRVC .                        : SERVICE COMPANY
DATE .                        : DATE
UWI  .                        : UNIQUE WELL ID
API  .                        : API NUMBER
SLAT .WGS84 5.979132254332001 : SURFACE LATITUDE
SLON .WGS84 4.182919849344202 : SURFACE LONGITUDE
DATUM.F               2177.96 : DEPTH DATUM ELEV
~Curve Information -----------------------------------------
DEPT.F     : 
DTCO.US/F  : COMPRESSIONAL-WAVE INTERVAL TRANSIT TIME ACOUSTIC SLOWNESS
DTSM.US/F  : SHEAR-WAVE INTERVAL TRANSIT TIME DELTA-T
GRR .GAPI  : GAMMA RAY
SFLU.OHMM  : INDUCTION LOG DEEP
ILM .OHMM  : INDUCTION LOG MEDIUM
ILD .OHMM  : INDUCTION LOG DEEP
SPR .MV    : SPONTANEOUS POTENTIAL
IDPH.OHMM  : INDUCTION DEEP PHASOR RES
IMPH.OHMM  : INDUCTION MEDIUM PHASOR RES.
CALD.IN    : CALIPER FROM DENSITY LOG
DRHO.G/C3  : DENSITY CORRECTION
PEF .B/E   : PHOTOELECTRIC FACTOR
RHOB.G/C3  : BULK DENSITY
DPHI.DEC   : DENSITY POROSITY LIMESTONE
NPHI.DEC   : NEUTRON POROSITY LIMESTONE
~Params ----------------------------------------------------
~Other -----------------------------------------------------
~ASCII -----------------------------------------------------
# ...
 12364.00000   68.86960  127.88060   98.19140   11.59520   -9999.25   -9999.25    0.53980    9.04130    8.67600    5.86770    0.07260   -9999.25    2.57150    0.08060    0.19550
 12364.50000   67.97490  128.62650  102.99490   11.75080   -9999.25   -9999.25    0.51700    9.28620    8.79070    5.86650    0.08720   -9999.25    2.57720    0.08120    0.19490
 12365.00000   67.52820  128.32710  105.60970   11.90320   -9999.25   -9999.25    0.49740    9.53780    9.28150    5.86540    0.10170   -9999.25    2.59740    0.07950    0.19260
 12365.50000   67.67900  127.28080  108.22450   12.22370   -9999.25   -9999.25   -0.11350    9.68040    9.65460    5.89350    0.11330   -9999.25    2.61180    0.06720    0.18790
 12366.00000   67.82990  126.66350  108.20770   12.38440   -9999.25   -9999.25   -0.13310    9.79290    9.46510    5.89240    0.11910   -9999.25    2.62190    0.05160    0.17940
 12366.50000   67.98070  128.02610  105.12070   12.54730   -9999.25   -9999.25   -0.15270    9.54070    9.06510    5.89120    0.12200   -9999.25    2.63190    0.03940    0.17270
 12367.00000   68.28090  128.77220  102.91090   12.54070   -9999.25   -9999.25   -0.17230    9.05050    8.72690    5.88900    0.11400   -9999.25    2.63470    0.03880    0.16980
 12367.50000   68.28950  128.72370  102.89410   12.87940   -9999.25   -9999.25   -0.19190    8.77950    8.48120    5.85680    0.09420   -9999.25    2.62120    0.04350    0.16830
 12368.00000   67.32980  126.97820  105.94750   12.81390   -9999.25   -9999.25    0.37330    8.65860    8.30480    5.82920    0.08280   -9999.25    2.61430    0.05170    0.16890
 12368.50000   66.19410  125.03570  111.63240   12.40860   -9999.25   -9999.25    0.35380    8.53890    8.18950    5.82810    0.07670   -9999.25    2.61390    0.05290    0.17050
 12369.00000   68.58580  130.11340  114.24720   11.53210   -9999.25   -9999.25    0.33420    8.53650    8.18630    5.82690    0.07060   -9999.25    2.61120    0.05490    0.17540
 12369.50000   70.97710  134.59360  112.18320   10.91650   -9999.25   -9999.25    0.31460    8.53340    8.18320    5.82570    0.06040   -9999.25    2.59650    0.05900    0.18250
 12370.00000   72.92030  135.33990  108.36470   10.47510   -9999.25   -9999.25    0.29170    8.64680    8.29140    5.82460    0.04830   -9999.25    2.58380    0.06950    0.18840
 12370.50000   74.26600  131.75430  106.30210   10.42370   -9999.25   -9999.25    0.27340    8.64400    8.40070    5.82340    0.03330   -9999.25    2.58260    0.07340    0.19310
 12371.00000   74.86490  128.76620  108.90840   10.46510   -9999.25   -9999.25    0.24600    8.65450    8.51990    5.82220    0.02120   -9999.25    2.58190    0.07320    0.19720
 12371.50000   75.01580  127.12250  108.01440   10.60180   -9999.25   -9999.25    0.22650    8.77970    8.75930    5.82110    0.00980   -9999.25    2.57380    0.07410    0.19900
 12372.00000   74.86780  126.97240  102.73450   11.18800   -9999.25   -9999.25    0.20690    8.87240    8.85660    5.81970    0.00380   -9999.25    2.56280    0.08170    0.19710
 12372.50000   74.86930  128.05060   98.33170   11.80670   -9999.25   -9999.25    0.18730    8.20450    8.65880    5.81850    0.00340   -9999.25    2.57000    0.08580    0.19280
 12373.00000   75.16950  130.25680   98.31490   12.62990   -9999.25   -9999.25    0.16770    7.84990    8.02730    5.81740    0.00950   -9999.25    2.58730    0.08410    0.18590
 12373.50000   76.81430  133.39270  101.81150   13.69600   -9999.25   -9999.25    0.14810    7.46680    7.47420    5.81630    0.02260   -9999.25    2.59880    0.07540    0.18010
 12374.00000   79.05630  137.27550  109.68200   11.58840   -9999.25   -9999.25    0.12850    6.94510    7.01360    5.81510    0.02980   -9999.25    2.60740    0.06610    0.17510
 12374.50000   81.14880  139.81390  114.48980    9.35010   -9999.25   -9999.25    0.10890    6.66680    6.56610    5.81400    0.03120   -9999.25    2.61310    0.05890    0.17210
 12375.00000   82.19590  140.85880  116.22740    8.73160   -9999.25   -9999.25    0.08940    6.48680    6.30290    5.81290    0.02670   -9999.25    2.60290    0.05510    0.17420
 12375.50000   82.34630  141.75420  116.21060    8.04390   -9999.25   -9999.25    0.06650    6.31170    6.13260    5.78250    0.02500   -9999.25    2.59390    0.05160    0.18300
 12376.00000   80.85450  142.35100  113.12360    7.51180   -9999.25   -9999.25    0.04690    6.13990    5.96680    5.78130    0.02330   -9999.25    2.58790    0.06370    0.19350
 12376.50000   79.95970  142.49960  108.72080    7.14450   -9999.25   -9999.25    0.02080    6.14770    5.88450    5.78010    0.02030   -9999.25    2.58330    0.07170    0.20110
 12377.00000   79.06500  142.64820  104.49290    7.81610   -9999.25   -9999.25    0.00120    6.40800    5.88210    5.74970    0.01750   -9999.25    2.58010    0.07540    0.20760
 12377.50000   78.01610  142.49810  101.66970    8.70890   -9999.25   -9999.25   -0.01840    6.58960    5.88670    5.74850    0.01450   -9999.25    2.57380    0.07860    0.20880
 12378.00000   76.32560  141.85450  105.59190    8.82340   -9999.25   -9999.25   -0.03800    6.68510    5.97840    5.74740    0.01440   -9999.25    2.56760    0.08160    0.20220
 12378.50000   74.14070  140.10670  106.89080    8.35240   -9999.25   -9999.25   -0.05760    6.73960    6.14660    5.71700    0.01630   -9999.25    2.57600    0.07980    0.19740
 12379.00000   72.34980  138.91100  106.87400    8.46270   -9999.25   -9999.25   -0.07710    6.73740    6.28280    5.71580    0.01920   -9999.25    2.58180    0.07700    0.19550
 12379.50000   71.30570  139.65710  107.73440    9.34550   -9999.25   -9999.25   -0.09670    6.64420    6.41040    5.73040    0.02290   -9999.25    2.59000    0.07230    0.20190
 12380.00000   71.00800  142.94240  108.59480    9.95020   -9999.25   -9999.25   -0.11630    6.64210    6.62570    5.71320    0.02570   -9999.25    2.59770    0.06890    0.20610
 12380.50000   71.00980  142.19490  110.33240    8.56240   -9999.25   -9999.25   -0.13590    6.55070    6.62310    5.71210    0.03030   -9999.25    2.60190    0.06590    0.19980
 12381.00000   71.01130  140.25240  112.94720    7.78160   -9999.25   -9999.25   -0.15880    6.54860    6.62050    5.71920    0.03430   -9999.25    2.60040    0.06360    0.19290
 12381.50000   71.16210  138.30990  115.56200    7.74340   -9999.25   -9999.25   -0.17840    6.72670    6.61800    5.73910    0.03710   -9999.25    2.57130    0.06200    0.19340
 12382.00000   71.16360  137.53610  117.29950    8.66600   -9999.25   -9999.25   -0.20450    7.11570    6.61540    5.73790    0.03120   -9999.25    2.56830    0.07000    0.19930
 12382.50000   71.01570  138.75770  120.20300    9.27020   -9999.25   -9999.25   -0.22400    7.42610    6.88850    5.73680    0.02820   -9999.25    2.56540    0.07880    0.20340
 12383.00000   70.54640  137.58600  120.77470    9.26540   -9999.25   -9999.25   -0.24360    7.74990    7.18960    5.73560    0.02950   -9999.25    2.56380    0.08340    0.20280
 12383.50000   69.97340  133.07900  117.24070    9.13560   -9999.25   -9999.25   -0.26320    8.15720    7.50060    5.73450    0.03090   -9999.25    2.56230    0.08540    0.20170
 12384.00000   70.12420  130.09100  113.27660    9.13090   -9999.25   -9999.25   -0.28280    8.67180    7.93280    5.73330    0.03370   -9999.25    2.56210    0.08660    0.19870
 12384.50000   69.82690  128.59660  105.80360    9.12610   -9999.25   -9999.25   -0.30240    9.17360    8.38910    5.73220    0.03660   -9999.25    2.55920    0.08780    0.19510
 12385.00000   69.37990  126.95290   99.20790    9.41680   -9999.25   -9999.25   -0.32190    9.79860    8.81690    5.73100    0.03940   -9999.25    2.56260    0.08960    0.19070
 12385.50000   69.68050  125.60780   99.62970   11.79820   -9999.25   -9999.25   -0.34150   10.06450    9.06530    5.72980    0.04090   -9999.25    2.57210    0.08790    0.18570
 12386.00000   69.98070  125.15900   99.61290   15.05860   -9999.25   -9999.25   -0.36110    9.92560    9.24230    5.72870    0.04210   -9999.25    2.58500    0.08390    0.18020
