~Version ---------------------------------------------------
VERS.   2.0 : CWLS log ASCII Standard -VERSION 2.0
WRAP.    NO : One line per depth step
DLM . SPACE : Column Data Section Delimiter
~Well ------------------------------------------------------
STRT .F                3446.5 : START DEPTH
STOP .F               12711.0 : STOP DEPTH
STEP .F                   0.5 : STEP
NULL .               -9999.25 : NULL VALUE
COMP .                        : COMPANY
WELL .                        : WELL
FLD  .                        : FIELD
LOC  .                        : LOCATION
PROV .                        : PROVINCE
CNTY .                        : COUNTY
STAT .                        : STATE
CTRY .                        : COUNTRY
SRVC .                        : SERVICE COMPANY
DATE .                        : DATE
UWI  .                        : UNIQUE WELL ID
API  .                        : API NUMBER
SLAT .WGS84 5.979132254332001 : SURFACE LATITUDE
SLON .WGS84 4.182919849344202 : SURFACE LONGITUDE
DATUM.F               2177.96 : DEPTH DATUM ELEV
~Curve Information -----------------------------------------
DEPT.F     : 
DTCO.US/F  : COMPRESSIONAL-WAVE INTERVAL TRANSIT TIME ACOUSTIC SLOWNESS
DTSM.US/F  : SHEAR-WAVE INTERVAL TRANSIT TIME DELTA-T
GRR .GAPI  : GAMMA RAY
SFLU.OHMM  : INDUCTION LOG DEEP
ILM .OHMM  : INDUCTION LOG MEDIUM
ILD .OHMM  : INDUCTION LOG DEEP
SPR .MV    : SPONTANEOUS POTENTIAL
IDPH.OHMM  : INDUCTION DEEP PHASOR RES
IMPH.OHMM  : INDUCTION MEDIUM PHASOR RES.
CALD.IN    : CALIPER FROM DENSITY LOG
DRHO.G/C3  : DENSITY CORRECTION
PEF .B/E   : PHOTOELECTRIC FACTOR
RHOB.G/C3  : BULK DENSITY
DPHI.DEC   : DENSITY POROSITY LIMESTONE
NPHI.DEC   : NEUTRON POROSITY LIMESTONE
~Params ----------------------------------------------------
~Other -----------------------------------------------------
~ASCII -----------------------------------------------------
# ...
 10496.50000   -9999.25   -9999.25  126.09820    5.70380    5.12390    5.14430   -3.71920   -9999.25   -9999.25   12.04430    0.05910    3.26600    2.65270    0.02480    0.25950
 10497.00000   -9999.25   -9999.25  113.39500    5.62620    5.05380    5.14330   -3.73880   -9999.25   -9999.25   12.17660    0.05460    3.27980    2.65200    0.02310    0.27290
 10497.50000   -9999.25   -9999.25  109.00080    5.54970    4.94570    5.07320   -3.75840   -9999.25   -9999.25   12.15960    0.04870    3.30820    2.64960    0.02250    0.27340
 10498.00000   -9999.25   -9999.25  107.23050    5.62420    4.85020    5.07220   -3.19320   -9999.25   -9999.25   11.99860    0.03840    3.35110    2.63800    0.02700    0.27030
 10498.50000   -9999.25   -9999.25  107.20940    5.69960    4.84920    5.06650   -3.21280   -9999.25   -9999.25   11.85130    0.02480    3.37940    2.64220    0.04020    0.26440
 10499.00000   -9999.25   -9999.25  111.56160    5.77580    4.84830    5.00210   -3.23240   -9999.25   -9999.25   11.64550    0.01480    3.36210    2.65090    0.04190    0.26500
 10499.50000   -9999.25   -9999.25  116.20080    5.85320    4.84730    4.93390   -3.25530   -9999.25   -9999.25   11.55400    0.01330    3.31280    2.64930    0.03630    0.26680
 10500.00000   -9999.25   -9999.25  117.64200    6.01220    4.84640    4.88890   -3.44350   -9999.25   -9999.25   11.61400    0.02530    3.27020    2.63910    0.03550    0.27140
 10500.50000   -9999.25   -9999.25  110.18980    5.69460    4.70650    4.67220   -3.74650   -9999.25   -9999.25   11.64740    0.05410    3.23890    2.62380    0.05120    0.27740
 10501.00000   -9999.25   -9999.25  109.30290    5.32180    4.57100    4.48530   -3.87060   -9999.25   -9999.25   11.71020    0.08680    3.20070    2.60460    0.06290    0.28200
 10501.50000   -9999.25   -9999.25  108.41600    5.04100    4.43900    4.42420   -2.70920   -9999.25   -9999.25   11.75690    0.10940    3.17070    2.58960    0.06750    0.28550
 10502.00000   -9999.25   -9999.25  111.31620    4.97240    4.40490    4.30530   -2.12980   -9999.25   -9999.25   11.75560    0.11510    3.12620    2.60420    0.06600    0.28870
 10502.50000   -9999.25   -9999.25  113.63310    4.97150    4.34500    4.18960   -2.13530   -9999.25   -9999.25   11.74100    0.11650    3.05270    2.61600    0.05700    0.29350
 10503.00000   -9999.25   -9999.25  114.93280    4.97040    4.28590    4.12010   -2.72550   -9999.25   -9999.25   11.69470    0.10910    2.96460    2.62410    0.05210    0.29570
 10503.50000   -9999.25   -9999.25  117.10720    4.96920    4.28540    4.07620   -2.73100   -9999.25   -9999.25   11.69340    0.09150    2.94930    2.59950    0.05050    0.29610
 10504.00000   -9999.25   -9999.25  115.78300    4.96820    4.22700    4.07530   -3.32120   -9999.25   -9999.25   11.72160    0.07220    2.99570    2.55740    0.06730    0.29580
 10504.50000   -9999.25   -9999.25  107.89900    4.99440    4.16950    4.07440   -3.32760   -9999.25   -9999.25   11.74970    0.05220    3.08000    2.53990    0.09100    0.29500
 10505.00000   -9999.25   -9999.25  106.57480    5.03390    4.22590    4.12910   -3.33490   -9999.25   -9999.25   11.74850    0.03420    3.24180    2.55760    0.10440    0.29150
 10505.50000   -9999.25   -9999.25  108.31180    5.03290    4.28300    4.12830   -3.34030   -9999.25   -9999.25   11.74690    0.04760    3.35120    2.58250    0.09980    0.28690
 10506.00000   -9999.25   -9999.25  114.41710    5.03200    4.28250    4.07200   -3.34580   -9999.25   -9999.25   11.50330    0.06210    3.32230    2.59870    0.07190    0.28690
 10506.50000   -9999.25   -9999.25  120.52600    4.94120    4.28190    4.07120   -3.35130   -9999.25   -9999.25   11.38290    0.07520    3.26400    2.60740    0.06360    0.29280
 10507.00000   -9999.25   -9999.25  119.63910    4.76510    4.28130    4.07040   -3.35670   -9999.25   -9999.25   11.31800    0.08240    3.25250    2.60150    0.05810    0.29330
 10507.50000   -9999.25   -9999.25  120.93880    4.76420    4.28070    4.06960   -3.36220   -9999.25   -9999.25   11.27490    0.08980    3.28650    2.58100    0.06330    0.28890
 10508.00000   -9999.25   -9999.25  122.23850    4.76330    4.28010    4.06860   -3.36850   -9999.25   -9999.25   11.24440    0.08870    3.30950    2.55730    0.08450    0.28410
 10508.50000   -9999.25   -9999.25  123.53820    4.76240    4.27960    4.06780   -3.37580   -9999.25   -9999.25   11.24330    0.07830    3.30890    2.53390    0.10020    0.28230
 10509.00000   -9999.25   -9999.25  123.08860    4.89190    4.27890    4.12250   -2.79650   -9999.25   -9999.25   11.24190    0.07110    3.27910    2.51410    0.11050    0.28060
 10509.50000   -9999.25   -9999.25  116.66410    5.16240    4.27830    4.13010   -2.80190   -9999.25   -9999.25   11.24080    0.06550    3.22030    2.52410    0.11220    0.27660
 10510.00000   -9999.25   -9999.25  110.37580    5.30280    4.27780    4.17700   -2.80740   -9999.25   -9999.25   11.23970    0.06300    3.16150    2.55740    0.10760    0.26610
 10510.50000   -9999.25   -9999.25  108.17690    5.23020    4.34240    4.17610   -2.81370   -9999.25   -9999.25   11.23860    0.06660    3.11730    2.59060    0.08900    0.26320
 10511.00000   -9999.25   -9999.25  107.72730    5.15900    4.39430    4.17500   -2.81860   -9999.25   -9999.25   11.23740    0.07560    3.10210    2.61810    0.07070    0.27280
 10511.50000   -9999.25   -9999.25  108.58970    5.08890    4.45380    4.11820   -2.82430   -9999.25   -9999.25   11.23630    0.08330    3.14530    2.63240    0.04810    0.27430
 10512.00000   -9999.25   -9999.25  110.76400    5.08790    4.39310    4.11740   -2.83030   -9999.25   -9999.25   11.20580    0.08610    3.21790    2.63380    0.03970    0.27280
 10512.50000   -9999.25   -9999.25  115.99950    5.08690    4.27480    4.17270   -2.83600   -9999.25   -9999.25   10.96580    0.08750    3.27630    2.61830    0.05030    0.27060
 10513.00000   -9999.25   -9999.25  122.97950    5.08600    4.27430    4.18260   -2.84230   -9999.25   -9999.25   10.71320    0.08310    3.31820    2.60460    0.05550    0.27030
 10513.50000   -9999.25   -9999.25  127.33920    5.01660    4.27380    4.30520   -2.84830   -9999.25   -9999.25   10.66570    0.07420    3.20920    2.59070    0.06420    0.26450
 10514.00000   -9999.25   -9999.25  128.20770    5.01540    4.39070    4.40190   -2.85370   -9999.25   -9999.25   10.65410    0.06100    3.22370    2.58560    0.07010    0.25350
 10514.50000   -9999.25   -9999.25  127.75200    5.01440    4.51090    4.58310   -2.85920   -9999.25   -9999.25   10.65230    0.05170    3.30320    2.60290    0.06140    0.24190
 10515.00000   -9999.25   -9999.25  123.80380    5.15080    4.59990    4.70790   -2.86560   -9999.25   -9999.25   10.65040    0.03520    3.38480    2.62140    0.04170    0.22080
 10515.50000   -9999.25   -9999.25  121.16770    5.21980    4.69680    4.77110   -2.87290   -9999.25   -9999.25   10.64860    0.02660    3.49740    2.63470    0.03990    0.20220
 10516.00000   -9999.25   -9999.25  117.65690    5.43460    4.76040    4.90100   -2.87830   -9999.25   -9999.25   10.61750    0.01940    3.59560    2.63590    0.04760    0.18300
 10516.50000   -9999.25   -9999.25  113.56290    5.89280    4.89060    5.03440   -2.88380   -9999.25   -9999.25   10.61570    0.01430    3.67790    2.63580    0.05350    0.17730
 10517.00000   -9999.25   -9999.25  109.75450    6.92680    4.95990    5.10200   -2.88920   -9999.25   -9999.25   10.64310    0.01030    3.32800    2.62410    0.05970    0.18470
 10517.50000   -9999.25   -9999.25  106.24370    8.48070    5.03670    5.10080   -2.89470   -9999.25   -9999.25   10.64110    0.01530    3.09460    2.56750    0.07780    0.21240
 10518.00000   -9999.25   -9999.25  108.85530    7.92540    5.16130    5.09960   -2.90010   -9999.25   -9999.25   10.63920    0.02500    2.97750    2.52970    0.10870    0.24150
 10518.50000   -9999.25   -9999.25  114.09090    6.38410    5.26580    5.09860   -2.32080   -9999.25   -9999.25   10.63730    0.03120    2.97700    2.52230    0.10760    0.25840
