~Version ---------------------------------------------------
VERS.   2.0 : CWLS log ASCII Standard -VERSION 2.0
WRAP.    NO : One line per depth step
DLM . SPACE : Column Data Section Delimiter
~Well ------------------------------------------------------
STRT .F                3446.5 : START DEPTH
STOP .F               12711.0 : STOP DEPTH
STEP .F                   0.5 : STEP
NULL .               -9999.25 : NULL VALUE
COMP .                        : COMPANY
WELL .                        : WELL
FLD  .                        : FIELD
LOC  .                        : LOCATION
PROV .                        : PROVINCE
CNTY .                        : COUNTY
STAT .                        : STATE
CTRY .                        : COUNTRY
SRVC .                        : SERVICE COMPANY
DATE .                        : DATE
UWI  .                        : UNIQUE WELL ID
API  .                        : API NUMBER
SLAT .WGS84 5.979132254332001 : SURFACE LATITUDE
SLON .WGS84 4.182919849344202 : SURFACE LONGITUDE
DATUM.F               2177.96 : DEPTH DATUM ELEV
~Curve Information -----------------------------------------
DEPT.F     : 
DTCO.US/F  : COMPRESSIONAL-WAVE INTERVAL TRANSIT TIME ACOUSTIC SLOWNESS
DTSM.US/F  : SHEAR-WAVE INTERVAL TRANSIT TIME DELTA-T
GRR .GAPI  : GAMMA RAY
SFLU.OHMM  : INDUCTION LOG DEEP
ILM .OHMM  : INDUCTION LOG MEDIUM
ILD .OHMM  : INDUCTION LOG DEEP
SPR .MV    : SPONTANEOUS POTENTIAL
IDPH.OHMM  : INDUCTION DEEP PHASOR RES
IMPH.OHMM  : INDUCTION MEDIUM PHASOR RES.
CALD.IN    : CALIPER FROM DENSITY LOG
DRHO.G/C3  : DENSITY CORRECTION
PEF .B/E   : PHOTOELECTRIC FACTOR
RHOB.G/C3  : BULK DENSITY
DPHI.DEC   : DENSITY POROSITY LIMESTONE
NPHI.DEC   : NEUTRON POROSITY LIMESTONE
~Params ----------------------------------------------------
~Other -----------------------------------------------------
~ASCII -----------------------------------------------------
# ...
 8299.50000   -9999.25   -9999.25   83.88480   14.45790   11.17470   11.63730   17.14850   -9999.25   -9999.25   10.77970    0.00230    3.73480    2.66960    0.02090    0.15270
 8300.00000   -9999.25   -9999.25   87.09250   14.44950   11.32330   11.63420   16.53960   -9999.25   -9999.25   10.74970    0.00440    3.66840    2.66810    0.02090    0.15390
 8300.50000   -9999.25   -9999.25   92.36310   14.56980   11.49700   11.68610   16.52780   -9999.25   -9999.25   10.70750    0.00730    3.62040    2.67160    0.02130    0.15570
 8301.00000   -9999.25   -9999.25   89.70170   14.64060   11.67070   11.73810   16.51590   -9999.25   -9999.25   10.70730    0.00870    3.69690    2.67700    0.02060    0.15570
 8301.50000   -9999.25   -9999.25   87.04770   14.05490   11.78090   11.77850   16.50410   -9999.25   -9999.25   10.70720    0.00870    3.78410    2.68110    0.01880    0.15570
 8302.00000   -9999.25   -9999.25   85.71330   14.05180   11.93750   11.77270   16.49230   -9999.25   -9999.25   10.70700    0.00680    3.79850    2.67820    0.01970    0.15630
 8302.50000   -9999.25   -9999.25   88.33790   14.23990   11.93340   11.76830   16.48050   -9999.25   -9999.25   10.70680    0.00390    3.69650    2.67240    0.02270    0.15870
 8303.00000   -9999.25   -9999.25   89.20290   14.23720   11.92940   11.76380   16.46870   -9999.25   -9999.25   10.70670    0.00130    3.57830    2.66930    0.02560    0.16030
 8303.50000   -9999.25   -9999.25   88.74830   14.62530   11.92540   11.75930   16.45680   -9999.25   -9999.25   10.67730   -0.00090    3.50350    2.66460    0.02680    0.16110
 8304.00000   -9999.25   -9999.25   88.73350   14.62260   11.84210   11.72930   16.44500   -9999.25   -9999.25   10.64790   -0.00160    3.45780    2.65950    0.02500    0.16230
 8304.50000   -9999.25   -9999.25   88.27890   14.61980   11.59810   11.43580   16.43400   -9999.25   -9999.25   10.64780   -0.00170    3.40110    2.66070    0.02330    0.16330
 8305.00000   -9999.25   -9999.25   87.82180   14.22640   11.43850   11.36200   16.42310   -9999.25   -9999.25   10.58920   -0.00170    3.37560    2.66360    0.02260    0.16570
 8305.50000   -9999.25   -9999.25   87.22110   13.78130   11.28100   11.27190   16.41040   -9999.25   -9999.25   10.58900   -0.00170    3.62560    2.66510    0.02210    0.17090
 8306.00000   -9999.25   -9999.25   86.46780   13.28860   11.27730   11.11600   15.80930   -9999.25   -9999.25   10.58560   -0.00170    3.87990    2.66020    0.02610    0.17900
 8306.50000   -9999.25   -9999.25   82.05430   13.10730   11.24040   10.96230   15.79840   -9999.25   -9999.25   10.55950   -0.00170    4.00880    2.65340    0.02970    0.18600
 8307.00000   -9999.25   -9999.25   78.52050   12.92850   10.96850   10.66110   15.20090   -9999.25   -9999.25   10.53010   -0.00180    4.08430    2.65490    0.03030    0.18600
 8307.50000   -9999.25   -9999.25   78.06580   12.75220   10.74330   10.51750   15.19000   -9999.25   -9999.25   10.52100   -0.00180    4.17540    2.65200    0.03030    0.18310
 8308.00000   -9999.25   -9999.25   80.25050   12.74980   10.38250   10.46790   15.17910   -9999.25   -9999.25   10.48970    0.00110    4.23350    2.65000    0.03030    0.17500
 8308.50000   -9999.25   -9999.25   85.51440   12.57590   10.23960   10.30280   15.16820   -9999.25   -9999.25   10.45840    0.00110    4.26240    2.64700    0.03150    0.16720
 8309.00000   -9999.25   -9999.25   89.89850   12.63000   10.09860   10.36260   14.56890   -9999.25   -9999.25   10.42710    0.00400    4.05850    2.64610    0.03270    0.16280
 8309.50000   -9999.25   -9999.25   88.56410   13.09120   10.10740   10.35870   14.55440   -9999.25   -9999.25   10.39580    0.00540    3.89820    2.64770    0.03380    0.16230
 8310.00000   -9999.25   -9999.25   87.66960   13.26720   10.40210   10.49610   14.54350   -9999.25   -9999.25   10.35380    0.00840    3.75250    2.65910    0.03210    0.16410
 8310.50000   -9999.25   -9999.25   87.21500   13.44600   10.76100   10.78670   13.94600   -9999.25   -9999.25   10.35360    0.01150    3.63410    2.66930    0.02550    0.16630
 8311.00000   -9999.25   -9999.25   88.66360   13.81220   11.16710   11.07190   13.93510   -9999.25   -9999.25   10.32430    0.01270    3.54710    2.68080    0.01950    0.16380
 8311.50000   -9999.25   -9999.25   90.26470   13.62380   11.38800   11.21860   13.92420   -9999.25   -9999.25   10.32410    0.01270    3.51920    2.68950    0.01300    0.15780
 8312.00000   -9999.25   -9999.25   88.77620   13.86910   11.54000   11.21340   13.71660   -9999.25   -9999.25   10.29470    0.01210    3.51910    2.69820    0.00500    0.15480
 8312.50000   -9999.25   -9999.25   79.38290   14.57150   11.38080   11.20800   13.31040   -9999.25   -9999.25   10.29460    0.01140    3.53350    2.69380    0.00180    0.15830
 8313.00000   -9999.25   -9999.25   74.98060   14.96880   11.22400   11.05300   12.71290   -9999.25   -9999.25   10.26450    0.01070    3.54790    2.68370    0.00780    0.16360
 8313.50000   -9999.25   -9999.25   73.64840   14.96600   11.03230   10.90020   12.70200   -9999.25   -9999.25   10.23580    0.00990    3.55390    2.66890    0.01440    0.16820
 8314.00000   -9999.25   -9999.25   74.94790   14.76180   10.91660   10.89600   12.10460   -9999.25   -9999.25   10.23570    0.00920    3.57670    2.65850    0.02220    0.17290
 8314.50000   -9999.25   -9999.25   76.68590   14.56050   10.76610   10.89150   12.68020   -9999.25   -9999.25   10.17700    0.00850    3.57660    2.65130    0.02630    0.17150
 8315.00000   -9999.25   -9999.25   79.73550   14.16870   10.76190   11.03630   13.25580   -9999.25   -9999.25   10.13940    0.00770    3.53270    2.64710    0.02980    0.16610
 8315.50000   -9999.25   -9999.25   84.53970   13.97500   10.90550   11.33370   13.43790   -9999.25   -9999.25   10.07890    0.00700    3.43070    2.65160    0.03160    0.16060
 8316.00000   -9999.25   -9999.25   89.34790   13.97140   11.20120   11.95930   13.82040   -9999.25   -9999.25   10.04760    0.00630    3.37230    2.66300    0.03220    0.15240
 8316.50000   -9999.25   -9999.25   91.52460   14.15930   11.54210   12.45060   12.63100   -9999.25   -9999.25    9.98700    0.00560    3.51770    2.67730    0.02910    0.14060
 8317.00000   -9999.25   -9999.25   93.26260   14.34970   12.22810   13.13870   11.44710   -9999.25   -9999.25    9.94240    0.00480    3.77960    2.69000    0.01530    0.10570
 8317.50000   -9999.25   -9999.25   90.61460   14.54260   13.38720   13.70650   11.43620   -9999.25   -9999.25    9.94220    0.00410    3.98330    2.69820    0.00640    0.07050
 8318.00000   -9999.25   -9999.25   82.11940   15.34930   14.71520   14.25830   11.42520   -9999.25   -9999.25    9.94210    0.00340    3.65910    2.66030    0.01700    0.06570
 8318.50000   -9999.25   -9999.25   71.27550   17.10270   16.33860   14.43210   11.41430   -9999.25   -9999.25    9.94190    0.00260    3.05430    2.45160    0.13320    0.10870
 8319.00000   -9999.25   -9999.25   65.55740   26.41360   17.47790   14.61840   11.40160   -9999.25   -9999.25    9.94180    0.00190    2.75910    2.19080    0.24950    0.14580
 8319.50000   -9999.25   -9999.25   65.97960   41.23000   12.12070   14.81210   11.38700   -9999.25   -9999.25    9.94170    0.00120    2.57940    2.00810    0.29960    0.18290
 8320.00000   -9999.25   -9999.25   70.78780   44.71210   10.29920   15.03540   11.37610   -9999.25   -9999.25    9.94150    0.00050    2.52690    2.01390    0.29940    0.18930
 8320.50000   -9999.25   -9999.25   75.15750   41.77640   11.95310   15.26440   11.36520   -9999.25   -9999.25    9.97060   -0.00030    2.77760    2.11240    0.29920    0.15200
 8321.00000   -9999.25   -9999.25   78.21130   20.37440   15.07000   15.40890   11.35430   -9999.25   -9999.25    9.97050   -0.00040    3.95800    2.46610    0.29910    0.08290
 8321.50000   -9999.25   -9999.25   66.65010   18.27860   17.90040   15.07790   11.34340   -9999.25   -9999.25    9.97030   -0.00040    4.37850    2.59510    0.11690    0.01480
 8322.00000   -9999.25   -9999.25   49.66160   21.50060   22.86890   15.81700   11.33240   -9999.25   -9999.25    9.99940   -0.00190    4.65460    2.65460   -0.00160    0.01250
