~Version ---------------------------------------------------
VERS.   2.0 : CWLS log ASCII Standard -VERSION 2.0
WRAP.    NO : One line per depth step
DLM . SPACE : Column Data Section Delimiter
~Well ------------------------------------------------------
STRT .F                3446.5 : START DEPTH
STOP .F               12711.0 : STOP DEPTH
STEP .F                   0.5 : STEP
NULL .               -9999.25 : NULL VALUE
COMP .                        : COMPANY
WELL .                        : WELL
FLD  .                        : FIELD
LOC  .                        : LOCATION
PROV .                        : PROVINCE
CNTY .                        : COUNTY
STAT .                        : STATE
CTRY .                        : COUNTRY
SRVC .                        : SERVICE COMPANY
DATE .                        : DATE
UWI  .                        : UNIQUE WELL ID
API  .                        : API NUMBER
SLAT .WGS84 5.979132254332001 : SURFACE LATITUDE
SLON .WGS84 4.182919849344202 : SURFACE LONGITUDE
DATUM.F               2177.96 : DEPTH DATUM ELEV
~Curve Information -----------------------------------------
DEPT.F     : 
DTCO.US/F  : COMPRESSIONAL-WAVE INTERVAL TRANSIT TIME ACOUSTIC SLOWNESS
DTSM.US/F  : SHEAR-WAVE INTERVAL TRANSIT TIME DELTA-T
GRR .GAPI  : GAMMA RAY
SFLU.OHMM  : INDUCTION LOG DEEP
ILM .OHMM  : INDUCTION LOG MEDIUM
ILD .OHMM  : INDUCTION LOG DEEP
SPR .MV    : SPONTANEOUS POTENTIAL
IDPH.OHMM  : INDUCTION DEEP PHASOR RES
IMPH.OHMM  : INDUCTION MEDIUM PHASOR RES.
CALD.IN    : CALIPER FROM DENSITY LOG
DRHO.G/C3  : DENSITY CORRECTION
PEF .B/E   : PHOTOELECTRIC FACTOR
RHOB.G/C3  : BULK DENSITY
DPHI.DEC   : DENSITY POROSITY LIMESTONE
NPHI.DEC   : NEUTRON POROSITY LIMESTONE
~Params ----------------------------------------------------
~Other -----------------------------------------------------
~ASCII -----------------------------------------------------
# ...
 12049.00000   67.69460  100.20130   79.22340   14.84930   -9999.25   -9999.25   -1.45340    9.57780    9.14790    6.80870   -0.02760   -9999.25    2.65070    0.03300    0.12180
 12049.50000   69.04550  112.13850   73.93300   14.05660   -9999.25   -9999.25   -1.48690    9.06930    8.16310    6.83710   -0.02620   -9999.25    2.65990    0.02990    0.12070
 12050.00000   70.09760  117.43340   72.59000   11.30480   -9999.25   -9999.25   -1.52040    7.70760    6.70080    6.83630   -0.02630   -9999.25    2.67100    0.02280    0.12010
 12050.50000   70.55230  120.01860   75.62560    8.17980   -9999.25   -9999.25   -1.55400    6.55040    5.86790    6.83810   -0.02790   -9999.25    2.67420    0.01910    0.12010
 12051.00000   70.85760  122.60380   80.86150    5.97390   -9999.25   -9999.25   -1.58750    5.87440    5.27000    6.89310   -0.02800   -9999.25    2.66500    0.02180    0.12080
 12051.50000   71.01350  121.42650   89.60000    4.60350   -9999.25   -9999.25   -2.21140    5.38820    4.60010    6.89210   -0.02800   -9999.25    2.65920    0.02730    0.12090
 12052.00000   70.71200  117.04860   97.02890    4.01670   -9999.25   -9999.25   -2.25610    4.64890    4.05220    6.90220   -0.02780   -9999.25    2.65300    0.03080    0.13310
 12052.50000   68.04670  112.37790  101.82630    3.60120   -9999.25   -9999.25   -2.28970    3.99980    3.49310    6.94880   -0.02670   -9999.25    2.64690    0.03380    0.14890
 12053.00000   63.56500  109.20230  113.20260    3.27280   -9999.25   -9999.25   -2.31480    3.45620    3.09170    6.96430   -0.02540   -9999.25    2.64030    0.03730    0.15910
 12053.50000   70.14530  112.04760  118.87710    3.05630   -9999.25   -9999.25   -2.35670    3.04980    2.84960    7.00560   -0.02550   -9999.25    2.62590    0.04020    0.17510
 12054.00000   68.95690  123.10790  126.30600    2.93280   -9999.25   -9999.25   -1.80540    2.80090    2.55650    7.03380   -0.02410   -9999.25    2.59650    0.04870    0.19320
 12054.50000   66.27490  129.68540  128.03320    2.85270   -9999.25   -9999.25   -1.83900    2.53320    2.32470    7.06220   -0.02130   -9999.25    2.56010    0.06370    0.20960
 12055.00000   65.08500  127.75100  125.37440    2.81270   -9999.25   -9999.25   -1.87240    2.33490    2.11250    7.06140   -0.00820   -9999.25    2.53250    0.08400    0.23700
 12055.50000   66.73620  133.28660  121.25100    2.76060   -9999.25   -9999.25   -1.90600    2.15200    2.05260    7.11900    0.03270   -9999.25    2.53040    0.10470    0.25750
 12056.00000   70.92500  131.05340  117.12920    2.73430   -9999.25   -9999.25   -1.93950    2.11930    2.00050    7.15080    0.05170   -9999.25    2.53660    0.10580    0.27140
 12056.50000   78.25050  128.37210  114.75280    2.80760   -9999.25   -9999.25   -2.17290    2.17960    2.00800    7.21120    0.07340   -9999.25    2.52030    0.10150    0.27440
 12057.00000   83.03670  127.18450  116.48000    3.00340   -9999.25   -9999.25   -2.59690    2.21050    2.07560    7.30080    0.05300   -9999.25    2.48080    0.11320    0.26430
 12057.50000   84.23820  124.59940  128.07330    2.96130   -9999.25   -9999.25   -3.22640    2.26810    2.12220    7.37290    0.02870   -9999.25    2.44360    0.13470    0.25910
 12058.00000   82.83850  120.21510  141.86420    2.88050   -9999.25   -9999.25   -3.26000    2.30570    2.13570    7.46550    0.00410   -9999.25    2.44540    0.15630    0.27560
 12058.50000   79.47330  114.81090  146.22290    3.12340   -9999.25   -9999.25   -3.29350    2.37080    2.07750    7.55220   -0.00660   -9999.25    2.45750    0.15930    0.28210
 12059.00000   75.74580  112.57770  158.91050    3.98660   -9999.25   -9999.25   -3.32700    2.39120    2.16220    7.58070   -0.00890   -9999.25    2.47330    0.15040    0.26640
 12059.50000   74.40800  112.13510  157.56750    4.81920   -9999.25   -9999.25   -3.36050    2.42280    2.44040    7.52130   -0.00610   -9999.25    2.48820    0.13790    0.23600
 12060.00000   77.40190  115.87840  151.39990    4.56190   -9999.25   -9999.25   -3.97890    2.42160    2.54000    7.46190   -0.00320   -9999.25    2.49970    0.13030    0.23080
 12060.50000   81.59070  123.80200  139.96920    3.66880   -9999.25   -9999.25   -4.59710    2.38820    2.43630    7.43190    0.00250   -9999.25    2.50830    0.12350    0.23290
 12061.00000   81.74500  133.07000  120.64370    3.11580   -9999.25   -9999.25   -4.63070    2.32350    2.30500    7.43100    0.00980   -9999.25    2.51550    0.11460    0.25390
 12061.50000   82.35070  139.50000  110.52880    2.98910   -9999.25   -9999.25   -4.66420    2.35430    2.23970    7.45940    0.02090   -9999.25    2.46160    0.12390    0.27550
 12062.00000   84.74710  147.72240  107.43140    3.02790   -9999.25   -9999.25   -4.50900    2.41790    2.20590    7.49480    0.05480   -9999.25    2.47390    0.13960    0.28880
 12062.50000   87.74100  162.21810  105.64980    3.15220   -9999.25   -9999.25   -4.14650    2.51850    2.18370    7.63320    0.08830   -9999.25    2.49640    0.14550    0.28170
 12063.00000   88.94250  170.24230  106.64090    3.32650   -9999.25   -9999.25   -4.19680    2.58500    2.39650    7.85750    0.11690   -9999.25    2.50070    0.13060    0.27880
 12063.50000   87.59060  174.33310  107.34970    3.40760   -9999.25   -9999.25   -4.23030    2.62700    2.53420    8.01260    0.14520   -9999.25    2.50190    0.12390    0.28930
 12064.00000   87.76240  175.83400  105.99310    3.50870   -9999.25   -9999.25   -3.66220    2.69000    2.70550    7.92260    0.16860   -9999.25    2.51400    0.12330    0.29930
 12064.50000   92.10050  173.60080  104.65010    3.65270   -9999.25   -9999.25   -3.71250    2.72550    2.81590    7.74640    0.18020   -9999.25    2.56990    0.11700    0.29770
 12065.00000   95.39310  161.95770  104.48170    3.75140   -9999.25   -9999.25   -3.74600    2.77950    2.89170    7.62860    0.17720   -9999.25    2.60900    0.10060    0.29250
 12065.50000   95.84780  155.24350  107.22720    3.85270   -9999.25   -9999.25   -3.19140    2.81960    2.92930    7.51080    0.13470   -9999.25    2.61900    0.06060    0.28610
 12066.00000   95.10750  152.56220  110.70880    3.95670   -9999.25   -9999.25   -3.22830    2.83470    2.96760    7.45150    0.10390   -9999.25    2.62040    0.05430    0.27720
 12066.50000   94.81370  149.73160  112.43600    4.02660   -9999.25   -9999.25   -3.26180    2.87220    2.96600    7.33360    0.08270   -9999.25    2.62000    0.05250    0.27030
 12067.00000   96.16620  146.30350  109.33860    4.06150   -9999.25   -9999.25   -3.29530    2.87090    2.91810    7.26920    0.07130   -9999.25    2.60060    0.05260    0.26040
 12067.50000   96.28160  142.12860  106.24120    3.84370   -9999.25   -9999.25   -3.68280    2.83120    2.86380    7.19940    0.06860   -9999.25    2.55370    0.05690    0.25510
 12068.00000   91.25030  139.87650  103.57790    3.63850   -9999.25   -9999.25   -3.95270    2.83010    2.74230    7.09710    0.06700   -9999.25    2.47330    0.06430    0.25930
 12068.50000   88.26960  137.60870  101.79770    3.44430   -9999.25   -9999.25   -3.99750    2.95020    2.65650    7.23690    0.08110   -9999.25    2.41810    0.07310    0.29280
 12069.00000   85.98770  134.68400   97.37400    3.30500   -9999.25   -9999.25   -4.03100    3.13280    2.78690    7.43570    0.11230   -9999.25    2.33870    0.08490    0.32050
 12069.50000   84.37330  132.15210   94.71520    3.17140   -9999.25   -9999.25   -4.06450    3.40880    3.42960    7.62060    0.13400   -9999.25    2.27340    0.15780    0.33220
 12070.00000   83.21260  129.62020   91.17920    3.16980   -9999.25   -9999.25   -4.09800    3.75890    4.80440    7.79520    0.14560   -9999.25    2.26670    0.23960    0.31580
 12070.50000   82.32290  126.64020   90.27480    3.78000   -9999.25   -9999.25   -4.13160    4.42820    6.04120    7.96980    0.15280   -9999.25    2.31240    0.26240    0.28210
 12071.00000   80.68650  123.21210   91.12480    6.86850   -9999.25   -9999.25   -3.58030    5.70690    7.29470    8.17370    0.15570   -9999.25    2.38210    0.26650    0.26230
