~Version ---------------------------------------------------
VERS.   2.0 : CWLS log ASCII Standard -VERSION 2.0
WRAP.    NO : One line per depth step
DLM . SPACE : Column Data Section Delimiter
~Well ------------------------------------------------------
STRT .F                3446.5 : START DEPTH
STOP .F               12711.0 : STOP DEPTH
STEP .F                   0.5 : STEP
NULL .               -9999.25 : NULL VALUE
COMP .                        : COMPANY
WELL .                        : WELL
FLD  .                        : FIELD
LOC  .                        : LOCATION
PROV .                        : PROVINCE
CNTY .                        : COUNTY
STAT .                        : STATE
CTRY .                        : COUNTRY
SRVC .                        : SERVICE COMPANY
DATE .                        : DATE
UWI  .                        : UNIQUE WELL ID
API  .                        : API NUMBER
SLAT .WGS84 5.979132254332001 : SURFACE LATITUDE
SLON .WGS84 4.182919849344202 : SURFACE LONGITUDE
DATUM.F               2177.96 : DEPTH DATUM ELEV
~Curve Information -----------------------------------------
DEPT.F     : 
DTCO.US/F  : COMPRESSIONAL-WAVE INTERVAL TRANSIT TIME ACOUSTIC SLOWNESS
DTSM.US/F  : SHEAR-WAVE INTERVAL TRANSIT TIME DELTA-T
GRR .GAPI  : GAMMA RAY
SFLU.OHMM  : INDUCTION LOG DEEP
ILM .OHMM  : INDUCTION LOG MEDIUM
ILD .OHMM  : INDUCTION LOG DEEP
SPR .MV    : SPONTANEOUS POTENTIAL
IDPH.OHMM  : INDUCTION DEEP PHASOR RES
IMPH.OHMM  : INDUCTION MEDIUM PHASOR RES.
CALD.IN    : CALIPER FROM DENSITY LOG
DRHO.G/C3  : DENSITY CORRECTION
PEF .B/E   : PHOTOELECTRIC FACTOR
RHOB.G/C3  : BULK DENSITY
DPHI.DEC   : DENSITY POROSITY LIMESTONE
NPHI.DEC   : NEUTRON POROSITY LIMESTONE
~Params ----------------------------------------------------
~Other -----------------------------------------------------
~ASCII -----------------------------------------------------
# ...
 8621.50000   -9999.25   -9999.25  117.60530    9.47350    8.09620    8.09430    7.71050   -9999.25   -9999.25   10.68460    0.02360    3.43520    2.62480    0.02760    0.22580
 8622.00000   -9999.25   -9999.25  114.52660    9.38820    8.18080    8.09490    7.70770   -9999.25   -9999.25   10.68480    0.02940    3.49340    2.61030    0.03080    0.22410
 8622.50000   -9999.25   -9999.25  111.88660    9.38820    8.29230    8.09540    7.70490   -9999.25   -9999.25   10.68500    0.03390    3.52260    2.61610    0.03880    0.22280
 8623.00000   -9999.25   -9999.25  116.26120    9.38820    8.29230    7.98700    7.70190   -9999.25   -9999.25   10.68510    0.03520    3.51300    2.62960    0.05350    0.22160
 8623.50000   -9999.25   -9999.25  119.46870    9.51590    8.29230    7.98750    7.69900   -9999.25   -9999.25   10.71450    0.03180    3.42740    2.63920    0.05700    0.22120
 8624.00000   -9999.25   -9999.25  120.63310    9.64530    8.29230    7.98810    8.04680   -9999.25   -9999.25   10.71460    0.02650    3.37700    2.63080    0.05180    0.22120
 8624.50000   -9999.25   -9999.25  120.18600    9.51590    8.18080    7.98860    8.27770   -9999.25   -9999.25   10.71480    0.02490    3.41310    2.62120    0.04540    0.22140
 8625.00000   -9999.25   -9999.25  120.61620    9.51590    8.18080    7.98920    8.27410   -9999.25   -9999.25   10.71490    0.02780    3.46430    2.62750    0.04070    0.22290
 8625.50000   -9999.25   -9999.25  120.16480    9.26230    8.18080    7.98970    8.27130   -9999.25   -9999.25   10.71510    0.02920    3.49340    2.64050    0.04450    0.22410
 8626.00000   -9999.25   -9999.25  120.15640    9.26230    8.06590    7.95720    8.26850   -9999.25   -9999.25   10.71520    0.02630    3.52260    2.64920    0.04900    0.22350
 8626.50000   -9999.25   -9999.25  120.58650    9.26230    7.96210    7.88320    8.26570   -9999.25   -9999.25   10.71540    0.02330    3.53710    2.65350    0.04790    0.22290
 8627.00000   -9999.25   -9999.25  120.57800    9.13810    7.94310    7.88380    8.26280   -9999.25   -9999.25   10.71550    0.01710    3.55180    2.65350    0.04250    0.22290
 8627.50000   -9999.25   -9999.25  120.56950    9.13810    7.85500    7.88430    7.67520   -9999.25   -9999.25   10.74490    0.01090    3.61150    2.64470    0.03150    0.22290
 8628.00000   -9999.25   -9999.25  120.99970    9.13810    7.85500    7.88500    7.67240   -9999.25   -9999.25   10.74500    0.00610    3.63900    2.63570    0.02970    0.22230
 8628.50000   -9999.25   -9999.25  121.42980    9.26230    7.85500    7.88550    7.08480   -9999.25   -9999.25   10.74520    0.00200    3.50400    2.62670    0.03210    0.21920
 8629.00000   -9999.25   -9999.25  121.42130    9.26230    7.74940    7.77990    6.49720   -9999.25   -9999.25   10.74530    0.00440    3.45600    2.61860    0.03500    0.21590
 8629.50000   -9999.25   -9999.25  122.29000    9.38820    7.64510    7.78040    5.90950   -9999.25   -9999.25   10.74550    0.01730    3.46430    2.61150    0.04140    0.22060
 8630.00000   -9999.25   -9999.25  122.72020    9.51590    7.58690    7.78090    5.90670   -9999.25   -9999.25   10.74560    0.03480    3.40610    2.60830    0.04960    0.22970
 8630.50000   -9999.25   -9999.25  123.73320    9.51590    7.44080    7.78140    5.90340   -9999.25   -9999.25   10.74580    0.05230    3.28970    2.59970    0.05310    0.24080
 8631.00000   -9999.25   -9999.25  124.01900    9.26230    7.34070    7.78200    6.48590   -9999.25   -9999.25   10.74590    0.07290    3.17320    2.59390    0.05560    0.24720
 8631.50000   -9999.25   -9999.25  122.25190    8.89450    7.24190    7.78250    6.48160   -9999.25   -9999.25   10.74610    0.08480    3.05680    2.59960    0.05820    0.24670
 8632.00000   -9999.25   -9999.25  117.41880    8.77520    7.22500    7.76770    6.47880   -9999.25   -9999.25   10.76140    0.09100    3.11650    2.61260    0.06280    0.24090
 8632.50000   -9999.25   -9999.25  116.09880    8.77520    7.54220    7.67880    7.06220   -9999.25   -9999.25   10.80490    0.09610    3.17560    2.62420    0.06720    0.23390
 8633.00000   -9999.25   -9999.25  120.47210    8.77520    7.85500    7.67930    7.05790   -9999.25   -9999.25   10.80500    0.09750    3.20620    2.62130    0.06170    0.22930
 8633.50000   -9999.25   -9999.25  123.53380    9.01550    7.85500    7.67990    7.64040   -9999.25   -9999.25   10.83440    0.09600    3.12640    2.62560    0.05090    0.22700
 8634.00000   -9999.25   -9999.25  121.77090    9.13810    7.74050    7.68040    7.63710   -9999.25   -9999.25   10.86370    0.09160    3.01390    2.63780    0.04850    0.22810
 8634.50000   -9999.25   -9999.25  120.88520    9.26230    7.54220    7.68090    7.63430   -9999.25   -9999.25   10.86390    0.08420    3.04220    2.65210    0.04850    0.22990
 8635.00000   -9999.25   -9999.25  121.31540    9.51590    7.44080    7.68140    7.63140   -9999.25   -9999.25   10.86400    0.07250    3.23140    2.66500    0.04800    0.22900
 8635.50000   -9999.25   -9999.25  122.62270    9.51590    7.46940    7.68200    7.62860   -9999.25   -9999.25   10.86420    0.05900    3.40610    2.67910    0.03920    0.22570
 8636.00000   -9999.25   -9999.25  123.49140    9.51590    7.54220    7.68250    8.21060   -9999.25   -9999.25   10.90210    0.04810    3.55170    2.66750    0.02740    0.22390
 8636.50000   -9999.25   -9999.25  121.72850    9.51590    7.54220    7.68300    8.20780   -9999.25   -9999.25   10.92300    0.03950    3.42070    2.64860    0.02080    0.22430
 8637.00000   -9999.25   -9999.25  121.72010    9.51590    7.54220    7.58020    8.20490   -9999.25   -9999.25   10.92310    0.03440    3.42520    2.65580    0.01940    0.22550
 8637.50000   -9999.25   -9999.25  123.75600    9.51590    7.59800    7.58070    8.55250   -9999.25   -9999.25   10.95250    0.04090    3.49340    2.66760    0.03170    0.22930
 8638.00000   -9999.25   -9999.25  125.79480    9.51590    7.64510    7.58120    8.78410   -9999.25   -9999.25   10.95270    0.05040    3.49340    2.67370    0.03780    0.23390
 8638.50000   -9999.25   -9999.25  123.00620    9.26230    7.54220    7.47970    8.77980   -9999.25   -9999.25   10.95280    0.05770    3.48120    2.67890    0.03160    0.23970
 8639.00000   -9999.25   -9999.25  122.12050    9.26230    7.44080    7.46720    8.77700   -9999.25   -9999.25   10.95290    0.06060    3.38390    2.65810    0.02060    0.24200
 8639.50000   -9999.25   -9999.25  121.67770    9.01550    7.44080    7.38000    8.18940   -9999.25   -9999.25   10.95310    0.06490    3.43520    2.64840    0.01770    0.24210
 8640.00000   -9999.25   -9999.25  123.41940    8.89450    7.44080    7.35410    8.18660   -9999.25   -9999.25   10.95320    0.07110    3.46430    2.64640    0.02530    0.23860
 8640.50000   -9999.25   -9999.25  124.72670    8.77520    7.34070    7.28170    8.76900   -9999.25   -9999.25   10.95340    0.08180    3.46900    2.64980    0.03060    0.23260
 8641.00000   -9999.25   -9999.25  125.59540    8.77520    7.24190    7.28220    8.76600   -9999.25   -9999.25   10.95350    0.08970    3.31880    2.62950    0.03530    0.22930
 8641.50000   -9999.25   -9999.25  125.58690    9.01550    7.14450    7.28270    8.76290   -9999.25   -9999.25   10.95370    0.08120    3.21620    2.61210    0.03640    0.23800
 8642.00000   -9999.25   -9999.25  115.05210    9.01550    7.04840    7.28320    8.76010   -9999.25   -9999.25   10.95380    0.07720    3.18560    2.61360    0.03300    0.24220
 8642.50000   -9999.25   -9999.25  105.83310    9.01550    7.04840    7.28380    8.17240   -9999.25   -9999.25   10.97000    0.06910    3.17320    2.63010    0.04490    0.24260
 8643.00000   -9999.25   -9999.25  108.89480    9.01550    7.07320    7.28430    8.16960   -9999.25   -9999.25   10.98340    0.04870    3.17320    2.61620    0.05410    0.23970
 8643.50000   -9999.25   -9999.25  112.39510    8.89450    7.17590    7.28480    7.58200   -9999.25   -9999.25   10.98350    0.02230    3.17320    2.59130    0.05510    0.23580
 8644.00000   -9999.25   -9999.25  118.08840    8.77520    7.24190    7.28520    7.57920   -9999.25   -9999.25   10.98360    0.01060    3.17320    2.58010    0.04450    0.23740
