~Version ---------------------------------------------------
VERS.   2.0 : CWLS log ASCII Standard -VERSION 2.0
WRAP.    NO : One line per depth step
DLM . SPACE : Column Data Section Delimiter
~Well ------------------------------------------------------
STRT .F                3446.5 : START DEPTH
STOP .F               12711.0 : STOP DEPTH
STEP .F                   0.5 : STEP
NULL .               -9999.25 : NULL VALUE
COMP .                        : COMPANY
WELL .                        : WELL
FLD  .                        : FIELD
LOC  .                        : LOCATION
PROV .                        : PROVINCE
CNTY .                        : COUNTY
STAT .                        : STATE
CTRY .                        : COUNTRY
SRVC .                        : SERVICE COMPANY
DATE .                        : DATE
UWI  .                        : UNIQUE WELL ID
API  .                        : API NUMBER
SLAT .WGS84 5.979132254332001 : SURFACE LATITUDE
SLON .WGS84 4.182919849344202 : SURFACE LONGITUDE
DATUM.F               2177.96 : DEPTH DATUM ELEV
~Curve Information -----------------------------------------
DEPT.F     : 
DTCO.US/F  : COMPRESSIONAL-WAVE INTERVAL TRANSIT TIME ACOUSTIC SLOWNESS
DTSM.US/F  : SHEAR-WAVE INTERVAL TRANSIT TIME DELTA-T
GRR .GAPI  : GAMMA RAY
SFLU.OHMM  : INDUCTION LOG DEEP
ILM .OHMM  : INDUCTION LOG MEDIUM
ILD .OHMM  : INDUCTION LOG DEEP
SPR .MV    : SPONTANEOUS POTENTIAL
IDPH.OHMM  : INDUCTION DEEP PHASOR RES
IMPH.OHMM  : INDUCTION MEDIUM PHASOR RES.
CALD.IN    : CALIPER FROM DENSITY LOG
DRHO.G/C3  : DENSITY CORRECTION
PEF .B/E   : PHOTOELECTRIC FACTOR
RHOB.G/C3  : BULK DENSITY
DPHI.DEC   : DENSITY POROSITY LIMESTONE
NPHI.DEC   : NEUTRON POROSITY LIMESTONE
~Params ----------------------------------------------------
~Other -----------------------------------------------------
~ASCII -----------------------------------------------------
# ...
 10811.50000   -9999.25   -9999.25  130.21390    6.40220    5.54180    5.41420   -4.64680   -9999.25   -9999.25    9.92380    0.01730    3.05140    2.63030    0.03360    0.24070
 10812.00000   -9999.25   -9999.25  131.07800    6.23040    5.51650    5.34110   -4.65760   -9999.25   -9999.25    9.92280    0.02160    2.97100    2.62120    0.03880    0.25080
 10812.50000   -9999.25   -9999.25  132.08740    6.31390    5.46640    5.26910   -4.66600   -9999.25   -9999.25    9.92180    0.02590    3.00100    2.61320    0.05060    0.25600
 10813.00000   -9999.25   -9999.25  133.53210    6.39850    5.54070    5.26870   -4.67440   -9999.25   -9999.25    9.92080    0.02740    3.15940    2.61610    0.05350    0.25840
 10813.50000   -9999.25   -9999.25  134.83360    6.48410    5.54030    5.26840   -4.68290   -9999.25   -9999.25    9.91970    0.01860    3.27310    2.62040    0.05120    0.26070
 10814.00000   -9999.25   -9999.25  135.69770    6.57110    5.53990    5.26800   -4.69050   -9999.25   -9999.25    9.91870    0.00980    3.28760    2.62470    0.04540    0.26310
 10814.50000   -9999.25   -9999.25  136.56180    6.56960    5.46490    5.31000   -4.69970   -9999.25   -9999.25    9.91770    0.00690    3.21480    2.62610    0.04430    0.26420
 10815.00000   -9999.25   -9999.25  136.99040    6.65790    5.46450    5.38510   -4.70730   -9999.25   -9999.25    9.91670    0.00720    3.18560    2.62750    0.04310    0.25640
 10815.50000   -9999.25   -9999.25  135.22890    6.65590    5.46420    5.43630   -4.71650   -9999.25   -9999.25    9.91560    0.01620    3.27280    2.63040    0.04190    0.25380
 10816.00000   -9999.25   -9999.25  132.59450    6.56530    5.39020    5.47430   -4.72490   -9999.25   -9999.25    9.91440    0.03480    3.50570    2.63350    0.04010    0.25430
 10816.50000   -9999.25   -9999.25  129.08540    6.38910    5.38980    5.48430   -4.73330   -9999.25   -9999.25    9.91340    0.04840    3.62300    2.63950    0.03680    0.26160
 10817.00000   -9999.25   -9999.25  125.57640    6.30220    5.38950    5.49920   -4.74310   -9999.25   -9999.25    9.94170    0.05910    3.69620    2.64540    0.03370    0.26830
 10817.50000   -9999.25   -9999.25  122.06730    6.21650    5.38910    5.55820   -4.75160   -9999.25   -9999.25    9.91150    0.06000    3.72640    2.64750    0.03260    0.27010
 10818.00000   -9999.25   -9999.25  123.94970    6.21530    5.38870    5.55780   -4.76280   -9999.25   -9999.25    9.91050    0.03750    3.75640    2.63050    0.03250    0.26780
 10818.50000   -9999.25   -9999.25  125.10430    6.29850    5.31580    5.55740   -4.77120   -9999.25   -9999.25    9.90950    0.02430    3.77190    2.62060    0.03650    0.26320
 10819.00000   -9999.25   -9999.25  129.02760    6.46970    5.31540    5.55710   -4.77960   -9999.25   -9999.25    9.90850    0.01840    3.79640    2.61090    0.04570    0.25970
 10819.50000   -9999.25   -9999.25  133.39030    6.55640    5.31500    5.55310   -4.78800   -9999.25   -9999.25    9.90750    0.01400    3.58350    2.60530    0.05150    0.25500
 10820.00000   -9999.25   -9999.25  138.62760    6.64430    5.21950    5.47210   -4.79580   -9999.25   -9999.25    9.90640    0.01700    3.34200    2.60090    0.05620    0.24810
 10820.50000   -9999.25   -9999.25  142.11570    6.52440    5.17200    5.39170   -4.80490   -9999.25   -9999.25    9.89740    0.02730    3.18480    2.60370    0.06080    0.25630
 10821.00000   -9999.25   -9999.25  148.66490    6.40730    5.17170    5.31280   -4.81330   -9999.25   -9999.25    9.87510    0.04340    3.15560    2.60510    0.05970    0.26400
 10821.50000   -9999.25   -9999.25  150.65360    6.20620    5.10170    5.23500   -4.82170   -9999.25   -9999.25    9.87410    0.07650    3.12640    2.60360    0.05680    0.26800
 10822.00000   -9999.25   -9999.25  152.14600    6.12170    5.10140    5.15820   -4.83070   -9999.25   -9999.25    9.84390    0.10540    3.08270    2.60070    0.05760    0.26910
 10822.50000   -9999.25   -9999.25  151.25560    6.03840    5.10100    5.12150   -4.83930   -9999.25   -9999.25    9.84280    0.11880    3.06800    2.60260    0.06050    0.26890
 10823.00000   -9999.25   -9999.25  147.83350    6.03730    5.10070    5.12110   -4.84860   -9999.25   -9999.25    9.84160    0.12420    3.09710    2.61790    0.05940    0.26720
 10823.50000   -9999.25   -9999.25  143.66840    6.03610    5.20540    5.05200   -4.85700   -9999.25   -9999.25    9.84060    0.12650    3.15630    2.65240    0.04510    0.26240
 10824.00000   -9999.25   -9999.25  140.29110    6.11700    5.40890    5.12050   -4.86550   -9999.25   -9999.25    9.83970    0.12500    3.21650    2.67880    0.02810    0.25400
 10824.50000   -9999.25   -9999.25  138.53140    6.28320    5.63950    5.18990   -4.87640   -9999.25   -9999.25    9.83870    0.10600    3.29390    2.69420    0.01210    0.24820
 10825.00000   -9999.25   -9999.25  141.14480    6.54170    5.84060    5.33180   -4.88480   -9999.25   -9999.25    9.83770    0.08840    3.37340    2.70040    0.00240    0.24240
 10825.50000   -9999.25   -9999.25  143.75820    6.71950    6.04810    5.47760   -4.30840   -9999.25   -9999.25    9.83670    0.07380    3.46010    2.68800    0.00020    0.23420
 10826.00000   -9999.25   -9999.25  145.05960    6.99600    6.24900    5.55190   -4.31680   -9999.25   -9999.25    9.86490    0.05920    3.53900    2.66690    0.00640    0.22610
 10826.50000   -9999.25   -9999.25  143.15420    7.31840    6.16440    5.55150   -4.32440   -9999.25   -9999.25    9.86390    0.04450    3.50620    2.65530    0.01460    0.22730
 10827.00000   -9999.25   -9999.25  136.28700    7.79110    6.08100    5.55110   -4.33370   -9999.25   -9999.25    9.86290    0.03550    3.41670    2.64940    0.02390    0.23300
 10827.50000   -9999.25   -9999.25  132.34060    6.89740    6.16360    5.55070   -4.34210   -9999.25   -9999.25    9.86180    0.02940    3.37300    2.64500    0.03150    0.24130
 10828.00000   -9999.25   -9999.25  129.70620    6.71230    6.24740    5.62590   -4.35050   -9999.25   -9999.25    9.83180    0.02370    3.35840    2.64930    0.03440    0.23200
 10828.50000   -9999.25   -9999.25  128.82110    6.71100    6.26160    5.70210   -4.35890   -9999.25   -9999.25    9.85980    0.02020    3.40200    2.65520    0.02870    0.22730
 10829.00000   -9999.25   -9999.25  129.68520    6.80090    6.33190    5.70170   -4.36870   -9999.25   -9999.25    9.82950    0.01700    3.46010    2.66080    0.02400    0.22940
 10829.50000   -9999.25   -9999.25  129.67470    6.79960    5.60380    5.70130   -4.37710   -9999.25   -9999.25    9.82850    0.01380    3.51830    2.65900    0.02500    0.23490
 10830.00000   -9999.25   -9999.25  130.53880    6.89070    5.70590    5.62440   -4.38590   -9999.25   -9999.25    9.82730    0.01150    3.47450    2.65420    0.02760    0.23440
 10830.50000   -9999.25   -9999.25  131.40300    6.98310    5.86880    5.70060   -4.39680   -9999.25   -9999.25    9.82630    0.00640    3.35620    2.65000    0.03040    0.22790
 10831.00000   -9999.25   -9999.25  134.01640    7.07660    6.03680    5.70340   -4.40520   -9999.25   -9999.25    9.85470    0.00490    3.26740    2.64610    0.03230    0.22740
 10831.50000   -9999.25   -9999.25  136.62980    7.17140    6.20930    5.77750   -4.41280   -9999.25   -9999.25    9.88280    0.01950    3.22690    2.64750    0.03400    0.23030
 10832.00000   -9999.25   -9999.25  140.40660    7.07390    5.75590    5.57540   -4.42120   -9999.25   -9999.25    9.91110    0.05170    3.28520    2.65740    0.02530    0.23790
 10832.50000   -9999.25   -9999.25  139.81500    6.79170    5.30560    5.23360   -4.42960   -9999.25   -9999.25    9.93930    0.06920    3.42040    2.67210    0.02190    0.25420
 10833.00000   -9999.25   -9999.25  138.78490    6.49140    5.09370    5.01940   -4.43880   -9999.25   -9999.25    9.99680    0.08720    3.49440    2.67280    0.01490    0.26290
 10833.50000   -9999.25   -9999.25  140.95570    6.23250    4.89030    4.87930   -4.44720   -9999.25   -9999.25   10.05430    0.10340    3.49730    2.62850    0.01420    0.25260
