~Version ---------------------------------------------------
VERS.   2.0 : CWLS log ASCII Standard -VERSION 2.0
WRAP.    NO : One line per depth step
DLM . SPACE : Column Data Section Delimiter
~Well ------------------------------------------------------
STRT .F                3446.5 : START DEPTH
STOP .F               12711.0 : STOP DEPTH
STEP .F                   0.5 : STEP
NULL .               -9999.25 : NULL VALUE
COMP .                        : COMPANY
WELL .                        : WELL
FLD  .                        : FIELD
LOC  .                        : LOCATION
PROV .                        : PROVINCE
CNTY .                        : COUNTY
STAT .                        : STATE
CTRY .                        : COUNTRY
SRVC .                        : SERVICE COMPANY
DATE .                        : DATE
UWI  .                        : UNIQUE WELL ID
API  .                        : API NUMBER
SLAT .WGS84 5.979132254332001 : SURFACE LATITUDE
SLON .WGS84 4.182919849344202 : SURFACE LONGITUDE
DATUM.F               2177.96 : DEPTH DATUM ELEV
~Curve Information -----------------------------------------
DEPT.F     : 
DTCO.US/F  : COMPRESSIONAL-WAVE INTERVAL TRANSIT TIME ACOUSTIC SLOWNESS
DTSM.US/F  : SHEAR-WAVE INTERVAL TRANSIT TIME DELTA-T
GRR .GAPI  : GAMMA RAY
SFLU.OHMM  : INDUCTION LOG DEEP
ILM .OHMM  : INDUCTION LOG MEDIUM
ILD .OHMM  : INDUCTION LOG DEEP
SPR .MV    : SPONTANEOUS POTENTIAL
IDPH.OHMM  : INDUCTION DEEP PHASOR RES
IMPH.OHMM  : INDUCTION MEDIUM PHASOR RES.
CALD.IN    : CALIPER FROM DENSITY LOG
DRHO.G/C3  : DENSITY CORRECTION
PEF .B/E   : PHOTOELECTRIC FACTOR
RHOB.G/C3  : BULK DENSITY
DPHI.DEC   : DENSITY POROSITY LIMESTONE
NPHI.DEC   : NEUTRON POROSITY LIMESTONE
~Params ----------------------------------------------------
~Other -----------------------------------------------------
~ASCII -----------------------------------------------------
# ...
 11126.50000   -9999.25   -9999.25  126.62270    5.15920    4.04170    3.92710   -6.38980   -9999.25   -9999.25    8.99020    0.05470    3.55460    2.62040    0.05930    0.21090
 11127.00000   -9999.25   -9999.25  128.93400    5.44380    4.05450    3.97890   -7.57320   -9999.25   -9999.25    8.93190    0.03530    3.68540    2.63350    0.05180    0.20560
 11127.50000   -9999.25   -9999.25  129.80040    5.59110    4.20680    4.08610   -8.17170   -9999.25   -9999.25    8.90280    0.01870    3.81620    2.63900    0.04250    0.19640
 11128.00000   -9999.25   -9999.25  127.15180    5.66530    4.32120    4.19620   -8.18780   -9999.25   -9999.25    8.87370    0.00700    3.90330    2.63610    0.04540    0.18770
 11128.50000   -9999.25   -9999.25  124.94870    5.81860    4.37900    4.26400   -7.03650   -9999.25   -9999.25    8.84460    0.00180    4.00500    2.63310    0.04660    0.17200
 11129.00000   -9999.25   -9999.25  121.87100    5.97600    4.55950    4.42560   -6.46550   -9999.25   -9999.25    8.81550    0.00160    4.10720    2.63940    0.03660    0.15980
 11129.50000   -9999.25   -9999.25  112.23360    6.13770    4.70140    4.54120   -5.89450   -9999.25   -9999.25    8.81560    0.00130    4.22690    2.66010    0.02090    0.14340
 11130.00000   -9999.25   -9999.25   98.22290    6.21910    4.97880    4.79430   -5.32350   -9999.25   -9999.25    8.78650    0.00100    4.33260    2.67920    0.00830    0.12260
 11130.50000   -9999.25   -9999.25   88.87760    6.30170    5.34490    4.99060   -5.10170   -9999.25   -9999.25    8.78390    0.00080    4.36810    2.69340    0.00220    0.11250
 11131.00000   -9999.25   -9999.25   82.43830    6.64830    5.73720    5.26570   -4.76620   -9999.25   -9999.25    8.75760    0.00170    4.02500    2.70830    0.01590    0.11110
 11131.50000   -9999.25   -9999.25   76.29940    7.60720    6.30200    5.63160   -4.78000   -9999.25   -9999.25    8.75770    0.00420    3.79660    2.68510    0.02110    0.13170
 11132.00000   -9999.25   -9999.25   73.65910    9.43910    7.21430    6.31950   -4.20900   -9999.25   -9999.25    8.75790    0.00640    3.69790    2.67060    0.02170    0.14250
 11132.50000   -9999.25   -9999.25   70.58140   11.40000    8.37120    7.17210   -3.63800   -9999.25   -9999.25    8.75800    0.00870    3.73990    2.67350    0.01770    0.14280
 11133.00000   -9999.25   -9999.25   68.37830   14.02130    8.96160    7.89640   -4.82820   -9999.25   -9999.25    8.75820    0.01070    3.79960    2.68210    0.00890    0.13200
 11133.50000   -9999.25   -9999.25   73.60970   14.52780    9.21820    8.43380   -5.42680   -9999.25   -9999.25    8.75830    0.01220    3.85950    2.69660    0.00360    0.12680
 11134.00000   -9999.25   -9999.25   77.96640   12.68650    9.19670    8.54460   -6.02530   -9999.25   -9999.25    8.75850    0.01510    3.92980    2.70240    0.00190    0.12510
 11134.50000   -9999.25   -9999.25   81.73640   11.38370    9.19390    8.65680   -6.03910   -9999.25   -9999.25    8.75870    0.01360    3.79860    2.70520    0.00030    0.12570
 11135.00000   -9999.25   -9999.25   84.04770   10.49430    8.93850    8.65250   -6.05290   -9999.25   -9999.25    8.75880    0.01210    3.63830    2.70010    0.00230    0.12770
 11135.50000   -9999.25   -9999.25   85.78050   10.92480    8.70400    8.64860   -5.48180   -9999.25   -9999.25    8.75890    0.01060    3.52160    2.68680    0.00590    0.13040
 11136.00000   -9999.25   -9999.25   86.05730   11.68420    8.35520    8.41380   -4.91080   -9999.25   -9999.25    8.75910    0.00910    3.41950    2.67310    0.00960    0.13400
 11136.50000   -9999.25   -9999.25   84.87290   12.16350    8.24070    8.15840   -4.92690   -9999.25   -9999.25    8.75920    0.00760    3.37560    2.66040    0.01540    0.13860
 11137.00000   -9999.25   -9999.25   86.60570   12.77690    8.01390    8.03120   -4.94520   -9999.25   -9999.25    8.75940    0.00730    3.40600    2.65090    0.02300    0.14660
 11137.50000   -9999.25   -9999.25   91.39980   11.67130    7.78460    7.90600   -4.95630   -9999.25   -9999.25    8.73030    0.00600    3.60210    2.64540    0.03220    0.14830
 11138.00000   -9999.25   -9999.25   95.31920   10.47270    7.45960    7.63870   -4.97280   -9999.25   -9999.25    8.73100    0.00600    3.79100    2.65500    0.03630    0.14600
 11138.50000   -9999.25   -9999.25   98.50510    9.78580    7.24610    7.63530   -4.98660   -9999.25   -9999.25    8.75980    0.00600    3.82600    2.66310    0.03150    0.14130
 11139.00000   -9999.25   -9999.25   99.65940    9.39430    7.09050    7.52940   -4.99930   -9999.25   -9999.25    8.75990    0.00590    3.68680    2.66500    0.02520    0.13230
 11139.50000   -9999.25   -9999.25   96.13620    9.14110    6.99290    7.52600   -5.01410   -9999.25   -9999.25    8.76010    0.00520    3.63630    2.65860    0.02420    0.12670
 11140.00000   -9999.25   -9999.25   94.37040    9.51600    7.08650    7.42140   -5.02790   -9999.25   -9999.25    8.76020    0.00360    3.76990    2.65420    0.03070    0.12340
 11140.50000   -9999.25   -9999.25   97.85250   10.17750    7.27920    7.31830   -5.23820   -9999.25   -9999.25    8.76040    0.00290    3.93840    2.66290    0.03220    0.12680
 11141.00000   -9999.25   -9999.25  103.08390   10.88500    7.27200    7.27690   -5.64710   -9999.25   -9999.25    8.76050    0.00280    4.11830    2.67300    0.02770    0.13290
 11141.50000   -9999.25   -9999.25  105.25400    9.37790    7.06380    7.21310   -5.66090   -9999.25   -9999.25    8.76070    0.00280    4.24680    2.67880    0.02250    0.14140
 11142.00000   -9999.25   -9999.25  106.54950    8.41490    6.98380    7.11230   -5.67460   -9999.25   -9999.25    8.76080    0.00280    3.98450    2.67290    0.02070    0.15070
 11142.50000   -9999.25   -9999.25  107.84500    7.86290    6.98190    7.20630   -5.68840   -9999.25   -9999.25    8.76100    0.00270    3.86790    2.67000    0.02190    0.16000
 11143.00000   -9999.25   -9999.25   96.88730    8.40960    7.07520    7.40020   -5.70220   -9999.25   -9999.25    8.76110    0.00270    3.94040    2.67320    0.02180    0.16060
 11143.50000   -9999.25   -9999.25   82.00210   10.15660    7.26720    7.49970   -5.71590   -9999.25   -9999.25    8.76130    0.00410    3.96930    2.67920    0.01990    0.16180
 11144.00000   -9999.25   -9999.25   76.73780   11.62140    7.46480    7.69980   -5.72970   -9999.25   -9999.25    8.76140    0.00420    3.95460    2.68330    0.01700    0.15940
 11144.50000   -9999.25   -9999.25   84.59300   12.09810    7.77240    7.82970   -5.74580   -9999.25   -9999.25    8.76160    0.00550    3.91070    2.68440    0.01560    0.15500
 11145.00000   -9999.25   -9999.25   92.88560   10.85400    7.77740    7.94600   -5.17240   -9999.25   -9999.25    8.76170    0.00580    3.89500    2.67410    0.01610    0.15530
 11145.50000   -9999.25   -9999.25   95.93040   10.41980    7.87440    8.00700   -5.19310   -9999.25   -9999.25    8.76180    0.00690    3.86660    2.66360    0.02310    0.15860
 11146.00000   -9999.25   -9999.25   95.91390   10.00290    7.76620    8.00250   -5.20690   -9999.25   -9999.25    8.76200    0.00690    3.84950    2.65890    0.02890    0.16350
 11146.50000   -9999.25   -9999.25   95.02010    9.73320    7.71750    7.68090   -5.22070   -9999.25   -9999.25    8.76210    0.00830    3.83700    2.65820    0.03010    0.16760
 11147.00000   -9999.25   -9999.25   99.65420    9.59960    7.49630    7.37220   -5.23440   -9999.25   -9999.25    8.73300    0.00830    3.82850    2.66100    0.02950    0.16990
 11147.50000   -9999.25   -9999.25  107.39190    9.46780    7.25150    7.07590   -5.24820   -9999.25   -9999.25    8.72760    0.00820    3.76310    2.66390    0.02720    0.16470
 11148.00000   -9999.25   -9999.25  112.89790    9.33790    6.96090    6.97750   -5.26200   -9999.25   -9999.25    8.70410    0.00820    3.67280    2.66820    0.02600    0.16240
 11148.50000   -9999.25   -9999.25  114.19340    9.20920    6.77320    6.97420   -5.27800   -9999.25   -9999.25    8.70420    0.00960    3.59630    2.67250    0.02480    0.16480
