~Version ---------------------------------------------------
VERS.   2.0 : CWLS log ASCII Standard -VERSION 2.0
WRAP.    NO : One line per depth step
DLM . SPACE : Column Data Section Delimiter
~Well ------------------------------------------------------
STRT .F                  17.0 : START DEPTH
STOP .F                3065.0 : STOP DEPTH
STEP .F                   0.5 : STEP
NULL .               -9999.25 : NULL VALUE
COMP .                        : COMPANY
WELL .                        : WELL
FLD  .                        : FIELD
LOC  .                        : LOCATION
PROV .                        : PROVINCE
CNTY .                        : COUNTY
STAT .                        : STATE
CTRY .                        : COUNTRY
SRVC .                        : SERVICE COMPANY
DATE .                        : DATE
UWI  .                        : UNIQUE WELL ID
API  .                        : API NUMBER
SLAT .WGS84 1.659894187066996 : SURFACE LATITUDE
SLON .WGS84 6.944955602196998 : SURFACE LONGITUDE
DATUM.F               2555.77 : DEPTH DATUM ELEV
~Curve Information -----------------------------------------
DEPT   .F     : 1 MEASURED DEPTH
DTCO   .US/F  : DELTA-T COMPRESSIONAL
DTSM   .US/F  : DELTA-T SHEAR
GRD    .GAPI  : GAMMA RAY FROM DENSITY LOG
NPHI_LS.DEC   : NEUTRON POROSITY LIMESTONE
~Params ----------------------------------------------------
~Other -----------------------------------------------------
~ASCII -----------------------------------------------------
# ...
 1876.00000   -9999.25   -9999.25   15.25820    0.01710
 1876.50000   -9999.25   -9999.25   15.93550    0.01680
 1877.00000   -9999.25   -9999.25   21.56410    0.04870
 1877.50000   -9999.25   -9999.25   27.00830    0.06750
 1878.00000   -9999.25   -9999.25   34.38070    0.06890
 1878.50000   -9999.25   -9999.25   37.53640    0.05090
 1879.00000   -9999.25   -9999.25   38.46940    0.02660
 1879.50000   -9999.25   -9999.25   39.34930    0.01980
 1880.00000   -9999.25   -9999.25   40.14310    0.02050
 1880.50000   -9999.25   -9999.25   40.33600    0.02130
 1881.00000   -9999.25   -9999.25   39.37760    0.01990
 1881.50000   -9999.25   -9999.25   38.44840    0.01910
 1882.00000   -9999.25   -9999.25   39.06970    0.02610
 1882.50000   -9999.25   -9999.25   40.93010    0.04420
 1883.00000   -9999.25   -9999.25   42.89620    0.07320
 1883.50000   -9999.25   -9999.25   44.07610    0.10740
 1884.00000   -9999.25   -9999.25   43.90970    0.13080
 1884.50000   -9999.25   -9999.25   42.79220    0.13440
 1885.00000   -9999.25   -9999.25   39.63840    0.10770
 1885.50000   -9999.25   -9999.25   34.84450    0.07140
 1886.00000   -9999.25   -9999.25   29.00140    0.02130
 1886.50000   -9999.25   -9999.25   24.09150    0.01870
 1887.00000   -9999.25   -9999.25   23.56330    0.03870
 1887.50000   -9999.25   -9999.25   25.24680    0.06900
 1888.00000   -9999.25   -9999.25   27.63040    0.10070
 1888.50000   -9999.25   -9999.25   30.13760    0.12210
 1889.00000   -9999.25   -9999.25   34.31720    0.13480
 1889.50000   -9999.25   -9999.25   38.43150    0.15370
 1890.00000   -9999.25   -9999.25   42.50840    0.19980
 1890.50000   -9999.25   -9999.25   45.99390    0.23650
 1891.00000   -9999.25   -9999.25   47.21350    0.27330
 1891.50000   -9999.25   -9999.25   47.91340    0.29240
 1892.00000   -9999.25   -9999.25   48.16710    0.25470
 1892.50000   -9999.25   -9999.25   47.19690    0.20180
 1893.00000   -9999.25   -9999.25   45.22150    0.16390
 1893.50000   -9999.25   -9999.25   44.66260    0.12080
 1894.00000   -9999.25   -9999.25   45.10420    0.11260
 1894.50000   -9999.25   -9999.25   46.79370    0.12330
 1895.00000   -9999.25   -9999.25   45.72040    0.14720
 1895.50000   -9999.25   -9999.25   42.81880    0.19530
 1896.00000   -9999.25   -9999.25   41.97110    0.28510
 1896.50000   -9999.25   -9999.25   42.39630    0.33670
 1897.00000   -9999.25   -9999.25   42.77200    0.40820
 1897.50000   -9999.25   -9999.25   40.65870    0.45000
 1898.00000   -9999.25   -9999.25   37.41140    0.32640
 1898.50000   -9999.25   -9999.25   34.59180    0.24830
 1899.00000   -9999.25   -9999.25   32.99430    0.16770
 1899.50000   -9999.25   -9999.25   32.39070    0.06130
 1900.00000   -9999.25   -9999.25   31.79830    0.02270
 1900.50000   -9999.25   -9999.25   31.24860    0.02130
 1901.00000   -9999.25   -9999.25   30.95870    0.02030
 1901.50000   -9999.25   -9999.25   31.36490    0.01850
 1902.00000   -9999.25   -9999.25   33.00200    0.01560
 1902.50000   -9999.25   -9999.25   34.84240    0.01260
 1903.00000   -9999.25   -9999.25   34.89890    0.01240
 1903.50000   -9999.25   -9999.25   33.80770    0.01350
 1904.00000   -9999.25   -9999.25   32.76120    0.01530
 1904.50000   -9999.25   -9999.25   34.79240    0.01650
 1905.00000   -9999.25   -9999.25   38.81440    0.01690
 1905.50000   -9999.25   -9999.25   40.16920    0.01640
 1906.00000   -9999.25   -9999.25   38.99700    0.01530
 1906.50000   -9999.25   -9999.25   36.73580    0.01430
 1907.00000   -9999.25   -9999.25   34.84770    0.01380
 1907.50000   -9999.25   -9999.25   34.70410    0.01320
 1908.00000   -9999.25   -9999.25   35.33320    0.01310
 1908.50000   -9999.25   -9999.25   36.43270    0.01380
 1909.00000   -9999.25   -9999.25   36.49760    0.01670
 1909.50000   -9999.25   -9999.25   35.85000    0.02430
 1910.00000   -9999.25   -9999.25   32.97050    0.03200
 1910.50000   -9999.25   -9999.25   28.93910    0.03540
 1911.00000   -9999.25   -9999.25   24.26860    0.03720
 1911.50000   -9999.25   -9999.25   22.94470    0.05070
 1912.00000   -9999.25   -9999.25   25.87650    0.07290
 1912.50000   -9999.25   -9999.25   31.62240    0.11400
 1913.00000   -9999.25   -9999.25   35.15570    0.15410
 1913.50000   -9999.25   -9999.25   40.31370    0.19810
 1914.00000   -9999.25   -9999.25   43.92300    0.23140
 1914.50000   -9999.25   -9999.25   47.73080    0.22910
 1915.00000   -9999.25   -9999.25   48.07940    0.18610
 1915.50000   -9999.25   -9999.25   46.83420    0.13210
 1916.00000   -9999.25   -9999.25   44.13820    0.09360
 1916.50000   -9999.25   -9999.25   41.94440    0.08780
 1917.00000   -9999.25   -9999.25   41.88690    0.09520
 1917.50000   -9999.25   -9999.25   43.13350    0.11230
 1918.00000   -9999.25   -9999.25   45.20220    0.13520
 1918.50000   -9999.25   -9999.25   46.14440    0.16350
 1919.00000   -9999.25   -9999.25   45.71980    0.19130
 1919.50000   -9999.25   -9999.25   44.04760    0.19450
 1920.00000   -9999.25   -9999.25   42.05410    0.16430
 1920.50000   -9999.25   -9999.25   40.60080    0.13970
 1921.00000   -9999.25   -9999.25   40.82390    0.14620
 1921.50000   -9999.25   -9999.25   42.58520    0.16060
 1922.00000   -9999.25   -9999.25   44.55780    0.17100
 1922.50000   -9999.25   -9999.25   46.34300    0.17900
 1923.00000   -9999.25   -9999.25   47.06800    0.19400
 1923.50000   -9999.25   -9999.25   47.05770    0.21110
 1924.00000   -9999.25   -9999.25   45.02870    0.22640
 1924.50000   -9999.25   -9999.25   44.76510    0.22750
 1925.00000   -9999.25   -9999.25   44.56820    0.19920
 1925.50000   -9999.25   -9999.25   44.24820    0.17530
 1926.00000   -9999.25   -9999.25   43.02000    0.14200
 1926.50000   -9999.25   -9999.25   42.05970    0.11920
 1927.00000   -9999.25   -9999.25   41.72960    0.12280
 1927.50000   -9999.25   -9999.25   41.09060    0.14080
 1928.00000   -9999.25   -9999.25   40.30480    0.18320
 1928.50000   -9999.25   -9999.25   39.75280    0.23340
 1929.00000   -9999.25   -9999.25   40.14330    0.31600
 1929.50000   -9999.25   -9999.25   41.74070    0.42330
 1930.00000   -9999.25   -9999.25   43.35500    0.48200
 1930.50000   -9999.25   -9999.25   41.34040    0.52290
 1931.00000   -9999.25   -9999.25   38.40050    0.51200
 1931.50000   -9999.25   -9999.25   35.66480    0.45410
 1932.00000   -9999.25   -9999.25   35.23260    0.34490
 1932.50000   -9999.25   -9999.25   37.16750    0.30060
 1933.00000   -9999.25   -9999.25   38.93090    0.30380
 1933.50000   -9999.25   -9999.25   40.16850    0.36480
 1934.00000   -9999.25   -9999.25   40.98060    0.52710
 1934.50000   -9999.25   -9999.25   41.48690    0.66420
 1935.00000   -9999.25   -9999.25   42.16320    0.65070
 1935.50000   -9999.25   -9999.25   42.83940    0.55500
 1936.00000   -9999.25   -9999.25   43.51570    0.46720
 1936.50000   -9999.25   -9999.25   42.29160    0.34450
 1937.00000   -9999.25   -9999.25   40.52960    0.25250
 1937.50000   -9999.25   -9999.25   38.76750    0.18810
 1938.00000   -9999.25   -9999.25   37.17640    0.14630
 1938.50000   -9999.25   -9999.25   37.44050    0.10890
 1939.00000   -9999.25   -9999.25   37.92100    0.08100
 1939.50000   -9999.25   -9999.25   38.55030    0.05810
 1940.00000   -9999.25   -9999.25   39.46860    0.04610
 1940.50000   -9999.25   -9999.25   39.34760    0.04500
 1941.00000   -9999.25   -9999.25   39.32170    0.04790
 1941.50000   -9999.25   -9999.25   39.32440    0.05170
 1942.00000   -9999.25   -9999.25   39.56520    0.05710
 1942.50000   -9999.25   -9999.25   40.09760    0.06430
 1943.00000   -9999.25   -9999.25   40.73480    0.07650
 1943.50000   -9999.25   -9999.25   41.95090    0.09020
 1944.00000   -9999.25   -9999.25   44.31410    0.10530
 1944.50000   -9999.25   -9999.25   44.80610    0.12230
 1945.00000   -9999.25   -9999.25   43.43380    0.13650
 1945.50000   -9999.25   -9999.25   42.28700    0.14920
 1946.00000   -9999.25   -9999.25   42.28700    0.18750
 1946.50000   -9999.25   -9999.25   42.17930    0.19370
 1947.00000   -9999.25   -9999.25   39.06280    0.17060
