~Version ---------------------------------------------------
VERS.   2.0 : CWLS log ASCII Standard -VERSION 2.0
WRAP.    NO : One line per depth step
DLM . SPACE : Column Data Section Delimiter
~Well ------------------------------------------------------
STRT .F                  17.0 : START DEPTH
STOP .F                3065.0 : STOP DEPTH
STEP .F                   0.5 : STEP
NULL .               -9999.25 : NULL VALUE
COMP .                        : COMPANY
WELL .                        : WELL
FLD  .                        : FIELD
LOC  .                        : LOCATION
PROV .                        : PROVINCE
CNTY .                        : COUNTY
STAT .                        : STATE
CTRY .                        : COUNTRY
SRVC .                        : SERVICE COMPANY
DATE .                        : DATE
UWI  .                        : UNIQUE WELL ID
API  .                        : API NUMBER
SLAT .WGS84 1.659894187066996 : SURFACE LATITUDE
SLON .WGS84 6.944955602196998 : SURFACE LONGITUDE
DATUM.F               2555.77 : DEPTH DATUM ELEV
~Curve Information -----------------------------------------
DEPT   .F     : 1 MEASURED DEPTH
DTCO   .US/F  : DELTA-T COMPRESSIONAL
DTSM   .US/F  : DELTA-T SHEAR
GRD    .GAPI  : GAMMA RAY FROM DENSITY LOG
NPHI_LS.DEC   : NEUTRON POROSITY LIMESTONE
~Params ----------------------------------------------------
~Other -----------------------------------------------------
~ASCII -----------------------------------------------------
# ...
  303.00000   -9999.25   -9999.25   38.77210    0.45370
  303.50000   -9999.25   -9999.25   39.55580    0.46550
  304.00000   -9999.25   -9999.25   40.37750    0.47830
  304.50000   -9999.25   -9999.25   41.21000    0.48940
  305.00000   -9999.25   -9999.25   42.11060    0.50000
  305.50000   -9999.25   -9999.25   43.44420    0.52350
  306.00000   -9999.25   -9999.25   43.67690    0.54380
  306.50000   -9999.25   -9999.25   41.77240    0.50850
  307.00000   -9999.25   -9999.25   40.64870    0.44330
  307.50000   -9999.25   -9999.25   40.96830    0.40380
  308.00000   -9999.25   -9999.25   43.63050    0.40480
  308.50000   -9999.25   -9999.25   46.81560    0.41900
  309.00000   -9999.25   -9999.25   48.62490    0.42680
  309.50000   -9999.25   -9999.25   50.10980    0.43090
  310.00000   -9999.25   -9999.25   49.22440    0.43990
  310.50000   -9999.25   -9999.25   48.11080    0.43620
  311.00000   -9999.25   -9999.25   48.14440    0.42690
  311.50000   -9999.25   -9999.25   48.54360    0.40420
  312.00000   -9999.25   -9999.25   48.04000    0.39530
  312.50000   -9999.25   -9999.25   47.11880    0.40970
  313.00000   -9999.25   -9999.25   46.41880    0.39750
  313.50000   -9999.25   -9999.25   46.10410    0.36280
  314.00000   -9999.25   -9999.25   42.66220    0.32160
  314.50000   -9999.25   -9999.25   38.10190    0.31470
  315.00000   -9999.25   -9999.25   33.32720    0.32740
  315.50000   -9999.25   -9999.25   30.74160    0.34440
  316.00000   -9999.25   -9999.25   28.43450    0.35980
  316.50000   -9999.25   -9999.25   26.75770    0.35910
  317.00000   -9999.25   -9999.25   27.24160    0.35140
  317.50000   -9999.25   -9999.25   29.54260    0.35060
  318.00000   -9999.25   -9999.25   32.65460    0.36640
  318.50000   -9999.25   -9999.25   34.34590    0.37670
  319.00000   -9999.25   -9999.25   34.92640    0.37670
  319.50000   -9999.25   -9999.25   35.00990    0.35590
  320.00000   -9999.25   -9999.25   34.69820    0.32600
  320.50000   -9999.25   -9999.25   32.78300    0.30890
  321.00000   -9999.25   -9999.25   30.56600    0.29180
  321.50000   -9999.25   -9999.25   28.79040    0.28030
  322.00000   -9999.25   -9999.25   27.85610    0.28780
  322.50000   -9999.25   -9999.25   26.92180    0.30800
  323.00000   -9999.25   -9999.25   26.02110    0.31010
  323.50000   -9999.25   -9999.25   25.64280    0.31100
  324.00000   -9999.25   -9999.25   25.28770    0.30660
  324.50000   -9999.25   -9999.25   24.34950    0.30300
  325.00000   -9999.25   -9999.25   23.15840    0.29940
  325.50000   -9999.25   -9999.25   22.81510    0.29660
  326.00000   -9999.25   -9999.25   22.56550    0.30190
  326.50000   -9999.25   -9999.25   21.82290    0.30720
  327.00000   -9999.25   -9999.25   20.82170    0.31770
  327.50000   -9999.25   -9999.25   20.38350    0.32740
  328.00000   -9999.25   -9999.25   21.68740    0.32130
  328.50000   -9999.25   -9999.25   22.64280    0.31370
  329.00000   -9999.25   -9999.25   22.99070    0.31320
  329.50000   -9999.25   -9999.25   23.17430    0.32460
  330.00000   -9999.25   -9999.25   23.29770    0.31990
  330.50000   -9999.25   -9999.25   25.57720    0.31260
  331.00000   -9999.25   -9999.25   28.30500    0.30660
  331.50000   -9999.25   -9999.25   30.11450    0.31940
  332.00000   -9999.25   -9999.25   28.86370    0.32570
  332.50000   -9999.25   -9999.25   26.91620    0.32320
  333.00000   -9999.25   -9999.25   27.53780    0.31810
  333.50000   -9999.25   -9999.25   29.30230    0.31090
  334.00000   -9999.25   -9999.25   30.52210    0.29900
  334.50000   -9999.25   -9999.25   29.53740    0.29080
  335.00000   -9999.25   -9999.25   29.11510    0.28880
  335.50000   -9999.25   -9999.25   29.79470    0.29950
  336.00000   -9999.25   -9999.25   30.60680    0.30310
  336.50000   -9999.25   -9999.25   31.88320    0.32790
  337.00000   -9999.25   -9999.25   33.04890    0.35430
  337.50000   -9999.25   -9999.25   33.52700    0.35650
  338.00000   -9999.25   -9999.25   32.38290    0.35470
  338.50000   -9999.25   -9999.25   31.23880    0.34670
  339.00000   -9999.25   -9999.25   30.68360    0.33880
  339.50000   -9999.25   -9999.25   30.27250    0.32550
  340.00000   -9999.25   -9999.25   29.62320    0.31360
  340.50000   -9999.25   -9999.25   28.74790    0.31600
  341.00000   -9999.25   -9999.25   27.87260    0.32400
  341.50000   -9999.25   -9999.25   27.40050    0.33430
  342.00000   -9999.25   -9999.25   27.39840    0.35540
  342.50000   -9999.25   -9999.25   27.35170    0.36640
  343.00000   -9999.25   -9999.25   27.05410    0.35690
  343.50000   -9999.25   -9999.25   26.17610    0.33720
  344.00000   -9999.25   -9999.25   24.96790    0.31980
  344.50000   -9999.25   -9999.25   23.79340    0.31350
  345.00000   -9999.25   -9999.25   23.01240    0.31440
  345.50000   -9999.25   -9999.25   22.91190    0.31760
  346.00000   -9999.25   -9999.25   25.03660    0.31370
  346.50000   -9999.25   -9999.25   27.80040    0.30700
  347.00000   -9999.25   -9999.25   29.77760    0.30780
  347.50000   -9999.25   -9999.25   30.20530    0.31210
  348.00000   -9999.25   -9999.25   29.54720    0.31450
  348.50000   -9999.25   -9999.25   28.04980    0.31500
  349.00000   -9999.25   -9999.25   26.78090    0.31650
  349.50000   -9999.25   -9999.25   25.59720    0.32320
  350.00000   -9999.25   -9999.25   24.41350    0.33080
  350.50000   -9999.25   -9999.25   24.23500    0.33240
  351.00000   -9999.25   -9999.25   26.47350    0.33170
  351.50000   -9999.25   -9999.25   29.11620    0.33040
  352.00000   -9999.25   -9999.25   31.02340    0.32810
  352.50000   -9999.25   -9999.25   30.88330    0.32270
  353.00000   -9999.25   -9999.25   29.96890    0.30890
  353.50000   -9999.25   -9999.25   29.05440    0.29970
  354.00000   -9999.25   -9999.25   28.14000    0.30140
  354.50000   -9999.25   -9999.25   27.18920    0.31230
  355.00000   -9999.25   -9999.25   26.51350    0.31720
  355.50000   -9999.25   -9999.25   25.99590    0.30370
  356.00000   -9999.25   -9999.25   25.69840    0.28860
  356.50000   -9999.25   -9999.25   25.39520    0.27420
  357.00000   -9999.25   -9999.25   25.02410    0.26090
  357.50000   -9999.25   -9999.25   24.07800    0.26110
  358.00000   -9999.25   -9999.25   23.03790    0.28700
  358.50000   -9999.25   -9999.25   22.85060    0.30510
  359.00000   -9999.25   -9999.25   23.55680    0.31180
  359.50000   -9999.25   -9999.25   25.16250    0.31840
  360.00000   -9999.25   -9999.25   27.71100    0.33470
  360.50000   -9999.25   -9999.25   30.25950    0.37840
  361.00000   -9999.25   -9999.25   34.68510    0.41980
  361.50000   -9999.25   -9999.25   38.05570    0.41080
  362.00000   -9999.25   -9999.25   39.36700    0.39530
  362.50000   -9999.25   -9999.25   39.85930    0.38430
  363.00000   -9999.25   -9999.25   39.35430    0.39370
  363.50000   -9999.25   -9999.25   39.19090    0.41150
  364.00000   -9999.25   -9999.25   40.17500    0.41990
  364.50000   -9999.25   -9999.25   41.39200    0.42210
  365.00000   -9999.25   -9999.25   43.99710    0.43270
  365.50000   -9999.25   -9999.25   44.61990    0.44910
  366.00000   -9999.25   -9999.25   44.31510    0.47500
  366.50000   -9999.25   -9999.25   42.52890    0.48490
  367.00000   -9999.25   -9999.25   41.01370    0.48420
  367.50000   -9999.25   -9999.25   40.30590    0.46800
  368.00000   -9999.25   -9999.25   39.58960    0.44550
  368.50000   -9999.25   -9999.25   38.87330    0.42320
  369.00000   -9999.25   -9999.25   38.41080    0.40220
  369.50000   -9999.25   -9999.25   37.81690    0.39120
  370.00000   -9999.25   -9999.25   37.13340    0.39150
  370.50000   -9999.25   -9999.25   37.52040    0.41920
  371.00000   -9999.25   -9999.25   39.19330    0.45480
  371.50000   -9999.25   -9999.25   40.93340    0.48930
  372.00000   -9999.25   -9999.25   42.94400    0.49010
  372.50000   -9999.25   -9999.25   43.48850    0.47500
  373.00000   -9999.25   -9999.25   42.86690    0.46380
  373.50000   -9999.25   -9999.25   41.74140    0.46700
  374.00000   -9999.25   -9999.25   41.29140    0.47000
