~Version ---------------------------------------------------
VERS.   2.0 : CWLS log ASCII Standard -VERSION 2.0
WRAP.    NO : One line per depth step
DLM . SPACE : Column Data Section Delimiter
~Well ------------------------------------------------------
STRT .F                  17.0 : START DEPTH
STOP .F                3065.0 : STOP DEPTH
STEP .F                   0.5 : STEP
NULL .               -9999.25 : NULL VALUE
COMP .                        : COMPANY
WELL .                        : WELL
FLD  .                        : FIELD
LOC  .                        : LOCATION
PROV .                        : PROVINCE
CNTY .                        : COUNTY
STAT .                        : STATE
CTRY .                        : COUNTRY
SRVC .                        : SERVICE COMPANY
DATE .                        : DATE
UWI  .                        : UNIQUE WELL ID
API  .                        : API NUMBER
SLAT .WGS84 1.659894187066996 : SURFACE LATITUDE
SLON .WGS84 6.944955602196998 : SURFACE LONGITUDE
DATUM.F               2555.77 : DEPTH DATUM ELEV
~Curve Information -----------------------------------------
DEPT   .F     : 1 MEASURED DEPTH
DTCO   .US/F  : DELTA-T COMPRESSIONAL
DTSM   .US/F  : DELTA-T SHEAR
GRD    .GAPI  : GAMMA RAY FROM DENSITY LOG
NPHI_LS.DEC   : NEUTRON POROSITY LIMESTONE
~Params ----------------------------------------------------
~Other -----------------------------------------------------
~ASCII -----------------------------------------------------
# ...
 1661.50000   -9999.25   -9999.25   17.33840    0.02300
 1662.00000   -9999.25   -9999.25   18.54660    0.01870
 1662.50000   -9999.25   -9999.25   18.37930    0.01390
 1663.00000   -9999.25   -9999.25   18.35470    0.01190
 1663.50000   -9999.25   -9999.25   18.71430    0.01560
 1664.00000   -9999.25   -9999.25   21.00100    0.02530
 1664.50000   -9999.25   -9999.25   23.17570    0.03600
 1665.00000   -9999.25   -9999.25   24.36250    0.04310
 1665.50000   -9999.25   -9999.25   21.70360    0.03300
 1666.00000   -9999.25   -9999.25   16.19790    0.01630
 1666.50000   -9999.25   -9999.25   13.76130    0.00120
 1667.00000   -9999.25   -9999.25   14.90500   -0.00290
 1667.50000   -9999.25   -9999.25   16.45150    0.00180
 1668.00000   -9999.25   -9999.25   17.87400    0.00670
 1668.50000   -9999.25   -9999.25   18.17670    0.00960
 1669.00000   -9999.25   -9999.25   18.17870    0.00990
 1669.50000   -9999.25   -9999.25   18.18070    0.00990
 1670.00000   -9999.25   -9999.25   17.73800    0.01090
 1670.50000   -9999.25   -9999.25   17.18240    0.01270
 1671.00000   -9999.25   -9999.25   16.59950    0.01340
 1671.50000   -9999.25   -9999.25   16.45140    0.01350
 1672.00000   -9999.25   -9999.25   17.37130    0.01300
 1672.50000   -9999.25   -9999.25   18.01540    0.01210
 1673.00000   -9999.25   -9999.25   18.58450    0.01060
 1673.50000   -9999.25   -9999.25   19.12760    0.00990
 1674.00000   -9999.25   -9999.25   19.51680    0.01170
 1674.50000   -9999.25   -9999.25   18.93620    0.01380
 1675.00000   -9999.25   -9999.25   18.71230    0.01550
 1675.50000   -9999.25   -9999.25   18.65810    0.01690
 1676.00000   -9999.25   -9999.25   18.60380    0.01750
 1676.50000   -9999.25   -9999.25   18.54140    0.01790
 1677.00000   -9999.25   -9999.25   18.64880    0.01860
 1677.50000   -9999.25   -9999.25   19.20930    0.02080
 1678.00000   -9999.25   -9999.25   19.91060    0.02450
 1678.50000   -9999.25   -9999.25   19.75100    0.02810
 1679.00000   -9999.25   -9999.25   18.96310    0.02870
 1679.50000   -9999.25   -9999.25   17.51190    0.02690
 1680.00000   -9999.25   -9999.25   15.88690    0.02390
 1680.50000   -9999.25   -9999.25   15.92920    0.02600
 1681.00000   -9999.25   -9999.25   16.20480    0.02910
 1681.50000   -9999.25   -9999.25   16.40200    0.02880
 1682.00000   -9999.25   -9999.25   16.04030    0.02630
 1682.50000   -9999.25   -9999.25   15.52380    0.02470
 1683.00000   -9999.25   -9999.25   15.80790    0.02540
 1683.50000   -9999.25   -9999.25   18.04670    0.02590
 1684.00000   -9999.25   -9999.25   21.16010    0.02430
 1684.50000   -9999.25   -9999.25   24.44170    0.02130
 1685.00000   -9999.25   -9999.25   27.29370    0.02050
 1685.50000   -9999.25   -9999.25   28.25800    0.02270
 1686.00000   -9999.25   -9999.25   26.72480    0.02670
 1686.50000   -9999.25   -9999.25   24.37280    0.03890
 1687.00000   -9999.25   -9999.25   22.15950    0.06030
 1687.50000   -9999.25   -9999.25   21.35200    0.08520
 1688.00000   -9999.25   -9999.25   21.18150    0.10050
 1688.50000   -9999.25   -9999.25   21.06170    0.08180
 1689.00000   -9999.25   -9999.25   20.42760    0.06080
 1689.50000   -9999.25   -9999.25   20.04330    0.03430
 1690.00000   -9999.25   -9999.25   19.85170    0.02900
 1690.50000   -9999.25   -9999.25   19.67050    0.02400
 1691.00000   -9999.25   -9999.25   19.48930    0.02000
 1691.50000   -9999.25   -9999.25   19.40070    0.02590
 1692.00000   -9999.25   -9999.25   19.72950    0.03480
 1692.50000   -9999.25   -9999.25   20.28700    0.03980
 1693.00000   -9999.25   -9999.25   22.80370    0.04030
 1693.50000   -9999.25   -9999.25   30.42730    0.03670
 1694.00000   -9999.25   -9999.25   40.41340    0.03030
 1694.50000   -9999.25   -9999.25   50.31650    0.03150
 1695.00000   -9999.25   -9999.25   57.21470    0.04930
 1695.50000   -9999.25   -9999.25   67.31660    0.07580
 1696.00000   -9999.25   -9999.25   84.97760    0.09870
 1696.50000   -9999.25   -9999.25   90.20120    0.07320
 1697.00000   -9999.25   -9999.25   77.68130    0.03940
 1697.50000   -9999.25   -9999.25   54.24990    0.01650
 1698.00000   -9999.25   -9999.25   29.77260    0.00780
 1698.50000   -9999.25   -9999.25   24.71340    0.01490
 1699.00000   -9999.25   -9999.25   21.33440    0.02510
 1699.50000   -9999.25   -9999.25   21.11590    0.04160
 1700.00000   -9999.25   -9999.25   23.51400    0.04980
 1700.50000   -9999.25   -9999.25   26.00140    0.05400
 1701.00000   -9999.25   -9999.25   28.48890    0.05370
 1701.50000   -9999.25   -9999.25   29.14140    0.05280
 1702.00000   -9999.25   -9999.25   27.95060    0.05190
 1702.50000   -9999.25   -9999.25   27.49560    0.05120
 1703.00000   -9999.25   -9999.25   27.74470    0.05700
 1703.50000   -9999.25   -9999.25   27.30040    0.06490
 1704.00000   -9999.25   -9999.25   25.43930    0.07120
 1704.50000   -9999.25   -9999.25   23.99250    0.06500
 1705.00000   -9999.25   -9999.25   22.51570    0.04760
 1705.50000   -9999.25   -9999.25   21.66960    0.03210
 1706.00000   -9999.25   -9999.25   20.92180    0.02800
 1706.50000   -9999.25   -9999.25   20.27430    0.03130
 1707.00000   -9999.25   -9999.25   20.48870    0.03730
 1707.50000   -9999.25   -9999.25   20.85310    0.04240
 1708.00000   -9999.25   -9999.25   20.93390    0.04580
 1708.50000   -9999.25   -9999.25   21.04980    0.04470
 1709.00000   -9999.25   -9999.25   20.65310    0.04360
 1709.50000   -9999.25   -9999.25   19.28650    0.04350
 1710.00000   -9999.25   -9999.25   17.39020    0.04680
 1710.50000   -9999.25   -9999.25   16.76390    0.04320
 1711.00000   -9999.25   -9999.25   16.93090    0.03620
 1711.50000   -9999.25   -9999.25   17.48200    0.03030
 1712.00000   -9999.25   -9999.25   18.16410    0.02440
 1712.50000   -9999.25   -9999.25   18.66580    0.01960
 1713.00000   -9999.25   -9999.25   17.90280    0.01430
 1713.50000   -9999.25   -9999.25   17.05630    0.01350
 1714.00000   -9999.25   -9999.25   16.56620    0.01820
 1714.50000   -9999.25   -9999.25   17.65050    0.02810
 1715.00000   -9999.25   -9999.25   19.27860    0.04780
 1715.50000   -9999.25   -9999.25   22.05280    0.07610
 1716.00000   -9999.25   -9999.25   25.55230    0.10710
 1716.50000   -9999.25   -9999.25   26.93770    0.11100
 1717.00000   -9999.25   -9999.25   25.69760    0.09120
 1717.50000   -9999.25   -9999.25   23.22340    0.07030
 1718.00000   -9999.25   -9999.25   20.69750    0.05720
 1718.50000   -9999.25   -9999.25   19.89450    0.04320
 1719.00000   -9999.25   -9999.25   19.24030    0.04000
 1719.50000   -9999.25   -9999.25   19.11820    0.04250
 1720.00000   -9999.25   -9999.25   19.50600    0.04670
 1720.50000   -9999.25   -9999.25   20.03170    0.05020
 1721.00000   -9999.25   -9999.25   20.75410    0.05170
 1721.50000   -9999.25   -9999.25   22.12630    0.05160
 1722.00000   -9999.25   -9999.25   24.96250    0.04800
 1722.50000   -9999.25   -9999.25   24.88780    0.04600
 1723.00000   -9999.25   -9999.25   23.86940    0.05060
 1723.50000   -9999.25   -9999.25   22.85090    0.06120
 1724.00000   -9999.25   -9999.25   22.90160    0.06980
 1724.50000   -9999.25   -9999.25   23.53490    0.06980
 1725.00000   -9999.25   -9999.25   24.16730    0.06480
 1725.50000   -9999.25   -9999.25   25.52760    0.06320
 1726.00000   -9999.25   -9999.25   29.51060    0.06260
 1726.50000   -9999.25   -9999.25   33.76980    0.06070
 1727.00000   -9999.25   -9999.25   38.99840    0.05500
 1727.50000   -9999.25   -9999.25   42.64010    0.04560
 1728.00000   -9999.25   -9999.25   41.25400    0.03840
 1728.50000   -9999.25   -9999.25   37.54240    0.04480
 1729.00000   -9999.25   -9999.25   34.94510    0.05770
 1729.50000   -9999.25   -9999.25   34.38890    0.05960
 1730.00000   -9999.25   -9999.25   33.16600    0.05270
 1730.50000   -9999.25   -9999.25   29.02760    0.04300
 1731.00000   -9999.25   -9999.25   25.23840    0.04240
 1731.50000   -9999.25   -9999.25   22.57240    0.04200
 1732.00000   -9999.25   -9999.25   19.90640    0.04070
 1732.50000   -9999.25   -9999.25   19.55210    0.03470
