~Version ---------------------------------------------------
VERS.   2.0 : CWLS log ASCII Standard -VERSION 2.0
WRAP.    NO : One line per depth step
DLM . SPACE : Column Data Section Delimiter
~Well ------------------------------------------------------
STRT .F                  17.0 : START DEPTH
STOP .F                3065.0 : STOP DEPTH
STEP .F                   0.5 : STEP
NULL .               -9999.25 : NULL VALUE
COMP .                        : COMPANY
WELL .                        : WELL
FLD  .                        : FIELD
LOC  .                        : LOCATION
PROV .                        : PROVINCE
CNTY .                        : COUNTY
STAT .                        : STATE
CTRY .                        : COUNTRY
SRVC .                        : SERVICE COMPANY
DATE .                        : DATE
UWI  .                        : UNIQUE WELL ID
API  .                        : API NUMBER
SLAT .WGS84 1.659894187066996 : SURFACE LATITUDE
SLON .WGS84 6.944955602196998 : SURFACE LONGITUDE
DATUM.F               2555.77 : DEPTH DATUM ELEV
~Curve Information -----------------------------------------
DEPT   .F     : 1 MEASURED DEPTH
DTCO   .US/F  : DELTA-T COMPRESSIONAL
DTSM   .US/F  : DELTA-T SHEAR
GRD    .GAPI  : GAMMA RAY FROM DENSITY LOG
NPHI_LS.DEC   : NEUTRON POROSITY LIMESTONE
~Params ----------------------------------------------------
~Other -----------------------------------------------------
~ASCII -----------------------------------------------------
# ...
 3020.00000   50.84030   94.27480   24.29250    0.13580
 3020.50000   50.41670   93.99970   21.43670    0.13960
 3021.00000   49.99320   93.88570   18.58090    0.14140
 3021.50000   49.82230   93.85640   17.72510    0.14320
 3022.00000   49.81200   93.85640   19.29730    0.14640
 3022.50000   49.93510   93.86170   21.03240    0.15400
 3023.00000   50.05820   93.89910   22.75010    0.15090
 3023.50000   50.18130   93.90420   23.31440    0.14070
 3024.00000   50.30440   93.85620   22.07480    0.12690
 3024.50000   50.42750   93.84370   20.61060    0.11290
 3025.00000   50.40310   93.65930   18.89420    0.10860
 3025.50000   50.07400   93.41940   16.98690    0.11480
 3026.00000   49.40690   93.17940   16.12070    0.12200
 3026.50000   48.82030   93.06900   17.35140    0.12620
 3027.00000   48.87640   93.12810   18.58180    0.12680
 3027.50000   49.61250   93.71520   19.12260    0.13330
 3028.00000   50.34860   94.69780   19.32120    0.14380
 3028.50000   50.69520   95.56070   19.51990    0.15790
 3029.00000   51.01580   95.98040   19.57860    0.16650
 3029.50000   51.27370   96.10380   19.56660    0.16650
 3030.00000   51.35190   96.10750   19.17500    0.16290
 3030.50000   51.36510   95.93900   18.72280    0.15670
 3031.00000   51.35710   95.70200   18.54200    0.14290
 3031.50000   51.34900   95.25150   18.12510    0.12550
 3032.00000   51.34090   94.84620   17.52800    0.10970
 3032.50000   51.31610   94.49020   17.57600    0.10940
 3033.00000   51.28330   94.00040   18.57630    0.11890
 3033.50000   51.25060   93.83370   20.51700    0.13090
 3034.00000   51.21790   94.20070   21.92890    0.15010
 3034.50000   51.18520   95.00870   23.15870    0.16810
 3035.00000   51.15250   95.40510   23.05730    0.17690
 3035.50000   51.11980   95.80160   22.96770    0.17980
 3036.00000   51.08710   96.04460   23.28250    0.18320
 3036.50000   51.05430   95.59020   23.59990    0.18560
 3037.00000   51.02160   95.12740   23.62810    0.17450
 3037.50000   50.95930   95.03580   22.83780    0.15740
 3038.00000   50.62420   95.00070   21.61590    0.14310
 3038.50000   50.03130   94.90900   19.88150    0.14380
 3039.00000   49.58940   95.22370   18.03070    0.15270
 3039.50000   50.00890   95.57780   18.08770    0.16240
 3040.00000   50.60010   95.82290   18.52610    0.16820
 3040.50000   51.39730   96.14510   19.80510    0.16470
 3041.00000   51.39730   96.31730   21.33800    0.16040
 3041.50000   51.37610   95.98700   22.67290    0.15360
 3042.00000   51.33960   95.72460   23.59800    0.15230
 3042.50000   51.30320   96.20160   23.25840    0.15130
 3043.00000   51.26670   96.70020   21.46010    0.14830
 3043.50000   50.97310   95.76160   19.72320    0.14520
 3044.00000   50.26490   95.44260   19.92250    0.14400
 3044.50000   50.20990   95.60600   20.37310    0.13580
 3045.00000   50.65460   96.44010   20.72270    0.12070
 3045.50000   50.89220   96.80280   20.19590    0.10940
 3046.00000   51.12980   97.06130   19.52120    0.10880
 3046.50000   52.26550   96.93280   19.23850    0.11040
 3047.00000   51.10680   96.57810   19.67460    0.10620
 3047.50000   51.00320   95.37460   20.11070    0.10390
 3048.00000   50.89970   94.19190   20.54680    0.11380
 3048.50000   50.88260   93.56310   21.00840    0.12600
 3049.00000   51.16400   93.50530   21.54490    0.13480
 3049.50000   51.93350   93.85100   22.09690    0.13980
 3050.00000   51.22700   94.22510   22.62580    0.13630
 3050.50000   49.92620   94.62240   22.32050    0.12990
 3051.00000   49.93770   94.80470   20.68870    0.12380
 3051.50000   -9999.25   -9999.25   18.79260    0.13460
 3052.00000   -9999.25   -9999.25   17.72430    0.16240
 3052.50000   -9999.25   -9999.25   19.12870    0.19190
 3053.00000   -9999.25   -9999.25   20.78870    0.20850
 3053.50000   -9999.25   -9999.25   22.24300    0.20360
 3054.00000   -9999.25   -9999.25   23.29900    0.20580
 3054.50000   -9999.25   -9999.25   23.01500    0.23050
 3055.00000   -9999.25   -9999.25   22.69260    0.28190
 3055.50000   -9999.25   -9999.25   -9999.25    0.29860
 3056.00000   -9999.25   -9999.25   -9999.25    0.29910
 3056.50000   -9999.25   -9999.25   -9999.25    0.29880
 3057.00000   -9999.25   -9999.25   -9999.25    0.29650
 3057.50000   -9999.25   -9999.25   -9999.25    0.29380
 3058.00000   -9999.25   -9999.25   -9999.25    0.28560
 3058.50000   -9999.25   -9999.25   -9999.25    0.26830
 3059.00000   -9999.25   -9999.25   -9999.25    0.25260
 3059.50000   -9999.25   -9999.25   -9999.25    0.24000
 3060.00000   -9999.25   -9999.25   -9999.25    0.24580
 3060.50000   -9999.25   -9999.25   -9999.25    0.26090
 3061.00000   -9999.25   -9999.25   -9999.25    0.25360
 3061.50000   -9999.25   -9999.25   -9999.25    0.23440
 3062.00000   -9999.25   -9999.25   -9999.25    0.21520
 3062.50000   -9999.25   -9999.25   -9999.25    0.19540
 3063.00000   -9999.25   -9999.25   -9999.25    0.18650
 3063.50000   -9999.25   -9999.25   -9999.25    0.17750
 3064.00000   -9999.25   -9999.25   -9999.25    0.16870
 3064.50000   -9999.25   -9999.25   -9999.25    0.16830
 3065.00000   -9999.25   -9999.25   -9999.25    0.17270
