~Version ---------------------------------------------------
VERS.   2.0 : CWLS log ASCII Standard -VERSION 2.0
WRAP.    NO : One line per depth step
DLM . SPACE : Column Data Section Delimiter
~Well ------------------------------------------------------
STRT .F                  17.0 : START DEPTH
STOP .F                3065.0 : STOP DEPTH
STEP .F                   0.5 : STEP
NULL .               -9999.25 : NULL VALUE
COMP .                        : COMPANY
WELL .                        : WELL
FLD  .                        : FIELD
LOC  .                        : LOCATION
PROV .                        : PROVINCE
CNTY .                        : COUNTY
STAT .                        : STATE
CTRY .                        : COUNTRY
SRVC .                        : SERVICE COMPANY
DATE .                        : DATE
UWI  .                        : UNIQUE WELL ID
API  .                        : API NUMBER
SLAT .WGS84 1.659894187066996 : SURFACE LATITUDE
SLON .WGS84 6.944955602196998 : SURFACE LONGITUDE
DATUM.F               2555.77 : DEPTH DATUM ELEV
~Curve Information -----------------------------------------
DEPT   .F     : 1 MEASURED DEPTH
DTCO   .US/F  : DELTA-T COMPRESSIONAL
DTSM   .US/F  : DELTA-T SHEAR
GRD    .GAPI  : GAMMA RAY FROM DENSITY LOG
NPHI_LS.DEC   : NEUTRON POROSITY LIMESTONE
~Params ----------------------------------------------------
~Other -----------------------------------------------------
~ASCII -----------------------------------------------------
# ...
   88.50000   -9999.25   -9999.25   36.76980    0.46210
   89.00000   -9999.25   -9999.25   35.41900    0.44850
   89.50000   -9999.25   -9999.25   33.14630    0.42340
   90.00000   -9999.25   -9999.25   30.44410    0.39910
   90.50000   -9999.25   -9999.25   28.07120    0.37960
   91.00000   -9999.25   -9999.25   26.89610    0.36470
   91.50000   -9999.25   -9999.25   27.07990    0.36340
   92.00000   -9999.25   -9999.25   28.33080    0.37780
   92.50000   -9999.25   -9999.25   29.29130    0.39150
   93.00000   -9999.25   -9999.25   29.56210    0.39940
   93.50000   -9999.25   -9999.25   29.13630    0.40920
   94.00000   -9999.25   -9999.25   28.40120    0.43080
   94.50000   -9999.25   -9999.25   27.25460    0.44020
   95.00000   -9999.25   -9999.25   24.48690    0.43270
   95.50000   -9999.25   -9999.25   22.22070    0.41960
   96.00000   -9999.25   -9999.25   19.60010    0.41510
   96.50000   -9999.25   -9999.25   20.08150    0.41900
   97.00000   -9999.25   -9999.25   20.77820    0.42600
   97.50000   -9999.25   -9999.25   21.30530    0.42910
   98.00000   -9999.25   -9999.25   21.53410    0.42080
   98.50000   -9999.25   -9999.25   21.83800    0.40280
   99.00000   -9999.25   -9999.25   22.84010    0.38490
   99.50000   -9999.25   -9999.25   24.28730    0.39210
  100.00000   -9999.25   -9999.25   25.84080    0.41740
  100.50000   -9999.25   -9999.25   27.02520    0.43990
  101.00000   -9999.25   -9999.25   27.23780    0.43940
  101.50000   -9999.25   -9999.25   27.97660    0.42610
  102.00000   -9999.25   -9999.25   28.21580    0.41360
  102.50000   -9999.25   -9999.25   28.45510    0.39950
  103.00000   -9999.25   -9999.25   28.73760    0.42380
  103.50000   -9999.25   -9999.25   29.22070    0.46760
  104.00000   -9999.25   -9999.25   29.70390    0.51090
  104.50000   -9999.25   -9999.25   30.16270    0.51830
  105.00000   -9999.25   -9999.25   29.28450    0.45400
  105.50000   -9999.25   -9999.25   27.81860    0.40850
  106.00000   -9999.25   -9999.25   26.98570    0.41080
  106.50000   -9999.25   -9999.25   28.58210    0.45220
  107.00000   -9999.25   -9999.25   31.75040    0.51850
  107.50000   -9999.25   -9999.25   35.68060    0.57410
  108.00000   -9999.25   -9999.25   37.29990    0.60610
  108.50000   -9999.25   -9999.25   38.95540    0.61470
  109.00000   -9999.25   -9999.25   40.36810    0.60090
  109.50000   -9999.25   -9999.25   41.63190    0.60960
  110.00000   -9999.25   -9999.25   42.17560    0.65160
  110.50000   -9999.25   -9999.25   40.59790    0.69960
  111.00000   -9999.25   -9999.25   38.55910    0.69910
  111.50000   -9999.25   -9999.25   37.35380    0.67820
  112.00000   -9999.25   -9999.25   35.64390    0.63260
  112.50000   -9999.25   -9999.25   35.59030    0.53530
  113.00000   -9999.25   -9999.25   36.35130    0.48550
  113.50000   -9999.25   -9999.25   37.26490    0.45230
  114.00000   -9999.25   -9999.25   37.77090    0.44970
  114.50000   -9999.25   -9999.25   36.03500    0.44710
  115.00000   -9999.25   -9999.25   35.91260    0.44140
  115.50000   -9999.25   -9999.25   36.63300    0.42870
  116.00000   -9999.25   -9999.25   37.11410    0.42510
  116.50000   -9999.25   -9999.25   38.08800    0.43680
  117.00000   -9999.25   -9999.25   39.64900    0.46050
  117.50000   -9999.25   -9999.25   41.09380    0.47510
  118.00000   -9999.25   -9999.25   42.62670    0.48110
  118.50000   -9999.25   -9999.25   43.34020    0.49310
  119.00000   -9999.25   -9999.25   44.13050    0.51030
  119.50000   -9999.25   -9999.25   44.95080    0.51590
  120.00000   -9999.25   -9999.25   45.57820    0.50250
  120.50000   -9999.25   -9999.25   45.02470    0.48480
  121.00000   -9999.25   -9999.25   44.32740    0.47100
  121.50000   -9999.25   -9999.25   43.36860    0.45870
  122.00000   -9999.25   -9999.25   41.66870    0.45340
  122.50000   -9999.25   -9999.25   40.27960    0.45250
  123.00000   -9999.25   -9999.25   40.16080    0.46070
  123.50000   -9999.25   -9999.25   40.04210    0.46470
  124.00000   -9999.25   -9999.25   39.92330    0.45720
  124.50000   -9999.25   -9999.25   39.75130    0.44990
  125.00000   -9999.25   -9999.25   38.79610    0.46060
  125.50000   -9999.25   -9999.25   37.47100    0.47490
  126.00000   -9999.25   -9999.25   36.96450    0.48640
  126.50000   -9999.25   -9999.25   37.73100    0.47310
  127.00000   -9999.25   -9999.25   38.89750    0.44880
  127.50000   -9999.25   -9999.25   39.89350    0.42080
  128.00000   -9999.25   -9999.25   37.94550    0.41030
  128.50000   -9999.25   -9999.25   37.79340    0.41880
  129.00000   -9999.25   -9999.25   38.25710    0.42520
  129.50000   -9999.25   -9999.25   39.26320    0.41820
  130.00000   -9999.25   -9999.25   40.08390    0.40520
  130.50000   -9999.25   -9999.25   40.65570    0.39440
  131.00000   -9999.25   -9999.25   40.02920    0.38380
  131.50000   -9999.25   -9999.25   38.38450    0.38570
  132.00000   -9999.25   -9999.25   36.67620    0.39150
  132.50000   -9999.25   -9999.25   34.32570    0.39370
  133.00000   -9999.25   -9999.25   33.46290    0.38880
  133.50000   -9999.25   -9999.25   33.31630    0.39220
  134.00000   -9999.25   -9999.25   33.15610    0.39360
  134.50000   -9999.25   -9999.25   32.75680    0.38920
  135.00000   -9999.25   -9999.25   32.13410    0.39860
  135.50000   -9999.25   -9999.25   31.93980    0.42960
  136.00000   -9999.25   -9999.25   31.48020    0.45280
  136.50000   -9999.25   -9999.25   31.02070    0.43160
  137.00000   -9999.25   -9999.25   31.06640    0.41790
  137.50000   -9999.25   -9999.25   32.54060    0.45080
  138.00000   -9999.25   -9999.25   35.41780    0.50440
  138.50000   -9999.25   -9999.25   38.71000    0.58220
  139.00000   -9999.25   -9999.25   41.00400    0.61450
  139.50000   -9999.25   -9999.25   43.55730    0.57650
  140.00000   -9999.25   -9999.25   45.22790    0.51890
  140.50000   -9999.25   -9999.25   42.24610    0.45300
  141.00000   -9999.25   -9999.25   39.59340    0.39890
  141.50000   -9999.25   -9999.25   35.19280    0.36760
  142.00000   -9999.25   -9999.25   32.36700    0.33450
  142.50000   -9999.25   -9999.25   29.54110    0.32470
  143.00000   -9999.25   -9999.25   28.71520    0.32890
  143.50000   -9999.25   -9999.25   29.48750    0.34110
  144.00000   -9999.25   -9999.25   30.67440    0.34980
  144.50000   -9999.25   -9999.25   32.02460    0.35570
  145.00000   -9999.25   -9999.25   33.35610    0.36920
  145.50000   -9999.25   -9999.25   34.68760    0.38260
  146.00000   -9999.25   -9999.25   35.91150    0.40610
  146.50000   -9999.25   -9999.25   34.67940    0.41440
  147.00000   -9999.25   -9999.25   32.65860    0.40320
  147.50000   -9999.25   -9999.25   30.28990    0.39080
  148.00000   -9999.25   -9999.25   28.64060    0.38570
  148.50000   -9999.25   -9999.25   27.53630    0.38070
  149.00000   -9999.25   -9999.25   27.00770    0.37470
  149.50000   -9999.25   -9999.25   26.44950    0.37040
  150.00000   -9999.25   -9999.25   25.63510    0.37410
  150.50000   -9999.25   -9999.25   24.78890    0.37870
  151.00000   -9999.25   -9999.25   25.29640    0.38320
  151.50000   -9999.25   -9999.25   26.64240    0.38710
  152.00000   -9999.25   -9999.25   28.32200    0.39420
  152.50000   -9999.25   -9999.25   28.97000    0.39520
  153.00000   -9999.25   -9999.25   28.38750    0.38740
  153.50000   -9999.25   -9999.25   26.54020    0.38210
  154.00000   -9999.25   -9999.25   23.71170    0.37930
  154.50000   -9999.25   -9999.25   21.90260    0.37610
  155.00000   -9999.25   -9999.25   20.92560    0.36970
  155.50000   -9999.25   -9999.25   20.77120    0.37470
  156.00000   -9999.25   -9999.25   20.70630    0.38300
  156.50000   -9999.25   -9999.25   20.65200    0.38050
  157.00000   -9999.25   -9999.25   20.50800    0.35640
  157.50000   -9999.25   -9999.25   20.28770    0.33320
  158.00000   -9999.25   -9999.25   20.84040    0.32010
  158.50000   -9999.25   -9999.25   21.84740    0.32510
  159.00000   -9999.25   -9999.25   24.75920    0.34310
  159.50000   -9999.25   -9999.25   27.66050    0.36550
