~Version ---------------------------------------------------
VERS.   2.0 : CWLS log ASCII Standard -VERSION 2.0
WRAP.    NO : One line per depth step
DLM . SPACE : Column Data Section Delimiter
~Well ------------------------------------------------------
STRT .F                  17.0 : START DEPTH
STOP .F                3065.0 : STOP DEPTH
STEP .F                   0.5 : STEP
NULL .               -9999.25 : NULL VALUE
COMP .                        : COMPANY
WELL .                        : WELL
FLD  .                        : FIELD
LOC  .                        : LOCATION
PROV .                        : PROVINCE
CNTY .                        : COUNTY
STAT .                        : STATE
CTRY .                        : COUNTRY
SRVC .                        : SERVICE COMPANY
DATE .                        : DATE
UWI  .                        : UNIQUE WELL ID
API  .                        : API NUMBER
SLAT .WGS84 1.659894187066996 : SURFACE LATITUDE
SLON .WGS84 6.944955602196998 : SURFACE LONGITUDE
DATUM.F               2555.77 : DEPTH DATUM ELEV
~Curve Information -----------------------------------------
DEPT   .F     : 1 MEASURED DEPTH
DTCO   .US/F  : DELTA-T COMPRESSIONAL
DTSM   .US/F  : DELTA-T SHEAR
GRD    .GAPI  : GAMMA RAY FROM DENSITY LOG
NPHI_LS.DEC   : NEUTRON POROSITY LIMESTONE
~Params ----------------------------------------------------
~Other -----------------------------------------------------
~ASCII -----------------------------------------------------
# ...
 1089.50000   -9999.25   -9999.25   41.32060    0.03170
 1090.00000   -9999.25   -9999.25   41.36670    0.02400
 1090.50000   -9999.25   -9999.25   36.71590    0.02490
 1091.00000   -9999.25   -9999.25   30.54950    0.04480
 1091.50000   -9999.25   -9999.25   25.98870    0.07220
 1092.00000   -9999.25   -9999.25   30.63680    0.10260
 1092.50000   -9999.25   -9999.25   39.59550    0.09710
 1093.00000   -9999.25   -9999.25   46.66630    0.07480
 1093.50000   -9999.25   -9999.25   43.14920    0.06400
 1094.00000   -9999.25   -9999.25   33.88650    0.08150
 1094.50000   -9999.25   -9999.25   26.27290    0.14030
 1095.00000   -9999.25   -9999.25   27.65050    0.19790
 1095.50000   -9999.25   -9999.25   31.39430    0.25550
 1096.00000   -9999.25   -9999.25   33.79660    0.24410
 1096.50000   -9999.25   -9999.25   32.47520    0.18770
 1097.00000   -9999.25   -9999.25   28.87190    0.10540
 1097.50000   -9999.25   -9999.25   25.21680    0.07510
 1098.00000   -9999.25   -9999.25   21.15050    0.05410
 1098.50000   -9999.25   -9999.25   18.67660    0.04560
 1099.00000   -9999.25   -9999.25   18.61070    0.05120
 1099.50000   -9999.25   -9999.25   18.90210    0.05190
 1100.00000   -9999.25   -9999.25   20.16420    0.04470
 1100.50000   -9999.25   -9999.25   18.92620    0.02910
 1101.00000   -9999.25   -9999.25   17.55170    0.01980
 1101.50000   -9999.25   -9999.25   16.95450    0.01490
 1102.00000   -9999.25   -9999.25   16.75780    0.01160
 1102.50000   -9999.25   -9999.25   16.42520    0.00990
 1103.00000   -9999.25   -9999.25   14.91940    0.01050
 1103.50000   -9999.25   -9999.25   13.76500    0.01330
 1104.00000   -9999.25   -9999.25   14.00660    0.02050
 1104.50000   -9999.25   -9999.25   14.74130    0.02800
 1105.00000   -9999.25   -9999.25   14.96450    0.02830
 1105.50000   -9999.25   -9999.25   14.95550    0.02480
 1106.00000   -9999.25   -9999.25   14.27120    0.01790
 1106.50000   -9999.25   -9999.25   13.59440    0.01230
 1107.00000   -9999.25   -9999.25   13.30530    0.01020
 1107.50000   -9999.25   -9999.25   13.34210    0.00820
 1108.00000   -9999.25   -9999.25   13.82630    0.00550
 1108.50000   -9999.25   -9999.25   14.50950    0.00550
 1109.00000   -9999.25   -9999.25   15.56970    0.00610
 1109.50000   -9999.25   -9999.25   16.89720    0.00880
 1110.00000   -9999.25   -9999.25   17.89050    0.01230
 1110.50000   -9999.25   -9999.25   17.70200    0.01660
 1111.00000   -9999.25   -9999.25   16.45260    0.02010
 1111.50000   -9999.25   -9999.25   13.93160    0.01860
 1112.00000   -9999.25   -9999.25   10.85100    0.01260
 1112.50000   -9999.25   -9999.25    8.18000    0.00660
 1113.00000   -9999.25   -9999.25    7.83710    0.00740
 1113.50000   -9999.25   -9999.25    8.67140    0.05260
 1114.00000   -9999.25   -9999.25   13.74170    0.11970
 1114.50000   -9999.25   -9999.25   17.69010    0.19930
 1115.00000   -9999.25   -9999.25   20.38810    0.16730
 1115.50000   -9999.25   -9999.25   17.17280    0.07870
 1116.00000   -9999.25   -9999.25   12.63410    0.01310
 1116.50000   -9999.25   -9999.25    8.50980   -0.00270
 1117.00000   -9999.25   -9999.25    7.70250    0.00000
 1117.50000   -9999.25   -9999.25    7.78660    0.00370
 1118.00000   -9999.25   -9999.25   12.84500    0.00220
 1118.50000   -9999.25   -9999.25   22.48350   -0.00270
 1119.00000   -9999.25   -9999.25   34.45570   -0.00390
 1119.50000   -9999.25   -9999.25   42.41370   -0.00250
 1120.00000   -9999.25   -9999.25   38.61530   -0.00050
 1120.50000   -9999.25   -9999.25   26.83680    0.00050
 1121.00000   -9999.25   -9999.25   18.85910    0.00150
 1121.50000   -9999.25   -9999.25   13.56460    0.00360
 1122.00000   -9999.25   -9999.25   11.98450    0.01040
 1122.50000   -9999.25   -9999.25   12.71860    0.04500
 1123.00000   -9999.25   -9999.25   14.85110    0.08930
 1123.50000   -9999.25   -9999.25   16.78300    0.13860
 1124.00000   -9999.25   -9999.25   18.74100    0.14310
 1124.50000   -9999.25   -9999.25   18.84070    0.09280
 1125.00000   -9999.25   -9999.25   16.44750    0.03870
 1125.50000   -9999.25   -9999.25   15.18940    0.02620
 1126.00000   -9999.25   -9999.25   14.71290    0.01730
 1126.50000   -9999.25   -9999.25   14.49970    0.00930
 1127.00000   -9999.25   -9999.25   14.32680    0.00600
 1127.50000   -9999.25   -9999.25   13.82150    0.00480
 1128.00000   -9999.25   -9999.25   13.31620    0.00330
 1128.50000   -9999.25   -9999.25   12.83250    0.00160
 1129.00000   -9999.25   -9999.25   12.64720    0.00030
 1129.50000   -9999.25   -9999.25   13.17600   -0.00060
 1130.00000   -9999.25   -9999.25   13.69190   -0.00130
 1130.50000   -9999.25   -9999.25   14.08830   -0.00180
 1131.00000   -9999.25   -9999.25   14.01670   -0.00240
 1131.50000   -9999.25   -9999.25   13.72560   -0.00270
 1132.00000   -9999.25   -9999.25   13.60320   -0.00250
 1132.50000   -9999.25   -9999.25   13.58580   -0.00220
 1133.00000   -9999.25   -9999.25   13.72120   -0.00080
 1133.50000   -9999.25   -9999.25   14.10690    0.00170
 1134.00000   -9999.25   -9999.25   14.59600    0.00580
 1134.50000   -9999.25   -9999.25   14.70880    0.01000
 1135.00000   -9999.25   -9999.25   14.65660    0.01900
 1135.50000   -9999.25   -9999.25   14.83490    0.05670
 1136.00000   -9999.25   -9999.25   17.07210    0.13980
 1136.50000   -9999.25   -9999.25   19.42730    0.20980
 1137.00000   -9999.25   -9999.25   22.06490    0.26130
 1137.50000   -9999.25   -9999.25   22.86800    0.23970
 1138.00000   -9999.25   -9999.25   22.38250    0.18990
 1138.50000   -9999.25   -9999.25   21.18880    0.12150
 1139.00000   -9999.25   -9999.25   19.72950    0.08810
 1139.50000   -9999.25   -9999.25   18.58810    0.06680
 1140.00000   -9999.25   -9999.25   17.29820    0.05030
 1140.50000   -9999.25   -9999.25   16.86680    0.05330
 1141.00000   -9999.25   -9999.25   17.01940    0.05250
 1141.50000   -9999.25   -9999.25   17.19630    0.04160
 1142.00000   -9999.25   -9999.25   16.70630    0.02990
 1142.50000   -9999.25   -9999.25   15.74500    0.01830
 1143.00000   -9999.25   -9999.25   14.88770    0.01120
 1143.50000   -9999.25   -9999.25   14.52460    0.00890
 1144.00000   -9999.25   -9999.25   14.46420    0.00830
 1144.50000   -9999.25   -9999.25   14.38330    0.00760
 1145.00000   -9999.25   -9999.25   15.10760    0.00870
 1145.50000   -9999.25   -9999.25   15.76560    0.01540
 1146.00000   -9999.25   -9999.25   17.53470    0.02640
 1146.50000   -9999.25   -9999.25   20.08160    0.06300
 1147.00000   -9999.25   -9999.25   23.70440    0.12180
 1147.50000   -9999.25   -9999.25   28.20340    0.17750
 1148.00000   -9999.25   -9999.25   34.10370    0.20500
 1148.50000   -9999.25   -9999.25   35.00620    0.16830
 1149.00000   -9999.25   -9999.25   32.70280    0.11230
 1149.50000   -9999.25   -9999.25   29.21740    0.06380
 1150.00000   -9999.25   -9999.25   26.12020    0.03830
 1150.50000   -9999.25   -9999.25   23.98160    0.03830
 1151.00000   -9999.25   -9999.25   23.34690    0.04350
 1151.50000   -9999.25   -9999.25   23.22970    0.05450
 1152.00000   -9999.25   -9999.25   23.58050    0.06030
 1152.50000   -9999.25   -9999.25   23.70030    0.05210
 1153.00000   -9999.25   -9999.25   22.27750    0.04060
 1153.50000   -9999.25   -9999.25   20.09710    0.02190
 1154.00000   -9999.25   -9999.25   18.77820    0.01450
 1154.50000   -9999.25   -9999.25   17.45930    0.00800
 1155.00000   -9999.25   -9999.25   16.77930    0.00510
 1155.50000   -9999.25   -9999.25   16.63590    0.00330
 1156.00000   -9999.25   -9999.25   16.81270    0.00300
 1156.50000   -9999.25   -9999.25   17.06730    0.00330
 1157.00000   -9999.25   -9999.25   16.78130    0.00370
 1157.50000   -9999.25   -9999.25   15.77980    0.00370
 1158.00000   -9999.25   -9999.25   14.69100    0.00090
 1158.50000   -9999.25   -9999.25   14.24310    0.00030
 1159.00000   -9999.25   -9999.25   14.16060   -0.00010
 1159.50000   -9999.25   -9999.25   14.14770    0.00010
 1160.00000   -9999.25   -9999.25   14.30120    0.00710
 1160.50000   -9999.25   -9999.25   14.75090    0.01500
