~Version ---------------------------------------------------
VERS.   2.0 : CWLS log ASCII Standard -VERSION 2.0
WRAP.    NO : One line per depth step
DLM . SPACE : Column Data Section Delimiter
~Well ------------------------------------------------------
STRT .F                  17.0 : START DEPTH
STOP .F                3065.0 : STOP DEPTH
STEP .F                   0.5 : STEP
NULL .               -9999.25 : NULL VALUE
COMP .                        : COMPANY
WELL .                        : WELL
FLD  .                        : FIELD
LOC  .                        : LOCATION
PROV .                        : PROVINCE
CNTY .                        : COUNTY
STAT .                        : STATE
CTRY .                        : COUNTRY
SRVC .                        : SERVICE COMPANY
DATE .                        : DATE
UWI  .                        : UNIQUE WELL ID
API  .                        : API NUMBER
SLAT .WGS84 1.659894187066996 : SURFACE LATITUDE
SLON .WGS84 6.944955602196998 : SURFACE LONGITUDE
DATUM.F               2555.77 : DEPTH DATUM ELEV
~Curve Information -----------------------------------------
DEPT   .F     : 1 MEASURED DEPTH
DTCO   .US/F  : DELTA-T COMPRESSIONAL
DTSM   .US/F  : DELTA-T SHEAR
GRD    .GAPI  : GAMMA RAY FROM DENSITY LOG
NPHI_LS.DEC   : NEUTRON POROSITY LIMESTONE
~Params ----------------------------------------------------
~Other -----------------------------------------------------
~ASCII -----------------------------------------------------
# ...
 1447.00000   -9999.25   -9999.25   16.57460    0.09820
 1447.50000   -9999.25   -9999.25   16.79170    0.13080
 1448.00000   -9999.25   -9999.25   16.95230    0.15110
 1448.50000   -9999.25   -9999.25   17.08960    0.16570
 1449.00000   -9999.25   -9999.25   17.62220    0.16120
 1449.50000   -9999.25   -9999.25   18.78310    0.15250
 1450.00000   -9999.25   -9999.25   19.94830    0.13510
 1450.50000   -9999.25   -9999.25   19.06480    0.11640
 1451.00000   -9999.25   -9999.25   18.16520    0.10280
 1451.50000   -9999.25   -9999.25   17.26570    0.09460
 1452.00000   -9999.25   -9999.25   16.94510    0.09390
 1452.50000   -9999.25   -9999.25   17.23640    0.09370
 1453.00000   -9999.25   -9999.25   17.53070    0.09040
 1453.50000   -9999.25   -9999.25   17.81390    0.08330
 1454.00000   -9999.25   -9999.25   17.90120    0.07530
 1454.50000   -9999.25   -9999.25   18.49320    0.06590
 1455.00000   -9999.25   -9999.25   18.91210    0.06090
 1455.50000   -9999.25   -9999.25   19.33100    0.05810
 1456.00000   -9999.25   -9999.25   19.39730    0.04910
 1456.50000   -9999.25   -9999.25   18.74700    0.04630
 1457.00000   -9999.25   -9999.25   19.04460    0.05070
 1457.50000   -9999.25   -9999.25   19.54790    0.05960
 1458.00000   -9999.25   -9999.25   20.92880    0.06680
 1458.50000   -9999.25   -9999.25   34.09810    0.06870
 1459.00000   -9999.25   -9999.25   46.94130    0.06690
 1459.50000   -9999.25   -9999.25   65.69160    0.06240
 1460.00000   -9999.25   -9999.25   65.77650    0.04600
 1460.50000   -9999.25   -9999.25   49.18040    0.02700
 1461.00000   -9999.25   -9999.25   31.32940    0.02510
 1461.50000   -9999.25   -9999.25   18.32050    0.03750
 1462.00000   -9999.25   -9999.25   13.90130    0.04530
 1462.50000   -9999.25   -9999.25    9.93800    0.03340
 1463.00000   -9999.25   -9999.25    9.77780    0.01580
 1463.50000   -9999.25   -9999.25    9.78780    0.01110
 1464.00000   -9999.25   -9999.25   10.99190    0.02580
 1464.50000   -9999.25   -9999.25   20.31780    0.04020
 1465.00000   -9999.25   -9999.25   32.27940    0.05220
 1465.50000   -9999.25   -9999.25   47.54890    0.05470
 1466.00000   -9999.25   -9999.25   58.19300    0.05150
 1466.50000   -9999.25   -9999.25   50.91480    0.04690
 1467.00000   -9999.25   -9999.25   38.99560    0.05450
 1467.50000   -9999.25   -9999.25   28.69940    0.05930
 1468.00000   -9999.25   -9999.25   22.04170    0.05530
 1468.50000   -9999.25   -9999.25   20.01090    0.04990
 1469.00000   -9999.25   -9999.25   18.63470    0.04520
 1469.50000   -9999.25   -9999.25   17.40270    0.04320
 1470.00000   -9999.25   -9999.25   16.27430    0.04340
 1470.50000   -9999.25   -9999.25   15.12100    0.04620
 1471.00000   -9999.25   -9999.25   14.13680    0.05300
 1471.50000   -9999.25   -9999.25   13.76060    0.06210
 1472.00000   -9999.25   -9999.25   14.45930    0.07230
 1472.50000   -9999.25   -9999.25   15.33440    0.07540
 1473.00000   -9999.25   -9999.25   16.12720    0.06840
 1473.50000   -9999.25   -9999.25   16.74940    0.05970
 1474.00000   -9999.25   -9999.25   16.95630    0.04240
 1474.50000   -9999.25   -9999.25   15.24180    0.03450
 1475.00000   -9999.25   -9999.25   13.52730    0.03930
 1475.50000   -9999.25   -9999.25   11.84710    0.05440
 1476.00000   -9999.25   -9999.25   10.24720    0.05970
 1476.50000   -9999.25   -9999.25    9.92550    0.04530
 1477.00000   -9999.25   -9999.25   12.06880    0.02620
 1477.50000   -9999.25   -9999.25   15.90630    0.02270
 1478.00000   -9999.25   -9999.25   19.31990    0.03270
 1478.50000   -9999.25   -9999.25   19.92880    0.05200
 1479.00000   -9999.25   -9999.25   18.26070    0.05900
 1479.50000   -9999.25   -9999.25   16.31380    0.06090
 1480.00000   -9999.25   -9999.25   15.32540    0.06250
 1480.50000   -9999.25   -9999.25   16.49420    0.06390
 1481.00000   -9999.25   -9999.25   17.31010    0.06420
 1481.50000   -9999.25   -9999.25   17.63920    0.06280
 1482.00000   -9999.25   -9999.25   17.96840    0.06000
 1482.50000   -9999.25   -9999.25   18.29300    0.06380
 1483.00000   -9999.25   -9999.25   18.61230    0.06860
 1483.50000   -9999.25   -9999.25   18.20350    0.07240
 1484.00000   -9999.25   -9999.25   17.26450    0.07220
 1484.50000   -9999.25   -9999.25   16.55200    0.07130
 1485.00000   -9999.25   -9999.25   16.42490    0.07020
 1485.50000   -9999.25   -9999.25   16.40790    0.06700
 1486.00000   -9999.25   -9999.25   15.81200    0.06110
 1486.50000   -9999.25   -9999.25   15.09410    0.05510
 1487.00000   -9999.25   -9999.25   14.05080    0.04920
 1487.50000   -9999.25   -9999.25   13.81870    0.04570
 1488.00000   -9999.25   -9999.25   13.81270    0.04950
 1488.50000   -9999.25   -9999.25   13.79420    0.05340
 1489.00000   -9999.25   -9999.25   13.53510    0.05400
 1489.50000   -9999.25   -9999.25   13.41140    0.05420
 1490.00000   -9999.25   -9999.25   13.88030    0.05690
 1490.50000   -9999.25   -9999.25   14.72440    0.06430
 1491.00000   -9999.25   -9999.25   15.48930    0.07200
 1491.50000   -9999.25   -9999.25   16.11740    0.08110
 1492.00000   -9999.25   -9999.25   16.50130    0.09020
 1492.50000   -9999.25   -9999.25   16.48490    0.09630
 1493.00000   -9999.25   -9999.25   16.38960    0.09760
 1493.50000   -9999.25   -9999.25   16.23460    0.09390
 1494.00000   -9999.25   -9999.25   16.07260    0.08540
 1494.50000   -9999.25   -9999.25   16.21530    0.09710
 1495.00000   -9999.25   -9999.25   17.20840    0.12580
 1495.50000   -9999.25   -9999.25   18.75180    0.17360
 1496.00000   -9999.25   -9999.25   19.70050    0.19320
 1496.50000   -9999.25   -9999.25   19.93200    0.18750
 1497.00000   -9999.25   -9999.25   19.30770    0.16930
 1497.50000   -9999.25   -9999.25   18.76930    0.16160
 1498.00000   -9999.25   -9999.25   18.99460    0.15670
 1498.50000   -9999.25   -9999.25   19.29350    0.14510
 1499.00000   -9999.25   -9999.25   19.59240    0.12760
 1499.50000   -9999.25   -9999.25   19.62980    0.11040
 1500.00000   -9999.25   -9999.25   18.73910    0.08020
 1500.50000   -9999.25   -9999.25   16.91490    0.07930
 1501.00000   -9999.25   -9999.25   15.28510    0.08560
 1501.50000   -9999.25   -9999.25   14.84420    0.09700
 1502.00000   -9999.25   -9999.25   15.40690    0.10860
 1502.50000   -9999.25   -9999.25   17.21950    0.10790
 1503.00000   -9999.25   -9999.25   17.54750    0.10030
 1503.50000   -9999.25   -9999.25   16.38450    0.09470
 1504.00000   -9999.25   -9999.25   13.96560    0.09370
 1504.50000   -9999.25   -9999.25   13.02420    0.09310
 1505.00000   -9999.25   -9999.25   13.94130    0.08880
 1505.50000   -9999.25   -9999.25   14.85850    0.08020
 1506.00000   -9999.25   -9999.25   15.36750    0.07330
 1506.50000   -9999.25   -9999.25   15.68180    0.07660
 1507.00000   -9999.25   -9999.25   15.52760    0.08690
 1507.50000   -9999.25   -9999.25   15.02770    0.10860
 1508.00000   -9999.25   -9999.25   14.13290    0.13110
 1508.50000   -9999.25   -9999.25   13.23800    0.14440
 1509.00000   -9999.25   -9999.25   13.58350    0.14300
 1509.50000   -9999.25   -9999.25   14.27670    0.14050
 1510.00000   -9999.25   -9999.25   15.76100    0.14540
 1510.50000   -9999.25   -9999.25   16.57620    0.17400
 1511.00000   -9999.25   -9999.25   17.00290    0.19380
 1511.50000   -9999.25   -9999.25   16.81150    0.21300
 1512.00000   -9999.25   -9999.25   15.16560    0.18200
 1512.50000   -9999.25   -9999.25   12.98170    0.13190
 1513.00000   -9999.25   -9999.25   10.22170    0.07060
 1513.50000   -9999.25   -9999.25    8.30470    0.01730
 1514.00000   -9999.25   -9999.25    7.31050    0.00390
 1514.50000   -9999.25   -9999.25    6.78410    0.00050
 1515.00000   -9999.25   -9999.25    6.62490   -0.00090
 1515.50000   -9999.25   -9999.25    6.44160   -0.00230
 1516.00000   -9999.25   -9999.25    6.51360   -0.00210
 1516.50000   -9999.25   -9999.25    6.77360   -0.00150
 1517.00000   -9999.25   -9999.25    7.24630    0.00070
 1517.50000   -9999.25   -9999.25    7.99320    0.00590
 1518.00000   -9999.25   -9999.25    9.18400    0.01300
