~Version ---------------------------------------------------
VERS.   2.0 : CWLS log ASCII Standard -VERSION 2.0
WRAP.    NO : One line per depth step
DLM . SPACE : Column Data Section Delimiter
~Well ------------------------------------------------------
STRT .F                  17.0 : START DEPTH
STOP .F                3065.0 : STOP DEPTH
STEP .F                   0.5 : STEP
NULL .               -9999.25 : NULL VALUE
COMP .                        : COMPANY
WELL .                        : WELL
FLD  .                        : FIELD
LOC  .                        : LOCATION
PROV .                        : PROVINCE
CNTY .                        : COUNTY
STAT .                        : STATE
CTRY .                        : COUNTRY
SRVC .                        : SERVICE COMPANY
DATE .                        : DATE
UWI  .                        : UNIQUE WELL ID
API  .                        : API NUMBER
SLAT .WGS84 1.659894187066996 : SURFACE LATITUDE
SLON .WGS84 6.944955602196998 : SURFACE LONGITUDE
DATUM.F               2555.77 : DEPTH DATUM ELEV
~Curve Information -----------------------------------------
DEPT   .F     : 1 MEASURED DEPTH
DTCO   .US/F  : DELTA-T COMPRESSIONAL
DTSM   .US/F  : DELTA-T SHEAR
GRD    .GAPI  : GAMMA RAY FROM DENSITY LOG
NPHI_LS.DEC   : NEUTRON POROSITY LIMESTONE
~Params ----------------------------------------------------
~Other -----------------------------------------------------
~ASCII -----------------------------------------------------
# ...
  660.50000   -9999.25   -9999.25   30.46480    0.44260
  661.00000   -9999.25   -9999.25   32.26850    0.42270
  661.50000   -9999.25   -9999.25   34.24280    0.41370
  662.00000   -9999.25   -9999.25   35.45880    0.41050
  662.50000   -9999.25   -9999.25   35.77290    0.40670
  663.00000   -9999.25   -9999.25   35.23000    0.39900
  663.50000   -9999.25   -9999.25   34.20590    0.38870
  664.00000   -9999.25   -9999.25   33.16630    0.38470
  664.50000   -9999.25   -9999.25   32.95970    0.39790
  665.00000   -9999.25   -9999.25   33.06690    0.41250
  665.50000   -9999.25   -9999.25   32.99480    0.40580
  666.00000   -9999.25   -9999.25   33.18400    0.39570
  666.50000   -9999.25   -9999.25   34.06020    0.38350
  667.00000   -9999.25   -9999.25   35.36790    0.38050
  667.50000   -9999.25   -9999.25   37.72010    0.37760
  668.00000   -9999.25   -9999.25   41.10050    0.36440
  668.50000   -9999.25   -9999.25   43.83840    0.33610
  669.00000   -9999.25   -9999.25   46.51300    0.31820
  669.50000   -9999.25   -9999.25   47.70430    0.35170
  670.00000   -9999.25   -9999.25   45.31930    0.37450
  670.50000   -9999.25   -9999.25   41.87180    0.39650
  671.00000   -9999.25   -9999.25   40.70200    0.41620
  671.50000   -9999.25   -9999.25   40.36460    0.40590
  672.00000   -9999.25   -9999.25   39.55960    0.39450
  672.50000   -9999.25   -9999.25   37.74070    0.36720
  673.00000   -9999.25   -9999.25   37.62930    0.37300
  673.50000   -9999.25   -9999.25   39.50060    0.38930
  674.00000   -9999.25   -9999.25   42.32860    0.41570
  674.50000   -9999.25   -9999.25   45.15630    0.43230
  675.00000   -9999.25   -9999.25   46.53380    0.42950
  675.50000   -9999.25   -9999.25   46.65480    0.41050
  676.00000   -9999.25   -9999.25   46.38970    0.38890
  676.50000   -9999.25   -9999.25   46.12640    0.37080
  677.00000   -9999.25   -9999.25   46.13710    0.37260
  677.50000   -9999.25   -9999.25   46.19330    0.37520
  678.00000   -9999.25   -9999.25   47.61900    0.37130
  678.50000   -9999.25   -9999.25   48.98100    0.36490
  679.00000   -9999.25   -9999.25   48.72860    0.36040
  679.50000   -9999.25   -9999.25   46.43580    0.36410
  680.00000   -9999.25   -9999.25   44.73810    0.36470
  680.50000   -9999.25   -9999.25   43.70550    0.35360
  681.00000   -9999.25   -9999.25   42.93170    0.34390
  681.50000   -9999.25   -9999.25   42.26620    0.34410
  682.00000   -9999.25   -9999.25   42.27360    0.35300
  682.50000   -9999.25   -9999.25   43.25710    0.36770
  683.00000   -9999.25   -9999.25   44.34770    0.37750
  683.50000   -9999.25   -9999.25   45.38040    0.36820
  684.00000   -9999.25   -9999.25   47.04570    0.35370
  684.50000   -9999.25   -9999.25   47.76830    0.35070
  685.00000   -9999.25   -9999.25   45.98190    0.35450
  685.50000   -9999.25   -9999.25   43.26160    0.36480
  686.00000   -9999.25   -9999.25   41.30710    0.37750
  686.50000   -9999.25   -9999.25   41.57860    0.38830
  687.00000   -9999.25   -9999.25   43.01130    0.38810
  687.50000   -9999.25   -9999.25   44.99700    0.37840
  688.00000   -9999.25   -9999.25   47.07810    0.36820
  688.50000   -9999.25   -9999.25   48.52610    0.36070
  689.00000   -9999.25   -9999.25   48.48240    0.37070
  689.50000   -9999.25   -9999.25   47.05660    0.38290
  690.00000   -9999.25   -9999.25   45.96290    0.39320
  690.50000   -9999.25   -9999.25   45.55110    0.39310
  691.00000   -9999.25   -9999.25   45.87280    0.38990
  691.50000   -9999.25   -9999.25   46.33810    0.38600
  692.00000   -9999.25   -9999.25   46.22540    0.38500
  692.50000   -9999.25   -9999.25   44.93240    0.39000
  693.00000   -9999.25   -9999.25   43.33230    0.39650
  693.50000   -9999.25   -9999.25   43.49820    0.40110
  694.00000   -9999.25   -9999.25   44.49070    0.40560
  694.50000   -9999.25   -9999.25   46.35540    0.42450
  695.00000   -9999.25   -9999.25   48.22670    0.45780
  695.50000   -9999.25   -9999.25   48.96690    0.48550
  696.00000   -9999.25   -9999.25   48.45350    0.47870
  696.50000   -9999.25   -9999.25   46.61030    0.44340
  697.00000   -9999.25   -9999.25   43.57300    0.40620
  697.50000   -9999.25   -9999.25   41.45170    0.38300
  698.00000   -9999.25   -9999.25   40.77680    0.37020
  698.50000   -9999.25   -9999.25   40.71110    0.35740
  699.00000   -9999.25   -9999.25   40.31970    0.36810
  699.50000   -9999.25   -9999.25   39.00610    0.39140
  700.00000   -9999.25   -9999.25   36.87270    0.41610
  700.50000   -9999.25   -9999.25   34.67620    0.41780
  701.00000   -9999.25   -9999.25   34.93660    0.41000
  701.50000   -9999.25   -9999.25   37.80130    0.41030
  702.00000   -9999.25   -9999.25   41.82260    0.41610
  702.50000   -9999.25   -9999.25   45.76230    0.41870
  703.00000   -9999.25   -9999.25   47.04490    0.41280
  703.50000   -9999.25   -9999.25   46.81670    0.40700
  704.00000   -9999.25   -9999.25   45.15750    0.40310
  704.50000   -9999.25   -9999.25   43.81550    0.40640
  705.00000   -9999.25   -9999.25   43.70730    0.41130
  705.50000   -9999.25   -9999.25   43.18330    0.41090
  706.00000   -9999.25   -9999.25   42.34690    0.40110
  706.50000   -9999.25   -9999.25   41.77770    0.39230
  707.00000   -9999.25   -9999.25   41.50540    0.40070
  707.50000   -9999.25   -9999.25   40.84600    0.41500
  708.00000   -9999.25   -9999.25   39.64970    0.43150
  708.50000   -9999.25   -9999.25   39.47580    0.43120
  709.00000   -9999.25   -9999.25   41.43950    0.42400
  709.50000   -9999.25   -9999.25   44.11520    0.42630
  710.00000   -9999.25   -9999.25   44.93360    0.43630
  710.50000   -9999.25   -9999.25   43.58450    0.44490
  711.00000   -9999.25   -9999.25   42.91880    0.45890
  711.50000   -9999.25   -9999.25   43.41640    0.47220
  712.00000   -9999.25   -9999.25   45.54640    0.46660
  712.50000   -9999.25   -9999.25   47.32240    0.45760
  713.00000   -9999.25   -9999.25   47.38030    0.45180
  713.50000   -9999.25   -9999.25   45.84480    0.45150
  714.00000   -9999.25   -9999.25   43.88700    0.44540
  714.50000   -9999.25   -9999.25   41.69890    0.42170
  715.00000   -9999.25   -9999.25   39.66680    0.39230
  715.50000   -9999.25   -9999.25   37.63910    0.36650
  716.00000   -9999.25   -9999.25   38.40430    0.37770
  716.50000   -9999.25   -9999.25   41.44590    0.41010
  717.00000   -9999.25   -9999.25   43.80120    0.42560
  717.50000   -9999.25   -9999.25   43.86050    0.43020
  718.00000   -9999.25   -9999.25   43.25350    0.43090
  718.50000   -9999.25   -9999.25   42.86110    0.43180
  719.00000   -9999.25   -9999.25   42.34880    0.43340
  719.50000   -9999.25   -9999.25   41.70370    0.44080
  720.00000   -9999.25   -9999.25   41.58400    0.45240
  720.50000   -9999.25   -9999.25   41.57850    0.45080
  721.00000   -9999.25   -9999.25   41.48060    0.43170
  721.50000   -9999.25   -9999.25   41.30290    0.39600
  722.00000   -9999.25   -9999.25   40.76940    0.37780
  722.50000   -9999.25   -9999.25   40.29590    0.35960
  723.00000   -9999.25   -9999.25   39.96110    0.35840
  723.50000   -9999.25   -9999.25   39.76230    0.37850
  724.00000   -9999.25   -9999.25   41.43210    0.39860
  724.50000   -9999.25   -9999.25   43.36960    0.39790
  725.00000   -9999.25   -9999.25   44.59450    0.38160
  725.50000   -9999.25   -9999.25   43.91210    0.37600
  726.00000   -9999.25   -9999.25   41.33010    0.37040
  726.50000   -9999.25   -9999.25   38.82650    0.33690
  727.00000   -9999.25   -9999.25   35.35130    0.30540
  727.50000   -9999.25   -9999.25   29.74570    0.27390
  728.00000   -9999.25   -9999.25   28.76040    0.29340
  728.50000   -9999.25   -9999.25   31.34470    0.33540
  729.00000   -9999.25   -9999.25   36.10450    0.38000
  729.50000   -9999.25   -9999.25   41.20670    0.39520
  730.00000   -9999.25   -9999.25   44.39930    0.36680
  730.50000   -9999.25   -9999.25   44.77750    0.35930
  731.00000   -9999.25   -9999.25   44.04500    0.37560
  731.50000   -9999.25   -9999.25   41.76140    0.39190
