~Version ---------------------------------------------------
VERS.   2.0 : CWLS log ASCII Standard -VERSION 2.0
WRAP.    NO : One line per depth step
DLM . SPACE : Column Data Section Delimiter
~Well ------------------------------------------------------
STRT .F                  17.0 : START DEPTH
STOP .F                3065.0 : STOP DEPTH
STEP .F                   0.5 : STEP
NULL .               -9999.25 : NULL VALUE
COMP .                        : COMPANY
WELL .                        : WELL
FLD  .                        : FIELD
LOC  .                        : LOCATION
PROV .                        : PROVINCE
CNTY .                        : COUNTY
STAT .                        : STATE
CTRY .                        : COUNTRY
SRVC .                        : SERVICE COMPANY
DATE .                        : DATE
UWI  .                        : UNIQUE WELL ID
API  .                        : API NUMBER
SLAT .WGS84 1.659894187066996 : SURFACE LATITUDE
SLON .WGS84 6.944955602196998 : SURFACE LONGITUDE
DATUM.F               2555.77 : DEPTH DATUM ELEV
~Curve Information -----------------------------------------
DEPT   .F     : 1 MEASURED DEPTH
DTCO   .US/F  : DELTA-T COMPRESSIONAL
DTSM   .US/F  : DELTA-T SHEAR
GRD    .GAPI  : GAMMA RAY FROM DENSITY LOG
NPHI_LS.DEC   : NEUTRON POROSITY LIMESTONE
~Params ----------------------------------------------------
~Other -----------------------------------------------------
~ASCII -----------------------------------------------------
# ...
 1232.50000   -9999.25   -9999.25   14.24610    0.00360
 1233.00000   -9999.25   -9999.25   15.62870    0.01550
 1233.50000   -9999.25   -9999.25   18.64030    0.03110
 1234.00000   -9999.25   -9999.25   21.39820    0.05310
 1234.50000   -9999.25   -9999.25   21.72100    0.07320
 1235.00000   -9999.25   -9999.25   20.52130    0.06850
 1235.50000   -9999.25   -9999.25   18.88290    0.05530
 1236.00000   -9999.25   -9999.25   16.98700    0.03040
 1236.50000   -9999.25   -9999.25   15.46740    0.02300
 1237.00000   -9999.25   -9999.25   15.20970    0.01970
 1237.50000   -9999.25   -9999.25   15.07510    0.01760
 1238.00000   -9999.25   -9999.25   15.29020    0.01350
 1238.50000   -9999.25   -9999.25   15.52570    0.01060
 1239.00000   -9999.25   -9999.25   15.25870    0.00910
 1239.50000   -9999.25   -9999.25   14.91350    0.00930
 1240.00000   -9999.25   -9999.25   14.07360    0.01210
 1240.50000   -9999.25   -9999.25   13.42810    0.01370
 1241.00000   -9999.25   -9999.25   13.14060    0.01290
 1241.50000   -9999.25   -9999.25   12.96100    0.00690
 1242.00000   -9999.25   -9999.25   12.54500    0.00300
 1242.50000   -9999.25   -9999.25   12.35600    0.01520
 1243.00000   -9999.25   -9999.25   13.03390    0.05470
 1243.50000   -9999.25   -9999.25   15.12230    0.10900
 1244.00000   -9999.25   -9999.25   17.61050    0.11540
 1244.50000   -9999.25   -9999.25   15.97880    0.06050
 1245.00000   -9999.25   -9999.25   12.40580    0.01910
 1245.50000   -9999.25   -9999.25    8.83290   -0.00600
 1246.00000   -9999.25   -9999.25    8.14450   -0.00700
 1246.50000   -9999.25   -9999.25    9.74470   -0.00420
 1247.00000   -9999.25   -9999.25   11.91680   -0.00120
 1247.50000   -9999.25   -9999.25   14.94770    0.00120
 1248.00000   -9999.25   -9999.25   16.20680    0.00360
 1248.50000   -9999.25   -9999.25   17.61870    0.00590
 1249.00000   -9999.25   -9999.25   18.21680    0.00740
 1249.50000   -9999.25   -9999.25   18.90440    0.01170
 1250.00000   -9999.25   -9999.25   19.85600    0.02380
 1250.50000   -9999.25   -9999.25   23.05930    0.04170
 1251.00000   -9999.25   -9999.25   26.60420    0.09490
 1251.50000   -9999.25   -9999.25   30.01290    0.14710
 1252.00000   -9999.25   -9999.25   30.36040    0.14080
 1252.50000   -9999.25   -9999.25   26.95180    0.09910
 1253.00000   -9999.25   -9999.25   21.46480    0.05140
 1253.50000   -9999.25   -9999.25   17.53310    0.02210
 1254.00000   -9999.25   -9999.25   15.41210    0.01940
 1254.50000   -9999.25   -9999.25   14.76510    0.01780
 1255.00000   -9999.25   -9999.25   14.69420    0.01590
 1255.50000   -9999.25   -9999.25   15.02150    0.01400
 1256.00000   -9999.25   -9999.25   15.65540    0.01340
 1256.50000   -9999.25   -9999.25   15.54260    0.01350
 1257.00000   -9999.25   -9999.25   15.02780    0.01590
 1257.50000   -9999.25   -9999.25   14.81540    0.01950
 1258.00000   -9999.25   -9999.25   15.23240    0.02160
 1258.50000   -9999.25   -9999.25   16.20090    0.01940
 1259.00000   -9999.25   -9999.25   17.64140    0.01360
 1259.50000   -9999.25   -9999.25   17.96090    0.01200
 1260.00000   -9999.25   -9999.25   17.88180    0.02000
 1260.50000   -9999.25   -9999.25   17.51110    0.02050
 1261.00000   -9999.25   -9999.25   16.91340    0.01500
 1261.50000   -9999.25   -9999.25   16.56200    0.00720
 1262.00000   -9999.25   -9999.25   16.87020    0.01030
 1262.50000   -9999.25   -9999.25   17.40790    0.03040
 1263.00000   -9999.25   -9999.25   18.62780    0.10300
 1263.50000   -9999.25   -9999.25   21.71500    0.27180
 1264.00000   -9999.25   -9999.25   30.51620    0.32040
 1264.50000   -9999.25   -9999.25   40.09780    0.30150
 1265.00000   -9999.25   -9999.25   50.75750    0.27050
 1265.50000   -9999.25   -9999.25   73.18670    0.16930
 1266.00000   -9999.25   -9999.25   81.41510    0.10120
 1266.50000   -9999.25   -9999.25   69.91620    0.03800
 1267.00000   -9999.25   -9999.25   54.34910    0.01740
 1267.50000   -9999.25   -9999.25   33.70080    0.01150
 1268.00000   -9999.25   -9999.25   18.63940    0.00730
 1268.50000   -9999.25   -9999.25   17.63140    0.00580
 1269.00000   -9999.25   -9999.25   17.79210    0.00580
 1269.50000   -9999.25   -9999.25   18.63320    0.00780
 1270.00000   -9999.25   -9999.25   19.46210    0.01450
 1270.50000   -9999.25   -9999.25   19.94920    0.03860
 1271.00000   -9999.25   -9999.25   19.66740    0.07070
 1271.50000   -9999.25   -9999.25   19.37030    0.10670
 1272.00000   -9999.25   -9999.25   20.10960    0.15060
 1272.50000   -9999.25   -9999.25   21.33850    0.16360
 1273.00000   -9999.25   -9999.25   21.35380    0.14000
 1273.50000   -9999.25   -9999.25   20.79350    0.08250
 1274.00000   -9999.25   -9999.25   20.23310    0.05250
 1274.50000   -9999.25   -9999.25   19.85870    0.03290
 1275.00000   -9999.25   -9999.25   20.10900    0.03350
 1275.50000   -9999.25   -9999.25   19.82120    0.03810
 1276.00000   -9999.25   -9999.25   19.27980    0.04210
 1276.50000   -9999.25   -9999.25   18.73840    0.04330
 1277.00000   -9999.25   -9999.25   18.46100    0.03730
 1277.50000   -9999.25   -9999.25   18.49680    0.02920
 1278.00000   -9999.25   -9999.25   18.77900    0.02250
 1278.50000   -9999.25   -9999.25   19.17780    0.01720
 1279.00000   -9999.25   -9999.25   19.62620    0.01730
 1279.50000   -9999.25   -9999.25   19.95590    0.01780
 1280.00000   -9999.25   -9999.25   19.64020    0.01870
 1280.50000   -9999.25   -9999.25   17.91780    0.01980
 1281.00000   -9999.25   -9999.25   16.49160    0.02110
 1281.50000   -9999.25   -9999.25   16.45180    0.02290
 1282.00000   -9999.25   -9999.25   16.66250    0.02810
 1282.50000   -9999.25   -9999.25   16.80630    0.03460
 1283.00000   -9999.25   -9999.25   16.84680    0.04020
 1283.50000   -9999.25   -9999.25   17.01430    0.03780
 1284.00000   -9999.25   -9999.25   18.45460    0.03420
 1284.50000   -9999.25   -9999.25   19.50950    0.03750
 1285.00000   -9999.25   -9999.25   19.04490    0.04010
 1285.50000   -9999.25   -9999.25   18.36840    0.04520
 1286.00000   -9999.25   -9999.25   18.94900    0.05470
 1286.50000   -9999.25   -9999.25   22.49210    0.07150
 1287.00000   -9999.25   -9999.25   26.03510    0.08860
 1287.50000   -9999.25   -9999.25   28.64760    0.09890
 1288.00000   -9999.25   -9999.25   28.59540    0.08030
 1288.50000   -9999.25   -9999.25   25.51230    0.06700
 1289.00000   -9999.25   -9999.25   22.73210    0.06960
 1289.50000   -9999.25   -9999.25   19.93180    0.09050
 1290.00000   -9999.25   -9999.25   16.23230    0.09920
 1290.50000   -9999.25   -9999.25   12.92300    0.06390
 1291.00000   -9999.25   -9999.25   10.22570    0.03380
 1291.50000   -9999.25   -9999.25    9.24620   -0.00240
 1292.00000   -9999.25   -9999.25    9.44290   -0.00590
 1292.50000   -9999.25   -9999.25   11.78380   -0.00030
 1293.00000   -9999.25   -9999.25   16.75790    0.00800
 1293.50000   -9999.25   -9999.25   24.71360    0.01790
 1294.00000   -9999.25   -9999.25   32.12210    0.03460
 1294.50000   -9999.25   -9999.25   35.88260    0.05610
 1295.00000   -9999.25   -9999.25   37.46790    0.05160
 1295.50000   -9999.25   -9999.25   39.08360    0.04240
 1296.00000   -9999.25   -9999.25   39.54780    0.03410
 1296.50000   -9999.25   -9999.25   36.99680    0.05540
 1297.00000   -9999.25   -9999.25   35.92130    0.08850
 1297.50000   -9999.25   -9999.25   36.45380    0.11480
 1298.00000   -9999.25   -9999.25   40.12860    0.13580
 1298.50000   -9999.25   -9999.25   42.22420    0.12830
 1299.00000   -9999.25   -9999.25   39.92670    0.12170
 1299.50000   -9999.25   -9999.25   37.30900    0.11930
 1300.00000   -9999.25   -9999.25   34.98110    0.10930
 1300.50000   -9999.25   -9999.25   32.65020    0.09730
 1301.00000   -9999.25   -9999.25   29.96890    0.07120
 1301.50000   -9999.25   -9999.25   27.54600    0.05520
 1302.00000   -9999.25   -9999.25   24.63610    0.05230
 1302.50000   -9999.25   -9999.25   21.72620    0.05900
 1303.00000   -9999.25   -9999.25   19.79990    0.07220
 1303.50000   -9999.25   -9999.25   17.78070    0.07270
