~Version ---------------------------------------------------
VERS.   2.0 : CWLS log ASCII Standard -VERSION 2.0
WRAP.    NO : One line per depth step
DLM . SPACE : Column Data Section Delimiter
~Well ------------------------------------------------------
STRT .F                  17.0 : START DEPTH
STOP .F                3065.0 : STOP DEPTH
STEP .F                   0.5 : STEP
NULL .               -9999.25 : NULL VALUE
COMP .                        : COMPANY
WELL .                        : WELL
FLD  .                        : FIELD
LOC  .                        : LOCATION
PROV .                        : PROVINCE
CNTY .                        : COUNTY
STAT .                        : STATE
CTRY .                        : COUNTRY
SRVC .                        : SERVICE COMPANY
DATE .                        : DATE
UWI  .                        : UNIQUE WELL ID
API  .                        : API NUMBER
SLAT .WGS84 1.659894187066996 : SURFACE LATITUDE
SLON .WGS84 6.944955602196998 : SURFACE LONGITUDE
DATUM.F               2555.77 : DEPTH DATUM ELEV
~Curve Information -----------------------------------------
DEPT   .F     : 1 MEASURED DEPTH
DTCO   .US/F  : DELTA-T COMPRESSIONAL
DTSM   .US/F  : DELTA-T SHEAR
GRD    .GAPI  : GAMMA RAY FROM DENSITY LOG
NPHI_LS.DEC   : NEUTRON POROSITY LIMESTONE
~Params ----------------------------------------------------
~Other -----------------------------------------------------
~ASCII -----------------------------------------------------
# ...
  875.00000   -9999.25   -9999.25   57.20550    0.16670
  875.50000   -9999.25   -9999.25   56.93350    0.17920
  876.00000   -9999.25   -9999.25   56.33050    0.19110
  876.50000   -9999.25   -9999.25   53.26710    0.21310
  877.00000   -9999.25   -9999.25   49.82330    0.23920
  877.50000   -9999.25   -9999.25   47.26390    0.25560
  878.00000   -9999.25   -9999.25   44.39980    0.25960
  878.50000   -9999.25   -9999.25   43.64460    0.24450
  879.00000   -9999.25   -9999.25   46.73890    0.22700
  879.50000   -9999.25   -9999.25   51.20630    0.21300
  880.00000   -9999.25   -9999.25   54.53440    0.21120
  880.50000   -9999.25   -9999.25   56.48470    0.21580
  881.00000   -9999.25   -9999.25   57.22710    0.22420
  881.50000   -9999.25   -9999.25   59.82570    0.22810
  882.00000   -9999.25   -9999.25   64.34150    0.21900
  882.50000   -9999.25   -9999.25   67.33210    0.19540
  883.00000   -9999.25   -9999.25   64.60340    0.17230
  883.50000   -9999.25   -9999.25   60.34870    0.15230
  884.00000   -9999.25   -9999.25   57.25940    0.14980
  884.50000   -9999.25   -9999.25   55.32170    0.14900
  885.00000   -9999.25   -9999.25   52.32910    0.14780
  885.50000   -9999.25   -9999.25   50.86740    0.14410
  886.00000   -9999.25   -9999.25   49.22590    0.14750
  886.50000   -9999.25   -9999.25   48.49820    0.16120
  887.00000   -9999.25   -9999.25   47.55590    0.16320
  887.50000   -9999.25   -9999.25   45.92090    0.14920
  888.00000   -9999.25   -9999.25   45.17080    0.13120
  888.50000   -9999.25   -9999.25   45.61060    0.12410
  889.00000   -9999.25   -9999.25   46.73840    0.12930
  889.50000   -9999.25   -9999.25   48.54110    0.13990
  890.00000   -9999.25   -9999.25   50.97410    0.14850
  890.50000   -9999.25   -9999.25   54.62590    0.15510
  891.00000   -9999.25   -9999.25   57.24600    0.15620
  891.50000   -9999.25   -9999.25   58.00820    0.15340
  892.00000   -9999.25   -9999.25   58.04720    0.15630
  892.50000   -9999.25   -9999.25   57.33250    0.16160
  893.00000   -9999.25   -9999.25   55.63180    0.17040
  893.50000   -9999.25   -9999.25   53.55580    0.18000
  894.00000   -9999.25   -9999.25   52.39280    0.18260
  894.50000   -9999.25   -9999.25   52.17550    0.18250
  895.00000   -9999.25   -9999.25   51.89180    0.18020
  895.50000   -9999.25   -9999.25   51.29230    0.17830
  896.00000   -9999.25   -9999.25   50.40100    0.18110
  896.50000   -9999.25   -9999.25   49.37940    0.18650
  897.00000   -9999.25   -9999.25   45.65910    0.18680
  897.50000   -9999.25   -9999.25   44.80890    0.18310
  898.00000   -9999.25   -9999.25   45.17000    0.17850
  898.50000   -9999.25   -9999.25   51.23800    0.18300
  899.00000   -9999.25   -9999.25   50.99870    0.18650
  899.50000   -9999.25   -9999.25   49.60040    0.18330
  900.00000   -9999.25   -9999.25   48.80680    0.17750
  900.50000   -9999.25   -9999.25   49.40130    0.17360
  901.00000   -9999.25   -9999.25   50.27460    0.16790
  901.50000   -9999.25   -9999.25   50.08040    0.16150
  902.00000   -9999.25   -9999.25   49.02910    0.15760
  902.50000   -9999.25   -9999.25   49.25540    0.15380
  903.00000   -9999.25   -9999.25   49.70300    0.14820
  903.50000   -9999.25   -9999.25   50.19820    0.14890
  904.00000   -9999.25   -9999.25   51.18770    0.16080
  904.50000   -9999.25   -9999.25   52.34190    0.18120
  905.00000   -9999.25   -9999.25   53.30260    0.19280
  905.50000   -9999.25   -9999.25   54.83070    0.20910
  906.00000   -9999.25   -9999.25   60.29650    0.22840
  906.50000   -9999.25   -9999.25   66.44560    0.25770
  907.00000   -9999.25   -9999.25   70.43500    0.26600
  907.50000   -9999.25   -9999.25   66.80890    0.25730
  908.00000   -9999.25   -9999.25   62.74910    0.24480
  908.50000   -9999.25   -9999.25   57.58420    0.23070
  909.00000   -9999.25   -9999.25   54.26110    0.21660
  909.50000   -9999.25   -9999.25   50.13440    0.20250
  910.00000   -9999.25   -9999.25   47.56500    0.20400
  910.50000   -9999.25   -9999.25   45.74440    0.20350
  911.00000   -9999.25   -9999.25   45.29750    0.18750
  911.50000   -9999.25   -9999.25   44.88410    0.15670
  912.00000   -9999.25   -9999.25   44.64570    0.13060
  912.50000   -9999.25   -9999.25   45.17360    0.14210
  913.00000   -9999.25   -9999.25   46.35990    0.16070
  913.50000   -9999.25   -9999.25   48.83480    0.17550
  914.00000   -9999.25   -9999.25   50.06980    0.16370
  914.50000   -9999.25   -9999.25   47.81580    0.14540
  915.00000   -9999.25   -9999.25   45.30940    0.14140
  915.50000   -9999.25   -9999.25   43.69260    0.15060
  916.00000   -9999.25   -9999.25   43.84660    0.16800
  916.50000   -9999.25   -9999.25   46.89020    0.17910
  917.00000   -9999.25   -9999.25   48.99500    0.17660
  917.50000   -9999.25   -9999.25   50.10570    0.17920
  918.00000   -9999.25   -9999.25   49.42790    0.18030
  918.50000   -9999.25   -9999.25   47.21620    0.15170
  919.00000   -9999.25   -9999.25   44.50060    0.12290
  919.50000   -9999.25   -9999.25   40.49870    0.10230
  920.00000   -9999.25   -9999.25   39.75640    0.10770
  920.50000   -9999.25   -9999.25   40.54080    0.13170
  921.00000   -9999.25   -9999.25   42.23980    0.15280
  921.50000   -9999.25   -9999.25   44.03930    0.16240
  922.00000   -9999.25   -9999.25   45.86270    0.13870
  922.50000   -9999.25   -9999.25   48.13930    0.11740
  923.00000   -9999.25   -9999.25   50.67630    0.10490
  923.50000   -9999.25   -9999.25   52.42470    0.09780
  924.00000   -9999.25   -9999.25   53.39680    0.09670
  924.50000   -9999.25   -9999.25   52.41230    0.10300
  925.00000   -9999.25   -9999.25   50.18500    0.11580
  925.50000   -9999.25   -9999.25   46.31050    0.12920
  926.00000   -9999.25   -9999.25   42.45490    0.12200
  926.50000   -9999.25   -9999.25   36.67040    0.08930
  927.00000   -9999.25   -9999.25   27.40770    0.05680
  927.50000   -9999.25   -9999.25   19.55270    0.02190
  928.00000   -9999.25   -9999.25   12.70730    0.01620
  928.50000   -9999.25   -9999.25    8.75350    0.01380
  929.00000   -9999.25   -9999.25    8.37300    0.01390
  929.50000   -9999.25   -9999.25    7.80940    0.01320
  930.00000   -9999.25   -9999.25    7.50810    0.01040
  930.50000   -9999.25   -9999.25    7.51970    0.00850
  931.00000   -9999.25   -9999.25    8.97100    0.00740
  931.50000   -9999.25   -9999.25   10.02230    0.00650
  932.00000   -9999.25   -9999.25    9.81360    0.00590
  932.50000   -9999.25   -9999.25    8.51720    0.00510
  933.00000   -9999.25   -9999.25    7.44080    0.00470
  933.50000   -9999.25   -9999.25    7.10810    0.00610
  934.00000   -9999.25   -9999.25    8.70370    0.01550
  934.50000   -9999.25   -9999.25   19.70400    0.03100
  935.00000   -9999.25   -9999.25   31.78250    0.05780
  935.50000   -9999.25   -9999.25   43.55460    0.08930
  936.00000   -9999.25   -9999.25   53.67960    0.12020
  936.50000   -9999.25   -9999.25   61.42210    0.15340
  937.00000   -9999.25   -9999.25   67.73090    0.16800
  937.50000   -9999.25   -9999.25   69.92450    0.17540
  938.00000   -9999.25   -9999.25   67.79720    0.16540
  938.50000   -9999.25   -9999.25   64.57540    0.15060
  939.00000   -9999.25   -9999.25   61.63190    0.11750
  939.50000   -9999.25   -9999.25   58.75360    0.09100
  940.00000   -9999.25   -9999.25   55.27050    0.08060
  940.50000   -9999.25   -9999.25   52.27110    0.08010
  941.00000   -9999.25   -9999.25   51.03590    0.09770
  941.50000   -9999.25   -9999.25   53.14120    0.15330
  942.00000   -9999.25   -9999.25   55.42280    0.19070
  942.50000   -9999.25   -9999.25   51.12490    0.18120
  943.00000   -9999.25   -9999.25   45.11110    0.13800
  943.50000   -9999.25   -9999.25   35.08850    0.08540
  944.00000   -9999.25   -9999.25   25.21930    0.04440
  944.50000   -9999.25   -9999.25   15.73500    0.01440
  945.00000   -9999.25   -9999.25    9.77900   -0.00050
  945.50000   -9999.25   -9999.25    5.73070   -0.00270
  946.00000   -9999.25   -9999.25    4.99080   -0.00390
