~Version ---------------------------------------------------
VERS.   2.0 : CWLS log ASCII Standard -VERSION 2.0
WRAP.    NO : One line per depth step
DLM . SPACE : Column Data Section Delimiter
~Well ------------------------------------------------------
STRT .F                  17.0 : START DEPTH
STOP .F                3065.0 : STOP DEPTH
STEP .F                   0.5 : STEP
NULL .               -9999.25 : NULL VALUE
COMP .                        : COMPANY
WELL .                        : WELL
FLD  .                        : FIELD
LOC  .                        : LOCATION
PROV .                        : PROVINCE
CNTY .                        : COUNTY
STAT .                        : STATE
CTRY .                        : COUNTRY
SRVC .                        : SERVICE COMPANY
DATE .                        : DATE
UWI  .                        : UNIQUE WELL ID
API  .                        : API NUMBER
SLAT .WGS84 1.659894187066996 : SURFACE LATITUDE
SLON .WGS84 6.944955602196998 : SURFACE LONGITUDE
DATUM.F               2555.77 : DEPTH DATUM ELEV
~Curve Information -----------------------------------------
DEPT   .F     : 1 MEASURED DEPTH
DTCO   .US/F  : DELTA-T COMPRESSIONAL
DTSM   .US/F  : DELTA-T SHEAR
GRD    .GAPI  : GAMMA RAY FROM DENSITY LOG
NPHI_LS.DEC   : NEUTRON POROSITY LIMESTONE
~Params ----------------------------------------------------
~Other -----------------------------------------------------
~ASCII -----------------------------------------------------
# ...
 2448.00000   54.30590  117.52990   19.65080    0.02610
 2448.50000   55.09620  121.79300   26.00460    0.05360
 2449.00000   55.88660  122.77140   31.21400    0.08030
 2449.50000   56.10570  122.17170   35.76510    0.10240
 2450.00000   55.49200  120.71860   37.41940    0.09840
 2450.50000   54.99180  119.28740   34.89270    0.07400
 2451.00000   54.86110  115.73110   30.61460    0.05170
 2451.50000   53.92730  110.71960   28.32580    0.03100
 2452.00000   52.75060  107.50660   23.37920    0.01970
 2452.50000   52.23230  105.47250   18.59170    0.01060
 2453.00000   52.91580  103.16920   14.73480    0.00420
 2453.50000   52.92720  102.85260   12.49400    0.00060
 2454.00000   52.78910  103.86120   12.49900    0.00120
 2454.50000   53.24330  104.29390   12.91320    0.00510
 2455.00000   54.07500  102.92180   12.92390    0.00910
 2455.50000   54.57950  101.29100   13.07010    0.01660
 2456.00000   54.50010   99.70780   14.20320    0.01830
 2456.50000   54.13630   98.35240   15.20480    0.01530
 2457.00000   53.64420   96.12370   13.69550    0.01030
 2457.50000   53.18800   94.74450   12.14320    0.00650
 2458.00000   53.22120   96.35790   11.38590    0.00400
 2458.50000   53.40600   97.16100   12.27230    0.00590
 2459.00000   53.16280   97.11900   14.32950    0.00870
 2459.50000   53.40000   97.08450   15.95360    0.01000
 2460.00000   54.33700   97.05870   16.66490    0.00820
 2460.50000   54.59280   97.03300   16.13020    0.00560
 2461.00000   54.20850   97.09740   14.60220    0.00200
 2461.50000   53.49180   97.23320   13.77710    0.00010
 2462.00000   52.77510   97.54040   13.49870   -0.00040
 2462.50000   52.09920   98.65190   13.11270   -0.00010
 2463.00000   51.95960  100.33430   12.90430    0.00090
 2463.50000   52.12320  102.25450   12.44620    0.00200
 2464.00000   52.68920  104.03070   12.20720    0.00340
 2464.50000   52.86560  105.75720   12.54440    0.00500
 2465.00000   52.57470  107.41020   14.17750    0.00850
 2465.50000   52.39210  109.55640   16.81760    0.01230
 2466.00000   52.74450  111.91970   19.78130    0.01500
 2466.50000   53.23810  114.43640   20.79810    0.01430
 2467.00000   53.73160  115.19400   18.92510    0.01190
 2467.50000   54.22520  112.02730   15.20540    0.00770
 2468.00000   53.66050  107.18080   13.32100    0.00470
 2468.50000   52.83150  102.28020   12.46830    0.00380
 2469.00000   52.08360   99.55650   13.77400    0.00590
 2469.50000   51.75020  101.91010   15.44860    0.01100
 2470.00000   51.93530  107.31080   18.74620    0.01960
 2470.50000   52.29060  111.17820   22.28050    0.02660
 2471.00000   52.73110  113.93490   25.90600    0.03290
 2471.50000   53.31810  115.52220   27.70620    0.03410
 2472.00000   54.04170  116.05260   25.70940    0.03430
 2472.50000   54.25830  115.61660   23.29390    0.02950
 2473.00000   54.50410  113.72270   20.41120    0.02530
 2473.50000   54.65060  112.64990   19.67670    0.02410
 2474.00000   54.50250  114.35920   18.00960    0.02280
 2474.50000   54.30610  116.79360   17.36350    0.02130
 2475.00000   54.10980  117.28790   17.45300    0.02680
 2475.50000   53.88370  117.10670   18.90650    0.03730
 2476.00000   53.65290  115.66870   22.12940    0.04860
 2476.50000   53.42210  112.31060   22.48660    0.04180
 2477.00000   53.19130  108.95090   20.17800    0.02580
 2477.50000   52.91910  105.60370   17.73200    0.01350
 2478.00000   52.47760  102.25870   14.09290    0.00790
 2478.50000   52.26690   98.91410   12.07100    0.00350
 2479.00000   52.19450   95.56810   10.18830    0.00120
 2479.50000   52.12210   93.17940    9.85210    0.00000
 2480.00000   52.44360   90.59210   10.36890   -0.00140
 2480.50000   52.87260   88.23920   11.24400   -0.00320
 2481.00000   52.73970   86.19740   12.04780   -0.00390
 2481.50000   51.83180   85.08290   11.91210   -0.00390
 2482.00000   50.92840   85.36930   10.83870   -0.00350
 2482.50000   51.16020   86.50680   10.08250   -0.00300
 2483.00000   51.70500   88.05020    9.82400   -0.00250
 2483.50000   52.26910   89.82640    9.97520   -0.00190
 2484.00000   52.94400   91.75090   12.77100    0.00030
 2484.50000   53.61050   93.72050   16.14610    0.00750
 2485.00000   54.15260   95.63320   22.18570    0.01940
 2485.50000   54.32680   96.81220   27.08900    0.04320
 2486.00000   54.48940   97.90690   33.11860    0.07020
 2486.50000   54.63750   99.08530   35.74360    0.09590
 2487.00000   54.78550  100.03080   38.32780    0.09960
 2487.50000   54.81890  100.13840   40.47640    0.09230
 2488.00000   54.75030   99.65120   40.11150    0.08120
 2488.50000   54.62210   99.55020   39.38980    0.07420
 2489.00000   54.55660   99.63980   39.68580    0.08960
 2489.50000   54.93260  100.01770   41.17860    0.11420
 2490.00000   55.05240  100.45730   43.21130    0.13710
 2490.50000   55.05610  100.75750   44.57730    0.15500
 2491.00000   55.03100  100.76150   44.01660    0.15370
 2491.50000   54.81930  100.31990   40.95520    0.12970
 2492.00000   54.14670   99.29820   34.98580    0.08530
 2492.50000   53.55080   98.04660   29.11570    0.03970
 2493.00000   53.14310   96.91460   20.44790    0.01980
 2493.50000   52.97610   96.80330   17.81070    0.00930
 2494.00000   53.08720   96.81420   16.22660    0.00210
 2494.50000   53.12640   97.15190   14.91220   -0.00050
 2495.00000   53.42150   97.75320   14.07910    0.00110
 2495.50000   54.00450   98.73330   14.02250    0.00400
 2496.00000   53.48650   99.97630   14.72990    0.00940
 2496.50000   53.23480  101.21930   15.42850    0.01170
 2497.00000   53.99580  101.94020   14.19400    0.00940
 2497.50000   54.31490  102.24410   12.80770    0.00610
 2498.00000   54.30020  103.92450   16.43260    0.00950
 2498.50000   54.14820  105.63290   25.31230    0.01990
 2499.00000   53.99630  106.87920   32.32260    0.03400
 2499.50000   53.88150  107.27410   38.02660    0.04840
 2500.00000   53.85330  107.66890   39.71970    0.06140
 2500.50000   53.82520  107.92830   40.61130    0.07120
 2501.00000   53.79700  107.92830   40.83130    0.07890
 2501.50000   53.76880  107.92830   41.48440    0.08980
 2502.00000   53.74060  107.98960   44.21830    0.09740
 2502.50000   53.87200  108.17440   46.64050    0.09870
 2503.00000   54.24320  108.35920   48.92000    0.09350
 2503.50000   54.35570  108.41380   48.93440    0.08820
 2504.00000   54.39260  107.19320   47.11740    0.07960
 2504.50000   53.82350  106.13820   43.99550    0.07230
 2505.00000   53.09240  105.83540   41.37200    0.06950
 2505.50000   52.47710  105.64620   36.55700    0.06480
 2506.00000   52.86330  105.56290   30.01680    0.04810
 2506.50000   54.39260  105.66590   22.16480    0.02870
 2507.00000   53.41230  105.26350   18.88530    0.01360
 2507.50000   52.96380  105.04600   18.86180    0.01740
 2508.00000   52.57600  105.62150   21.45430    0.02910
 2508.50000   52.16580  106.73440   26.69090    0.05060
 2509.00000   52.04890  106.43450   27.90570    0.05960
 2509.50000   52.08270  103.66660   25.93230    0.04540
 2510.00000   52.51200  100.27700   21.14570    0.02730
 2510.50000   53.33370   95.35430   17.03740    0.01190
 2511.00000   53.85830   95.15360   15.11550    0.01370
 2511.50000   53.69380   98.26750   17.77910    0.01950
 2512.00000   52.93260  102.44320   22.23290    0.02440
 2512.50000   52.18730  108.20420   24.44350    0.02770
 2513.00000   51.87900  111.95820   26.15120    0.03020
 2513.50000   52.13310  112.99340   29.42700    0.04330
 2514.00000   52.77000  113.66370   33.17760    0.05730
 2514.50000   53.77380  114.81170   34.38330    0.05980
 2515.00000   55.00680  114.55420   28.65920    0.03510
 2515.50000   56.23920  111.04210   21.81930    0.01220
 2516.00000   57.29570  106.20310   15.76540    0.00570
 2516.50000   55.52590  101.81110   12.95960    0.00320
 2517.00000   54.16920   98.35410   12.44130    0.00400
 2517.50000   54.28690   98.80910   12.38080    0.00430
 2518.00000   53.75040  100.28080   12.54640    0.00620
 2518.50000   52.86900   99.50960   13.40870    0.00880
 2519.00000   52.78590   98.37830   15.01270    0.01230
