~Version ---------------------------------------------------
VERS.   2.0 : CWLS log ASCII Standard -VERSION 2.0
WRAP.    NO : One line per depth step
DLM . SPACE : Column Data Section Delimiter
~Well ------------------------------------------------------
STRT .F                  17.0 : START DEPTH
STOP .F                3065.0 : STOP DEPTH
STEP .F                   0.5 : STEP
NULL .               -9999.25 : NULL VALUE
COMP .                        : COMPANY
WELL .                        : WELL
FLD  .                        : FIELD
LOC  .                        : LOCATION
PROV .                        : PROVINCE
CNTY .                        : COUNTY
STAT .                        : STATE
CTRY .                        : COUNTRY
SRVC .                        : SERVICE COMPANY
DATE .                        : DATE
UWI  .                        : UNIQUE WELL ID
API  .                        : API NUMBER
SLAT .WGS84 1.659894187066996 : SURFACE LATITUDE
SLON .WGS84 6.944955602196998 : SURFACE LONGITUDE
DATUM.F               2555.77 : DEPTH DATUM ELEV
~Curve Information -----------------------------------------
DEPT   .F     : 1 MEASURED DEPTH
DTCO   .US/F  : DELTA-T COMPRESSIONAL
DTSM   .US/F  : DELTA-T SHEAR
GRD    .GAPI  : GAMMA RAY FROM DENSITY LOG
NPHI_LS.DEC   : NEUTRON POROSITY LIMESTONE
~Params ----------------------------------------------------
~Other -----------------------------------------------------
~ASCII -----------------------------------------------------
# ...
 2805.50000   70.97380  121.23970   39.26340    0.31880
 2806.00000   60.43820  105.84800   36.52170    0.28830
 2806.50000   52.71830   96.64630   31.36250    0.22820
 2807.00000   54.19480  100.04320   27.31280    0.16130
 2807.50000   54.50190  101.64770   24.17700    0.15380
 2808.00000   53.66350   99.99860   22.02700    0.17160
 2808.50000   54.05950  100.21830   20.35020    0.19220
 2809.00000   55.29250  100.79590   20.11350    0.20230
 2809.50000   55.29980  101.45100   20.31400    0.19670
 2810.00000   54.81960  102.12100   20.63850    0.18800
 2810.50000   55.32990  102.97240   21.00280    0.18550
 2811.00000   56.18330  103.86730   21.36700    0.19350
 2811.50000   56.95220  105.63000   21.83300    0.20690
 2812.00000   57.69410  108.68900   23.99370    0.21460
 2812.50000   58.52190  111.94970   25.07120    0.21980
 2813.00000   60.12990  114.64590   25.01060    0.22710
 2813.50000   62.17630  117.73530   24.61320    0.23830
 2814.00000   63.91410  118.88930   24.40280    0.24860
 2814.50000   63.55790  117.76190   24.92210    0.24530
 2815.00000   62.82800  115.55640   24.66240    0.23780
 2815.50000   62.17790  114.71770   24.28800    0.23790
 2816.00000   61.98750  113.91540   24.17410    0.24750
 2816.50000   61.64410  113.11650   24.37850    0.26770
 2817.00000   60.78980  111.92840   24.35840    0.26920
 2817.50000   60.02800  111.51910   24.13560    0.25860
 2818.00000   60.22190  111.59020   24.32550    0.24840
 2818.50000   60.70250  112.72520   24.37340    0.24130
 2819.00000   61.72960  114.42610   23.54770    0.24930
 2819.50000   63.17890  116.21800   22.07450    0.26660
 2820.00000   64.98540  119.09330   19.98180    0.29000
 2820.50000   64.74270  120.04970   20.38350    0.29900
 2821.00000   62.52680  117.95750   20.78520    0.29690
 2821.50000   60.01500  112.74210   21.18690    0.27440
 2822.00000   57.28120  107.64440   22.01390    0.24580
 2822.50000   55.57370  104.63780   24.53450    0.23410
 2823.00000   56.33730  106.96390   27.07390    0.24130
 2823.50000   57.83440  110.96330   30.19300    0.28320
 2824.00000   59.52910  115.18700   30.29260    0.30630
 2824.50000   62.09440  119.25900   29.12700    0.31170
 2825.00000   64.74150  123.41590   27.89100    0.30610
 2825.50000   66.52250  124.46010   26.65500    0.29930
 2826.00000   66.80700  122.80540   25.37970    0.29240
 2826.50000   64.85480  120.94790   23.99560    0.27990
 2827.00000   62.08870  118.66190   22.10830    0.25430
 2827.50000   58.96240  113.80160   21.74990    0.22210
 2828.00000   56.09140  107.75680   21.72320    0.19470
 2828.50000   53.73210  101.78910   21.70690    0.19790
 2829.00000   52.66450   99.84080   21.08490    0.22120
 2829.50000   53.06380  101.11840   20.22020    0.23770
 2830.00000   54.92090  104.32330   19.86780    0.24490
 2830.50000   56.11090  108.34630   21.07140    0.23280
 2831.00000   58.20890  112.59770   22.32610    0.22490
 2831.50000   60.60230  116.89650   22.41960    0.23620
 2832.00000   63.01310  120.69840   22.45100    0.25700
 2832.50000   64.69280  120.15460   23.70850    0.28310
 2833.00000   65.73840  118.81600   25.04700    0.28660
 2833.50000   64.55760  117.25730   26.55570    0.26050
 2834.00000   62.46460  115.00640   27.23280    0.22710
 2834.50000   60.06280  111.52840   27.37070    0.17570
 2835.00000   57.73860  107.33630   26.54070    0.13940
 2835.50000   55.76140  102.96400   25.29130    0.10380
 2836.00000   53.78420  100.00850   23.52720    0.07800
 2836.50000   52.24890   97.01920   21.76310    0.06470
 2837.00000   50.82260   94.61600   20.87980    0.05550
 2837.50000   50.08660   93.45420   19.57920    0.05300
 2838.00000   49.78850   93.95690   18.14640    0.06340
 2838.50000   49.96430   95.87120   17.41500    0.08750
 2839.00000   51.07640   98.64530   18.04990    0.11900
 2839.50000   52.53480  101.59600   19.96240    0.16390
 2840.00000   54.85580  106.48010   21.36520    0.20380
 2840.50000   57.39920  110.93210   22.38430    0.24280
 2841.00000   58.91920  111.01320   22.64180    0.23290
 2841.50000   57.87080  109.33040   22.63560    0.18320
 2842.00000   56.17520  106.74020   22.55170    0.12350
 2842.50000   54.25180  103.91720   22.59510    0.11950
 2843.00000   53.59780  102.87730   23.23770    0.15360
 2843.50000   54.87180  104.52720   23.49870    0.20730
 2844.00000   56.50240  106.34960   23.23650    0.23960
 2844.50000   58.07580  108.02360   22.77350    0.23270
 2845.00000   57.43670  108.14290   22.38450    0.21350
 2845.50000   56.15060  106.05570   22.04960    0.20100
 2846.00000   54.90580  103.93380   21.93150    0.19980
 2846.50000   53.55540  101.72210   20.03810    0.19850
 2847.00000   52.20500   99.40180   19.13060    0.18680
 2847.50000   50.85510   97.08160   18.77000    0.16060
 2848.00000   50.61120   96.95610   19.33320    0.12980
 2848.50000   51.40720   99.08100   20.24730    0.13020
 2849.00000   52.26690  100.58810   21.08430    0.13900
 2849.50000   53.66400  100.02010   20.97260    0.14780
 2850.00000   55.43080  103.21050   19.89970    0.15550
 2850.50000   56.79200  106.10210   18.82680    0.16230
 2851.00000   57.69770  106.91920   18.11220    0.16850
 2851.50000   57.97310  107.45190   16.93340    0.16300
 2852.00000   58.08210  107.77100   16.53450    0.15050
 2852.50000   58.87360  108.14440   16.32880    0.14010
 2853.00000   59.73490  108.59630   16.45060    0.14970
 2853.50000   60.24400  109.04820   16.67020    0.16280
 2854.00000   60.28370  109.25350   16.43760    0.17820
 2854.50000   59.99420  108.83390   16.02980    0.17900
 2855.00000   58.94790  107.71790   16.03490    0.17910
 2855.50000   57.38700  106.39460   16.58520    0.17840
 2856.00000   55.58810  104.29740   17.45830    0.15840
 2856.50000   53.96360  102.02970   18.65660    0.13420
 2857.00000   52.89740  100.42570   18.50880    0.11890
 2857.50000   52.34440  100.49450   17.14460    0.13870
 2858.00000   52.40340  102.14540   15.75420    0.17170
 2858.50000   54.11550  104.60580   14.32190    0.20240
 2859.00000   56.88320  108.24960   13.82890    0.21370
 2859.50000   58.57770  110.05870   13.83500    0.21930
 2860.00000   60.17300  111.38590   14.43590    0.21060
 2860.50000   60.05890  111.91020   15.62990    0.18910
 2861.00000   57.69930  110.03930   17.26120    0.16100
 2861.50000   55.65660  107.11200   17.40010    0.12490
 2862.00000   53.76980  102.88990   17.47730    0.09310
 2862.50000   52.67020  100.04160   17.54350    0.07330
 2863.00000   51.67160   97.75080   18.44480    0.06680
 2863.50000   51.35200   96.75880   18.81050    0.06600
 2864.00000   52.14160   98.67080   17.84190    0.08060
 2864.50000   53.47440  101.15420   17.47800    0.10840
 2865.00000   55.63300  103.82160   18.15460    0.14330
 2865.50000   56.70760  107.25700   20.26540    0.17700
 2866.00000   59.12600  109.06670   21.05240    0.19630
 2866.50000   60.10930  110.93810   20.85820    0.19490
 2867.00000   58.83720  110.72880   20.00710    0.18380
 2867.50000   57.18580  108.27810   19.28470    0.17180
 2868.00000   55.65810  105.82730   19.03970    0.15500
 2868.50000   54.13040  103.37660   19.47550    0.14330
 2869.00000   52.61370  101.43790   19.91120    0.13840
 2869.50000   51.10900   98.03780   19.82750    0.13550
 2870.00000   49.94450   94.82090   18.11990    0.12730
 2870.50000   50.19350   96.47950   17.76850    0.11940
 2871.00000   51.46010   98.82490   18.67590    0.12110
 2871.50000   52.28830   97.46480   20.75540    0.12890
 2872.00000   52.73010   98.30170   22.80180    0.13660
 2872.50000   52.73010  100.73820   23.87560    0.13610
 2873.00000   52.47860   99.11460   22.40630    0.13050
 2873.50000   51.84540   97.73930   20.93700    0.12350
 2874.00000   50.95860   97.09330   19.65800    0.12390
 2874.50000   50.37060   97.67470   20.30160    0.13870
 2875.00000   51.20910   99.09910   21.24580    0.15390
 2875.50000   52.38800  100.93460   21.61470    0.15950
 2876.00000   54.42270  103.14660   20.56730    0.15720
 2876.50000   56.72780  104.43470   19.62420    0.15860
