~Version ---------------------------------------------------
VERS.   2.0 : CWLS log ASCII Standard -VERSION 2.0
WRAP.    NO : One line per depth step
DLM . SPACE : Column Data Section Delimiter
~Well ------------------------------------------------------
STRT .F                  17.0 : START DEPTH
STOP .F                3065.0 : STOP DEPTH
STEP .F                   0.5 : STEP
NULL .               -9999.25 : NULL VALUE
COMP .                        : COMPANY
WELL .                        : WELL
FLD  .                        : FIELD
LOC  .                        : LOCATION
PROV .                        : PROVINCE
CNTY .                        : COUNTY
STAT .                        : STATE
CTRY .                        : COUNTRY
SRVC .                        : SERVICE COMPANY
DATE .                        : DATE
UWI  .                        : UNIQUE WELL ID
API  .                        : API NUMBER
SLAT .WGS84 1.659894187066996 : SURFACE LATITUDE
SLON .WGS84 6.944955602196998 : SURFACE LONGITUDE
DATUM.F               2555.77 : DEPTH DATUM ELEV
~Curve Information -----------------------------------------
DEPT   .F     : 1 MEASURED DEPTH
DTCO   .US/F  : DELTA-T COMPRESSIONAL
DTSM   .US/F  : DELTA-T SHEAR
GRD    .GAPI  : GAMMA RAY FROM DENSITY LOG
NPHI_LS.DEC   : NEUTRON POROSITY LIMESTONE
~Params ----------------------------------------------------
~Other -----------------------------------------------------
~ASCII -----------------------------------------------------
# ...
 2019.00000   -9999.25   -9999.25    7.94850   -0.00830
 2019.50000   -9999.25   -9999.25    8.69050   -0.00840
 2020.00000   -9999.25   -9999.25    8.24770   -0.00840
 2020.50000   -9999.25   -9999.25    7.04680   -0.00840
 2021.00000   -9999.25   -9999.25    6.36310   -0.00810
 2021.50000   -9999.25   -9999.25    6.26270   -0.00790
 2022.00000   -9999.25   -9999.25    6.58670   -0.00780
 2022.50000   -9999.25   -9999.25    7.63510   -0.00760
 2023.00000   -9999.25   -9999.25    8.55900   -0.00690
 2023.50000   -9999.25   -9999.25    8.85530   -0.00610
 2024.00000   -9999.25   -9999.25    9.61450   -0.00450
 2024.50000   -9999.25   -9999.25   10.37360   -0.00110
 2025.00000   -9999.25   -9999.25   13.94990    0.01000
 2025.50000   -9999.25   -9999.25   21.05070    0.02570
 2026.00000   -9999.25   -9999.25   29.11860    0.04550
 2026.50000   -9999.25   -9999.25   31.31680    0.03640
 2027.00000   -9999.25   -9999.25   27.32210    0.01520
 2027.50000   -9999.25   -9999.25   18.98280    0.00430
 2028.00000   -9999.25   -9999.25   13.55200   -0.00280
 2028.50000   -9999.25   -9999.25   10.19390   -0.00470
 2029.00000   -9999.25   -9999.25   11.72600    0.00060
 2029.50000   -9999.25   -9999.25   14.04270    0.00760
 2030.00000   -9999.25   -9999.25   14.48400    0.00910
 2030.50000   -9999.25   -9999.25   13.44280    0.00560
 2031.00000   -9999.25   -9999.25   12.80910    0.00270
 2031.50000   -9999.25   -9999.25   12.98880    0.01000
 2032.00000   -9999.25   -9999.25   13.97560    0.02830
 2032.50000   -9999.25   -9999.25   14.26570    0.04320
 2033.00000   -9999.25   -9999.25   12.55280    0.03230
 2033.50000   -9999.25   -9999.25   10.11550    0.01600
 2034.00000   -9999.25   -9999.25    8.50140    0.00050
 2034.50000   -9999.25   -9999.25    9.30150   -0.00180
 2035.00000   -9999.25   -9999.25   11.82340    0.00470
 2035.50000   -9999.25   -9999.25   19.57500    0.02110
 2036.00000   -9999.25   -9999.25   29.69930    0.04270
 2036.50000   -9999.25   -9999.25   41.44880    0.10020
 2037.00000   -9999.25   -9999.25   49.66230    0.12600
 2037.50000   -9999.25   -9999.25   49.17040    0.16340
 2038.00000   -9999.25   -9999.25   47.36610    0.18110
 2038.50000   -9999.25   -9999.25   45.56190    0.22540
 2039.00000   -9999.25   -9999.25   42.23500    0.21080
 2039.50000   -9999.25   -9999.25   34.83520    0.14270
 2040.00000   -9999.25   -9999.25   23.60200    0.05390
 2040.50000   -9999.25   -9999.25   14.63340    0.00310
 2041.00000   -9999.25   -9999.25   10.87830   -0.00130
 2041.50000   -9999.25   -9999.25   10.52170   -0.00250
 2042.00000   -9999.25   -9999.25   14.09860   -0.00050
 2042.50000   -9999.25   -9999.25   19.63260    0.00630
 2043.00000   -9999.25   -9999.25   26.00680    0.01580
 2043.50000   -9999.25   -9999.25   35.18310    0.02170
 2044.00000   -9999.25   -9999.25   40.51900    0.02750
 2044.50000   -9999.25   -9999.25   43.39940    0.03080
 2045.00000   -9999.25   -9999.25   41.89450    0.03820
 2045.50000   -9999.25   -9999.25   38.22560    0.04710
 2046.00000   -9999.25   -9999.25   34.25360    0.05920
 2046.50000   -9999.25   -9999.25   28.95670    0.07540
 2047.00000   -9999.25   -9999.25   25.95130    0.08490
 2047.50000   -9999.25   -9999.25   23.73210    0.07500
 2048.00000   -9999.25   -9999.25   21.89520    0.06100
 2048.50000   -9999.25   -9999.25   20.17140    0.02840
 2049.00000   -9999.25   -9999.25   20.09120    0.04320
 2049.50000   -9999.25   -9999.25   23.27840    0.06020
 2050.00000   66.13910  134.12500   28.13000    0.07760
 2050.50000   68.89770  135.03300   30.78990    0.09050
 2051.00000   70.98530  134.51190   30.52130    0.08290
 2051.50000   73.21400  134.24200   27.52790    0.07480
 2052.00000   75.78080  134.75290   25.24640    0.06860
 2052.50000   78.34750  135.21580   23.27020    0.06020
 2053.00000   79.48540  133.31270   22.72270    0.05710
 2053.50000   79.23570  127.43220   21.82130    0.06900
 2054.00000   75.85680  119.40140   20.10320    0.09970
 2054.50000   71.61810  111.52850   18.49950    0.10080
 2055.00000   67.28240  106.79410   16.66870    0.06410
 2055.50000   62.94670  102.00370   14.03850    0.03060
 2056.00000   58.59160   97.18240   12.16520    0.00640
 2056.50000   55.10610   92.96880   10.71760   -0.00170
 2057.00000   53.19780   90.68980   10.32440   -0.00250
 2057.50000   51.18210   87.74650   10.04290   -0.00370
 2058.00000   51.13920   85.92620    9.38160   -0.00510
 2058.50000   51.63650   85.60170    7.98470   -0.00770
 2059.00000   52.19650   87.16370    7.48390   -0.00690
 2059.50000   52.86960   89.93010    7.37050   -0.00420
 2060.00000   53.23820   97.91840    7.79930   -0.00340
 2060.50000   53.01680  104.39070    8.52820   -0.00480
 2061.00000   52.27450  105.02800    8.55790   -0.00610
 2061.50000   52.15560  100.41750    9.18710   -0.00220
 2062.00000   53.17030   98.58680   11.33090    0.01250
 2062.50000   54.64280   97.92030   17.62230    0.04770
 2063.00000   55.03540   94.26370   26.14270    0.09110
 2063.50000   53.56930   88.25540   36.58580    0.14600
 2064.00000   52.40810   84.66320   43.49910    0.20070
 2064.50000   52.60800   82.50130   47.28660    0.25420
 2065.00000   64.12960  101.89130   40.53400    0.22330
 2065.50000   76.22850  128.09280   29.73130    0.15340
 2066.00000   72.15810  133.03870   19.44650    0.04510
 2066.50000   56.06250  112.78880   11.02560    0.00010
 2067.00000   50.74420  105.60360    9.41090   -0.00540
 2067.50000   50.36220  105.34340    8.77780   -0.00700
 2068.00000   52.58420  107.48540    8.40600   -0.00390
 2068.50000   52.90340  107.70760    8.47010    0.00120
 2069.00000   53.25090  106.36200    9.11720    0.01080
 2069.50000   53.89940  104.14250   10.69550    0.01910
 2070.00000   55.88250  103.24310   12.73380    0.02340
 2070.50000   58.72200  102.29380   15.88520    0.03130
 2071.00000   63.79000  100.25330   19.57480    0.07110
 2071.50000   65.32260   98.16410   23.78640    0.11890
 2072.00000   63.51970   95.25190   25.05310    0.10530
 2072.50000   61.49350   91.51790   21.35500    0.06430
 2073.00000   57.87720   86.63650   16.21340    0.02590
 2073.50000   54.64650   83.06360   13.53800    0.00540
 2074.00000   53.28810   85.32570   13.97080    0.01090
 2074.50000   56.42850   92.59610   16.29450    0.02100
 2075.00000   62.46590  101.21670   18.17590    0.03430
 2075.50000   68.88460  111.83360   20.25950    0.04720
 2076.00000   75.50950  125.85920   21.86260    0.05990
 2076.50000   81.73130  140.97120   22.70270    0.06970
 2077.00000   84.56730  148.36500   22.83220    0.10110
 2077.50000   84.02890  146.38280   22.63720    0.14480
 2078.00000   70.47370  127.48550   20.92840    0.15450
 2078.50000   54.91670  101.56710   18.23440    0.10350
 2079.00000   50.10440   90.89170   13.72880    0.05660
 2079.50000   52.47930   94.30050    9.68180    0.01350
 2080.00000   54.10890   96.75020    8.11830    0.00100
 2080.50000   54.08050   96.60520    7.57480    0.00010
 2081.00000   53.27100   95.54080    7.40560   -0.00060
 2081.50000   52.21410   94.40320    7.24070   -0.00260
 2082.00000   51.28380   93.57580    6.98170   -0.00460
 2082.50000   50.35350   92.88090    6.94580   -0.00590
 2083.00000   49.41620   92.31840    7.85360   -0.00290
 2083.50000   48.43210   90.39500    9.61730    0.00090
 2084.00000   48.27960   91.68520   12.48120    0.00550
 2084.50000   51.30330   96.34000   14.68960    0.01070
 2085.00000   53.27500  100.07270   15.36520    0.01200
 2085.50000   55.20670  103.59260   15.53080    0.01140
 2086.00000   56.79010  106.08400   16.92470    0.02040
 2086.50000   57.44420  106.53140   19.20620    0.05020
 2087.00000   55.16040  100.24260   21.52680    0.08700
 2087.50000   52.07590   94.02480   21.95030    0.14650
 2088.00000   49.86420   89.33390   20.97200    0.16490
 2088.50000   50.13410   89.16620   17.78950    0.10930
 2089.00000   52.32320   89.92560   14.60690    0.04990
 2089.50000   53.15140   90.94210   11.42440    0.00610
 2090.00000   52.95780   88.61310    9.93700   -0.00340
