~Version ---------------------------------------------------
VERS.   2.0 : CWLS log ASCII Standard -VERSION 2.0
WRAP.    NO : One line per depth step
DLM . SPACE : Column Data Section Delimiter
~Well ------------------------------------------------------
STRT .F                  17.0 : START DEPTH
STOP .F                3065.0 : STOP DEPTH
STEP .F                   0.5 : STEP
NULL .               -9999.25 : NULL VALUE
COMP .                        : COMPANY
WELL .                        : WELL
FLD  .                        : FIELD
LOC  .                        : LOCATION
PROV .                        : PROVINCE
CNTY .                        : COUNTY
STAT .                        : STATE
CTRY .                        : COUNTRY
SRVC .                        : SERVICE COMPANY
DATE .                        : DATE
UWI  .                        : UNIQUE WELL ID
API  .                        : API NUMBER
SLAT .WGS84 1.659894187066996 : SURFACE LATITUDE
SLON .WGS84 6.944955602196998 : SURFACE LONGITUDE
DATUM.F               2555.77 : DEPTH DATUM ELEV
~Curve Information -----------------------------------------
DEPT   .F     : 1 MEASURED DEPTH
DTCO   .US/F  : DELTA-T COMPRESSIONAL
DTSM   .US/F  : DELTA-T SHEAR
GRD    .GAPI  : GAMMA RAY FROM DENSITY LOG
NPHI_LS.DEC   : NEUTRON POROSITY LIMESTONE
~Params ----------------------------------------------------
~Other -----------------------------------------------------
~ASCII -----------------------------------------------------
# ...
  446.00000   -9999.25   -9999.25   35.05280    0.37390
  446.50000   -9999.25   -9999.25   32.72800    0.40220
  447.00000   -9999.25   -9999.25   31.46010    0.39970
  447.50000   -9999.25   -9999.25   31.20730    0.39360
  448.00000   -9999.25   -9999.25   31.30350    0.38040
  448.50000   -9999.25   -9999.25   33.27110    0.36980
  449.00000   -9999.25   -9999.25   34.02100    0.36910
  449.50000   -9999.25   -9999.25   34.18700    0.37640
  450.00000   -9999.25   -9999.25   35.51460    0.40150
  450.50000   -9999.25   -9999.25   36.93320    0.41470
  451.00000   -9999.25   -9999.25   38.34630    0.40910
  451.50000   -9999.25   -9999.25   37.67520    0.37900
  452.00000   -9999.25   -9999.25   36.34020    0.35260
  452.50000   -9999.25   -9999.25   35.28660    0.32620
  453.00000   -9999.25   -9999.25   34.45640    0.31150
  453.50000   -9999.25   -9999.25   32.09690    0.30590
  454.00000   -9999.25   -9999.25   28.84970    0.29140
  454.50000   -9999.25   -9999.25   25.20140    0.27230
  455.00000   -9999.25   -9999.25   23.54090    0.25160
  455.50000   -9999.25   -9999.25   23.20680    0.24050
  456.00000   -9999.25   -9999.25   23.56650    0.24470
  456.50000   -9999.25   -9999.25   23.62330    0.25170
  457.00000   -9999.25   -9999.25   23.41980    0.25780
  457.50000   -9999.25   -9999.25   22.76610    0.25690
  458.00000   -9999.25   -9999.25   22.91450    0.25320
  458.50000   -9999.25   -9999.25   22.98430    0.25020
  459.00000   -9999.25   -9999.25   22.89460    0.25110
  459.50000   -9999.25   -9999.25   21.93980    0.25080
  460.00000   -9999.25   -9999.25   20.54080    0.24300
  460.50000   -9999.25   -9999.25   20.35220    0.23110
  461.00000   -9999.25   -9999.25   21.92190    0.22480
  461.50000   -9999.25   -9999.25   24.59550    0.24250
  462.00000   -9999.25   -9999.25   28.77700    0.28940
  462.50000   -9999.25   -9999.25   32.91020    0.31150
  463.00000   -9999.25   -9999.25   36.11500    0.32270
  463.50000   -9999.25   -9999.25   38.77570    0.31970
  464.00000   -9999.25   -9999.25   39.31420    0.31540
  464.50000   -9999.25   -9999.25   39.85280    0.32410
  465.00000   -9999.25   -9999.25   40.37370    0.35350
  465.50000   -9999.25   -9999.25   39.88410    0.37050
  466.00000   -9999.25   -9999.25   38.76440    0.36720
  466.50000   -9999.25   -9999.25   37.89220    0.34440
  467.00000   -9999.25   -9999.25   37.07470    0.32170
  467.50000   -9999.25   -9999.25   36.74820    0.30410
  468.00000   -9999.25   -9999.25   36.04630    0.29170
  468.50000   -9999.25   -9999.25   34.99370    0.27590
  469.00000   -9999.25   -9999.25   33.26090    0.26520
  469.50000   -9999.25   -9999.25   31.86490    0.25570
  470.00000   -9999.25   -9999.25   30.04540    0.24730
  470.50000   -9999.25   -9999.25   28.09140    0.24540
  471.00000   -9999.25   -9999.25   26.53310    0.25450
  471.50000   -9999.25   -9999.25   26.02200    0.26880
  472.00000   -9999.25   -9999.25   26.53530    0.28350
  472.50000   -9999.25   -9999.25   28.73830    0.29600
  473.00000   -9999.25   -9999.25   32.12500    0.30840
  473.50000   -9999.25   -9999.25   35.18300    0.30040
  474.00000   -9999.25   -9999.25   36.06430    0.28400
  474.50000   -9999.25   -9999.25   33.09520    0.24990
  475.00000   -9999.25   -9999.25   29.44980    0.22630
  475.50000   -9999.25   -9999.25   25.23770    0.20650
  476.00000   -9999.25   -9999.25   23.66010    0.20450
  476.50000   -9999.25   -9999.25   23.87030    0.21410
  477.00000   -9999.25   -9999.25   25.63440    0.23030
  477.50000   -9999.25   -9999.25   27.91480    0.25170
  478.00000   -9999.25   -9999.25   29.84710    0.28730
  478.50000   -9999.25   -9999.25   31.70040    0.30710
  479.00000   -9999.25   -9999.25   33.52670    0.30010
  479.50000   -9999.25   -9999.25   35.87010    0.28730
  480.00000   -9999.25   -9999.25   37.24730    0.26830
  480.50000   -9999.25   -9999.25   35.85220    0.29820
  481.00000   -9999.25   -9999.25   33.86530    0.30740
  481.50000   -9999.25   -9999.25   31.87830    0.29790
  482.00000   -9999.25   -9999.25   30.32530    0.28580
  482.50000   -9999.25   -9999.25   29.78970    0.27750
  483.00000   -9999.25   -9999.25   29.56770    0.28030
  483.50000   -9999.25   -9999.25   29.71870    0.28870
  484.00000   -9999.25   -9999.25   30.19450    0.30040
  484.50000   -9999.25   -9999.25   30.38880    0.30330
  485.00000   -9999.25   -9999.25   30.34950    0.30480
  485.50000   -9999.25   -9999.25   30.07750    0.31510
  486.00000   -9999.25   -9999.25   30.60670    0.32770
  486.50000   -9999.25   -9999.25   31.65300    0.34000
  487.00000   -9999.25   -9999.25   32.47030    0.34650
  487.50000   -9999.25   -9999.25   30.92640    0.35060
  488.00000   -9999.25   -9999.25   28.91580    0.35280
  488.50000   -9999.25   -9999.25   27.61240    0.35490
  489.00000   -9999.25   -9999.25   27.37620    0.35640
  489.50000   -9999.25   -9999.25   27.24980    0.35640
  490.00000   -9999.25   -9999.25   27.08720    0.35420
  490.50000   -9999.25   -9999.25   26.92470    0.34840
  491.00000   -9999.25   -9999.25   26.74030    0.34220
  491.50000   -9999.25   -9999.25   26.60700    0.34840
  492.00000   -9999.25   -9999.25   26.76020    0.36030
  492.50000   -9999.25   -9999.25   27.19810    0.37230
  493.00000   -9999.25   -9999.25   28.24190    0.37520
  493.50000   -9999.25   -9999.25   29.29690    0.37250
  494.00000   -9999.25   -9999.25   28.15860    0.36430
  494.50000   -9999.25   -9999.25   27.89640    0.35370
  495.00000   -9999.25   -9999.25   28.50920    0.34200
  495.50000   -9999.25   -9999.25   30.63660    0.33510
  496.00000   -9999.25   -9999.25   33.32770    0.33710
  496.50000   -9999.25   -9999.25   34.52490    0.35130
  497.00000   -9999.25   -9999.25   34.59520    0.36780
  497.50000   -9999.25   -9999.25   34.80320    0.37500
  498.00000   -9999.25   -9999.25   35.69730    0.38000
  498.50000   -9999.25   -9999.25   35.25850    0.38370
  499.00000   -9999.25   -9999.25   33.61710    0.38410
  499.50000   -9999.25   -9999.25   30.83820    0.37670
  500.00000   -9999.25   -9999.25   29.28760    0.36540
  500.50000   -9999.25   -9999.25   28.28960    0.35640
  501.00000   -9999.25   -9999.25   28.57080    0.35180
  501.50000   -9999.25   -9999.25   29.30670    0.34830
  502.00000   -9999.25   -9999.25   30.04260    0.34140
  502.50000   -9999.25   -9999.25   29.97540    0.33470
  503.00000   -9999.25   -9999.25   28.99350    0.34090
  503.50000   -9999.25   -9999.25   28.19480    0.35550
  504.00000   -9999.25   -9999.25   27.82840    0.37060
  504.50000   -9999.25   -9999.25   27.95650    0.36810
  505.00000   -9999.25   -9999.25   28.59040    0.36490
  505.50000   -9999.25   -9999.25   29.42190    0.38000
  506.00000   -9999.25   -9999.25   30.74050    0.39710
  506.50000   -9999.25   -9999.25   32.36490    0.41180
  507.00000   -9999.25   -9999.25   32.31950    0.41860
  507.50000   -9999.25   -9999.25   31.64320    0.41940
  508.00000   -9999.25   -9999.25   30.95430    0.42240
  508.50000   -9999.25   -9999.25   30.23800    0.42580
  509.00000   -9999.25   -9999.25   28.72000    0.43300
  509.50000   -9999.25   -9999.25   26.36980    0.43950
  510.00000   -9999.25   -9999.25   24.97620    0.44600
  510.50000   -9999.25   -9999.25   24.47400    0.44440
  511.00000   -9999.25   -9999.25   24.74760    0.43680
  511.50000   -9999.25   -9999.25   24.96080    0.42110
  512.00000   -9999.25   -9999.25   24.94840    0.40160
  512.50000   -9999.25   -9999.25   24.82640    0.40050
  513.00000   -9999.25   -9999.25   24.91570    0.41570
  513.50000   -9999.25   -9999.25   25.45730    0.42100
  514.00000   -9999.25   -9999.25   27.31990    0.39530
  514.50000   -9999.25   -9999.25   29.35710    0.34860
  515.00000   -9999.25   -9999.25   30.26660    0.32420
  515.50000   -9999.25   -9999.25   31.29880    0.33340
  516.00000   -9999.25   -9999.25   31.80940    0.34820
  516.50000   -9999.25   -9999.25   32.24170    0.34860
  517.00000   -9999.25   -9999.25   32.72640    0.33920
