~Version ---------------------------------------------------
VERS.   2.0 : CWLS log ASCII Standard -VERSION 2.0
WRAP.    NO : One line per depth step
DLM . SPACE : Column Data Section Delimiter
~Well ------------------------------------------------------
STRT .F                  17.0 : START DEPTH
STOP .F                3065.0 : STOP DEPTH
STEP .F                   0.5 : STEP
NULL .               -9999.25 : NULL VALUE
COMP .                        : COMPANY
WELL .                        : WELL
FLD  .                        : FIELD
LOC  .                        : LOCATION
PROV .                        : PROVINCE
CNTY .                        : COUNTY
STAT .                        : STATE
CTRY .                        : COUNTRY
SRVC .                        : SERVICE COMPANY
DATE .                        : DATE
UWI  .                        : UNIQUE WELL ID
API  .                        : API NUMBER
SLAT .WGS84 1.659894187066996 : SURFACE LATITUDE
SLON .WGS84 6.944955602196998 : SURFACE LONGITUDE
DATUM.F               2555.77 : DEPTH DATUM ELEV
~Curve Information -----------------------------------------
DEPT   .F     : 1 MEASURED DEPTH
DTCO   .US/F  : DELTA-T COMPRESSIONAL
DTSM   .US/F  : DELTA-T SHEAR
GRD    .GAPI  : GAMMA RAY FROM DENSITY LOG
NPHI_LS.DEC   : NEUTRON POROSITY LIMESTONE
~Params ----------------------------------------------------
~Other -----------------------------------------------------
~ASCII -----------------------------------------------------
# ...
 2233.50000   55.05560  107.64030    9.78200    0.00570
 2234.00000   54.11350  105.52000    9.99110    0.00730
 2234.50000   53.82490  105.16310   10.20030    0.00890
 2235.00000   53.73180  106.93140   10.50380    0.00730
 2235.50000   53.90410  108.89540   11.16560    0.00500
 2236.00000   52.55450  106.09060   14.00500    0.00370
 2236.50000   50.52590   99.75280   16.94710    0.02170
 2237.00000   48.37130   95.25650   21.74940    0.07580
 2237.50000   46.14260   92.45430   25.63500    0.14690
 2238.00000   46.30060   92.26180   23.41480    0.14040
 2238.50000   51.05750  103.03530   19.51520    0.09090
 2239.00000   55.08500  106.53640   15.85630    0.03710
 2239.50000   55.81900  108.34070   12.19730    0.01320
 2240.00000   54.91240  107.15440   11.14100    0.00910
 2240.50000   53.97220  105.02240   11.49170    0.01730
 2241.00000   53.99820  103.28010   12.13660    0.01840
 2241.50000   54.57110  101.71230   11.65770    0.01480
 2242.00000   54.97970  100.14450   10.54630    0.00870
 2242.50000   54.42620   99.46260   10.13440    0.00350
 2243.00000   53.63230   99.79140   10.70340    0.00220
 2243.50000   52.38730  101.62250   11.48130    0.00540
 2244.00000   51.02270  104.94010   12.16980    0.00960
 2244.50000   53.65350  110.18310   12.69780    0.01300
 2245.00000   56.33380  114.60800   13.82000    0.01710
 2245.50000   59.19370  117.89440   18.17650    0.02920
 2246.00000   62.02800  120.11740   23.12940    0.05460
 2246.50000   65.84530  122.36990   26.95250    0.08370
 2247.00000   69.97840  124.14950   28.04970    0.11020
 2247.50000   71.10060  123.93380   28.12650    0.12310
 2248.00000   70.38820  120.22730   27.08750    0.11510
 2248.50000   63.11820  107.33830   25.37490    0.08610
 2249.00000   55.47370   98.57230   21.98970    0.04610
 2249.50000   53.14710   95.01660   16.43790    0.02120
 2250.00000   52.44760   94.39450   13.33390    0.00590
 2250.50000   52.26920   94.48570   11.33810   -0.00290
 2251.00000   52.20530   95.81120   10.91660   -0.00380
 2251.50000   52.17200   97.23790   10.89510   -0.00180
 2252.00000   52.37710   97.62160   11.58700    0.00110
 2252.50000   52.84260   97.81670   12.86350    0.00020
 2253.00000   53.87290   98.12450   13.63430   -0.00100
 2253.50000   54.97660   99.27060   13.76500   -0.00220
 2254.00000   56.36760  100.67330   13.14150   -0.00290
 2254.50000   59.05770  104.12890   12.86280   -0.00030
 2255.00000   58.58590  107.24010   12.97480    0.00370
 2255.50000   57.48250  107.80990   13.32760    0.00760
 2256.00000   56.37570  105.91800   13.58770    0.00790
 2256.50000   55.25350  103.94160   13.77250    0.00650
 2257.00000   54.28220  102.96500   13.77250    0.00420
 2257.50000   54.18980  102.81380   13.80620    0.00400
 2258.00000   54.55750  104.02540   13.84700    0.00470
 2258.50000   54.88400  105.39840   13.88790    0.00670
 2259.00000   55.17940  105.00390   13.89130    0.00880
 2259.50000   55.49550  103.82460   13.65030    0.00900
 2260.00000   55.81170  102.64520   12.88230    0.00750
 2260.50000   55.95720  101.42970   11.94890    0.00400
 2261.00000   55.77540  101.46730   11.40480    0.00060
 2261.50000   55.43140  102.15700   10.64350   -0.00110
 2262.00000   55.08750  101.87520    9.01070   -0.00150
 2262.50000   54.89730  100.70190    8.30770   -0.00180
 2263.00000   54.77830   99.59340    8.07350   -0.00210
 2263.50000   54.67980   98.49100    8.12890   -0.00250
 2264.00000   54.55840   98.62130    8.21360   -0.00280
 2264.50000   54.42320   99.27910    8.53930   -0.00210
 2265.00000   54.28800   99.79670    9.31620   -0.00070
 2265.50000   54.27610   98.95670   10.17860    0.00200
 2266.00000   54.49170   97.89170   12.00640    0.00750
 2266.50000   54.97600   97.00140   13.95790    0.01290
 2267.00000   55.41240   96.50120   17.70630    0.01620
 2267.50000   55.98940   97.06060   19.10990    0.01100
 2268.00000   56.49450   97.57100   17.67690    0.00480
 2268.50000   56.38400   96.74050   14.97130    0.00130
 2269.00000   55.64860   95.47670   12.34470    0.00010
 2269.50000   54.85790   93.84760   11.73160   -0.00100
 2270.00000   54.41370   92.80900   11.53650   -0.00220
 2270.50000   54.59440   92.96950   11.40470   -0.00290
 2271.00000   55.12670   94.78730   11.52550   -0.00100
 2271.50000   55.65890   95.58250   12.19040    0.00150
 2272.00000   56.19120   96.06400   14.84490    0.00600
 2272.50000   56.21410   96.08580   20.87450    0.01460
 2273.00000   55.53190   94.40860   25.36640    0.02280
 2273.50000   54.26870   92.61730   29.34990    0.02570
 2274.00000   53.34710   91.20040   29.27910    0.02490
 2274.50000   52.42550   90.05290   28.70130    0.02370
 2275.00000   52.18730   89.66890   29.78940    0.02080
 2275.50000   52.56720   90.00320   31.44850    0.01790
 2276.00000   53.15690   90.81520   31.93360    0.01550
 2276.50000   53.92190   91.72200   31.18100    0.01850
 2277.00000   54.80320   92.75360   30.42840    0.02330
 2277.50000   55.37540   93.48760   30.04590    0.03100
 2278.00000   54.38330   92.68100   31.29270    0.03650
 2278.50000   53.89530   91.98610   34.21230    0.04200
 2279.00000   54.34690   92.29170   36.12600    0.04770
 2279.50000   55.16600   92.99080   37.62400    0.06030
 2280.00000   55.19720   93.34070   37.03060    0.07490
 2280.50000   54.94340   93.64840   34.22340    0.07940
 2281.00000   55.03050   93.95700   32.82200    0.07260
 2281.50000   55.62360   94.28740   32.12890    0.06560
 2282.00000   56.26260   95.04020   32.21920    0.06020
 2282.50000   56.90160   95.94360   32.69440    0.06670
 2283.00000   57.28340   96.69540   34.10200    0.08280
 2283.50000   57.11760   96.81080   36.75590    0.10410
 2284.00000   56.97780   96.64960   39.98710    0.14250
 2284.50000   56.18650   96.03770   42.92970    0.17080
 2285.00000   55.66080   95.42570   45.41460    0.19490
 2285.50000   55.86600   95.22660   44.68970    0.18370
 2286.00000   55.76150   95.16220   43.20550    0.16010
 2286.50000   55.44530   94.84230   43.33420    0.15970
 2287.00000   55.20520   94.44470   42.72520    0.15490
 2287.50000   55.13930   94.05200   39.12030    0.13930
 2288.00000   55.24130   94.63740   32.28320    0.08200
 2288.50000   55.28910   94.76880   23.41970    0.03900
 2289.00000   55.11600   93.43910   18.10930    0.01800
 2289.50000   54.77860   92.08470   17.71990    0.02260
 2290.00000   54.49410   91.24940   19.33540    0.04200
 2290.50000   54.20950   93.00700   20.31780    0.04350
 2291.00000   54.12850   98.01070   18.70290    0.02930
 2291.50000   54.12850  103.10510   16.82590    0.01180
 2292.00000   54.12850  107.02770   14.60290   -0.00040
 2292.50000   54.16300  106.50860   13.71250   -0.00210
 2293.00000   54.71720  103.39280   14.39600    0.00050
 2293.50000   55.33000   99.36400   15.69020    0.01260
 2294.00000   55.94280   95.17960   16.92200    0.02200
 2294.50000   55.41330   93.41240   15.73950    0.02710
 2295.00000   54.15220   92.78050   13.38160    0.01900
 2295.50000   53.11400   92.68240   11.37220    0.00670
 2296.00000   52.61000   93.17040   10.25020    0.00190
 2296.50000   52.46420   94.57860   10.37550   -0.00220
 2297.00000   53.31590   97.23450   11.14760   -0.00300
 2297.50000   54.17770  100.68230   11.91970   -0.00370
 2298.00000   55.05060  103.45050   11.83040   -0.00220
 2298.50000   55.88140  104.81410   10.86300   -0.00020
 2299.00000   55.66350  102.98560    9.92540    0.00180
 2299.50000   54.86470   99.39860    9.99650    0.00150
 2300.00000   54.47760   94.55310   11.63870   -0.00110
 2300.50000   54.31510   89.95220   13.28090   -0.00450
 2301.00000   54.20640   86.96060   15.37270    0.00110
 2301.50000   54.12030   83.53680   18.21250    0.01160
 2302.00000   54.10170   80.05810   19.92420    0.02500
 2302.50000   54.17000   77.26990   21.54180    0.03740
 2303.00000   55.32840   83.31020   22.18880    0.05010
 2303.50000   56.83300   92.14390   22.22880    0.05860
 2304.00000   58.33570  100.64730   21.82100    0.07860
 2304.50000   59.66140  105.90630   21.61350    0.10030
