~Version ---------------------------------------------------
VERS.   2.0 : CWLS log ASCII Standard -VERSION 2.0
WRAP.    NO : One line per depth step
DLM . SPACE : Column Data Section Delimiter
~Well ------------------------------------------------------
STRT .F                  17.0 : START DEPTH
STOP .F                3065.0 : STOP DEPTH
STEP .F                   0.5 : STEP
NULL .               -9999.25 : NULL VALUE
COMP .                        : COMPANY
WELL .                        : WELL
FLD  .                        : FIELD
LOC  .                        : LOCATION
PROV .                        : PROVINCE
CNTY .                        : COUNTY
STAT .                        : STATE
CTRY .                        : COUNTRY
SRVC .                        : SERVICE COMPANY
DATE .                        : DATE
UWI  .                        : UNIQUE WELL ID
API  .                        : API NUMBER
SLAT .WGS84 1.659894187066996 : SURFACE LATITUDE
SLON .WGS84 6.944955602196998 : SURFACE LONGITUDE
DATUM.F               2555.77 : DEPTH DATUM ELEV
~Curve Information -----------------------------------------
DEPT   .F     : 1 MEASURED DEPTH
DTCO   .US/F  : DELTA-T COMPRESSIONAL
DTSM   .US/F  : DELTA-T SHEAR
GRD    .GAPI  : GAMMA RAY FROM DENSITY LOG
NPHI_LS.DEC   : NEUTRON POROSITY LIMESTONE
~Params ----------------------------------------------------
~Other -----------------------------------------------------
~ASCII -----------------------------------------------------
# ...
 2662.50000   52.39880   98.11310   15.86840    0.06530
 2663.00000   53.87490  102.06100   16.13570    0.09520
 2663.50000   55.41390  103.87240   16.20790    0.12610
 2664.00000   56.37280  105.61560   15.97870    0.16260
 2664.50000   56.07270  106.33320   15.78850    0.16990
 2665.00000   54.81750  103.04040   16.09240    0.15450
 2665.50000   53.32290   99.42760   17.28610    0.12930
 2666.00000   52.28060   98.65250   17.33550    0.09770
 2666.50000   53.44960  100.86980   17.05380    0.09100
 2667.00000   55.25110  103.85130   16.58700    0.12520
 2667.50000   56.49430  107.91120   17.08970    0.17200
 2668.00000   57.68770  111.11280   18.00610    0.20030
 2668.50000   58.96270  113.59800   18.88830    0.19690
 2669.00000   61.22160  115.01080   18.00190    0.18930
 2669.50000   63.25320  115.40290   17.22890    0.19670
 2670.00000   64.46840  114.40690   16.38770    0.20440
 2670.50000   65.47200  113.40840   15.61840    0.20320
 2671.00000   65.38470  112.18290   15.76450    0.19450
 2671.50000   63.22870  109.83280   16.12150    0.18280
 2672.00000   60.80610  106.77390   16.74630    0.16330
 2672.50000   58.57230  102.14770   17.58810    0.14560
 2673.00000   56.92270  101.05640   18.33950    0.12740
 2673.50000   56.66200  102.48900   20.54100    0.11460
 2674.00000   56.99300  104.87030   23.21440    0.13970
 2674.50000   59.02540  108.68340   25.55860    0.16390
 2675.00000   63.88610  112.80570   25.13240    0.18840
 2675.50000   66.51130  114.35600   23.75200    0.21300
 2676.00000   65.62060  110.47980   22.15830    0.20800
 2676.50000   63.04740  107.25950   20.09770    0.18990
 2677.00000   62.27110  110.45260   18.02870    0.17220
 2677.50000   61.85270  112.06470   16.75720    0.15380
 2678.00000   60.12370  111.80440   17.63570    0.14870
 2678.50000   60.89050  111.03530   19.67890    0.16300
 2679.00000   62.56290  110.14290   22.05390    0.17890
 2679.50000   63.19120  109.08780   23.91430    0.20050
 2680.00000   65.13100  107.94620   26.53610    0.19460
 2680.50000   65.82990  106.65340   27.13330    0.17420
 2681.00000   63.37320  103.40560   26.27660    0.15230
 2681.50000   60.86240  101.04320   24.60720    0.13280
 2682.00000   58.87790   98.29320   22.96020    0.11490
 2682.50000   56.89470   96.50450   22.62900    0.09810
 2683.00000   55.90380   96.38210   23.70190    0.08530
 2683.50000   55.97610   97.30400   24.80070    0.08730
 2684.00000   56.81650   99.20270   25.50760    0.09390
 2684.50000   59.36010  100.62780   25.20490    0.10350
 2685.00000   60.57730  100.94950   24.31140    0.11310
 2685.50000   58.28770  101.28210   22.30620    0.12390
 2686.00000   58.27690  101.57150   20.50740    0.14760
 2686.50000   59.47050  101.04700   18.73370    0.18300
 2687.00000   60.64980   98.42830   16.50960    0.18180
 2687.50000   59.78340   95.73490   15.31710    0.16350
 2688.00000   58.07070   93.99240   15.41000    0.15160
 2688.50000   59.69950   97.53930   16.47930    0.15850
 2689.00000   59.35240  100.64180   17.54850    0.16770
 2689.50000   57.95650  101.57800   18.61780    0.15640
 2690.00000   56.59370  101.32910   19.60480    0.13570
 2690.50000   55.26760  100.31220   20.11260    0.10990
 2691.00000   54.71760  100.07340   19.66930    0.10930
 2691.50000   55.58260  100.76030   18.75670    0.12170
 2692.00000   56.46960  101.14270   18.52830    0.13460
 2692.50000   57.07450  100.21800   19.67890    0.13100
 2693.00000   57.35720  101.10590   21.36520    0.12560
 2693.50000   57.98430  102.92250   23.05140    0.13150
 2694.00000   58.14570  104.86360   23.65830    0.15040
 2694.50000   58.30700  106.05870   23.95210    0.17380
 2695.00000   58.57750  107.25390   23.87060    0.18930
 2695.50000   59.78140  108.44900   23.68420    0.19930
 2696.00000   60.14000  108.61960   23.40490    0.19810
 2696.50000   60.14400  104.85070   23.17890    0.18410
 2697.00000   60.14800  105.27360   24.03470    0.16690
 2697.50000   60.15200  105.90050   25.64440    0.14190
 2698.00000   59.92190  104.56040   26.09200    0.12290
 2698.50000   59.04440  103.09150   25.54960    0.11770
 2699.00000   57.13240  102.02960   24.36120    0.11740
 2699.50000   55.82000  101.08110   23.61040    0.11220
 2700.00000   54.50750   99.00390   22.91720    0.09490
 2700.50000   53.54450   96.92270   22.22520    0.07550
 2701.00000   52.63640   95.75060   21.40060    0.05940
 2701.50000   51.38960   93.57860   20.45850    0.04770
 2702.00000   50.81700   91.92440   20.11260    0.04910
 2702.50000   51.61470   94.59460   20.16090    0.07490
 2703.00000   53.58050   97.85130   20.51050    0.10120
 2703.50000   53.86240  101.55140   20.86010    0.12940
 2704.00000   54.91930  105.58340   21.11170    0.16100
 2704.50000   56.94600  109.24060   20.61380    0.19180
 2705.00000   59.54110  112.87520   19.66860    0.22620
 2705.50000   61.28370  115.97620   18.56970    0.25310
 2706.00000   62.96190  119.38010   16.63230    0.27150
 2706.50000   64.40950  122.92300   14.85740    0.28330
 2707.00000   67.11260  124.80750   13.90060    0.30240
 2707.50000   65.80660  123.39650   13.76830    0.32150
 2708.00000   63.90410  120.89660   14.70410    0.31020
 2708.50000   62.61200  117.74500   15.99360    0.26450
 2709.00000   59.82560  114.80730   16.91560    0.21440
 2709.50000   57.97830  111.17200   16.11470    0.17170
 2710.00000   56.79090  108.65640   13.66320    0.17800
 2710.50000   56.65250  107.70690   12.41220    0.18810
 2711.00000   56.65850  106.77820   12.45340    0.19290
 2711.50000   56.47380  105.96370   13.20540    0.18360
 2712.00000   56.09650  105.24920   14.68200    0.17690
 2712.50000   55.78260  104.53470   15.29770    0.17040
 2713.00000   55.86560  103.93130   14.71300    0.15810
 2713.50000   56.29340  104.59030   13.86600    0.15620
 2714.00000   56.88550  106.20340   13.46450    0.16690
 2714.50000   57.65690  108.03420   13.41030    0.18160
 2715.00000   58.54060  110.00760   13.48450    0.19430
 2715.50000   60.33930  112.05140   13.45920    0.19600
 2716.00000   62.03330  114.46770   13.35230    0.19870
 2716.50000   61.43420  114.53460   13.28020    0.20160
 2717.00000   60.30170  113.43540   13.67680    0.20320
 2717.50000   58.83410  112.44540   14.30620    0.18540
 2718.00000   56.89590  109.73170   14.14780    0.15030
 2718.50000   55.19890  104.18610   13.27530    0.09590
 2719.00000   53.05140  100.63570   12.57770    0.05960
 2719.50000   51.96630   98.18240   12.42040    0.03930
 2720.00000   51.11470   95.28820   12.83810    0.03530
 2720.50000   50.81900   93.64210   13.75530    0.04920
 2721.00000   51.34270   94.21610   15.14730    0.06520
 2721.50000   52.13060   95.67830   17.46180    0.08450
 2722.00000   53.95170   98.26560   19.38580    0.10530
 2722.50000   55.83260  100.85280   21.35790    0.11700
 2723.00000   56.73220  103.18970   22.68590    0.11940
 2723.50000   57.23790  103.62050   23.07320    0.12220
 2724.00000   58.23690  103.93640   22.18200    0.13760
 2724.50000   59.02910  104.06760   20.63260    0.15410
 2725.00000   58.51280  104.31850   18.78930    0.17600
 2725.50000   57.44200  104.56930   17.01160    0.19140
 2726.00000   58.19000  104.87220   16.57450    0.20320
 2726.50000   59.06910  105.33410   16.58720    0.21510
 2727.00000   59.69150  106.07720   16.92410    0.22380
 2727.50000   59.94910  107.41400   16.86330    0.23350
 2728.00000   60.08720  109.24150   16.94470    0.24470
 2728.50000   60.34660  111.16830   17.93530    0.25590
 2729.00000   60.76070  112.20100   19.13480    0.26990
 2729.50000   60.98030  112.89080   19.70880    0.28140
 2730.00000   60.77840  112.44650   18.25520    0.26660
 2730.50000   59.76520  111.65310   17.75310    0.24690
 2731.00000   58.77500  110.85960   17.47070    0.24050
 2731.50000   57.94740  109.74760   17.37430    0.24030
 2732.00000   58.51720  107.76510   17.70760    0.24020
 2732.50000   59.84700  109.21500   18.35370    0.23830
 2733.00000   59.09660  107.53550   19.23270    0.23540
 2733.50000   57.93220  105.43250   20.12180    0.22790
