~Version ---------------------------------------------------
VERS.   2.0 : CWLS log ASCII Standard -VERSION 2.0
WRAP.    NO : One line per depth step
DLM . SPACE : Column Data Section Delimiter
~Well ------------------------------------------------------
STRT .F                    7.0 : START DEPTH
STOP .F                 9979.0 : STOP DEPTH
STEP .F                    0.5 : STEP
NULL .                -9999.25 : NULL VALUE
COMP .                         : COMPANY
WELL .                         : WELL
FLD  .                         : FIELD
LOC  .                         : LOCATION
PROV .                         : PROVINCE
CNTY .                         : COUNTY
STAT .                         : STATE
CTRY .                         : COUNTRY
SRVC .                         : SERVICE COMPANY
DATE .                         : DATE
UWI  .                         : UNIQUE WELL ID
API  .                         : API NUMBER
SLAT .WGS84 2.7051883266738983 : SURFACE LATITUDE
SLON .WGS84     6.105742819103 : SURFACE LONGITUDE
DATUM.F                2728.77 : DEPTH DATUM ELEV
~Curve Information -----------------------------------------
DEPT   .F     : 
GRD    .GAPI  : GAMMA RAY FROM DENSITY LOG
NPHI_LS.DEC   : NEUTRON POROSITY LIMESTONE
PEF    .B/E   : PHOTOELECTRIC FACTOR
CALD   .IN    : CALIPER FROM DENSITY LOG
DPHI_LS.DEC   : DENSITY POROSITY LIMESTONE
DRHO   .G/C3  : BULK DENSITY CORRECTION
TEND   .LB    : TENSION FROM DENSITY LOG
RHOB   .G/C3  : BULK DENSITY
GRR    .GAPI  : GAMMA RAY FROM RESISTIVITY LOG
ILD    .OHMM  : INDUCTION DEEP RESISTIVITY
ILM    .OHMM  : INDUCTION MEDIUM RESISTIVITY
SPR    .MV    : SPONTANEOUS POTENTIAL FROM RESISTIVITY LOG
TENR   .LB    : TENSION FROM RESISTIVITY LOG
SFLU   .OHMM  : SHALLOW FOCUSED RESISTIVITY (UNAVERAGED)
GRS    .GAPI  : GAMMA RAY FROM SONIC LOG
DTCO   .US/F  : DELTA-T COMPRESSIONAL
DTSM   .US/F  : DELTA-T SHEAR
DTST   .US/F  : DELTA-T STONELEY - MONOPOLE STONELEY
~Params ----------------------------------------------------
~Other -----------------------------------------------------
~ASCII -----------------------------------------------------
# ...
 5993.50000   65.12870    0.13770    3.08380    9.44150    0.06850   -0.00450 1492.57470    2.59160   73.83030   53.69220   45.84400  -43.80040 1433.93380   78.88810   -9999.25   -9999.25   -9999.25   -9999.25
 5994.00000   66.66420    0.13770    3.05490    9.34140    0.07180   -0.00870 1492.23560    2.58610   77.66930   53.01380   47.34590  -43.91590 1431.41960   85.80100   -9999.25   -9999.25   -9999.25   -9999.25
 5994.50000   68.14030    0.14300    3.05820    9.22310    0.07790   -0.01200 1493.18010    2.57630   87.30390   53.01380   49.77490  -44.03140 1431.33980   93.70720   -9999.25   -9999.25   -9999.25   -9999.25
 5995.00000   68.97250    0.14570    3.01500    9.18510    0.08210   -0.01160 1488.05130    2.57150   89.87110   53.42990   52.32850  -44.14690 1431.26000  102.95880   -9999.25   -9999.25   -9999.25   -9999.25
 5995.50000   69.95340    0.13920    3.01730    9.16170    0.08250   -0.00650 1476.68490    2.57070   84.17510   53.98310   55.01310  -44.26240 1432.05530  110.26600   -9999.25   -9999.25   -9999.25   -9999.25
 5996.00000   70.63820    0.13400    3.07850    9.16790    0.08100   -0.00280 1475.72330    2.57150   75.42860   54.54210   57.83540  -44.37790 1439.26050  106.08110   -9999.25   -9999.25   -9999.25   -9999.25
 5996.50000   70.83230    0.13700    3.20270    9.18780    0.07980   -0.00030 1475.90010    2.57160   64.98990   55.10690   60.80250  -44.49100 1446.46560   92.98680   -9999.25   -9999.25   -9999.25   -9999.25
 5997.00000   69.88020    0.14190    3.26010    9.21530    0.08040   -0.00130 1489.79660    2.57030   64.66630   55.53960   64.42120  -44.59380 1443.04150   84.80620   -9999.25   -9999.25   -9999.25   -9999.25
 5997.50000   68.68390    0.14380    3.23140    9.22100    0.08320   -0.00560 1482.84940    2.56770   66.28790   55.25400   69.26360  -44.69660 1434.31070   78.87860   -9999.25   -9999.25   -9999.25   -9999.25
 5998.00000   66.64390    0.14340    3.09670    9.21150    0.08420   -0.00980 1474.48160    2.56630   69.34900   54.68500   74.46990  -44.89000 1425.57980   78.27600   -9999.25   -9999.25   -9999.25   -9999.25
 5998.50000   64.41090    0.14150    3.07830    9.19530    0.08340   -0.00980 1484.51000    2.56700   76.84290   54.21790   76.76880  -45.10010 1419.82390   82.03170   -9999.25   -9999.25   -9999.25   -9999.25
 5999.00000   63.49770    0.14020    3.11980    9.18040    0.07920   -0.00710 1490.77800    2.57240   80.73540   54.00990   75.94210  -45.15350 1421.63380   90.29820   -9999.25   -9999.25   -9999.25   -9999.25
 5999.50000   63.38830    0.14110    3.19910    9.13070    0.07430   -0.00430 1495.05330    2.58800   83.18720   54.29000   76.86010  -45.58130 1423.44370   99.32530   -9999.25   -9999.25   -9999.25   -9999.25
 6000.00000   62.06630    0.14300    3.20770    9.06700    0.07020   -0.00210 1494.94510    2.58870   83.72090   56.63950   81.67840  -45.95670 1425.25370  100.55990   -9999.25   -9999.25   -9999.25   -9999.25
 6000.50000   60.35800    0.14490    3.19340    9.00280    0.07260   -0.00390 1494.83680    2.57940   77.76240   58.39000   88.12520  -46.30360 1427.06360  100.75750   -9999.25   -9999.25   -9999.25   -9999.25
 6001.00000   57.69910    0.14370    3.21920    8.92520    0.07730   -0.00770 1485.14380    2.57180   69.23390   58.76120   95.08080  -46.29310 1428.87340  103.11410   -9999.25   -9999.25   -9999.25   -9999.25
 6001.50000   56.36020    0.13870    3.28390    8.79990    0.08110   -0.01100 1487.28640    2.57120   62.05970   59.51520  104.92260  -46.28270 1422.59080  115.25960   -9999.25   -9999.25   -9999.25   -9999.25
 6002.00000   57.45170    0.13290    3.35390    8.72320    0.08020   -0.01300 1483.86280    2.57450   59.06350   60.47630  117.46720  -46.56110 1421.12830  131.57790   -9999.25   -9999.25   -9999.25   -9999.25
 6002.50000   60.87680    0.12990    3.37500    8.65220    0.07800   -0.01260 1479.87590    2.57520   61.63700   61.45290  127.99910  -47.01630 1426.20940  148.52330   -9999.25   -9999.25   -9999.25   -9999.25
 6003.00000   64.98180    0.13210    3.28420    8.63910    0.08280   -0.01210 1475.86070    2.56780   66.87340   62.44530  120.18870  -47.53610 1425.40450  154.54340   -9999.25   -9999.25   -9999.25   -9999.25
 6003.50000   67.90010    0.14160    3.12780    8.64980    0.09160   -0.00710 1469.54030    2.55590   73.72560   61.88130  107.61560  -48.11940 1426.97270  155.21620   -9999.25   -9999.25   -9999.25   -9999.25
 6004.00000   67.99240    0.15000    3.01710    8.65920    0.09680   -0.00070 1464.70390    2.54720   80.09190   61.22760   96.21260  -48.70270 1433.03210  129.00690   -9999.25   -9999.25   -9999.25   -9999.25
 6004.50000   65.67470    0.15650    2.93740    8.67210    0.09470   -0.00170 1473.23800    2.54680   83.84840   60.66570   86.01780  -49.28610 1439.09140   94.78030   -9999.25   -9999.25   -9999.25   -9999.25
 6005.00000   60.47590    0.15780    3.07220    8.69500    0.08840   -0.00290 1481.18360    2.55590   79.90400   60.36340   80.41140  -50.24080 1433.22180   80.50210   -9999.25   -9999.25   -9999.25   -9999.25
 6005.50000   55.23430    0.14940    3.35350    8.71570    0.08100   -0.00380 1486.50790    2.56770   73.64360   60.06250   80.76490  -51.17010 1422.52510   74.28320   -9999.25   -9999.25   -9999.25   -9999.25
 6006.00000   51.44240    0.13890    3.53830    8.73060    0.07730   -0.00260 1487.88600    2.57620   64.32690   58.44180   84.45750  -51.52180 1415.20640   90.03220   -9999.25   -9999.25   -9999.25   -9999.25
 6006.50000   48.71900    0.12960    3.59740    8.73950    0.07640    0.00080 1497.95430    2.57890   55.86740   56.70900   88.31900  -52.41850 1421.89260  113.01830   -9999.25   -9999.25   -9999.25   -9999.25
 6007.00000   48.65670    0.12650    3.56940    8.75810    0.07600    0.00030 1500.52470    2.57960   55.35840   54.80310   88.80480  -52.40240 1428.57860  125.72170   -9999.25   -9999.25   -9999.25   -9999.25
 6007.50000   50.65900    0.12310    3.46010    8.79020    0.07510   -0.00200 1500.09530    2.58080   56.30110   52.63420   81.69320  -52.26460 1435.26480  126.26480   -9999.25   -9999.25   -9999.25   -9999.25
 6008.00000   56.49720    0.12360    3.36580    8.80730    0.07480   -0.00550 1503.26880    2.58100   60.52490   45.47030   69.59630  -51.87260 1432.49050  108.72470   -9999.25   -9999.25   -9999.25   -9999.25
 6008.50000   67.48460    0.12990    3.30220    8.82340    0.07890   -0.01240 1501.11120    2.57740   71.53880   38.32450   54.75340  -51.60960 1428.51930   87.97140   -9999.25   -9999.25   -9999.25   -9999.25
 6009.00000   75.39150    0.14920    3.25400    8.86640    0.08560   -0.01680 1497.97600    2.56940   78.63670   31.04680   39.80080  -51.34650 1424.54820   66.78870   -9999.25   -9999.25   -9999.25   -9999.25
 6009.50000   80.05890    0.16200    3.13410    8.91890    0.09520   -0.01530 1499.13710    2.55660   82.61320   25.54320   27.31560  -51.08350 1430.96920   46.65830   -9999.25   -9999.25   -9999.25   -9999.25
 6010.00000   83.86930    0.16700    2.90720    8.96380    0.10470   -0.01140 1497.23800    2.54200   85.75030   21.24810   22.73130  -51.08130 1422.20980   28.34350   -9999.25   -9999.25   -9999.25   -9999.25
 6010.50000   89.26360    0.15990    2.65090    9.02540    0.11610   -0.00670 1495.34890    2.52130   88.91580   18.02960   18.91640  -51.58570 1414.34400   21.71310   -9999.25   -9999.25   -9999.25   -9999.25
 6011.00000   95.26950    0.15810    2.55520    9.08810    0.12190   -0.00670 1496.81620    2.50190   96.22520   16.27910   16.94450  -52.09010 1414.64400   17.46530   -9999.25   -9999.25   -9999.25   -9999.25
 6011.50000  102.95010    0.16710    2.53670    9.14530    0.12190   -0.00510 1498.28330    2.50030  103.24030   14.69850   15.29960  -52.59450 1414.94410   15.99670   -9999.25   -9999.25   -9999.25   -9999.25
 6012.00000  110.07700    0.17890    2.61980    9.18740    0.11640   -0.00180 1496.49710    2.50020  105.28390   13.78850   14.61530  -52.91400 1415.24410   15.94840   -9999.25   -9999.25   -9999.25   -9999.25
 6012.50000  114.23070    0.18820    2.68250    9.21590    0.11250    0.00080 1493.81020    2.51280  107.32760   12.94210   14.10800  -53.12370 1415.11960   16.93900   -9999.25   -9999.25   -9999.25   -9999.25
