~Version ---------------------------------------------------
VERS.   2.0 : CWLS log ASCII Standard -VERSION 2.0
WRAP.    NO : One line per depth step
DLM . SPACE : Column Data Section Delimiter
~Well ------------------------------------------------------
STRT .F                    7.0 : START DEPTH
STOP .F                 9979.0 : STOP DEPTH
STEP .F                    0.5 : STEP
NULL .                -9999.25 : NULL VALUE
COMP .                         : COMPANY
WELL .                         : WELL
FLD  .                         : FIELD
LOC  .                         : LOCATION
PROV .                         : PROVINCE
CNTY .                         : COUNTY
STAT .                         : STATE
CTRY .                         : COUNTRY
SRVC .                         : SERVICE COMPANY
DATE .                         : DATE
UWI  .                         : UNIQUE WELL ID
API  .                         : API NUMBER
SLAT .WGS84 2.7051883266738983 : SURFACE LATITUDE
SLON .WGS84     6.105742819103 : SURFACE LONGITUDE
DATUM.F                2728.77 : DEPTH DATUM ELEV
~Curve Information -----------------------------------------
DEPT   .F     : 
GRD    .GAPI  : GAMMA RAY FROM DENSITY LOG
NPHI_LS.DEC   : NEUTRON POROSITY LIMESTONE
PEF    .B/E   : PHOTOELECTRIC FACTOR
CALD   .IN    : CALIPER FROM DENSITY LOG
DPHI_LS.DEC   : DENSITY POROSITY LIMESTONE
DRHO   .G/C3  : BULK DENSITY CORRECTION
TEND   .LB    : TENSION FROM DENSITY LOG
RHOB   .G/C3  : BULK DENSITY
GRR    .GAPI  : GAMMA RAY FROM RESISTIVITY LOG
ILD    .OHMM  : INDUCTION DEEP RESISTIVITY
ILM    .OHMM  : INDUCTION MEDIUM RESISTIVITY
SPR    .MV    : SPONTANEOUS POTENTIAL FROM RESISTIVITY LOG
TENR   .LB    : TENSION FROM RESISTIVITY LOG
SFLU   .OHMM  : SHALLOW FOCUSED RESISTIVITY (UNAVERAGED)
GRS    .GAPI  : GAMMA RAY FROM SONIC LOG
DTCO   .US/F  : DELTA-T COMPRESSIONAL
DTSM   .US/F  : DELTA-T SHEAR
DTST   .US/F  : DELTA-T STONELEY - MONOPOLE STONELEY
~Params ----------------------------------------------------
~Other -----------------------------------------------------
~ASCII -----------------------------------------------------
# ...
 8626.00000   17.01590    0.07900    4.71720    7.84890    0.09980    0.00740 1974.46560    2.53780   15.76010   14.52180   24.94830 -102.68960 1959.96730   67.83610   15.51530   57.22930  108.07280  217.85630
 8626.50000   17.97560    0.07560    4.62440    7.86960    0.10060    0.00220 1974.58440    2.53660   16.62060   14.58300   24.97930 -102.47840 1959.60170   69.22780   15.33580   57.43890  108.06500  215.20350
 8627.00000   17.51770    0.06980    4.69270    7.89490    0.10120   -0.00300 1974.70310    2.53540   17.65170   14.64440   24.78520 -102.26730 1959.23610   70.93580   14.76550   57.75200  108.05730  211.95980
 8627.50000   16.66010    0.06570    4.77100    7.90950    0.09930   -0.00060 1972.44420    2.53930   18.92070   14.58930   24.63890 -102.05610 1958.87040   70.66310   14.13860   58.06510  108.06130  210.36900
 8628.00000   17.89740    0.06130    4.76840    7.92400    0.09560    0.00690 1971.78750    2.54360   20.98780   14.30890   24.56910 -101.84500 1958.50480   70.27990   13.92840   58.20700  108.04210  213.00790
 8628.50000   19.27180    0.06070    4.72200    7.93860    0.09340    0.01080 1974.46800    2.54790   23.01700   14.29360   24.50990 -101.89130 1958.13900   69.99410   14.17200   58.03770  108.02790  218.94510
 8629.00000   20.39260    0.06250    4.73190    7.94580    0.09380    0.00970 1969.35710    2.54860   23.99720   14.22760   23.98890 -102.17760 1957.77340   69.88250   14.39160   57.74010  108.05500  222.06200
 8629.50000   20.26350    0.06480    4.86280    7.89350    0.09810    0.00870 1973.26260    2.54410   24.88670   14.15430   23.76260 -102.46390 1957.40770   70.04970   14.61120   57.17250  108.08210  222.00510
 8630.00000   18.51000    0.06790    5.07530    7.84710    0.09880    0.02030 1969.39820    2.54170   23.38080   14.08140   23.61170 -102.75020 1957.04210   75.26420   14.94020   57.12190  108.10910  217.66760
 8630.50000   16.49670    0.07060    5.20740    7.82440    0.09390    0.03630 1973.69300    2.55020   22.03590   14.04250   23.50800 -103.03650 1956.67640   81.09150   15.25230   57.16360  108.12940  214.80080
 8631.00000   15.10040    0.07110    5.19190    7.82490    0.09040    0.04600 1990.07630    2.55660   22.37340   14.03600   23.50530 -103.32290 1956.31080   87.57390   14.88070   57.12660  107.65660  215.85550
 8631.50000   14.97710    0.07300    5.17090    7.82610    0.08940    0.03740 1981.17940    2.55740   23.79920   14.02950   23.50270 -103.48430 1955.94520   86.06960   14.29900   57.10090  107.27130  218.06270
 8632.00000   15.86320    0.07730    5.24780    7.82660    0.09250    0.01600 1972.28270    2.54930   24.60340   14.05740   23.35620 -103.72030 1955.57950   74.28160   14.21950   57.12350  107.19490  220.72690
 8632.50000   16.97780    0.07970    5.28950    7.82210    0.09810    0.00410 1968.00760    2.53710   24.63110   14.12750   23.19050 -103.84750 1955.21390   69.09720   14.28750   57.08850  107.18260  220.47240
 8633.00000   17.36300    0.07880    5.25110    7.82530    0.10320   -0.00060 1969.72180    2.53070   23.76870   14.19790   23.03070 -104.14740 1954.84810   70.44690   15.02920   57.01810  107.17600  218.42220
 8633.50000   17.76870    0.07460    5.16540    7.82620    0.10340    0.00110 1967.44950    2.53090   22.98420   14.26870   22.93070 -104.14160 1954.48250   76.92850   15.77100   56.72340  107.16940  216.79770
 8634.00000   18.34480    0.07170    5.12880    7.83100    0.09710    0.00450 1969.37150    2.53760   22.03780   14.29260   22.83120 -104.12590 1954.11680   86.73720   16.51270   56.15460  107.16280  215.08260
 8634.50000   18.49840    0.06960    5.13890    7.83940    0.09140    0.00730 1979.77650    2.54840   20.72190   14.27400   23.23900 -104.11020 1953.75120   93.03020   16.80560   56.05980  107.13900  213.57480
 8635.00000   18.77220    0.06950    5.16240    7.84880    0.08760    0.00750 1962.60110    2.55930   18.77220   14.24320   23.21510 -104.09450 1953.38550   95.07500   16.75780   56.08380  107.06960  213.23490
 8635.50000   19.00050    0.06870    5.02510    7.85050    0.08580    0.00710 1959.65120    2.56350   17.53740   14.19230   23.12240 -103.87700 1953.47810   92.96570   16.08180   56.09140  106.52090  213.35530
 8636.00000   18.56140    0.06800    4.93130    7.85350    0.08590    0.00320 1959.71660    2.56440   16.48260   14.14160   22.98500 -103.65710 1953.60030   90.90320   14.23350   56.07400  105.90890  213.13680
 8636.50000   17.71000    0.06630    4.76900    7.87650    0.08820   -0.00060 1959.78190    2.55860   16.46040   14.10790   22.79440 -103.44340 1953.72250   88.88650   13.28730   56.03090  106.35000  211.05410
 8637.00000   16.41410    0.06390    4.64820    7.89940    0.09100    0.00030 1959.84720    2.55210   17.75490   14.00480   22.60540 -103.30030 1953.84460   85.14770   12.48510   55.92630  106.65600  210.30330
 8637.50000   16.44720    0.06340    4.53160    7.92220    0.09090    0.01000 1959.91260    2.55190   19.54160   14.00230   22.55430 -103.24290 1953.96680   80.55910   12.27180   55.67110  104.73890  211.59070
 8638.00000   16.44870    0.06340    4.49600    7.94270    0.08530    0.02720 1959.97790    2.56620   21.37400   14.06610   22.55230 -103.19900 1954.08900   75.53880   12.04750   55.29320  104.08910  212.08860
 8638.50000   16.24160    0.06540    4.56060    7.95500    0.07840    0.04180 1960.04320    2.58080   23.74160   14.13570   22.55020 -102.55430 1954.21110   70.67690   11.79280   55.10090  104.09070  212.00380
 8639.00000   15.89740    0.06870    4.70710    7.96040    0.07550    0.03950 1960.10850    2.58440   25.96130   14.22520   22.95740 -102.68950 1954.33330   65.26230   12.03770   55.17180  105.36890  210.57400
 8639.50000   15.87100    0.07060    4.79870    7.94940    0.08020    0.02650 1960.17380    2.56780   28.51900   14.45820   23.43430 -102.82480 1954.45540   62.21840   12.72070   55.20070  106.73250  207.76940
 8640.00000   15.18900    0.07240    4.79550    7.88710    0.09360    0.01190 1960.23910    2.54700   26.63340   14.77980   23.92100 -102.96000 1954.57760   67.14180   13.58460   55.65410  107.10770  211.41670
 8640.50000   14.23250    0.07390    4.79470    7.82640    0.10420    0.00880 1960.30440    2.52790   23.68740   15.15430   24.41790 -103.09520 1954.69970   73.94690   14.24470   56.01670  106.99080  214.77620
 8641.00000   14.10680    0.07410    4.85130    7.82030    0.10520    0.01860 1960.36980    2.52920   22.43440   15.59970   25.03910 -103.23050 1954.82190   80.65520   14.00860   56.44240  106.40780  211.23710
 8641.50000   14.82980    0.07480    4.94460    7.81600    0.10050    0.03070 1960.43510    2.53670   21.45170   16.05820   25.81260 -103.36570 1954.94410   84.72220   13.70910   56.58670  105.77910  215.05790
 8642.00000   16.24470    0.07400    4.92810    7.81800    0.09550    0.03760 1960.50040    2.54430   20.27520   16.20160   26.50040 -103.50090 1955.06620   86.61140   13.67480   56.22560  105.15330  216.27110
 8642.50000   16.54360    0.07270    4.82770    7.82790    0.09370    0.02420 1960.98280    2.54830   19.18840   16.34170   27.01690 -103.63610 1955.18840   87.68600   13.67490   55.97900  104.87790  213.49890
 8643.00000   15.97920    0.07140    4.72750    7.83790    0.09070    0.01840 1961.90250    2.55260   18.19350   16.30080   27.35320 -103.73960 1955.31050   87.19320   13.67510   55.76000  104.88130  209.26900
 8643.50000   15.11410    0.06950    4.66140    7.82970    0.08520    0.02000 1962.82200    2.56620   16.90210   16.24920   27.23720 -103.65760 1955.43270   87.31890   13.67520   56.00800  104.77850  207.32390
 8644.00000   15.00880    0.06880    4.64790    7.82560    0.08070    0.02950 1963.74160    2.57650   14.86000   16.19990   26.96500 -103.57560 1955.55480   86.08510   13.83650   56.68820  104.75150  206.25060
 8644.50000   15.14770    0.06820    4.68720    7.81950    0.07700    0.04120 1964.66110    2.57910   13.67240   16.16720   26.75910 -103.50840 1955.67700   81.83160   14.11350   57.08250  104.78930  205.91810
 8645.00000   16.42510    0.06860    4.73840    7.82170    0.08020    0.04320 1965.58080    2.57310   15.10410   16.05010   26.81960 -103.35640 1955.79920   78.23770   14.60280   56.80970  104.88060  205.63300
