~Version ---------------------------------------------------
VERS.   2.0 : CWLS log ASCII Standard -VERSION 2.0
WRAP.    NO : One line per depth step
DLM . SPACE : Column Data Section Delimiter
~Well ------------------------------------------------------
STRT .F                    7.0 : START DEPTH
STOP .F                 9979.0 : STOP DEPTH
STEP .F                    0.5 : STEP
NULL .                -9999.25 : NULL VALUE
COMP .                         : COMPANY
WELL .                         : WELL
FLD  .                         : FIELD
LOC  .                         : LOCATION
PROV .                         : PROVINCE
CNTY .                         : COUNTY
STAT .                         : STATE
CTRY .                         : COUNTRY
SRVC .                         : SERVICE COMPANY
DATE .                         : DATE
UWI  .                         : UNIQUE WELL ID
API  .                         : API NUMBER
SLAT .WGS84 2.7051883266738983 : SURFACE LATITUDE
SLON .WGS84     6.105742819103 : SURFACE LONGITUDE
DATUM.F                2728.77 : DEPTH DATUM ELEV
~Curve Information -----------------------------------------
DEPT   .F     : 
GRD    .GAPI  : GAMMA RAY FROM DENSITY LOG
NPHI_LS.DEC   : NEUTRON POROSITY LIMESTONE
PEF    .B/E   : PHOTOELECTRIC FACTOR
CALD   .IN    : CALIPER FROM DENSITY LOG
DPHI_LS.DEC   : DENSITY POROSITY LIMESTONE
DRHO   .G/C3  : BULK DENSITY CORRECTION
TEND   .LB    : TENSION FROM DENSITY LOG
RHOB   .G/C3  : BULK DENSITY
GRR    .GAPI  : GAMMA RAY FROM RESISTIVITY LOG
ILD    .OHMM  : INDUCTION DEEP RESISTIVITY
ILM    .OHMM  : INDUCTION MEDIUM RESISTIVITY
SPR    .MV    : SPONTANEOUS POTENTIAL FROM RESISTIVITY LOG
TENR   .LB    : TENSION FROM RESISTIVITY LOG
SFLU   .OHMM  : SHALLOW FOCUSED RESISTIVITY (UNAVERAGED)
GRS    .GAPI  : GAMMA RAY FROM SONIC LOG
DTCO   .US/F  : DELTA-T COMPRESSIONAL
DTSM   .US/F  : DELTA-T SHEAR
DTST   .US/F  : DELTA-T STONELEY - MONOPOLE STONELEY
~Params ----------------------------------------------------
~Other -----------------------------------------------------
~ASCII -----------------------------------------------------
# ...
 6968.50000   74.30850    0.15530    3.25820    8.54310    0.04410    0.02990 1718.40820    2.63190   72.70920   45.46900   49.56700  -28.45320 1625.15770   56.33480   -9999.25   -9999.25   -9999.25   -9999.25
 6969.00000   65.32730    0.13020    3.40530    8.54770    0.04440    0.01030 1679.77440    2.63340   66.25060   44.90660   53.62120  -28.25580 1628.89650   72.92640   -9999.25   -9999.25   -9999.25   -9999.25
 6969.50000   67.42790    0.09020    3.28540    8.55020    0.04760   -0.00070 1657.34290    2.62840   69.99140   44.80770   57.05080  -28.00990 1631.29700  116.63950   -9999.25   -9999.25   -9999.25   -9999.25
 6970.00000   84.73730    0.07770    3.22660    8.54570    0.05280    0.00650 1657.07410    2.62120   93.64170   44.56300   57.89530  -27.66370 1635.09850  187.00100   -9999.25   -9999.25   -9999.25   -9999.25
 6970.50000  104.48200    0.10280    3.21340    8.54230    0.05870    0.01820 1658.62730    2.60880  117.10940   45.31450   57.29710  -27.31750 1636.19140  156.72890   -9999.25   -9999.25   -9999.25   -9999.25
 6971.00000  110.55960    0.14130    3.34110    8.55360    0.06250    0.01760 1664.50850    2.60080  123.88850   47.64940   55.59130  -26.98940 1632.91260  105.08570   -9999.25   -9999.25   -9999.25   -9999.25
 6971.50000  107.94280    0.17870    3.27500    8.55890    0.06700    0.01270 1673.04870    2.59550  120.09590   49.87930   53.93640  -26.81490 1629.63380   83.53840   -9999.25   -9999.25   -9999.25   -9999.25
 6972.00000   98.82940    0.17720    2.92800    8.58930    0.07180    0.00710 1665.21830    2.58670  112.36160   48.46580   50.37230  -26.64040 1626.35490   74.30010   -9999.25   -9999.25   -9999.25   -9999.25
 6972.50000   92.99480    0.16840    2.66130    8.62200    0.07930    0.00030 1657.91220    2.57550  106.34430   45.09620   46.60490  -26.49220 1623.07600   62.38950   -9999.25   -9999.25   -9999.25   -9999.25
 6973.00000   95.97940    0.16130    2.61860    8.64000    0.08500   -0.00170 1661.84840    2.56630  105.52900   41.96080   43.26210  -26.44360 1618.97550   53.34700   -9999.25   -9999.25   -9999.25   -9999.25
 6973.50000   98.20020    0.16650    2.65500    8.64310    0.08730   -0.00250 1680.23800    2.56140  106.41400   40.03700   40.85720  -26.49110 1613.32600   45.18550   -9999.25   -9999.25   -9999.25   -9999.25
 6974.00000   94.17190    0.17320    2.63770    8.64590    0.08750   -0.00370 1690.32620    2.56000  107.23860   39.74160   41.44300  -26.53860 1617.71280   42.48310   -9999.25   -9999.25   -9999.25   -9999.25
 6974.50000   85.82720    0.17590    2.55640    8.64820    0.08770   -0.00380 1689.05050    2.55990  105.11720   39.44840   42.03720  -26.58610 1623.44450   49.86590   -9999.25   -9999.25   -9999.25   -9999.25
 6975.00000   81.82590    0.16570    2.48790    8.65040    0.08780   -0.00300 1666.17820    2.56000  102.14890   39.41980   42.69890  -26.63360 1629.17600   59.58450   -9999.25   -9999.25   -9999.25   -9999.25
 6975.50000   80.77710    0.15270    2.49550    8.64330    0.08760   -0.00210 1664.62150    2.56050   99.26490   40.33130   43.40880  -26.68110 1621.77780   69.60300   -9999.25   -9999.25   -9999.25   -9999.25
 6976.00000   82.03700    0.14590    2.54150    8.63890    0.08560   -0.00190 1663.08640    2.56260   98.96030   41.41800   44.13050  -26.72860 1623.41200   71.30510   -9999.25   -9999.25   -9999.25   -9999.25
 6976.50000   85.31310    0.14030    2.63870    8.63980    0.08160    0.00050 1661.53740    2.56800   99.15850   42.54120   44.97810  -26.77600 1626.48560   72.48970   -9999.25   -9999.25   -9999.25   -9999.25
 6977.00000   89.76820    0.13820    2.71110    8.63250    0.07780    0.00030 1658.96350    2.57420   99.12710   43.69480   46.59440  -26.82350 1625.88750   71.77880   -9999.25   -9999.25   -9999.25   -9999.25
 6977.50000   91.59070    0.14000    2.72410    8.62950    0.07520    0.00090 1656.38980    2.57900   97.92880   44.87980   48.26870  -26.84300 1621.31920   70.29480   -9999.25   -9999.25   -9999.25   -9999.25
 6978.00000   91.09100    0.14370    2.71310    8.63760    0.07380    0.00180 1666.81400    2.58200   97.07170   46.09690   50.00320  -26.86070 1616.75100   66.08560   -9999.25   -9999.25   -9999.25   -9999.25
 6978.50000   89.24120    0.14430    2.67790    8.64040    0.07320    0.00370 1666.62400    2.58310   96.14960   47.34700   51.81650  -26.87840 1612.48330   63.69930   -9999.25   -9999.25   -9999.25   -9999.25
 6979.00000   87.31670    0.13910    2.65640    8.62430    0.07500    0.00520 1656.71010    2.58150   95.35540   48.69470   54.09490  -26.89620 1611.71420   65.79110   -9999.25   -9999.25   -9999.25   -9999.25
 6979.50000   88.91850    0.13410    2.65990    8.62220    0.08200    0.00690 1655.54260    2.57460   96.60110   50.14880   56.47350  -26.66590 1610.94520   72.10640   -9999.25   -9999.25   -9999.25   -9999.25
 6980.00000   95.57800    0.14470    2.67970    8.60630    0.08970    0.00850 1659.60740    2.56140  116.69340   51.64630   58.95670  -26.12070 1611.71780   77.73660   -9999.25   -9999.25   -9999.25   -9999.25
 6980.50000  108.54220    0.16780    2.68800    8.58730    0.09620    0.01130 1663.67210    2.54970  138.10290   53.18850   61.54910  -25.57550 1612.56790   81.77760   -9999.25   -9999.25   -9999.25   -9999.25
 6981.00000  111.59390    0.18960    2.67680    8.56870    0.09470    0.02150 1662.76320    2.54240  150.65380   54.76350   64.25540  -25.03030 1613.41780   86.02860   -9999.25   -9999.25   -9999.25   -9999.25
 6981.50000  111.74080    0.20180    2.70420    8.55000    0.08750    0.03760 1663.58200    2.55380  144.38870   56.25400   67.08070  -24.60510 1614.26790   91.29670   -9999.25   -9999.25   -9999.25   -9999.25
 6982.00000  113.20080    0.20320    2.82120    8.50120    0.08290    0.03580 1664.40090    2.56790  134.44620   57.71410   68.15420  -24.29260 1615.11800   98.88040   -9999.25   -9999.25   -9999.25   -9999.25
 6982.50000  118.48990    0.20100    2.93390    8.47330    0.08480    0.02960 1665.21970    2.56920  129.77280   58.88970   68.70240  -24.00860 1615.96800  101.57300   -9999.25   -9999.25   -9999.25   -9999.25
 6983.00000  123.38630    0.20320    2.99230    8.45400    0.09240    0.01890 1666.03850    2.56320  132.73030   60.02490   69.25490  -23.78740 1616.81810  100.95560   -9999.25   -9999.25   -9999.25   -9999.25
 6983.50000  128.28280    0.20700    3.00130    8.43420    0.09990    0.01380 1666.85730    2.54740  138.74560   61.62590   70.00590  -23.56680 1617.66810  104.85230   -9999.25   -9999.25   -9999.25   -9999.25
 6984.00000  127.54180    0.21770    3.02200    8.41150    0.10740    0.00900 1667.67610    2.53160  139.44390   63.26970   72.35350  -23.45030 1618.51820  110.36170   -9999.25   -9999.25   -9999.25   -9999.25
 6984.50000  119.82000    0.22810    3.13600    8.40080    0.10740    0.00430 1668.49500    2.52140  130.72390   64.82950   75.78500  -23.59580 1619.06460  111.56310   -9999.25   -9999.25   -9999.25   -9999.25
 6985.00000  103.29510    0.21040    3.41660    8.38560    0.09460    0.00140 1669.31370    2.53980  115.09310   65.62580   79.37930  -23.79730 1619.46410  111.72840   -9999.25   -9999.25   -9999.25   -9999.25
 6985.50000   86.72250    0.16610    3.56870    8.35500    0.07670    0.00480 1670.13260    2.57450  102.37300   65.32880   87.85570  -23.94830 1619.86350  117.56590   -9999.25   -9999.25   -9999.25   -9999.25
 6986.00000   82.93300    0.13180    3.33900    8.31880    0.06000    0.01230 1670.95140    2.60660   96.66550   64.77510   78.82610  -24.09930 1620.26310  125.68830   -9999.25   -9999.25   -9999.25   -9999.25
 6986.50000   90.04150    0.13680    3.03580    8.28870    0.06240    0.01860 1671.77010    2.60790  101.44270   64.22610   67.03390  -24.25020 1620.66250  116.74010   -9999.25   -9999.25   -9999.25   -9999.25
 6987.00000   98.02320    0.17500    2.97640    8.28480    0.07390    0.02660 1672.58900    2.58890  102.14880   63.68180   66.89270  -24.40120 1621.06200  100.86070   -9999.25   -9999.25   -9999.25   -9999.25
 6987.50000   98.07070    0.19670    3.15650    8.28330    0.07700    0.03580 1673.40780    2.57370   96.11400   62.99460   68.82660  -24.55220 1627.43330   91.67500   -9999.25   -9999.25   -9999.25   -9999.25
