~Version ---------------------------------------------------
VERS.   2.0 : CWLS log ASCII Standard -VERSION 2.0
WRAP.    NO : One line per depth step
DLM . SPACE : Column Data Section Delimiter
~Well ------------------------------------------------------
STRT .F                    7.0 : START DEPTH
STOP .F                 9979.0 : STOP DEPTH
STEP .F                    0.5 : STEP
NULL .                -9999.25 : NULL VALUE
COMP .                         : COMPANY
WELL .                         : WELL
FLD  .                         : FIELD
LOC  .                         : LOCATION
PROV .                         : PROVINCE
CNTY .                         : COUNTY
STAT .                         : STATE
CTRY .                         : COUNTRY
SRVC .                         : SERVICE COMPANY
DATE .                         : DATE
UWI  .                         : UNIQUE WELL ID
API  .                         : API NUMBER
SLAT .WGS84 2.7051883266738983 : SURFACE LATITUDE
SLON .WGS84     6.105742819103 : SURFACE LONGITUDE
DATUM.F                2728.77 : DEPTH DATUM ELEV
~Curve Information -----------------------------------------
DEPT   .F     : 
GRD    .GAPI  : GAMMA RAY FROM DENSITY LOG
NPHI_LS.DEC   : NEUTRON POROSITY LIMESTONE
PEF    .B/E   : PHOTOELECTRIC FACTOR
CALD   .IN    : CALIPER FROM DENSITY LOG
DPHI_LS.DEC   : DENSITY POROSITY LIMESTONE
DRHO   .G/C3  : BULK DENSITY CORRECTION
TEND   .LB    : TENSION FROM DENSITY LOG
RHOB   .G/C3  : BULK DENSITY
GRR    .GAPI  : GAMMA RAY FROM RESISTIVITY LOG
ILD    .OHMM  : INDUCTION DEEP RESISTIVITY
ILM    .OHMM  : INDUCTION MEDIUM RESISTIVITY
SPR    .MV    : SPONTANEOUS POTENTIAL FROM RESISTIVITY LOG
TENR   .LB    : TENSION FROM RESISTIVITY LOG
SFLU   .OHMM  : SHALLOW FOCUSED RESISTIVITY (UNAVERAGED)
GRS    .GAPI  : GAMMA RAY FROM SONIC LOG
DTCO   .US/F  : DELTA-T COMPRESSIONAL
DTSM   .US/F  : DELTA-T SHEAR
DTST   .US/F  : DELTA-T STONELEY - MONOPOLE STONELEY
~Params ----------------------------------------------------
~Other -----------------------------------------------------
~ASCII -----------------------------------------------------
# ...
 9601.00000   33.61920    0.01460    4.76730    8.41430    0.02140    0.00690 2208.04470    2.67400   42.96070  409.82070 2067.73460  -21.57910 2219.59670 1642.00230   32.41480   96.01260  144.83340  199.55000
 9601.50000   32.51830    0.00750    4.63850    8.41310    0.01820    0.00930 2208.13530    2.68020   39.84730  468.01160 2039.19480  -22.45130 2212.53130 1811.82010   29.10440   94.68580  144.82190  198.79300
 9602.00000   30.56550    0.00610    4.68900    8.41200    0.01470    0.00730 2211.09330    2.68340   37.57400  549.88520 1986.52390  -23.23320 2204.05250 1922.53410   27.89030   94.33910  144.80280  197.88400
 9602.50000   29.03000    0.00560    4.75890    8.41400    0.01330    0.00520 2206.08280    2.68540   36.03740  580.73410 1934.29680  -24.01520 2195.82500 1956.40860   27.94520   94.12050  144.81030  196.89630
 9603.00000   28.59660    0.00540    4.68500    8.42000    0.01510    0.00270 2199.31810    2.68390   35.47500  594.20980 1903.96630  -24.79710 2196.54130 1976.04850   29.23090   94.12840  144.81780  196.33970
 9603.50000   29.76990    0.00510    4.60680    8.39910    0.01630    0.00050 2196.83810    2.68220   34.85680  591.58180 1890.95400  -25.41830 2197.25760 1992.16910   30.53800   94.13620  144.82530  196.93640
 9604.00000   32.65890    0.00620    4.66570    8.38650    0.01480    0.00030 2195.59640    2.68450   33.92370  520.06830 1897.09690  -25.44470 2197.97390 1999.15110   35.20040   93.60350  144.83290  198.25160
 9604.50000   40.65080    0.00810    4.94510    8.39690    0.01350    0.00220 2200.79420    2.68820   38.14180  425.36500 1861.44620  -25.32630 2198.69020 2000.61020   46.36550   93.50300  144.84100  199.58630
 9605.00000   47.71290    0.01640    4.82760    8.40200    0.01690    0.00080 2201.13570    2.68260   49.36940  354.92110 1567.70150  -25.00170 2199.40650 1751.61910   61.87070   94.21000  144.85470  200.93520
 9605.50000   58.06750    0.02620    4.64650    8.40010    0.02180   -0.00200 2195.62330    2.67480   69.66460  279.42470 1011.67020  -24.33740 2200.12280 1299.36430   77.37600   95.10760  144.86830  200.82070
 9606.00000   74.35900    0.03970    4.30690    8.39650    0.02200   -0.00090 2195.19510    2.67210   90.28190  238.04070  562.44850  -23.67300 2200.83910  719.86600   92.88130   96.57860  144.88200  200.42970
 9606.50000   92.72770    0.04770    4.06780    8.39510    0.02050    0.00220 2195.62890    2.67490  110.27820  214.91290  391.07210  -23.00870 2201.55540  355.52580  108.38660   97.63510  144.87960  199.85570
 9607.00000  109.63290    0.05030    3.90190    8.38670    0.01850    0.00520 2196.06300    2.67880  128.05700  198.81520  380.67220  -22.59540 2202.27170  355.15580  127.02650   97.41050  144.76730  198.98770
 9607.50000  124.71390    0.05230    3.80830    8.36320    0.01340    0.00390 2196.49680    2.68410  137.04660  182.55700  355.42370  -22.68260 2202.98800  378.59200  139.91540   97.98960  144.84380  198.62450
 9608.00000  136.27620    0.05620    3.85880    8.35280    0.00830    0.00210 2196.93090    2.69320  145.72850  176.63210  298.50340  -22.76980 2203.70430  405.42690  152.72220   98.26140  144.72090  197.84150
 9608.50000  142.97240    0.06320    4.04460    8.34410    0.00580   -0.00010 2197.36470    2.69900  153.90640  172.76970  307.36590  -22.89650 2204.42070  412.07690  151.42320   98.41480  144.70990  197.56420
 9609.00000  144.09310    0.06480    4.24660    8.34120    0.00720   -0.00180 2197.79860    2.69940  159.37440  167.50640  336.12880  -23.62110 2205.13720  397.28490  137.39230   97.82000  144.83490  197.34890
 9609.50000  140.25040    0.06380    4.35560    8.33920    0.00820   -0.00190 2198.23270    2.69670  164.30830  142.27520  304.92640  -24.21620 2205.85350  421.01110  132.77600   97.47620  144.95980  197.36040
 9610.00000  132.12500    0.06650    4.12080    8.34180    0.01260    0.00020 2198.66650    2.69260  145.68910  120.41860  217.78090  -24.81130 2206.56980  407.94190  124.34900   97.18230  144.97800  197.71620
 9610.50000  125.32940    0.07820    3.68510    8.34590    0.02410    0.00320 2198.55910    2.67420  142.76560  103.33220  122.17520  -25.41610 2207.28610  278.43100  119.19040   98.62160  144.84500  198.35130
 9611.00000  123.66660    0.09460    3.33560    8.33690    0.04540    0.00850 2198.91280    2.64060  140.83160   94.49930   74.54470  -26.11190 2208.00240  170.89440  114.23110  101.16530  144.72170  199.23240
 9611.50000  124.53300    0.11370    3.08400    8.33570    0.06160    0.03720 2203.37620    2.60560  138.62680   87.78180   60.27550  -27.00060 2208.71880  125.97590  115.93880  103.56110  144.73260  199.76470
 9612.00000  130.59280    0.11820    3.03750    8.35040    0.06860    0.06940 2207.83960    2.59240  135.04220   84.22230   66.02430  -28.61180 2209.43510   93.62330  115.22520  105.09140  144.66440  198.86980
 9612.50000  135.46910    0.09390    3.35060    8.38070    0.07560    0.07810 2212.30270    2.58180  130.86730   82.07780  113.87840  -29.43700 2210.15140   94.81450  110.83710  104.24700  144.53090  197.69290
 9613.00000  127.97200    0.05500    3.90070    8.41030    0.08130    0.04460 2216.76610    2.57140  118.62590   80.73430  275.78970  -30.26230 2210.86770  122.13210   97.66250  103.66740  140.57540  196.83740
 9613.50000  105.71410    0.02030    4.29510    8.39060    0.08040    0.00900 2221.22950    2.57920  103.61650   75.99470  441.57140  -31.72000 2211.58400  173.04960   78.63330  103.06010  126.50600  196.55690
 9614.00000   92.76260    0.01020    4.18590    8.30660    0.07070    0.00720 2225.69290    2.58600   95.07760   73.05490  156.38970  -33.55080 2212.30030  271.47500   74.04630  100.19090  103.06780  196.56740
 9614.50000   82.27870    0.01130    3.99730    8.21260    0.07350    0.00950 2230.15600    2.58210   88.08990   90.08260  131.43900  -35.38170 2211.83910  341.52230   71.64240  100.08140   88.71860  196.57790
 9615.00000   75.58370    0.01980    4.08680    8.20500    0.07790    0.00750 2234.61940    2.57930   81.10220  130.37190  596.38670  -36.76340 2206.00150  406.28890   58.06420  100.29580   87.83520  196.58830
 9615.50000   60.24000    0.02310    4.48120    8.18640    0.07030   -0.00210 2247.95290    2.58470   68.17460  192.32670 1378.13880  -38.97450 2200.16410  680.41430   40.67480   99.50520   87.83350  196.59880
 9616.00000   40.57140    0.01700    4.75530    8.11300    0.04640   -0.00580 2238.16090    2.61120   52.65890  257.74640 1942.66550  -41.16270 2196.76660 1627.50060   32.30230   96.75360   87.83170  197.79090
 9616.50000   30.29340    0.00910    4.57380    8.06320    0.03010   -0.00250 2225.69310    2.64400   36.04980  265.30240 1864.94130  -43.35080 2194.08370 2036.73800   26.79140   95.51180   87.83000  198.68770
 9617.00000   26.74380    0.00500    4.43310    8.01340    0.02500    0.00330 2214.36650    2.66430   29.59710  305.70790 1791.85180  -45.44120 2191.40090 2032.66760   25.29080   94.46120   87.82830  198.75080
 9617.50000   25.94500    0.00470    4.39030    7.98030    0.02350    0.00850 2208.17970    2.66860   27.63600  407.68980 1853.46000  -47.77230 2191.08010 2028.60530   23.19640   93.24430   87.82650  197.82130
 9618.00000   24.18880    0.00470    4.36570    7.95430    0.02200    0.01310 2223.16160    2.67060   25.45590  553.46650 1931.57810  -50.81980 2195.29000 2024.55130   20.16640   92.05300   87.82480  198.42370
 9618.50000   21.45670    0.00410    4.20170    7.91250    0.02230    0.02070 2217.22530    2.67140   21.80270  753.88450 1951.57500  -54.07450 2202.21220 2020.50520   17.12030   91.09680   87.82310  198.72960
 9619.00000   17.69490    0.00320    3.83310    7.86180    0.02480    0.02800 2204.14600    2.66890   19.46360  905.76540 1964.62600  -56.61570 2189.35060 2016.46730   15.03490   90.13160   87.82130  198.82270
 9619.50000   14.99180    0.00300    3.50250    7.82340    0.02840    0.03750 2194.70900    2.66510   17.65380  642.81450 1945.50550  -58.58920 2188.96800 2012.43740   14.21720   88.88920   87.83280  198.45510
 9620.00000   13.19560    0.00330    3.39670    7.79670    0.03540    0.05200 2214.78760    2.65620   15.90670  268.16430 1545.07340  -60.56270 2189.14920 1919.40200   14.40690   87.82550   87.85090  197.57930
