~Version ---------------------------------------------------
VERS.   2.0 : CWLS log ASCII Standard -VERSION 2.0
WRAP.    NO : One line per depth step
DLM . SPACE : Column Data Section Delimiter
~Well ------------------------------------------------------
STRT .F                    7.0 : START DEPTH
STOP .F                 9979.0 : STOP DEPTH
STEP .F                    0.5 : STEP
NULL .                -9999.25 : NULL VALUE
COMP .                         : COMPANY
WELL .                         : WELL
FLD  .                         : FIELD
LOC  .                         : LOCATION
PROV .                         : PROVINCE
CNTY .                         : COUNTY
STAT .                         : STATE
CTRY .                         : COUNTRY
SRVC .                         : SERVICE COMPANY
DATE .                         : DATE
UWI  .                         : UNIQUE WELL ID
API  .                         : API NUMBER
SLAT .WGS84 2.7051883266738983 : SURFACE LATITUDE
SLON .WGS84     6.105742819103 : SURFACE LONGITUDE
DATUM.F                2728.77 : DEPTH DATUM ELEV
~Curve Information -----------------------------------------
DEPT   .F     : 
GRD    .GAPI  : GAMMA RAY FROM DENSITY LOG
NPHI_LS.DEC   : NEUTRON POROSITY LIMESTONE
PEF    .B/E   : PHOTOELECTRIC FACTOR
CALD   .IN    : CALIPER FROM DENSITY LOG
DPHI_LS.DEC   : DENSITY POROSITY LIMESTONE
DRHO   .G/C3  : BULK DENSITY CORRECTION
TEND   .LB    : TENSION FROM DENSITY LOG
RHOB   .G/C3  : BULK DENSITY
GRR    .GAPI  : GAMMA RAY FROM RESISTIVITY LOG
ILD    .OHMM  : INDUCTION DEEP RESISTIVITY
ILM    .OHMM  : INDUCTION MEDIUM RESISTIVITY
SPR    .MV    : SPONTANEOUS POTENTIAL FROM RESISTIVITY LOG
TENR   .LB    : TENSION FROM RESISTIVITY LOG
SFLU   .OHMM  : SHALLOW FOCUSED RESISTIVITY (UNAVERAGED)
GRS    .GAPI  : GAMMA RAY FROM SONIC LOG
DTCO   .US/F  : DELTA-T COMPRESSIONAL
DTSM   .US/F  : DELTA-T SHEAR
DTST   .US/F  : DELTA-T STONELEY - MONOPOLE STONELEY
~Params ----------------------------------------------------
~Other -----------------------------------------------------
~ASCII -----------------------------------------------------
# ...
 9269.50000   53.94210    0.00620    2.32350    7.97620    0.05950    0.02940 2365.37010    2.60700   70.82860  778.88490   -9999.25  -91.99010 2115.64480 1845.46740   54.44520   53.01490   87.64990  197.68950
 9270.00000   53.05180    0.00580    2.55040    8.00440    0.05750    0.03300 2365.48750    2.60980   64.01610  699.87280   -9999.25  -91.91200 2116.08060 1732.85080   49.95370   54.26500   87.08380  197.69570
 9270.50000   52.74990    0.00550    2.88330    8.02530    0.04920    0.03940 2365.32980    2.63320   56.89910  616.91760   -9999.25  -91.72410 2116.51610 1693.13680   47.89430   53.71930   87.73320  197.70160
 9271.00000   54.56320    0.00540    3.21510    8.05660    0.04150    0.04670 2365.17210    2.64570   57.86790  547.90160   -9999.25  -91.49470 2116.95190 1703.69620   48.11870   52.61710   88.21060  197.39380
 9271.50000   58.61060    0.00500    3.60430    8.06740    0.02980    0.05420 2354.17630    2.66780   63.44220  507.03100   -9999.25  -91.28380 2117.38750 1786.00940   52.49890   51.53980   89.16100  196.80210
 9272.00000   63.56410    0.00450    4.01630    8.09120    0.01490    0.06250 2354.52910    2.69450   71.31580  518.32080   -9999.25  -90.85770 2117.82320 1966.99690   57.03290   50.72030   90.52420  195.93890
 9272.50000   68.83630    0.00390    4.56550    8.11540    0.00140    0.07360 2377.07230    2.71420   77.76020  546.70510   -9999.25  -90.22650 2118.25880 2028.68880   57.76490   50.10410   91.65890  195.95270
 9273.00000   66.40620    0.00340    4.88710    8.12820   -0.01280    0.08210 2395.96170    2.73410   74.25650  576.64420   -9999.25  -89.99450 2118.69460 2020.10600   53.59520   49.83670   92.29400  196.25410
 9273.50000   58.85170    0.00280    4.87800    8.12760   -0.02340    0.08800 2381.58250    2.74840   65.31010  608.22270   -9999.25  -89.77200 2119.13010   -9999.25   47.01670   49.23890   92.81860  196.26790
 9274.00000   49.07000    0.00270    4.76460    8.11430   -0.01890    0.07720 2364.67770    2.73240   56.65220  625.45690   -9999.25  -89.54960 2119.56590   -9999.25   42.88140   48.56970   93.61150  195.37980
 9274.50000   42.30120    0.00240    4.71930    8.11540   -0.00640    0.04980 2355.06270    2.71400   50.22980  621.49410   -9999.25  -89.32720 2120.00150   -9999.25   37.01740   48.23290   93.52440  195.09010
 9275.00000   37.25990    0.00190    4.84880    8.13130    0.00210    0.02070 2354.32030    2.70300   43.39100  614.53190 1976.79270  -89.07400 2120.43730   -9999.25   32.45080   48.23620   93.06270  195.98250
 9275.50000   32.48150    0.00130    5.04860    8.14720    0.00570    0.00160 2354.69600    2.69820   38.88890  610.32560 1956.17870  -88.88130 2120.87280   -9999.25   30.60050   48.23960   92.70940  196.28390
 9276.00000   28.76440    0.00080    5.03950    8.16310    0.01010   -0.00620 2357.95210    2.68920   35.19060  606.14810  799.95130  -88.46380 2121.30860   -9999.25   30.55590   48.10100   92.35820  196.28990
 9276.50000   29.46380    0.00060    4.55250    8.17700    0.01960   -0.01100 2355.55880    2.67070   35.24820  611.19530  555.85930  -87.68140 2121.74410   -9999.25   33.44650   47.87170   92.21540  196.00000
 9277.00000   31.06530    0.00160    4.21710    8.19050    0.02970   -0.01410 2353.18310    2.65070   37.91530  617.29670  632.78990  -87.08830 2122.17990   -9999.25   35.30630   48.12750   91.40200  196.30180
 9277.50000   32.69560    0.00210    4.02020    8.20400    0.04070   -0.01770 2353.82590    2.63690   39.33430  623.45870  752.80460  -86.40950 2122.61550   -9999.25   35.81160   48.44350   91.09290  196.60320
 9278.00000   34.11220    0.00220    4.07760    8.21750    0.04750   -0.01940 2358.67310    2.62500   39.01550  642.01220  845.00980  -85.80290 2123.05130   -9999.25   35.41320   48.88100   91.04650  196.01830
 9278.50000   35.18420    0.00230    4.12400    8.23100    0.04780   -0.01900 2364.76710    2.62500   37.69110  651.42790  882.62700  -85.21720 2123.48680   -9999.25   35.30530   48.83620   91.08640  196.02430
 9279.00000   36.41800    0.00240    4.03180    8.24540    0.04260   -0.01500 2369.06590    2.64140   39.69220  660.46120  881.30130  -84.63410 2123.92260   -9999.25   35.96770   48.40300   91.22020  196.03020
 9279.50000   37.91640    0.00250    3.94740    8.26350    0.03720   -0.01040 2379.63090    2.65020   42.02560  669.62020  875.65110  -84.16500 2124.35820   -9999.25   37.07360   48.01560   91.34110  196.03620
 9280.00000   39.50080    0.00260    3.91000    8.27370    0.03310   -0.00450 2390.19560    2.65370   44.88710  677.90060  898.95400  -83.98710 2124.79390   -9999.25   39.56430   48.18800   91.17570  196.04210
 9280.50000   41.04600    0.00280    3.98170    8.28210    0.02980   -0.00110 2400.85570    2.65910   48.16970  678.21370 1469.37240  -83.79870 2125.22950   -9999.25   41.64380   48.71620   91.01030  196.04810
 9281.00000   42.21840    0.00290    4.23910    8.30450    0.02790   -0.00230 2412.70360    2.66230   51.39860  668.28780 1877.91600  -83.44940 2125.66530   -9999.25   43.07110   48.84040   90.84500  196.05410
 9281.50000   43.51890    0.00290    4.45090    8.32980    0.02420   -0.00290 2426.94900    2.67030   52.73820  621.48970 1958.78800  -83.34000 2126.10080   -9999.25   44.49660   48.51350   90.69900  197.24170
 9282.00000   43.48300    0.00280    4.60230    8.35140    0.01570   -0.00090 2445.07500    2.68300   49.74100  577.90920 1807.50240  -83.34530 2126.53660   -9999.25   44.36300   48.80650   90.82590  198.42940
 9282.50000   44.13300    0.00250    4.72510    8.37200    0.00950    0.00260 2462.02470    2.69360   47.59060  553.28060 1789.01610  -83.66350 2126.97220   -9999.25   44.11660   48.90490   90.95270  199.32160
 9283.00000   43.48370    0.00130    4.77300    8.39280    0.00650    0.00270 2467.72920    2.69840   47.28930  531.30130 1819.94560  -83.72190 2127.40800   -9999.25   42.09370   48.37870   91.07960  199.32760
 9283.50000   42.01790    0.00080    4.72690    8.42010    0.00490    0.00190 2465.04660    2.70170   47.31200  509.87980 1856.66480  -83.92320 2127.84350   -9999.25   40.97310   48.14620   91.07390  199.33350
 9284.00000   40.10920    0.00030    4.71290    8.45460    0.00210    0.00120 2465.04660    2.70600   46.89530  488.48540 1894.12490  -84.13160 2128.27930   -9999.25   39.60000   48.16720   91.06390  199.33830
 9284.50000   37.64140   -0.00020    4.78250    8.47080    0.00150    0.00040 2462.52640    2.70470   41.04740  447.36320 1914.52530  -84.33990 2128.71480   -9999.25   37.51200   47.84860   91.05390  199.17580
 9285.00000   36.90910   -0.00020    4.87040    8.48690    0.00440   -0.00100 2460.53610    2.69900   37.46080  412.59990 1902.58610  -84.38250 2129.15060   -9999.25   35.19490   47.64320   91.04390  199.05460
 9285.50000   35.70150   -0.00020    4.99010    8.50310    0.00980   -0.00220 2465.65330    2.69330   34.94620  401.43330 1849.32430  -84.10520 2129.58640   -9999.25   34.23960   48.11180   91.03400  198.60830
 9286.00000   34.00250   -0.00010    4.88520    8.51930    0.01090   -0.00350 2470.77050    2.68950   34.09430  389.79240 1776.36610  -83.88310 2130.02200   -9999.25   34.61970   48.62500   91.02400  198.32450
 9286.50000   32.61050   -0.00010    4.77210    8.53460    0.00660   -0.00350 2475.06930    2.69730   33.80240  383.91320 1752.10290  -83.54190 2130.45780   -9999.25   35.62290   48.94500   91.01400  197.44870
 9287.00000   33.09480    0.00010    4.72380    8.54090    0.00520   -0.00320 2475.47880    2.70270   36.10980  379.46810 1761.07500  -82.98420 2130.89330   -9999.25   36.84340   48.94500   91.00400  196.86950
 9287.50000   34.41150    0.00030    4.68540    8.54930    0.00910   -0.00290 2474.75610    2.69190   39.44240  363.52240 1758.21850  -82.17790 2131.32910   -9999.25   38.24810   48.94920   90.99410  196.28970
 9288.00000   36.12660    0.00050    4.66600    8.55820    0.01720   -0.00260 2483.75780    2.67990   42.33140  349.56260 1703.48190  -81.68460 2131.76460   -9999.25   39.64290   49.25630   90.98410  196.13590
 9288.50000   42.83360    0.00060    4.69630    8.56700    0.02030   -0.00230 2487.95070    2.67560   44.24840  326.96040 1536.28890  -81.38540 2132.20040   -9999.25   42.30260   49.56340   91.35600  196.01750
