~Version ---------------------------------------------------
VERS.   2.0 : CWLS log ASCII Standard -VERSION 2.0
WRAP.    NO : One line per depth step
DLM . SPACE : Column Data Section Delimiter
~Well ------------------------------------------------------
STRT .F                    7.0 : START DEPTH
STOP .F                 9979.0 : STOP DEPTH
STEP .F                    0.5 : STEP
NULL .                -9999.25 : NULL VALUE
COMP .                         : COMPANY
WELL .                         : WELL
FLD  .                         : FIELD
LOC  .                         : LOCATION
PROV .                         : PROVINCE
CNTY .                         : COUNTY
STAT .                         : STATE
CTRY .                         : COUNTRY
SRVC .                         : SERVICE COMPANY
DATE .                         : DATE
UWI  .                         : UNIQUE WELL ID
API  .                         : API NUMBER
SLAT .WGS84 2.7051883266738983 : SURFACE LATITUDE
SLON .WGS84     6.105742819103 : SURFACE LONGITUDE
DATUM.F                2728.77 : DEPTH DATUM ELEV
~Curve Information -----------------------------------------
DEPT   .F     : 
GRD    .GAPI  : GAMMA RAY FROM DENSITY LOG
NPHI_LS.DEC   : NEUTRON POROSITY LIMESTONE
PEF    .B/E   : PHOTOELECTRIC FACTOR
CALD   .IN    : CALIPER FROM DENSITY LOG
DPHI_LS.DEC   : DENSITY POROSITY LIMESTONE
DRHO   .G/C3  : BULK DENSITY CORRECTION
TEND   .LB    : TENSION FROM DENSITY LOG
RHOB   .G/C3  : BULK DENSITY
GRR    .GAPI  : GAMMA RAY FROM RESISTIVITY LOG
ILD    .OHMM  : INDUCTION DEEP RESISTIVITY
ILM    .OHMM  : INDUCTION MEDIUM RESISTIVITY
SPR    .MV    : SPONTANEOUS POTENTIAL FROM RESISTIVITY LOG
TENR   .LB    : TENSION FROM RESISTIVITY LOG
SFLU   .OHMM  : SHALLOW FOCUSED RESISTIVITY (UNAVERAGED)
GRS    .GAPI  : GAMMA RAY FROM SONIC LOG
DTCO   .US/F  : DELTA-T COMPRESSIONAL
DTSM   .US/F  : DELTA-T SHEAR
DTST   .US/F  : DELTA-T STONELEY - MONOPOLE STONELEY
~Params ----------------------------------------------------
~Other -----------------------------------------------------
~ASCII -----------------------------------------------------
# ...
 6637.00000  105.59830    0.17910    2.85810    8.82190    0.10650   -0.00020 1596.02100    2.52720  106.25730   28.03220   29.17580  -34.29950 1546.57020   39.69580   -9999.25   -9999.25   -9999.25   -9999.25
 6637.50000  108.91270    0.19070    3.02050    8.82170    0.12120    0.00220 1595.50610    2.50050  104.39850   30.35770   34.52570  -33.95760 1538.76390   47.06660   -9999.25   -9999.25   -9999.25   -9999.25
 6638.00000  103.09720    0.17770    3.25220    8.81480    0.13010    0.01050 1597.43640    2.48680   99.48400   32.87610   40.73620  -33.62210 1544.31620   67.62310   -9999.25   -9999.25   -9999.25   -9999.25
 6638.50000   95.37340    0.15970    3.38910    8.81210    0.12640    0.02490 1597.36740    2.49340   92.46140   35.60340   47.70640  -33.28650 1549.86830  106.15730   -9999.25   -9999.25   -9999.25   -9999.25
 6639.00000   90.75010    0.14340    3.16930    8.80950    0.11810    0.03260 1607.85960    2.50540   96.19910   38.98040   53.36400  -32.95100 1555.00870  129.87160   -9999.25   -9999.25   -9999.25   -9999.25
 6639.50000   92.83740    0.14840    2.97490    8.80680    0.11140    0.02900 1598.51200    2.51740  102.20740   43.97460   57.34510  -33.43980 1554.53480  125.58340   -9999.25   -9999.25   -9999.25   -9999.25
 6640.00000   96.23280    0.16380    2.84940    8.80410    0.10850    0.01830 1598.09910    2.52750  108.21580   49.67330   58.98620  -34.38340 1554.06090  112.06000   -9999.25   -9999.25   -9999.25   -9999.25
 6640.50000   99.68090    0.17750    2.95430    8.80150    0.10670    0.00590 1606.12120    2.52530  110.51130   56.39560   68.47270  -35.05430 1553.58700   99.99290   -9999.25   -9999.25   -9999.25   -9999.25
 6641.00000  102.53900    0.18530    3.07220    8.80210    0.10970   -0.00060 1611.09720    2.51620  109.11540   59.36430   79.86640  -35.72110 1553.36820  110.67570   -9999.25   -9999.25   -9999.25   -9999.25
 6641.50000  102.58230    0.19200    3.16080    8.80340    0.11640   -0.00570 1598.32460    2.50940  105.64870   61.91230   89.66680  -36.47440 1553.48660  131.79500   -9999.25   -9999.25   -9999.25   -9999.25
 6642.00000   96.47370    0.18030    3.28820    8.83780    0.11380   -0.00330 1605.45530    2.52050  101.15370   64.56970   99.33680  -37.44440 1553.60490  193.59360   -9999.25   -9999.25   -9999.25   -9999.25
 6642.50000   83.95560    0.15490    3.57830    8.84500    0.10110   -0.00110 1605.55820    2.54480   98.24590   66.12780  110.04970  -37.92410 1554.87010  270.48470   -9999.25   -9999.25   -9999.25   -9999.25
 6643.00000   82.87860    0.13070    3.60250    8.84720    0.08930   -0.00010 1601.17630    2.56160  103.68070   67.68610  112.21900  -37.83850 1564.16390  291.42060   -9999.25   -9999.25   -9999.25   -9999.25
 6643.50000   89.90760    0.12930    3.40330    8.84820    0.08760   -0.00010 1596.11840    2.56010  110.24840   69.56270  101.62130  -37.75290 1573.45780  272.98800   -9999.25   -9999.25   -9999.25   -9999.25
 6644.00000   96.08640    0.14730    3.11670    8.80180    0.09940    0.00000 1614.64920    2.53370  113.97720   69.91310   92.74490  -36.20380 1575.88120  204.69040   -9999.25   -9999.25   -9999.25   -9999.25
 6644.50000   96.82200    0.16260    2.88180    8.75050    0.11040    0.01070 1629.71300    2.51930  107.20700   67.67580   84.64390  -35.22520 1571.13260  133.11110   -9999.25   -9999.25   -9999.25   -9999.25
 6645.00000   95.18250    0.16040    2.81990    8.74710    0.10390    0.03540 1624.78250    2.53420  100.31570   60.14250   76.86460  -34.48830 1566.38390  101.06930   -9999.25   -9999.25   -9999.25   -9999.25
 6645.50000   95.74580    0.15660    2.86930    8.77880    0.08340    0.07620 1610.55370    2.57110   95.35740   54.87540   68.72650  -33.63460 1553.31820   95.97620   -9999.25   -9999.25   -9999.25   -9999.25
 6646.00000   97.16350    0.16510    2.94340    8.79700    0.06420    0.12130 1607.00480    2.59570   96.89020   50.16370   59.64340  -32.54980 1546.26120   91.13980   -9999.25   -9999.25   -9999.25   -9999.25
 6646.50000   98.83390    0.17580    2.87260    8.81480    0.05080    0.20060 1614.15250    2.62030   99.91080   45.57820   49.93670  -31.46500 1557.53870   85.93040   -9999.25   -9999.25   -9999.25   -9999.25
 6647.00000  102.68360    0.18390    2.76310    8.84950    0.05460    0.25200 1605.63560    2.60280  104.71630   42.31130   41.80970  -31.29500 1565.33330   73.21590   -9999.25   -9999.25   -9999.25   -9999.25
 6647.50000  110.08860    0.19200    2.66070    8.88420    0.07550    0.24560 1597.11880    2.55530  112.23480   42.68400   36.77980  -31.04620 1567.22750   64.34250   -9999.25   -9999.25   -9999.25   -9999.25
 6648.00000  115.70050    0.19890    2.65000    8.89910    0.10610    0.18830 1601.12880    2.50990  121.64110   43.75900   43.60190  -30.65790 1562.62730   59.09800   -9999.25   -9999.25   -9999.25   -9999.25
 6648.50000  114.94160    0.20090    2.71920    8.86330    0.13350    0.11190 1608.21700    2.48000  122.67870   44.39930   57.07470  -30.40510 1562.53130   65.45520   -9999.25   -9999.25   -9999.25   -9999.25
 6649.00000  110.78500    0.19910    2.85870    8.75400    0.13520    0.04550 1615.02830    2.47740  122.03050   44.39930   69.85970  -30.31660 1562.43530   85.31060   -9999.25   -9999.25   -9999.25   -9999.25
 6649.50000  105.31770    0.19670    2.92950    8.70300    0.12790    0.02110 1634.95370    2.48880  116.80720   44.43910   66.43690  -30.33650 1562.33940  113.30440   -9999.25   -9999.25   -9999.25   -9999.25
 6650.00000  100.65390    0.18960    2.94220    8.65490    0.11500    0.01490 1629.72110    2.50780  108.12790   44.48080   57.45550  -30.03780 1562.24340  110.71360   -9999.25   -9999.25   -9999.25   -9999.25
 6650.50000   96.84750    0.17280    2.95500    8.62560    0.10220    0.00870 1625.01070    2.52840  104.39460   44.52250   52.57520  -29.73910 1562.14730   94.07220   -9999.25   -9999.25   -9999.25   -9999.25
 6651.00000   96.12930    0.16420    2.95590    8.62310    0.09990    0.00160 1621.42260    2.53400  107.20550   44.56430   51.21270  -29.44040 1562.05140   75.48310   -9999.25   -9999.25   -9999.25   -9999.25
 6651.50000   96.95190    0.16220    2.95960    8.62140    0.10560   -0.00630 1617.20680    2.51620  112.10450   44.28920   49.82410  -29.32780 1561.95540   70.99460   -9999.25   -9999.25   -9999.25   -9999.25
 6652.00000  100.43680    0.16590    2.83650    8.61750    0.12470   -0.00540 1613.24410    2.48300  118.68370   43.96330   41.55020  -29.40450 1561.85940   66.81680   -9999.25   -9999.25   -9999.25   -9999.25
 6652.50000  109.07130    0.18200    2.70730    8.62240    0.15820    0.00500 1630.97800    2.43680  123.07820   43.63980   35.60190  -29.57270 1561.76340   59.92020   -9999.25   -9999.25   -9999.25   -9999.25
 6653.00000  111.91130    0.19930    2.60520    8.62300    0.17750    0.01140 1622.31730    2.39480  124.35530   43.31870   40.22680  -29.92000 1561.66750   52.51030   -9999.25   -9999.25   -9999.25   -9999.25
 6653.50000  109.76170    0.20850    2.59620    8.62060    0.18250    0.01190 1615.60730    2.39550  122.20740   42.99990   48.38120  -30.17940 1561.57150   53.78490   -9999.25   -9999.25   -9999.25   -9999.25
 6654.00000  107.61970    0.19600    2.65340    8.61910    0.16660    0.00660 1614.84190    2.44540  120.91940   42.26680   60.38830  -30.43870 1561.47550   70.59270   -9999.25   -9999.25   -9999.25   -9999.25
 6654.50000  106.63030    0.18300    2.73440    8.62090    0.13460   -0.00050 1609.14970    2.49600  123.98210   41.31520   70.45040  -30.49720 1561.37950   92.31730   -9999.25   -9999.25   -9999.25   -9999.25
 6655.00000  107.08450    0.17900    2.77340    8.62650    0.11760   -0.00750 1604.31630    2.51520  124.48570   40.47590   60.87110  -30.44750 1561.28360  107.56610   -9999.25   -9999.25   -9999.25   -9999.25
 6655.50000  105.21000    0.17650    2.82700    8.65880    0.11210   -0.00920 1611.34450    2.51700  119.87980   40.66590   51.21600  -30.14120 1561.18750   92.19650   -9999.25   -9999.25   -9999.25   -9999.25
 6656.00000  104.47950    0.17570    2.83540    8.66780    0.11460   -0.00780 1614.57600    2.50440  116.74680   42.32160   49.65510  -29.62650 1561.09160   74.28730   -9999.25   -9999.25   -9999.25   -9999.25
