~Version ---------------------------------------------------
VERS.   2.0 : CWLS log ASCII Standard -VERSION 2.0
WRAP.    NO : One line per depth step
DLM . SPACE : Column Data Section Delimiter
~Well ------------------------------------------------------
STRT .F                    7.0 : START DEPTH
STOP .F                 9979.0 : STOP DEPTH
STEP .F                    0.5 : STEP
NULL .                -9999.25 : NULL VALUE
COMP .                         : COMPANY
WELL .                         : WELL
FLD  .                         : FIELD
LOC  .                         : LOCATION
PROV .                         : PROVINCE
CNTY .                         : COUNTY
STAT .                         : STATE
CTRY .                         : COUNTRY
SRVC .                         : SERVICE COMPANY
DATE .                         : DATE
UWI  .                         : UNIQUE WELL ID
API  .                         : API NUMBER
SLAT .WGS84 2.7051883266738983 : SURFACE LATITUDE
SLON .WGS84     6.105742819103 : SURFACE LONGITUDE
DATUM.F                2728.77 : DEPTH DATUM ELEV
~Curve Information -----------------------------------------
DEPT   .F     : 
GRD    .GAPI  : GAMMA RAY FROM DENSITY LOG
NPHI_LS.DEC   : NEUTRON POROSITY LIMESTONE
PEF    .B/E   : PHOTOELECTRIC FACTOR
CALD   .IN    : CALIPER FROM DENSITY LOG
DPHI_LS.DEC   : DENSITY POROSITY LIMESTONE
DRHO   .G/C3  : BULK DENSITY CORRECTION
TEND   .LB    : TENSION FROM DENSITY LOG
RHOB   .G/C3  : BULK DENSITY
GRR    .GAPI  : GAMMA RAY FROM RESISTIVITY LOG
ILD    .OHMM  : INDUCTION DEEP RESISTIVITY
ILM    .OHMM  : INDUCTION MEDIUM RESISTIVITY
SPR    .MV    : SPONTANEOUS POTENTIAL FROM RESISTIVITY LOG
TENR   .LB    : TENSION FROM RESISTIVITY LOG
SFLU   .OHMM  : SHALLOW FOCUSED RESISTIVITY (UNAVERAGED)
GRS    .GAPI  : GAMMA RAY FROM SONIC LOG
DTCO   .US/F  : DELTA-T COMPRESSIONAL
DTSM   .US/F  : DELTA-T SHEAR
DTST   .US/F  : DELTA-T STONELEY - MONOPOLE STONELEY
~Params ----------------------------------------------------
~Other -----------------------------------------------------
~ASCII -----------------------------------------------------
# ...
 5662.00000   74.58110    0.22630    2.94770    9.26290    0.31410    0.19240 1453.46120    2.28050   80.87560   35.52750   38.05550  -19.00390 1374.64830   49.53350   -9999.25   -9999.25   -9999.25   -9999.25
 5662.50000   74.82730    0.21870    2.84340    9.49050    0.41250    0.11020 1447.09800    2.14440   87.14700   36.13450   37.74900  -19.47650 1380.28050   46.22160   -9999.25   -9999.25   -9999.25   -9999.25
 5663.00000   75.42470    0.21620    2.77200    9.66930    0.46250    0.08160 1440.73490    1.95100   91.01240   35.46920   38.45150  -19.94910 1385.91280   46.92160   -9999.25   -9999.25   -9999.25   -9999.25
 5663.50000   76.36510    0.20770    2.70060    9.84140    0.47770    0.07540 1434.37160    1.90420   95.00370   33.28550   37.42160  -19.83860 1393.06340   47.72040   -9999.25   -9999.25   -9999.25   -9999.25
 5664.00000   80.65770    0.20120    2.62920   10.10690    0.49180    0.07300 1439.34090    1.85850  106.20790   31.23630   33.37350  -19.54250 1398.22340   45.76780   -9999.25   -9999.25   -9999.25   -9999.25
 5664.50000   88.32140    0.20030    2.53260   10.54270    0.51190    0.06990 1455.91980    1.81280  115.45390   29.57900   30.28880  -19.93920 1400.40970   40.89240   -9999.25   -9999.25   -9999.25   -9999.25
 5665.00000   95.03030    0.21780    2.45410   10.91210    0.53200    0.06720 1474.15260    1.78760  122.25620   28.19550   28.87080  -20.18240 1403.88600   37.78180   -9999.25   -9999.25   -9999.25   -9999.25
 5665.50000  101.10880    0.24030    2.45530   11.15510    0.53970    0.07220 1492.38540    1.78740  119.22400   29.72650   30.72210  -20.42560 1387.15890   35.39400   -9999.25   -9999.25   -9999.25   -9999.25
 5666.00000  101.27100    0.26080    2.67900   11.01540    0.50430    0.08860 1510.61830    1.84290  104.66250   31.84390   34.01530  -20.66880 1388.68810   37.97120   -9999.25   -9999.25   -9999.25   -9999.25
 5666.50000   94.68470    0.26190    2.95620   10.37440    0.41310    0.13470 1512.21790    1.95430   85.00580   34.11200   39.22860  -20.91200 1392.93750   43.55850   -9999.25   -9999.25   -9999.25   -9999.25
 5667.00000   81.95260    0.24220    3.26010    9.23870    0.30400    0.18870 1492.76840    2.08160   74.90450   36.55020   44.83290  -21.15520 1385.50660   63.04350   -9999.25   -9999.25   -9999.25   -9999.25
 5667.50000   67.92630    0.20430    3.58910    8.78330    0.16130    0.18290 1504.95410    2.32750   68.40140   39.87800   50.38870  -21.39850 1394.10450   91.71090   -9999.25   -9999.25   -9999.25   -9999.25
 5668.00000   55.71340    0.16450    3.83820    8.76240    0.14620    0.11220 1512.58500    2.47180   66.09220   45.02010   55.38280  -22.15170 1402.70250  125.00160   -9999.25   -9999.25   -9999.25   -9999.25
 5668.50000   51.31690    0.13320    3.81450    8.84460    0.15600    0.04150 1524.01350    2.47270   64.59030   50.82490   59.40170  -22.99510 1405.60710  135.78050   -9999.25   -9999.25   -9999.25   -9999.25
 5669.00000   51.36210    0.12130    3.80010    8.87920    0.15360    0.00010 1499.35530    2.43840   64.05550   57.37810   61.75870  -23.90470 1394.10130  123.88360   -9999.25   -9999.25   -9999.25   -9999.25
 5669.50000   55.52270    0.12260    3.83080    9.01220    0.12360    0.00890 1475.39170    2.43880   64.26280   63.77260   65.80560  -24.84770 1382.59560  101.46000   -9999.25   -9999.25   -9999.25   -9999.25
 5670.00000   64.69610    0.12560    3.91990    9.22530    0.08640    0.02070 1451.31490    2.52910   67.34900   68.71010   70.89750  -26.38150 1384.21310   84.59390   -9999.25   -9999.25   -9999.25   -9999.25
 5670.50000   71.24750    0.12900    3.99290    9.57100    0.05910    0.03030 1433.58630    2.61190   68.77910   74.03000   76.38340  -27.80120 1389.50500   72.54210   -9999.25   -9999.25   -9999.25   -9999.25
 5671.00000   69.85110    0.13060    4.06990    9.82750    0.03930    0.03540 1475.84160    2.63930   64.54480   78.85190   81.20110  -28.92810 1394.79700   70.16110   -9999.25   -9999.25   -9999.25   -9999.25
 5671.50000   62.93550    0.12040    4.23270   10.04190    0.02400    0.04070 1501.90640    2.67200   57.63480   82.73870   92.24500  -29.90970 1402.64260   86.62420   -9999.25   -9999.25   -9999.25   -9999.25
 5672.00000   50.34260    0.10220    4.52520   10.21180    0.01590    0.03420 1487.85610    2.67890   47.75820   86.81700  104.79090  -31.98200 1389.51420  210.19030   -9999.25   -9999.25   -9999.25   -9999.25
 5672.50000   36.43350    0.07460    4.67250   10.41010    0.02540    0.01990 1454.60050    2.66920   44.25350   94.12670  120.55460  -32.61470 1383.84910  488.95790   -9999.25   -9999.25   -9999.25   -9999.25
 5673.00000   30.00770    0.04690    4.50670   10.36480    0.04400    0.00820 1443.58970    2.63090   39.88990  104.00790  140.79980  -33.64030 1382.66820  738.41570   -9999.25   -9999.25   -9999.25   -9999.25
 5673.50000   28.88680    0.03250    4.31310   10.12360    0.07450    0.00460 1461.40600    2.59250   36.39730  120.93750  171.38220  -34.40950 1388.44430  838.87910   -9999.25   -9999.25   -9999.25   -9999.25
 5674.00000   31.31950    0.03310    4.38700    9.55290    0.10200    0.00820 1470.97440    2.55420   34.64990  137.31360  201.43550  -34.59570 1394.75450  662.45450   -9999.25   -9999.25   -9999.25   -9999.25
 5674.50000   33.67540    0.03820    4.50620    8.90980    0.10920    0.01850 1470.85100    2.52530   35.14990  148.34040  229.72720  -34.79580 1399.65830  525.10860   -9999.25   -9999.25   -9999.25   -9999.25
 5675.00000   35.76680    0.04470    4.58210    8.52730    0.10420    0.02930 1471.20470    2.52470   36.65750  149.75430  233.59270  -34.96770 1397.49710  446.41990   -9999.25   -9999.25   -9999.25   -9999.25
 5675.50000   35.27390    0.04770    4.59660    8.34570    0.09280    0.04800 1463.68980    2.54290   38.68890  144.68330  224.46930  -34.51100 1395.33580  394.87950   -9999.25   -9999.25   -9999.25   -9999.25
 5676.00000   34.98570    0.05020    4.59310    8.24610    0.08290    0.06340 1449.50900    2.56430   41.32040  136.55150  195.76290  -34.38270 1393.17470  361.65130   -9999.25   -9999.25   -9999.25   -9999.25
 5676.50000   35.72550    0.05240    4.58500    8.21010    0.07750    0.06810 1435.59900    2.57100   43.22760  129.93870  168.53650  -34.35700 1391.01340  307.82720   -9999.25   -9999.25   -9999.25   -9999.25
 5677.00000   37.24180    0.05340    4.52920    8.17070    0.08340    0.05190 1427.83000    2.55970   41.85940  122.81840  155.81240  -34.44150 1388.85220  263.25450   -9999.25   -9999.25   -9999.25   -9999.25
 5677.50000   38.45800    0.05400    4.40100    8.15220    0.08680    0.02740 1426.11330    2.55910   38.68150  115.96370  147.15950  -34.54430 1386.69100  233.44560   -9999.25   -9999.25   -9999.25   -9999.25
 5678.00000   38.19920    0.05640    4.31780    8.14170    0.08050    0.01250 1430.73950    2.57130   34.95080  107.23580  133.85980  -34.64720 1384.52980  214.90140   -9999.25   -9999.25   -9999.25   -9999.25
 5678.50000   36.38160    0.05970    4.30500    8.12950    0.06750    0.00320 1431.25650    2.58760   34.56100   96.73080  117.67840  -33.38590 1382.36850  205.64530   -9999.25   -9999.25   -9999.25   -9999.25
 5679.00000   36.15830    0.06350    4.43000    8.11470    0.05510    0.00390 1429.97950    2.60400   37.01130   91.84570  103.45300  -33.10480 1379.80030  182.81060   -9999.25   -9999.25   -9999.25   -9999.25
 5679.50000   38.52200    0.06940    4.58050    8.09990    0.04730    0.00580 1430.21940    2.62030   40.85440   84.01240   90.94730  -32.83430 1389.38040  158.44690   -9999.25   -9999.25   -9999.25   -9999.25
 5680.00000   43.95180    0.07970    4.60830    8.08510    0.04350    0.00320 1431.54060    2.63490   49.02990   77.59540   80.64700  -32.54810 1389.38150  120.99060   -9999.25   -9999.25   -9999.25   -9999.25
 5680.50000   48.86480    0.09150    4.57110    8.07120    0.04610   -0.00250 1432.92810    2.63040   52.54230   71.66860   73.20750  -32.25910 1385.98010  104.75280   -9999.25   -9999.25   -9999.25   -9999.25
 5681.00000   49.88060    0.09540    4.44050    8.07170    0.04970   -0.00770 1434.31560    2.62690   53.64610   66.19450   66.45420  -32.23650 1383.03770  101.22290   -9999.25   -9999.25   -9999.25   -9999.25
