~Version ---------------------------------------------------
VERS.   2.0 : CWLS log ASCII Standard -VERSION 2.0
WRAP.    NO : One line per depth step
DLM . SPACE : Column Data Section Delimiter
~Well ------------------------------------------------------
STRT .F                    7.0 : START DEPTH
STOP .F                 9979.0 : STOP DEPTH
STEP .F                    0.5 : STEP
NULL .                -9999.25 : NULL VALUE
COMP .                         : COMPANY
WELL .                         : WELL
FLD  .                         : FIELD
LOC  .                         : LOCATION
PROV .                         : PROVINCE
CNTY .                         : COUNTY
STAT .                         : STATE
CTRY .                         : COUNTRY
SRVC .                         : SERVICE COMPANY
DATE .                         : DATE
UWI  .                         : UNIQUE WELL ID
API  .                         : API NUMBER
SLAT .WGS84 2.7051883266738983 : SURFACE LATITUDE
SLON .WGS84     6.105742819103 : SURFACE LONGITUDE
DATUM.F                2728.77 : DEPTH DATUM ELEV
~Curve Information -----------------------------------------
DEPT   .F     : 
GRD    .GAPI  : GAMMA RAY FROM DENSITY LOG
NPHI_LS.DEC   : NEUTRON POROSITY LIMESTONE
PEF    .B/E   : PHOTOELECTRIC FACTOR
CALD   .IN    : CALIPER FROM DENSITY LOG
DPHI_LS.DEC   : DENSITY POROSITY LIMESTONE
DRHO   .G/C3  : BULK DENSITY CORRECTION
TEND   .LB    : TENSION FROM DENSITY LOG
RHOB   .G/C3  : BULK DENSITY
GRR    .GAPI  : GAMMA RAY FROM RESISTIVITY LOG
ILD    .OHMM  : INDUCTION DEEP RESISTIVITY
ILM    .OHMM  : INDUCTION MEDIUM RESISTIVITY
SPR    .MV    : SPONTANEOUS POTENTIAL FROM RESISTIVITY LOG
TENR   .LB    : TENSION FROM RESISTIVITY LOG
SFLU   .OHMM  : SHALLOW FOCUSED RESISTIVITY (UNAVERAGED)
GRS    .GAPI  : GAMMA RAY FROM SONIC LOG
DTCO   .US/F  : DELTA-T COMPRESSIONAL
DTSM   .US/F  : DELTA-T SHEAR
DTST   .US/F  : DELTA-T STONELEY - MONOPOLE STONELEY
~Params ----------------------------------------------------
~Other -----------------------------------------------------
~ASCII -----------------------------------------------------
# ...
 7300.00000  106.94620    0.15540    3.06340    8.78750    0.07580    0.00650 1731.52800    2.57980  116.39650   17.15000   19.99330  -26.68780 1691.71580   29.15030   -9999.25   -9999.25   -9999.25   -9999.25
 7300.50000  114.07780    0.15680    3.17850    8.79410    0.07450    0.00760 1736.24080    2.58560  122.91230   17.98550   21.39070  -26.15500 1686.21740   33.12890   -9999.25   -9999.25   -9999.25   -9999.25
 7301.00000  117.79510    0.16180    2.99260    8.80070    0.07140    0.00930 1733.25540    2.59140  122.58160   18.17260   20.94130  -26.26030 1680.71910   32.78620   -9999.25   -9999.25   -9999.25   -9999.25
 7301.50000  118.27830    0.17130    2.82910    8.80740    0.06680    0.01160 1728.10190    2.59440  116.26800   18.19000   20.09440  -26.61140 1675.22080   30.73650   -9999.25   -9999.25   -9999.25   -9999.25
 7302.00000  115.09290    0.17860    2.74130    8.81400    0.06750    0.01080 1724.24440    2.59050  107.48900   17.73740   18.46600  -26.96260 1669.72240   26.48610   -9999.25   -9999.25   -9999.25   -9999.25
 7302.50000  106.81670    0.18210    2.68840    8.82610    0.07160    0.00830 1720.10210    2.58420  100.78480   17.20360   17.53920  -27.31380 1676.77950   22.06600   -9999.25   -9999.25   -9999.25   -9999.25
 7303.00000  102.56620    0.17910    2.66020    8.83550    0.07330    0.00810 1714.87460    2.58300  100.02150   16.70740   17.03340  -27.66490 1684.76170   18.68660   -9999.25   -9999.25   -9999.25   -9999.25
 7303.50000  100.48320    0.17310    2.66700    8.85590    0.07170    0.00740 1721.27710    2.58430  102.97420   16.22560   16.54210  -28.20360 1687.03340   16.72560   -9999.25   -9999.25   -9999.25   -9999.25
 7304.00000   99.27810    0.16900    2.66840    8.87540    0.07310    0.00220 1731.06960    2.58400  107.43140   15.79650   16.06600  -29.48030 1689.30530   17.38720   -9999.25   -9999.25   -9999.25   -9999.25
 7304.50000   96.74700    0.16500    2.65030    8.88960    0.07930   -0.00110 1734.71850    2.57750  108.24410   15.66770   16.06280  -30.78780 1691.37740   18.66050   -9999.25   -9999.25   -9999.25   -9999.25
 7305.00000   94.50840    0.15930    2.62870    8.90030    0.08350   -0.00090 1733.31770    2.56780  106.98070   15.66290   16.50740  -31.18990 1681.62550   20.37710   -9999.25   -9999.25   -9999.25   -9999.25
 7305.50000   93.86300    0.15530    2.64220    8.88840    0.08240   -0.00080 1733.05980    2.57010  104.45290   15.65820   16.96420  -31.21410 1671.87370   22.20190   -9999.25   -9999.25   -9999.25   -9999.25
 7306.00000   92.98270    0.14990    2.79040    8.88740    0.07440   -0.00240 1738.20890    2.57990  100.33350   15.81780   17.43370  -31.13440 1669.49170   23.82060   -9999.25   -9999.25   -9999.25   -9999.25
 7306.50000   90.13250    0.14450    3.06200    8.94610    0.06550   -0.00670 1742.32460    2.59320   96.59010   16.01190   17.91610  -31.05460 1670.58290   24.72360   -9999.25   -9999.25   -9999.25   -9999.25
 7307.00000   86.33830    0.13630    3.22890    8.92660    0.05960   -0.01380 1742.48240    2.60630   93.55030   15.78810   17.56830  -30.97490 1671.67420   24.70110   -9999.25   -9999.25   -9999.25   -9999.25
 7307.50000   84.78170    0.13220    3.25870    8.93540    0.05670   -0.01400 1742.36290    2.61140   92.06700   15.13500   16.36560  -30.89510 1672.76540   23.35650   -9999.25   -9999.25   -9999.25   -9999.25
 7308.00000   86.37820    0.13630    3.11020    8.94390    0.06100   -0.01070 1738.72190    2.61000   95.31400   14.47410   15.24510  -30.81540 1673.53270   18.65890   -9999.25   -9999.25   -9999.25   -9999.25
 7308.50000   88.96990    0.14770    2.88670    8.97590    0.07210   -0.00660 1733.35960    2.59230   98.61990   13.75510   14.20140  -30.78500 1672.30130   15.09300   -9999.25   -9999.25   -9999.25   -9999.25
 7309.00000   90.43950    0.15740    2.76240    8.99410    0.08280   -0.00540 1730.25940    2.57190   97.53010   13.07170   13.39340  -30.78570 1669.63640   13.57290   -9999.25   -9999.25   -9999.25   -9999.25
 7309.50000   91.25710    0.16040    2.71550    9.01630    0.09130   -0.00770 1736.89840    2.55920   95.66710   12.42240   12.72870  -30.78640 1666.97130   13.13780   -9999.25   -9999.25   -9999.25   -9999.25
 7310.00000   91.69970    0.15830    2.69350    9.03450    0.09360   -0.00820 1734.78150    2.54740   94.23750   11.80520   12.09700  -30.78710 1664.30630   12.90190   -9999.25   -9999.25   -9999.25   -9999.25
 7310.50000   91.22770    0.15490    2.67360    9.04520    0.09440   -0.00810 1730.78700    2.54830   97.28100   11.59740   11.85730  -30.78780 1661.64120   13.05830   -9999.25   -9999.25   -9999.25   -9999.25
 7311.00000   91.81700    0.15210    2.65590    9.04480    0.09300   -0.00720 1737.34220    2.55010   99.61440   11.89260   12.12980  -30.78850 1658.97630   13.29490   -9999.25   -9999.25   -9999.25   -9999.25
 7311.50000   93.63740    0.15340    2.62710    9.04450    0.09030   -0.00520 1737.37900    2.55360  102.37140   12.18720   12.53850  -30.87550 1656.31130   13.76160   -9999.25   -9999.25   -9999.25   -9999.25
 7312.00000   94.41790    0.15780    2.54740    9.04420    0.08530   -0.00310 1738.04470    2.56090   98.02560   12.94080   13.47250  -31.02710 1653.64620   15.19550   -9999.25   -9999.25   -9999.25   -9999.25
 7312.50000   92.62100    0.16410    2.49270    9.04380    0.07970   -0.00160 1738.03780    2.56960   88.38070   13.58140   14.41110  -31.17870 1652.19920   17.58430   -9999.25   -9999.25   -9999.25   -9999.25
 7313.00000   88.35430    0.16120    2.62940    9.04350    0.07230   -0.00240 1737.14360    2.58360   87.55930   14.25370   15.41500  -31.33020 1655.02830   20.19500   -9999.25   -9999.25   -9999.25   -9999.25
 7313.50000   86.02110    0.15250    2.87110    9.04320    0.06450   -0.00330 1736.74870    2.59610   96.08830   14.95440   16.48890  -31.48180 1657.85740   22.18120   -9999.25   -9999.25   -9999.25   -9999.25
 7314.00000   88.05130    0.14390    3.03630    9.04290    0.06060   -0.00420 1736.23820    2.60530  104.61720   15.65700   16.93580  -31.63340 1660.68650   22.22710   -9999.25   -9999.25   -9999.25   -9999.25
 7314.50000   94.64370    0.13910    3.06300    9.04140    0.06330   -0.00510 1734.81460    2.60010  107.93790   16.35700   17.07090  -31.78490 1663.51560   21.02490   -9999.25   -9999.25   -9999.25   -9999.25
 7315.00000  100.00350    0.14570    3.03710    9.03990    0.07040   -0.00590 1729.44920    2.58680  105.65710   16.49160   16.90170  -31.93650 1666.34470   19.80760   -9999.25   -9999.25   -9999.25   -9999.25
 7315.50000  104.51170    0.15250    2.96740    9.03840    0.07830   -0.00390 1726.74070    2.57290  104.12200   16.00170   16.32960  -32.15930 1669.17400   18.63530   -9999.25   -9999.25   -9999.25   -9999.25
 7316.00000  106.85920    0.15560    2.84390    9.03690    0.08600   -0.00040 1729.56290    2.56460  103.23580   15.35740   15.73980  -32.53730 1672.00310   16.76030   -9999.25   -9999.25   -9999.25   -9999.25
 7316.50000  107.00350    0.15840    2.71480    9.03540    0.08500   -0.00040 1735.84480    2.56490  102.79550   14.60290   14.96660  -32.91530 1672.77170   15.65120   -9999.25   -9999.25   -9999.25   -9999.25
 7317.00000  103.64760    0.15980    2.64400    9.03390    0.08280   -0.00160 1730.02000    2.56540   99.44790   13.88540   14.23140  -33.29340 1672.88350   14.61550   -9999.25   -9999.25   -9999.25   -9999.25
 7317.50000   97.91680    0.15970    2.63880    9.03240    0.08400   -0.00490 1724.87560    2.56460   94.49060   13.20320   13.53220  -33.67140 1672.99540   14.05200   -9999.25   -9999.25   -9999.25   -9999.25
 7318.00000   92.60330    0.15490    2.64270    9.03090    0.08690   -0.00730 1733.49240    2.56100   93.29750   12.57540   12.86750  -34.04940 1673.10720   13.62230   -9999.25   -9999.25   -9999.25   -9999.25
 7318.50000   88.74590    0.15450    2.65410    9.02940    0.08940   -0.00620 1740.06040    2.55760  100.53220   12.22740   12.46550  -34.42740 1673.21900   13.46880   -9999.25   -9999.25   -9999.25   -9999.25
 7319.00000   87.26810    0.15540    2.64970    9.02790    0.09270   -0.00590 1736.82600    2.55240  103.10780   11.88900   12.12060  -34.36560 1673.33080   13.34330   -9999.25   -9999.25   -9999.25   -9999.25
