~Version ---------------------------------------------------
VERS.   2.0 : CWLS log ASCII Standard -VERSION 2.0
WRAP.    NO : One line per depth step
DLM . SPACE : Column Data Section Delimiter
~Well ------------------------------------------------------
STRT .F                    7.0 : START DEPTH
STOP .F                 9979.0 : STOP DEPTH
STEP .F                    0.5 : STEP
NULL .                -9999.25 : NULL VALUE
COMP .                         : COMPANY
WELL .                         : WELL
FLD  .                         : FIELD
LOC  .                         : LOCATION
PROV .                         : PROVINCE
CNTY .                         : COUNTY
STAT .                         : STATE
CTRY .                         : COUNTRY
SRVC .                         : SERVICE COMPANY
DATE .                         : DATE
UWI  .                         : UNIQUE WELL ID
API  .                         : API NUMBER
SLAT .WGS84 2.7051883266738983 : SURFACE LATITUDE
SLON .WGS84     6.105742819103 : SURFACE LONGITUDE
DATUM.F                2728.77 : DEPTH DATUM ELEV
~Curve Information -----------------------------------------
DEPT   .F     : 
GRD    .GAPI  : GAMMA RAY FROM DENSITY LOG
NPHI_LS.DEC   : NEUTRON POROSITY LIMESTONE
PEF    .B/E   : PHOTOELECTRIC FACTOR
CALD   .IN    : CALIPER FROM DENSITY LOG
DPHI_LS.DEC   : DENSITY POROSITY LIMESTONE
DRHO   .G/C3  : BULK DENSITY CORRECTION
TEND   .LB    : TENSION FROM DENSITY LOG
RHOB   .G/C3  : BULK DENSITY
GRR    .GAPI  : GAMMA RAY FROM RESISTIVITY LOG
ILD    .OHMM  : INDUCTION DEEP RESISTIVITY
ILM    .OHMM  : INDUCTION MEDIUM RESISTIVITY
SPR    .MV    : SPONTANEOUS POTENTIAL FROM RESISTIVITY LOG
TENR   .LB    : TENSION FROM RESISTIVITY LOG
SFLU   .OHMM  : SHALLOW FOCUSED RESISTIVITY (UNAVERAGED)
GRS    .GAPI  : GAMMA RAY FROM SONIC LOG
DTCO   .US/F  : DELTA-T COMPRESSIONAL
DTSM   .US/F  : DELTA-T SHEAR
DTST   .US/F  : DELTA-T STONELEY - MONOPOLE STONELEY
~Params ----------------------------------------------------
~Other -----------------------------------------------------
~ASCII -----------------------------------------------------
# ...
 5330.50000  110.23250    0.25530    2.56350    9.14950    0.11390    0.00370 1387.07840    2.45030  105.19440   20.20710   21.16640  -27.75950 1305.76760   23.91690   -9999.25   -9999.25   -9999.25   -9999.25
 5331.00000  110.40970    0.27060    2.38530    8.92330    0.16300    0.00540 1373.60380    2.38990  109.42480   17.87410   18.72310  -26.80440 1308.71890   19.97280   -9999.25   -9999.25   -9999.25   -9999.25
 5331.50000  104.86540    0.29120    2.28190    8.39490    0.20200    0.01380 1368.91520    2.35400  112.45220   15.81050   16.56190  -25.98160 1311.67020   19.10310   -9999.25   -9999.25   -9999.25   -9999.25
 5332.00000   98.54080    0.29960    2.16710    8.13210    0.21010    0.02550 1370.75240    2.34820  109.84600   14.27120   14.84330  -25.70570 1316.39860   17.99240   -9999.25   -9999.25   -9999.25   -9999.25
 5332.50000   96.62880    0.28860    2.05620    8.06610    0.19980    0.03090 1387.39720    2.37660  105.86720   12.90930   13.64840  -25.52240 1321.25350   16.79770   -9999.25   -9999.25   -9999.25   -9999.25
 5333.00000   98.02140    0.27300    2.01340    8.02370    0.19210    0.01140 1379.41480    2.37970  103.70320   12.38840   12.97260  -25.33910 1324.69640   15.15830   -9999.25   -9999.25   -9999.25   -9999.25
 5333.50000   98.22940    0.26370    2.00850    8.03600    0.19230   -0.00540 1371.43230    2.37990  103.91910   12.08790   12.33020  -25.15580 1322.03480   14.09430   -9999.25   -9999.25   -9999.25   -9999.25
 5334.00000   94.60240    0.26020    2.11720    8.03610    0.19240   -0.00780 1374.72730    2.38070  104.46870   11.79480   12.01500  -24.97250 1315.36150   13.84800   -9999.25   -9999.25   -9999.25   -9999.25
 5334.50000   86.90780    0.25220    2.29480    8.03620    0.19010   -0.00550 1381.14400    2.39110  102.02270   11.67440   11.87580  -24.84600 1310.06240   14.22000   -9999.25   -9999.25   -9999.25   -9999.25
 5335.00000   86.00900    0.24010    2.43620    8.03630    0.18010   -0.00120 1388.41440    2.41010   99.03730   11.83730   12.06200  -24.79170 1315.50520   15.42370   -9999.25   -9999.25   -9999.25   -9999.25
 5335.50000   90.70580    0.23520    2.49110    8.03640    0.16710    0.00320 1379.75930    2.43360   98.20490   12.19040   12.43320  -24.73740 1319.27080   16.65740   -9999.25   -9999.25   -9999.25   -9999.25
 5336.00000   99.23340    0.24170    2.51140    8.03650    0.15110    0.02000 1375.71260    2.45490  105.22450   12.78300   13.23190  -24.68310 1323.03630   17.69440   -9999.25   -9999.25   -9999.25   -9999.25
 5336.50000  108.07270    0.26170    2.50460    8.03660    0.13930    0.06260 1376.79140    2.47630  117.26470   13.51710   14.12230  -24.62880 1323.65550   18.55460   -9999.25   -9999.25   -9999.25   -9999.25
 5337.00000  109.91740    0.28020    2.49620    8.04020    0.13010    0.11080 1372.07850    2.49250  119.91460   14.32120   15.12550  -24.57450 1318.31980   19.13530   -9999.25   -9999.25   -9999.25   -9999.25
 5337.50000  108.71970    0.28720    2.49690    8.06470    0.12510    0.13310 1373.54810    2.47030  119.93490   15.18180   16.22690  -24.50770 1314.30490   19.58370   -9999.25   -9999.25   -9999.25   -9999.25
 5338.00000  105.68090    0.28960    2.50710    8.09100    0.13700    0.12930 1375.01770    2.43390  120.06040   16.09410   17.40840  -24.33620 1318.04630   19.69130   -9999.25   -9999.25   -9999.25   -9999.25
 5338.50000  104.52780    0.29050    2.56750    8.11940    0.16490    0.10860 1377.73880    2.39750  120.39280   17.06780   18.64660  -24.87700 1322.30830   20.01860   -9999.25   -9999.25   -9999.25   -9999.25
 5339.00000  107.00150    0.28960    2.72900    8.18000    0.18220    0.08590 1387.58400    2.38950  119.50650   17.28810   19.94460  -25.28470 1326.57030   21.40630   -9999.25   -9999.25   -9999.25   -9999.25
 5339.50000  109.73400    0.28530    2.79480    8.19530    0.18690    0.07700 1397.42920    2.40490  117.79410   16.71680   19.64190  -25.69200 1323.66470   23.53190   -9999.25   -9999.25   -9999.25   -9999.25
 5340.00000  110.03240    0.27320    2.66490    8.21720    0.16220    0.12040 1393.23340    2.44440  112.00600   16.13950   17.44800  -25.92150 1318.16660   26.19220   -9999.25   -9999.25   -9999.25   -9999.25
 5340.50000  106.34740    0.25990    2.44470    8.23900    0.14100    0.18100 1388.82900    2.47400  108.61130   15.58230   16.16790  -26.06380 1313.13560   24.62010   -9999.25   -9999.25   -9999.25   -9999.25
 5341.00000  104.23150    0.25270    2.23720    8.26690    0.14630    0.21760 1393.63700    2.41370  110.60290   15.50650   15.21410  -26.04380 1313.13560   19.53280   -9999.25   -9999.25   -9999.25   -9999.25
 5341.50000  104.34310    0.24980    2.09960    8.57750    0.18700    0.22790 1387.86320    2.37480  112.39700   15.50720   14.31660  -25.84800 1313.13560   16.58690   -9999.25   -9999.25   -9999.25   -9999.25
 5342.00000  106.45210    0.25440    2.24070    9.31270    0.22330    0.19070 1394.63100    2.33370  113.66210   15.50780   14.20730  -25.12840 1313.13560   13.77960   -9999.25   -9999.25   -9999.25   -9999.25
 5342.50000  110.20640    0.26470    2.46930    9.86770    0.22590    0.15350 1402.22730    2.32260  118.15250   15.50850   14.64790  -24.47000 1312.38200   15.87360   -9999.25   -9999.25   -9999.25   -9999.25
 5343.00000  110.04970    0.27010    2.74360   10.06510    0.20540    0.14610 1399.47250    2.34350  123.46470   15.54840   15.36040  -24.31950 1311.14920   19.91520   -9999.25   -9999.25   -9999.25   -9999.25
 5343.50000  107.27790    0.26520    2.77530   10.21560    0.19690    0.15120 1392.64780    2.37270  128.04300   15.65380   16.30470  -24.04430 1309.91640   22.32870   -9999.25   -9999.25   -9999.25   -9999.25
 5344.00000  104.44060    0.25440    2.64070   10.49030    0.21980    0.17500 1391.59900    2.33330  125.06690   16.21420   17.30720  -23.73920 1308.68360   23.68850   -9999.25   -9999.25   -9999.25   -9999.25
 5344.50000  102.52500    0.25010    2.49720   10.77670    0.26100    0.18810 1388.35900    2.23870  117.38810   17.84880   18.51510  -23.35890 1307.45080   22.85480   -9999.25   -9999.25   -9999.25   -9999.25
 5345.00000  101.81400    0.25960    2.38890   10.72240    0.36660    0.15940 1373.43370    2.13110  113.49630   19.30230   19.90780  -22.97860 1306.21800   24.53620   -9999.25   -9999.25   -9999.25   -9999.25
 5345.50000  101.66560    0.27220    2.25840   10.36900    0.46640    0.11200 1441.60450    2.02350  112.55700   20.75610   21.40540  -22.59830 1304.98520   29.38980   -9999.25   -9999.25   -9999.25   -9999.25
 5346.00000  102.80360    0.28410    2.12790   10.05710    0.55990    0.06110 1430.91740    1.67700  119.31150   22.31930   23.01550  -22.21800 1303.75260   38.03620   -9999.25   -9999.25   -9999.25   -9999.25
 5346.50000  104.86540    0.29630    2.01780    9.61800    0.63560    0.02730 1416.04600    1.56310  129.18350   24.00030   24.74680  -21.98920 1302.51980   37.71940   -9999.25   -9999.25   -9999.25   -9999.25
 5347.00000  106.37670    0.32220    1.99290    9.22420    0.65870    0.02410 1418.66710    1.56310  136.14460   25.80790   26.60830  -22.26360 1301.28700   35.35690   -9999.25   -9999.25   -9999.25   -9999.25
 5347.50000  107.32140    0.31940    2.03730    9.10050    0.66440    0.04680 1423.56640    1.59850  133.92800   27.63040   28.66320  -22.53800 1300.50400   33.34020   -9999.25   -9999.25   -9999.25   -9999.25
 5348.00000  108.50910    0.30540    2.06470    9.15620    0.61840    0.07030 1421.11380    1.69680  130.65260   28.91770   31.08420  -22.81240 1301.05000   38.22570   -9999.25   -9999.25   -9999.25   -9999.25
 5348.50000  114.01460    0.29030    2.04930    9.24330    0.59480    0.08790 1415.68620    1.68990  129.09140   29.63650   33.70970  -23.36060 1301.59620   48.35990   -9999.25   -9999.25   -9999.25   -9999.25
 5349.00000  120.04500    0.28760    2.00510    9.20190    0.59360    0.09300 1407.00090    1.66390  130.14440   29.48450   36.04840  -23.94040 1302.14220   57.33840   -9999.25   -9999.25   -9999.25   -9999.25
 5349.50000  122.34960    0.29050    1.99520    9.00620    0.60710    0.08330 1386.22670    1.65370  132.44080   29.52440   35.45790  -24.06750 1302.68820   64.65260   -9999.25   -9999.25   -9999.25   -9999.25
