~Version ---------------------------------------------------
VERS.   2.0 : CWLS log ASCII Standard -VERSION 2.0
WRAP.    NO : One line per depth step
DLM . SPACE : Column Data Section Delimiter
~Well ------------------------------------------------------
STRT .F                    7.0 : START DEPTH
STOP .F                 9979.0 : STOP DEPTH
STEP .F                    0.5 : STEP
NULL .                -9999.25 : NULL VALUE
COMP .                         : COMPANY
WELL .                         : WELL
FLD  .                         : FIELD
LOC  .                         : LOCATION
PROV .                         : PROVINCE
CNTY .                         : COUNTY
STAT .                         : STATE
CTRY .                         : COUNTRY
SRVC .                         : SERVICE COMPANY
DATE .                         : DATE
UWI  .                         : UNIQUE WELL ID
API  .                         : API NUMBER
SLAT .WGS84 2.7051883266738983 : SURFACE LATITUDE
SLON .WGS84     6.105742819103 : SURFACE LONGITUDE
DATUM.F                2728.77 : DEPTH DATUM ELEV
~Curve Information -----------------------------------------
DEPT   .F     : 
GRD    .GAPI  : GAMMA RAY FROM DENSITY LOG
NPHI_LS.DEC   : NEUTRON POROSITY LIMESTONE
PEF    .B/E   : PHOTOELECTRIC FACTOR
CALD   .IN    : CALIPER FROM DENSITY LOG
DPHI_LS.DEC   : DENSITY POROSITY LIMESTONE
DRHO   .G/C3  : BULK DENSITY CORRECTION
TEND   .LB    : TENSION FROM DENSITY LOG
RHOB   .G/C3  : BULK DENSITY
GRR    .GAPI  : GAMMA RAY FROM RESISTIVITY LOG
ILD    .OHMM  : INDUCTION DEEP RESISTIVITY
ILM    .OHMM  : INDUCTION MEDIUM RESISTIVITY
SPR    .MV    : SPONTANEOUS POTENTIAL FROM RESISTIVITY LOG
TENR   .LB    : TENSION FROM RESISTIVITY LOG
SFLU   .OHMM  : SHALLOW FOCUSED RESISTIVITY (UNAVERAGED)
GRS    .GAPI  : GAMMA RAY FROM SONIC LOG
DTCO   .US/F  : DELTA-T COMPRESSIONAL
DTSM   .US/F  : DELTA-T SHEAR
DTST   .US/F  : DELTA-T STONELEY - MONOPOLE STONELEY
~Params ----------------------------------------------------
~Other -----------------------------------------------------
~ASCII -----------------------------------------------------
# ...
 7631.50000   90.73740    0.16940    3.07720    8.49600    0.07120    0.00930 1781.99010    2.58270   91.24470   73.01530   74.89170  -17.58990 1750.14640  149.68870   -9999.25   -9999.25   -9999.25   -9999.25
 7632.00000   83.89650    0.15420    3.36460    8.54840    0.06050    0.00870 1783.10930    2.60030   75.36530   79.48040   91.85630  -17.62550 1750.41020  163.19760   -9999.25   -9999.25   -9999.25   -9999.25
 7632.50000   68.73810    0.14480    3.68290    8.62730    0.05760    0.00330 1784.22840    2.60940   62.59290   87.34680  123.17480  -17.66100 1750.67410  237.52510   -9999.25   -9999.25   -9999.25   -9999.25
 7633.00000   53.57760    0.13090    4.02540    8.70360    0.05590    0.00010 1785.34750    2.61340   56.23460   92.55980  160.07200  -17.69660 1753.47300  333.50290   -9999.25   -9999.25   -9999.25   -9999.25
 7633.50000   45.92910    0.09780    4.32360    8.68370    0.05240   -0.00270 1786.46680    2.61780   61.21180   93.94910  180.85350  -17.73210 1755.27910  428.67130   -9999.25   -9999.25   -9999.25   -9999.25
 7634.00000   54.26420    0.07240    4.34940    8.64430    0.04710   -0.00700 1789.01730    2.62420   69.65770   93.92320  142.80730  -17.76770 1755.01700  459.76070   -9999.25   -9999.25   -9999.25   -9999.25
 7634.50000   75.16610    0.06970    4.05840    8.58030    0.04780   -0.00710 1793.24190    2.63030   84.64170   92.57190  119.25060  -17.80320 1754.75490  325.43550   -9999.25   -9999.25   -9999.25   -9999.25
 7635.00000   88.41010    0.09100    3.65610    8.52150    0.05460   -0.00580 1797.92420    2.61850   86.79940   91.16210  113.48660  -17.73270 1754.49280  193.47860   -9999.25   -9999.25   -9999.25   -9999.25
 7635.50000   91.17430    0.12110    3.40190    8.48980    0.06610   -0.00460 1792.25420    2.59970   88.55190   89.77380  103.97700  -17.35860 1754.23070  136.75020   -9999.25   -9999.25   -9999.25   -9999.25
 7636.00000   89.29660    0.13730    3.45550    8.49170    0.07300   -0.00320 1783.11580    2.58840   90.30450   88.40670   95.49140  -16.98440 1753.96860  116.91480   -9999.25   -9999.25   -9999.25   -9999.25
 7636.50000   85.77570    0.14380    3.58370    8.49480    0.07350   -0.00160 1771.44530    2.58300   90.80220   87.06030   92.52820  -16.61020 1753.70650  117.99270   -9999.25   -9999.25   -9999.25   -9999.25
 7637.00000   82.34810    0.14290    3.67830    8.50610    0.07010   -0.00020 1759.71280    2.58830   84.24250   84.92400   91.68110  -16.23600 1753.44450  130.57760   -9999.25   -9999.25   -9999.25   -9999.25
 7637.50000   75.44690    0.13820    3.71260    8.53000    0.06570    0.00050 1757.94470    2.59550   75.44410   83.20920   91.59680  -15.94800 1753.18240  165.73650   -9999.25   -9999.25   -9999.25   -9999.25
 7638.00000   71.27380    0.12710    3.80780    8.54690    0.05610    0.00020 1773.57090    2.60670   82.69260   84.07200   96.37510  -15.74500 1752.92030  224.27710   -9999.25   -9999.25   -9999.25   -9999.25
 7638.50000   77.57810    0.11770    3.91860    8.57000    0.05070   -0.00040 1783.01650    2.61880   90.67270   89.67420   99.94280  -15.56290 1752.65820  218.17490   -9999.25   -9999.25   -9999.25   -9999.25
 7639.00000   85.59060    0.11820    3.97840    8.59030    0.04900   -0.00040 1789.86600    2.62300   88.48400   96.81280  106.79060  -15.38080 1752.39620  186.60440   -9999.25   -9999.25   -9999.25   -9999.25
 7639.50000   78.07490    0.12420    4.05530    8.60090    0.04960    0.00080 1790.48500    2.62790   75.02500  104.51970  153.98840  -15.37400 1752.13420  188.15880   -9999.25   -9999.25   -9999.25   -9999.25
 7640.00000   61.98050    0.11480    4.55510    8.58240    0.04330    0.00160 1784.16490    2.64240   50.23530  110.56540  213.80990  -15.51240 1751.87210  378.21150   -9999.25   -9999.25   -9999.25   -9999.25
 7640.50000   39.91560    0.09300    5.14150    8.55950    0.03180    0.00120 1777.42830    2.65680   32.09200  109.93330  239.25480  -15.65080 1751.61000  822.19650   -9999.25   -9999.25   -9999.25   -9999.25
 7641.00000   26.54780    0.06450    5.54440    8.53660    0.02050   -0.00150 1776.42770    2.67130   31.44230  103.88490  220.64450  -15.82360 1751.34790 1252.70800   -9999.25   -9999.25   -9999.25   -9999.25
 7641.50000   24.92490    0.04290    5.31030    8.51370    0.01700   -0.00940 1776.11550    2.68020   32.24930   96.79240  173.22940  -16.00750 1751.08580 1351.78630   -9999.25   -9999.25   -9999.25   -9999.25
 7642.00000   34.63080    0.04170    4.92600    8.49090    0.01890   -0.01150 1777.42550    2.67550   44.52870   90.37750  120.62560  -16.19140 1750.82370 1182.17410   -9999.25   -9999.25   -9999.25   -9999.25
 7642.50000   52.28830    0.05750    4.55000    8.48200    0.02570   -0.01170 1777.41460    2.66700   63.09260   84.26550   92.50720  -16.71070 1748.18680  791.10370   -9999.25   -9999.25   -9999.25   -9999.25
 7643.00000   68.90170    0.09460    4.13890    8.48450    0.03550   -0.00890 1777.76670    2.64830   87.38400   78.52800   82.27000  -17.44330 1744.12480  139.81210   -9999.25   -9999.25   -9999.25   -9999.25
 7643.50000   84.60080    0.13680    3.63890    8.48140    0.05310   -0.00520 1779.65640    2.61820   95.80020   73.18120   75.30440  -17.54430 1740.06290   86.72630   -9999.25   -9999.25   -9999.25   -9999.25
 7644.00000   90.96540    0.17100    3.16660    8.48550    0.06620    0.00260 1779.72190    2.59280   93.34340   68.19840   69.60930  -17.99160 1747.61160   79.65030   -9999.25   -9999.25   -9999.25   -9999.25
 7644.50000   90.11660    0.18030    2.97130    8.47640    0.07060    0.01770 1772.28820    2.58800   90.09960   63.90350   69.12820  -18.36270 1756.89340   79.24940   -9999.25   -9999.25   -9999.25   -9999.25
 7645.00000   86.19000    0.17660    2.99970    8.47120    0.06950    0.02060 1781.65990    2.58980   85.80660   62.17420   72.96550  -17.91540 1760.79140   87.58060   -9999.25   -9999.25   -9999.25   -9999.25
 7645.50000   78.89490    0.16970    3.07690    8.46850    0.06840    0.01710 1790.86020    2.59230   79.27310   61.33450   71.54640  -16.96530 1748.48160  108.56740   -9999.25   -9999.25   -9999.25   -9999.25
 7646.00000   67.87970    0.15380    3.29930    8.45680    0.06680    0.00850 1790.25200    2.59530   70.22250   62.21510   69.10840  -16.64950 1752.58060  140.31440   -9999.25   -9999.25   -9999.25   -9999.25
 7646.50000   61.43610    0.12830    3.48620    8.43910    0.06440    0.00290 1776.56070    2.59950   69.41550   63.82370   69.11540  -15.99130 1756.74680  171.20230   -9999.25   -9999.25   -9999.25   -9999.25
 7647.00000   62.71810    0.10990    3.39070    8.43140    0.06420   -0.00100 1776.80660    2.59820   72.78020   65.31420   69.11540  -15.33310 1760.67130  157.93510   -9999.25   -9999.25   -9999.25   -9999.25
 7647.50000   67.03400    0.11890    3.12760    8.42370    0.06720   -0.00250 1774.37020    2.59110   77.96600   65.28660   68.99280  -14.97260 1750.72470  123.79360   -9999.25   -9999.25   -9999.25   -9999.25
 7648.00000   74.81130    0.13610    2.94380    8.42150    0.07180   -0.00220 1765.96750    2.58390   80.70070   64.51150   67.61270  -14.69820 1740.77820   99.62710   -9999.25   -9999.25   -9999.25   -9999.25
 7648.50000   80.54660    0.15130    2.81800    8.42160    0.07640    0.00000 1758.83730    2.57660   81.39380   63.16390   64.12700  -14.41220 1733.16200   94.72550   -9999.25   -9999.25   -9999.25   -9999.25
 7649.00000   83.23180    0.15790    2.79540    8.42170    0.07910    0.00120 1762.00600    2.57330   80.25580   63.65520   64.74950  -14.42700 1728.32530   90.06930   -9999.25   -9999.25   -9999.25   -9999.25
 7649.50000   82.75770    0.15900    2.82730    8.42190    0.08150    0.00200 1767.36240    2.57360   77.86510   66.01700   67.85220  -14.44170 1723.48850   87.97760   -9999.25   -9999.25   -9999.25   -9999.25
 7650.00000   74.06440    0.15270    3.09000    8.42200    0.07590    0.00120 1772.71880    2.58250   68.42590   68.83690   84.52070  -14.84580 1728.58340  116.16360   -9999.25   -9999.25   -9999.25   -9999.25
 7650.50000   61.73770    0.13750    3.37920    8.42210    0.06670   -0.00010 1778.07510    2.60760   58.96480   70.14300   95.91580  -15.26170 1736.27110  219.14020   -9999.25   -9999.25   -9999.25   -9999.25
