~Version ---------------------------------------------------
VERS.   2.0 : CWLS log ASCII Standard -VERSION 2.0
WRAP.    NO : One line per depth step
DLM . SPACE : Column Data Section Delimiter
~Well ------------------------------------------------------
STRT .F                    7.0 : START DEPTH
STOP .F                 9979.0 : STOP DEPTH
STEP .F                    0.5 : STEP
NULL .                -9999.25 : NULL VALUE
COMP .                         : COMPANY
WELL .                         : WELL
FLD  .                         : FIELD
LOC  .                         : LOCATION
PROV .                         : PROVINCE
CNTY .                         : COUNTY
STAT .                         : STATE
CTRY .                         : COUNTRY
SRVC .                         : SERVICE COMPANY
DATE .                         : DATE
UWI  .                         : UNIQUE WELL ID
API  .                         : API NUMBER
SLAT .WGS84 2.7051883266738983 : SURFACE LATITUDE
SLON .WGS84     6.105742819103 : SURFACE LONGITUDE
DATUM.F                2728.77 : DEPTH DATUM ELEV
~Curve Information -----------------------------------------
DEPT   .F     : 
GRD    .GAPI  : GAMMA RAY FROM DENSITY LOG
NPHI_LS.DEC   : NEUTRON POROSITY LIMESTONE
PEF    .B/E   : PHOTOELECTRIC FACTOR
CALD   .IN    : CALIPER FROM DENSITY LOG
DPHI_LS.DEC   : DENSITY POROSITY LIMESTONE
DRHO   .G/C3  : BULK DENSITY CORRECTION
TEND   .LB    : TENSION FROM DENSITY LOG
RHOB   .G/C3  : BULK DENSITY
GRR    .GAPI  : GAMMA RAY FROM RESISTIVITY LOG
ILD    .OHMM  : INDUCTION DEEP RESISTIVITY
ILM    .OHMM  : INDUCTION MEDIUM RESISTIVITY
SPR    .MV    : SPONTANEOUS POTENTIAL FROM RESISTIVITY LOG
TENR   .LB    : TENSION FROM RESISTIVITY LOG
SFLU   .OHMM  : SHALLOW FOCUSED RESISTIVITY (UNAVERAGED)
GRS    .GAPI  : GAMMA RAY FROM SONIC LOG
DTCO   .US/F  : DELTA-T COMPRESSIONAL
DTSM   .US/F  : DELTA-T SHEAR
DTST   .US/F  : DELTA-T STONELEY - MONOPOLE STONELEY
~Params ----------------------------------------------------
~Other -----------------------------------------------------
~ASCII -----------------------------------------------------
# ...
 8294.50000   72.36630    0.26690    1.34900   12.73110    0.69950   -0.04670 1987.84270    1.52640   83.49750   10.90270    3.84450  -39.12730 1928.68180   10.47480   54.84990   86.06560   85.53910  196.74430
 8295.00000   76.23960    0.45570    1.74710   13.24870    0.69480   -0.02100 1988.69600    1.76270   82.69850   10.79180    5.18430  -39.87580 1928.82300   14.25580   51.04430   91.68020   91.73130  195.31280
 8295.50000   74.08180    0.65670    2.68920   12.85820    0.59730    0.11700 1989.54940    1.99900   72.74490   10.51130   11.92080  -42.09010 1928.96420   46.09900   36.40570   91.98420   92.47370  194.46510
 8296.00000   62.33050    0.64130    3.86440   11.14150    0.40340    0.10610 1990.40270    2.22560   50.78440   10.28000   24.64580  -44.97810 1929.10560  401.90870   29.11440   80.76300   92.65580  194.79270
 8296.50000   44.45200    0.53080    4.75680    9.17490    0.16740    0.06550 1994.49870    2.45230   30.72740   10.49520   25.52930  -47.94090 1929.24680 1555.67920   14.25300   62.00260   93.42040  195.70410
 8297.00000   29.18870    0.24760    5.02800    8.71780    0.06460    0.03930 2014.43480    2.60080   23.17000   14.93510   24.65610  -51.03850 1929.38820 1589.43990   12.27800   53.34070   95.20480  197.84710
 8297.50000   18.72080    0.09450    5.14070    8.70740    0.04390    0.02450 2034.37080    2.62800   19.08730   61.21820   26.07190  -53.72750 1929.52940 1070.72840   11.19540   51.93600   96.59540  211.30160
 8298.00000   16.09410    0.03670    5.25340    8.70330    0.04800    0.02540 2051.05470    2.63280   18.69680  285.97490   38.82570  -57.42940 1929.67070  565.17160   11.51230   52.42020   96.59540  221.61860
 8298.50000   16.14450    0.02250    5.24930    8.70170    0.06040    0.02810 2015.69410    2.61460   18.70770 1144.34140   81.49220  -60.69230 1929.81200  339.28320   12.30450   50.73920   96.38320  229.11830
 8299.00000   16.37720    0.02440    5.17680    8.71560    0.06710    0.02400 1981.83510    2.59610   18.09280 1990.27030  281.59880  -63.95530 1929.95320  294.99430   12.67310   50.12900   97.87220  231.71930
 8299.50000   16.60980    0.02510    5.08510    8.71520    0.06830    0.01480 1986.22910    2.59650   16.84870 2042.79040  640.75980  -67.21820 1930.09450  279.76630   13.03670   49.51870   97.80700  230.22290
 8300.00000   16.31250    0.02420    5.09280    8.71630    0.06000    0.01150 1990.62320    2.60840   15.76190 2049.43680 1139.71390  -71.69540 1930.23580  341.88210   13.45980   49.14950   97.36830  226.11520
 8300.50000   15.40840    0.02220    5.19000    8.71780    0.05120    0.00840 1995.01730    2.62040   15.35220  796.57120  483.48380  -76.22960 1930.37710  376.56630   13.80030   49.01400   96.92960  224.93800
 8301.00000   14.46900    0.02000    5.22300    8.71920    0.04720    0.00720 1985.32980    2.62890   16.27330  203.87890  553.24110  -80.42610 1930.51840  374.46010   13.79620   48.87850   97.13830  224.35160
 8301.50000   13.96920    0.01890    5.19130    8.72000    0.04590    0.00860 1973.98210    2.63030   17.36890   95.19070 1187.84550  -84.16680 1930.65970  366.71080   13.79200   48.74300   97.38310  221.40180
 8302.00000   14.09900    0.01840    4.99030    8.72030    0.04560    0.00580 1952.40390    2.63000   17.72580   90.12900 1991.46920  -86.70520 1930.80090  375.91650   13.63570   48.64630   97.62790  213.42990
 8302.50000   14.53510    0.01930    4.67800    8.72440    0.04750   -0.00090 1968.91130    2.62760   18.08120   88.48300 2015.17920  -88.83740 1930.94230  450.68290   13.14150   48.70760   97.66870  209.29850
 8303.00000   14.25530    0.02050    4.56510    8.72570    0.05110    0.00260 1985.41870    2.62210   18.54000   85.96740 1607.30590  -90.30150 1931.08350  528.70820   12.41750   48.76890   98.15900  208.71200
 8303.50000   13.58070    0.02370    4.66810    8.73310    0.05620    0.00730 1954.92040    2.61470   18.44630   80.51770  706.08030  -91.61180 1931.22490  380.79240   11.64620   48.83020   98.07390  198.69330
 8304.00000   13.18200    0.02790    4.94800    8.72980    0.05930    0.01070 1961.27650    2.60920   17.09940   70.72550  123.68370  -93.32830 1931.36610  219.92450   10.77340   48.89160   97.98450  198.70070
 8304.50000   12.94020    0.03270    5.17270    8.72780    0.06050    0.01860 1959.26560    2.60610   15.03700   60.93210   88.63190  -94.68990 1931.50730  194.99710   10.40430   49.35860   98.24390  198.70820
 8305.00000   12.69830    0.03420    5.11330    8.72810    0.06020    0.01840 1957.25480    2.60690   15.18330   55.14580   84.09700  -95.61460 1931.64870  202.35280   10.93570   50.09130   98.98880  197.53400
 8305.50000   12.45410    0.03270    5.00200    8.72850    0.05670    0.01440 1955.24390    2.61230   15.72680   51.17170   80.38580  -96.53930 1931.45940  223.84270   11.19800   50.31090   99.60430  197.54140
 8306.00000   12.96550    0.02970    4.93750    8.72880    0.05080    0.01160 1953.23300    2.62220   16.69720   48.90190   77.92980  -97.46410 1930.44120  373.43830   11.35850   50.28050   99.60430  198.43520
 8306.50000   13.77770    0.02680    5.03130    8.72700    0.04790    0.00980 1951.22230    2.62770   15.29560   44.75260   72.20720  -98.38880 1929.42300  521.09200   11.46280   50.20730   98.50810  199.62430
 8307.00000   13.40010    0.02880    5.18570    8.69710    0.05210    0.00910 1949.21140    2.61460   13.80430   41.23420   65.45350  -99.21180 1928.40480  394.69490   11.40960   50.13410   97.32150  201.10890
 8307.50000   12.36380    0.03800    5.33650    8.67250    0.06730    0.00880 1947.20060    2.59330   13.45140   38.42950   56.61690 -100.01780 1927.38660  248.90070   11.26110   50.33080   97.30810  203.77510
 8308.00000   12.08190    0.05330    5.32540    8.63400    0.08670    0.00910 1945.18970    2.56310   14.31250   33.38460   47.26200 -100.82380 1926.36840  146.57780   11.29590   51.19800  100.54430  204.66890
 8308.50000   12.36970    0.06000    5.19690    8.56310    0.10150    0.01100 1943.17900    2.53020   15.43920   31.31700   39.45290 -101.62980 1925.35020   96.08620   11.68980   51.36750  103.78050  204.08550
 8309.00000   12.85150    0.06190    4.99050    8.50430    0.10700    0.01460 1941.16810    2.52700   15.26530   29.87010   31.84030 -102.82980 1924.33200   72.67790   12.00120   52.08890  104.24950  203.20670
 8309.50000   13.26890    0.05890    4.81070    8.48130    0.09930    0.02070 1939.15720    2.54680   14.80620   28.49010   30.06180 -104.08270 1923.31380   73.12490   11.88160   51.96540  104.26590  202.32790
 8310.00000   13.71500    0.05460    4.77490    8.47030    0.07580    0.03700 1937.14640    2.57050   14.15650   27.96750   29.96180 -105.19390 1922.29570   79.90130   11.49530   51.46100  103.66200  201.68340
 8310.50000   14.18250    0.05090    4.77710    8.46090    0.05960    0.04780 1935.13560    2.59190   13.99950   27.97340   30.86840 -106.27690 1921.27750   89.24730   11.11740   51.01450  102.79580  201.15950
 8311.00000   14.49330    0.04950    4.79610    8.45640    0.05570    0.04640 1933.12480    2.60770   14.83250   28.09950   34.49810 -106.46890 1920.25930   97.59550   10.73660   51.05370  102.31200  201.16690
 8311.50000   14.19860    0.05030    4.75920    8.45230    0.06180    0.03190 1931.11390    2.59990   15.84500   28.22610   36.74680 -106.61560 1919.24120  102.05220   10.11430   51.14280  102.31200  201.33340
 8312.00000   13.64030    0.05260    4.71190    8.42120    0.07140    0.02070 1929.10300    2.58840   17.27140   28.40180   36.05900 -106.76240 1918.22300  103.65910    9.92460   51.92900  102.84150  201.77250
 8312.50000   14.20000    0.05810    4.67780    8.39050    0.07900    0.01360 1927.09230    2.57640   18.44070   28.95130   35.50240 -106.77070 1917.20480  101.51940   10.06800   53.99890  103.33670  202.07530
 8313.00000   14.90590    0.06070    4.74590    8.36070    0.08820    0.01070 1925.08140    2.55810   18.81520   29.94010   35.09030 -106.24970 1916.18660   90.99310   10.93710   54.77100  103.78650  201.64520
 8313.50000   15.49090    0.06160    4.88560    8.33730    0.10130    0.00640 1924.17810    2.53610   18.31570   31.17050   36.32290 -105.67470 1915.16850   81.79530   11.44990   55.06900  104.23630  201.36350
