~Version ---------------------------------------------------
VERS.   2.0 : CWLS log ASCII Standard -VERSION 2.0
WRAP.    NO : One line per depth step
DLM . SPACE : Column Data Section Delimiter
~Well ------------------------------------------------------
STRT .F                    7.0 : START DEPTH
STOP .F                 9979.0 : STOP DEPTH
STEP .F                    0.5 : STEP
NULL .                -9999.25 : NULL VALUE
COMP .                         : COMPANY
WELL .                         : WELL
FLD  .                         : FIELD
LOC  .                         : LOCATION
PROV .                         : PROVINCE
CNTY .                         : COUNTY
STAT .                         : STATE
CTRY .                         : COUNTRY
SRVC .                         : SERVICE COMPANY
DATE .                         : DATE
UWI  .                         : UNIQUE WELL ID
API  .                         : API NUMBER
SLAT .WGS84 2.7051883266738983 : SURFACE LATITUDE
SLON .WGS84     6.105742819103 : SURFACE LONGITUDE
DATUM.F                2728.77 : DEPTH DATUM ELEV
~Curve Information -----------------------------------------
DEPT   .F     : 
GRD    .GAPI  : GAMMA RAY FROM DENSITY LOG
NPHI_LS.DEC   : NEUTRON POROSITY LIMESTONE
PEF    .B/E   : PHOTOELECTRIC FACTOR
CALD   .IN    : CALIPER FROM DENSITY LOG
DPHI_LS.DEC   : DENSITY POROSITY LIMESTONE
DRHO   .G/C3  : BULK DENSITY CORRECTION
TEND   .LB    : TENSION FROM DENSITY LOG
RHOB   .G/C3  : BULK DENSITY
GRR    .GAPI  : GAMMA RAY FROM RESISTIVITY LOG
ILD    .OHMM  : INDUCTION DEEP RESISTIVITY
ILM    .OHMM  : INDUCTION MEDIUM RESISTIVITY
SPR    .MV    : SPONTANEOUS POTENTIAL FROM RESISTIVITY LOG
TENR   .LB    : TENSION FROM RESISTIVITY LOG
SFLU   .OHMM  : SHALLOW FOCUSED RESISTIVITY (UNAVERAGED)
GRS    .GAPI  : GAMMA RAY FROM SONIC LOG
DTCO   .US/F  : DELTA-T COMPRESSIONAL
DTSM   .US/F  : DELTA-T SHEAR
DTST   .US/F  : DELTA-T STONELEY - MONOPOLE STONELEY
~Params ----------------------------------------------------
~Other -----------------------------------------------------
~ASCII -----------------------------------------------------
# ...
 6305.50000   89.99230    0.14560    3.13890    9.11640    0.07730   -0.00330 1531.71950    2.57610  101.15920   50.98260   61.50900  -40.04960 1493.58130   96.98690   -9999.25   -9999.25   -9999.25   -9999.25
 6306.00000   88.04490    0.14370    3.10970    9.11320    0.08410   -0.00550 1533.07410    2.56550  108.72400   49.95180   58.77150  -40.11990 1493.67100   96.00850   -9999.25   -9999.25   -9999.25   -9999.25
 6306.50000   93.49420    0.14210    3.07340    9.11010    0.09250   -0.00760 1534.22600    2.55330  129.95200   48.08140   54.97070  -40.15820 1493.76070   94.50510   -9999.25   -9999.25   -9999.25   -9999.25
 6307.00000  104.11790    0.14740    2.98310    9.10690    0.09860   -0.00700 1535.37780    2.54110  138.71630   45.58160   51.41570  -39.94130 1493.85050   87.87370   -9999.25   -9999.25   -9999.25   -9999.25
 6307.50000  115.67490    0.16910    2.86970    9.10380    0.09940   -0.00250 1536.52950    2.53940  142.43890   43.21190   50.70650  -39.58700 1493.94030   82.61410   -9999.25   -9999.25   -9999.25   -9999.25
 6308.00000  124.74340    0.18640    2.93270    9.10060    0.09460    0.00120 1537.68140    2.54650  135.59830   40.96530   50.00870  -39.23270 1493.47450   81.98870   -9999.25   -9999.25   -9999.25   -9999.25
 6308.50000  124.14600    0.19930    3.06220    9.09740    0.09090    0.00450 1538.83330    2.55270  117.37230   38.85050   45.77420  -38.98680 1492.79360   89.72310   -9999.25   -9999.25   -9999.25   -9999.25
 6309.00000  115.86630    0.19630    3.21180    9.09430    0.08870    0.00620 1539.98510    2.55720   99.91500   37.37150   42.79540  -39.00870 1492.11250   87.32080   -9999.25   -9999.25   -9999.25   -9999.25
 6309.50000  103.79610    0.18000    3.27900    9.09110    0.08640    0.00690 1541.13680    2.56110   90.80940   36.75920   40.61040  -39.03070 1482.67700   68.69070   -9999.25   -9999.25   -9999.25   -9999.25
 6310.00000   87.75550    0.15550    3.29290    9.08800    0.07990    0.00800 1542.28870    2.57430   81.08440   36.51030   39.83480  -39.05270 1493.88730   52.58200   -9999.25   -9999.25   -9999.25   -9999.25
 6310.50000   75.10230    0.13390    3.30260    9.08480    0.06890    0.00890 1543.44060    2.59100   66.78870   36.11140   39.64540  -39.07460 1501.06670   46.22200   -9999.25   -9999.25   -9999.25   -9999.25
 6311.00000   62.59540    0.11960    3.46360    9.08170    0.05470    0.00870 1544.59240    2.61510   60.46490   35.33990   42.87600  -38.90160 1494.22170   70.97670   -9999.25   -9999.25   -9999.25   -9999.25
 6311.50000   52.07800    0.09820    3.73940    9.07850    0.03720    0.00790 1545.74410    2.64770   55.56080   34.58480   43.66130  -38.27190 1488.74570  105.76150   -9999.25   -9999.25   -9999.25   -9999.25
 6312.00000   47.53340    0.07260    3.96350    9.07540    0.02610    0.00680 1546.89600    2.66980   53.71610   33.98330   38.68530  -38.15030 1481.73060  128.02910   -9999.25   -9999.25   -9999.25   -9999.25
 6312.50000   47.24740    0.05340    3.79790    9.07220    0.02220    0.00300 1546.83580    2.67030   59.99480   33.98330   35.41700  -38.00840 1474.71550   87.16040   -9999.25   -9999.25   -9999.25   -9999.25
 6313.00000   53.06670    0.05080    3.45430    9.06990    0.02640   -0.00080 1549.45100    2.65970   71.21620   34.49180   36.08420  -37.86640 1479.06590   59.77580   -9999.25   -9999.25   -9999.25   -9999.25
 6313.50000   66.78780    0.06180    3.10380    9.07010    0.03680   -0.00400 1554.20560    2.63970   90.02130   35.58370   37.38840  -37.72450 1485.24630   45.90350   -9999.25   -9999.25   -9999.25   -9999.25
 6314.00000   86.55680    0.09440    2.90940    9.07020    0.05240   -0.00370 1552.45580    2.61100  109.10890   36.71010   39.04030  -37.58260 1485.60100   45.66640   -9999.25   -9999.25   -9999.25   -9999.25
 6314.50000  103.71600    0.13000    2.87480    9.07040    0.07820   -0.00420 1547.53870    2.58500  120.25200   37.87230   41.48650  -37.45670 1484.04830   59.25150   -9999.25   -9999.25   -9999.25   -9999.25
 6315.00000  113.83160    0.16910    2.88890    9.07050    0.09600   -0.00640 1548.81190    2.55910  125.46610   39.61300   44.78370  -37.41820 1485.99770   72.55390   -9999.25   -9999.25   -9999.25   -9999.25
 6315.50000  117.63730    0.18870    2.86600    9.07060    0.10590   -0.00880 1548.94890    2.53310  131.87400   41.60790   50.51780  -37.37970 1487.94700   82.64030   -9999.25   -9999.25   -9999.25   -9999.25
 6316.00000  114.40630    0.20470    2.83510    9.07080    0.10720   -0.00890 1549.17070    2.52630  126.06330   45.84060   56.30740  -37.34110 1489.89640   95.54960   -9999.25   -9999.25   -9999.25   -9999.25
 6316.50000  105.58750    0.22520    2.84580    9.07090    0.10330   -0.00590 1549.78560    2.52870  115.21420   48.74440   62.31090  -37.30260 1489.86710  110.88410   -9999.25   -9999.25   -9999.25   -9999.25
 6317.00000   97.29170    0.23510    3.20500    9.07100    0.09620   -0.00190 1550.64120    2.54710  104.11160   48.72980   66.35620  -37.26410 1489.70140  124.60620   -9999.25   -9999.25   -9999.25   -9999.25
 6317.50000   95.53420    0.20920    3.50650    9.07120    0.08470   -0.00190 1554.43760    2.57030  104.68640   46.77500   57.30470  -36.99330 1489.53580  121.95590   -9999.25   -9999.25   -9999.25   -9999.25
 6318.00000  103.99150    0.16560    3.46870    9.07130    0.07320   -0.00190 1553.32020    2.59300  114.43890   44.43870   48.72040  -36.28000 1489.37010   87.00500   -9999.25   -9999.25   -9999.25   -9999.25
 6318.50000  115.57410    0.11830    3.30120    9.07150    0.06410   -0.00130 1547.96590    2.59750  127.30020   41.69910   43.31380  -35.83440 1489.20450   61.84670   -9999.25   -9999.25   -9999.25   -9999.25
 6319.00000  119.93440    0.11080    3.08370    9.07160    0.06820    0.00200 1545.22180    2.58800  134.34260   39.03930   40.16010  -35.38870 1489.03880   49.52240   -9999.25   -9999.25   -9999.25   -9999.25
 6319.50000  121.17170    0.13040    2.96620    9.07170    0.07550    0.00390 1544.80860    2.57430  135.71430   36.54910   37.59940  -35.00950 1488.87320   47.77960   -9999.25   -9999.25   -9999.25   -9999.25
 6320.00000  119.64850    0.16560    2.83800    9.07190    0.08140    0.00200 1544.33150    2.57360  132.11080   34.21780   35.20200  -35.07840 1488.70750   47.87190   -9999.25   -9999.25   -9999.25   -9999.25
 6320.50000  116.39690    0.18460    2.80360    9.07200    0.07970    0.00000 1543.95190    2.57390  127.67010   32.03520   32.95740  -35.31910 1488.54190   47.98780   -9999.25   -9999.25   -9999.25   -9999.25
 6321.00000  112.96280    0.19530    2.81970    9.07220    0.07910   -0.00190 1544.02000    2.57330  121.63500   30.99110   31.52450  -35.56400 1488.37620   47.88530   -9999.25   -9999.25   -9999.25   -9999.25
 6321.50000  107.28130    0.19790    2.85720    9.07230    0.08020   -0.00390 1545.45000    2.57130  115.13250   30.55660   31.08250  -35.52870 1488.21060   46.79210   -9999.25   -9999.25   -9999.25   -9999.25
 6322.00000   97.19400    0.18710    2.83550    9.07240    0.08410   -0.00570 1548.87840    2.56550  100.32460   30.37810   30.87920  -35.49330 1488.04490   45.44510   -9999.25   -9999.25   -9999.25   -9999.25
 6322.50000   82.83820    0.16970    2.80160    9.07260    0.08740   -0.00470 1544.71780    2.56070   92.38470   30.38200   30.89290  -35.45800 1487.87930   44.55380   -9999.25   -9999.25   -9999.25   -9999.25
 6323.00000   77.14610    0.14990    2.81410    9.07270    0.08920   -0.00210 1542.32790    2.55700   87.11890   30.64970   31.20440  -35.42270 1487.71370   45.47910   -9999.25   -9999.25   -9999.25   -9999.25
 6323.50000   81.74060    0.13900    2.90640    9.07280    0.08820    0.00180 1535.64450    2.55920   91.50590   31.55250   32.18280  -35.38740 1487.54810   47.82340   -9999.25   -9999.25   -9999.25   -9999.25
 6324.00000   96.38730    0.13250    3.03830    9.07300    0.08420    0.00580 1540.39550    2.56400  100.78860   33.22700   34.81390  -35.61290 1488.96850   50.73060   -9999.25   -9999.25   -9999.25   -9999.25
 6324.50000  112.35590    0.13960    3.02680    9.07310    0.08110    0.00690 1540.94410    2.56920  112.24210   35.35460   37.82100  -35.86450 1491.62260   53.81450   -9999.25   -9999.25   -9999.25   -9999.25
