~Version ---------------------------------------------------
VERS.   2.0 : CWLS log ASCII Standard -VERSION 2.0
WRAP.    NO : One line per depth step
DLM . SPACE : Column Data Section Delimiter
~Well ------------------------------------------------------
STRT .F                    7.0 : START DEPTH
STOP .F                 9979.0 : STOP DEPTH
STEP .F                    0.5 : STEP
NULL .                -9999.25 : NULL VALUE
COMP .                         : COMPANY
WELL .                         : WELL
FLD  .                         : FIELD
LOC  .                         : LOCATION
PROV .                         : PROVINCE
CNTY .                         : COUNTY
STAT .                         : STATE
CTRY .                         : COUNTRY
SRVC .                         : SERVICE COMPANY
DATE .                         : DATE
UWI  .                         : UNIQUE WELL ID
API  .                         : API NUMBER
SLAT .WGS84 2.7051883266738983 : SURFACE LATITUDE
SLON .WGS84     6.105742819103 : SURFACE LONGITUDE
DATUM.F                2728.77 : DEPTH DATUM ELEV
~Curve Information -----------------------------------------
DEPT   .F     : 
GRD    .GAPI  : GAMMA RAY FROM DENSITY LOG
NPHI_LS.DEC   : NEUTRON POROSITY LIMESTONE
PEF    .B/E   : PHOTOELECTRIC FACTOR
CALD   .IN    : CALIPER FROM DENSITY LOG
DPHI_LS.DEC   : DENSITY POROSITY LIMESTONE
DRHO   .G/C3  : BULK DENSITY CORRECTION
TEND   .LB    : TENSION FROM DENSITY LOG
RHOB   .G/C3  : BULK DENSITY
GRR    .GAPI  : GAMMA RAY FROM RESISTIVITY LOG
ILD    .OHMM  : INDUCTION DEEP RESISTIVITY
ILM    .OHMM  : INDUCTION MEDIUM RESISTIVITY
SPR    .MV    : SPONTANEOUS POTENTIAL FROM RESISTIVITY LOG
TENR   .LB    : TENSION FROM RESISTIVITY LOG
SFLU   .OHMM  : SHALLOW FOCUSED RESISTIVITY (UNAVERAGED)
GRS    .GAPI  : GAMMA RAY FROM SONIC LOG
DTCO   .US/F  : DELTA-T COMPRESSIONAL
DTSM   .US/F  : DELTA-T SHEAR
DTST   .US/F  : DELTA-T STONELEY - MONOPOLE STONELEY
~Params ----------------------------------------------------
~Other -----------------------------------------------------
~ASCII -----------------------------------------------------
# ...
 9932.50000   -9999.25   -9999.25    3.02500    7.93340   -0.00190    0.07670 2311.03810    2.71000   -9999.25   25.39370   25.80820  -48.52560 2239.62430   36.58690    7.96030   66.08170  119.84070  206.80110
 9933.00000   -9999.25   -9999.25    2.94460    7.91420   -0.00840    0.12950 2310.80130    2.72650   -9999.25   24.47000   24.94450  -48.47030 2236.71680   36.23200    7.92750   66.10140  119.86000  206.14870
 9933.50000   -9999.25   -9999.25    2.90430    7.89500   -0.00060    0.16030 2310.56420    2.72650   -9999.25   23.57980   23.35290  -48.26210 2241.56270   35.71640    8.01450   66.12100  119.87930  205.92980
 9934.00000   -9999.25   -9999.25    2.84450    7.90920    0.06520    0.15850 2310.32710    2.62880   -9999.25   22.72210   21.16470  -48.20530 2251.46510   32.76670    8.02430   66.14070  119.89860  206.23340
 9934.50000   -9999.25   -9999.25    2.83200    8.07010    0.13550    0.15300 2310.09010    2.48140   -9999.25   22.32520   19.66840  -48.50340 2259.54570   30.25420    7.95990   66.15520  119.91790  206.58750
 9935.00000   -9999.25   -9999.25    2.79120    8.25280    0.19440    0.15550 2309.85330    2.35300   -9999.25   22.47560   20.17340  -48.80160 2249.18240   30.79210    7.95180   66.15540  119.93730  206.88350
 9935.50000   -9999.25   -9999.25    2.71760    8.34860    0.22480    0.16290 2309.61620    2.31860   -9999.25   22.62830   23.86030  -49.09380 2241.93040   33.94140    7.95630   66.01960  119.95660  207.14180
 9936.00000   -9999.25   -9999.25    2.65070    8.38240    0.21940    0.15560 2294.19340    2.34210   -9999.25   22.78210   29.95830  -49.31310 2247.34350   45.34640    8.10130   66.02790  119.96200  207.14920
 9936.50000   -9999.25   -9999.25    2.65600    8.30920    0.18420    0.13350 2276.44460    2.40300   -9999.25   22.91810   33.73640  -49.45060 2261.51000   47.88680    8.15100   66.18240  119.96550  207.15660
 9937.00000   -9999.25   -9999.25    2.72450    8.08250    0.12270    0.13420 2258.69580    2.50100   -9999.25   22.68730   32.56000  -49.45020 2263.74780   45.93420    7.96750   66.08960  119.96900  207.16390
 9937.50000   -9999.25   -9999.25    2.79230    7.99390    0.07580    0.13710 2240.94730    2.58070   -9999.25   22.60320   29.92130  -49.47290 2265.88430   43.66950    7.96360   66.09080  119.97250  207.17130
 9938.00000   -9999.25   -9999.25    2.86810    7.96310    0.04720    0.13380 2279.11280    2.63780   -9999.25   23.42400   27.49640  -49.46230 2266.04420   40.36780    8.11240   66.10470  119.97600  207.47420
 9938.50000   -9999.25   -9999.25    2.98480    7.93230    0.01990    0.12910 2319.78910    2.68060   -9999.25   24.33670   24.74460  -49.44710 2266.20410   38.77310    8.04090   66.13100  119.97950  207.48160
 9939.00000   -9999.25   -9999.25    3.09490    7.93690   -0.00270    0.12860 2324.70950    2.70520   -9999.25   24.58700   24.98190  -49.39620 2266.36400   37.37610    7.95140   66.15730  119.97820  207.48900
 9939.50000   -9999.25   -9999.25    3.19690    7.94290   -0.01020    0.12440 2324.48240    2.72800   -9999.25   25.09850   25.51490  -49.08120 2262.13650   37.15650    8.14730   66.18360  119.96050  207.49650
 9940.00000   -9999.25   -9999.25    3.15120    7.94900    0.03810    0.11780 2324.25540    2.65750   -9999.25   25.46520   25.92100  -48.62100 2253.85160   35.92820    8.18320   66.20990  119.93550  207.50400
 9940.50000   -9999.25   -9999.25    3.01840    7.91310    0.07630    0.13450 2324.02810    2.58910   -9999.25   25.12740   25.88120  -48.15470 2246.15380   35.17150    8.05900   66.22320  119.92570  207.51140
 9941.00000   -9999.25   -9999.25    2.84090    7.88800    0.10420    0.18170 2323.80100    2.54100   -9999.25   24.79410   26.12730  -47.68840 2245.99460   35.30460    7.98040   66.17780  119.92570  207.51890
 9941.50000   -9999.25   -9999.25    2.77060    7.93240    0.11530    0.24080 2323.57400    2.51020   -9999.25   24.52700   28.62670  -47.65630 2250.84640   36.98960    8.03010   66.15750  119.92570  207.52630
 9942.00000   -9999.25   -9999.25    2.84620    7.98240    0.10710    0.22070 2323.34690    2.52220   -9999.25   24.52400   31.60240  -47.57660 2256.78150   42.30600    8.19480   66.22500  120.33030  207.82920
 9942.50000   -9999.25   -9999.25    3.04670    7.93680    0.08810    0.14890 2323.11960    2.55900   -9999.25   24.59780   30.98790  -47.43920 2262.71660   43.91160    8.05360   66.42930  121.00050  208.42750
 9943.00000   -9999.25   -9999.25    3.10240    7.82250    0.06340    0.07440 2322.89260    2.60480   -9999.25   24.72690   29.64600  -47.43980 2263.14670   42.67680    7.93400   67.51740  122.05870  210.79840
 9943.50000   -9999.25   -9999.25    3.14120    7.79820    0.04580    0.03500 2322.16430    2.63600   -9999.25   -9999.25   -9999.25   -9999.25 2262.48560   -9999.25    8.02340   67.98990  122.49490  211.87350
 9944.00000   -9999.25   -9999.25    3.17300    7.78000    0.03260    0.03880 2320.13040    2.65610   -9999.25   -9999.25   -9999.25   -9999.25 2260.16310   -9999.25    8.21910   68.09430  122.77110  211.87350
 9944.50000   -9999.25   -9999.25    3.27730    7.76180    0.02190    0.04900 2318.09640    2.67110   -9999.25   -9999.25   -9999.25   -9999.25 2257.84080   -9999.25    8.21910   68.09430  122.90760  211.87350
 9945.00000   -9999.25   -9999.25    3.36060    7.74370    0.01620    0.05320 2316.06230    2.68290   -9999.25   -9999.25   -9999.25   -9999.25 2255.51830   -9999.25    8.21910   68.09430  122.90760  211.88090
 9945.50000   -9999.25   -9999.25    3.43710    7.72550    0.01000    0.06160 2314.02830    2.69290   -9999.25   -9999.25   -9999.25   -9999.25 2253.19600   -9999.25    8.22960   68.09430  122.90760  211.96030
 9946.00000   -9999.25   -9999.25    3.50570    7.70740   -0.00280    0.07980 2311.99440    2.71030   -9999.25   -9999.25   -9999.25   -9999.25 2250.87350   -9999.25    8.24230   68.09430  122.88680  212.03970
 9946.50000   -9999.25   -9999.25    3.54610    7.68920   -0.01410    0.10760 2309.96020    2.72860   -9999.25   -9999.25   -9999.25   -9999.25 2248.55130   -9999.25    8.27940   68.09430  122.84120  212.11910
 9947.00000   -9999.25   -9999.25    3.53470    7.69320   -0.02050    0.09910 2307.92630    2.74700   -9999.25   -9999.25   -9999.25   -9999.25 2246.22880   -9999.25    8.42270   68.09430  122.79100  212.21410
 9947.50000   -9999.25   -9999.25    3.50690    7.70480   -0.01810    0.06820 2305.89230    2.73910   -9999.25   -9999.25   -9999.25   -9999.25 2243.90630   -9999.25   -9999.25   -9999.25   -9999.25   -9999.25
 9948.00000   -9999.25   -9999.25    3.49310    7.71630   -0.01350    0.03190 2303.85820    2.73020   -9999.25   -9999.25   -9999.25   -9999.25 2241.58400   -9999.25   -9999.25   -9999.25   -9999.25   -9999.25
 9948.50000   -9999.25   -9999.25    3.51840    7.72790   -0.01240    0.01390 2289.25560    2.72770   -9999.25   -9999.25   -9999.25   -9999.25 2239.26150   -9999.25   -9999.25   -9999.25   -9999.25   -9999.25
 9949.00000   -9999.25   -9999.25    3.57330    7.73950   -0.01540    0.01550 2271.97270    2.73190   -9999.25   -9999.25   -9999.25   -9999.25 2246.29660   -9999.25   -9999.25   -9999.25   -9999.25   -9999.25
 9949.50000   -9999.25   -9999.25   -9999.25   -9999.25   -9999.25   -9999.25 2254.68950   -9999.25   -9999.25   -9999.25   -9999.25   -9999.25 2261.08500   -9999.25   -9999.25   -9999.25   -9999.25   -9999.25
 9950.00000   -9999.25   -9999.25   -9999.25   -9999.25   -9999.25   -9999.25 2252.96880   -9999.25   -9999.25   -9999.25   -9999.25   -9999.25 2275.87330   -9999.25   -9999.25   -9999.25   -9999.25   -9999.25
 9950.50000   -9999.25   -9999.25   -9999.25   -9999.25   -9999.25   -9999.25 2257.81880   -9999.25   -9999.25   -9999.25   -9999.25   -9999.25 2290.66160   -9999.25   -9999.25   -9999.25   -9999.25   -9999.25
 9951.00000   -9999.25   -9999.25   -9999.25   -9999.25   -9999.25   -9999.25 2262.66890   -9999.25   -9999.25   -9999.25   -9999.25   -9999.25 2305.45000   -9999.25   -9999.25   -9999.25   -9999.25   -9999.25
 9951.50000   -9999.25   -9999.25   -9999.25   -9999.25   -9999.25   -9999.25 2267.51930   -9999.25   -9999.25   -9999.25   -9999.25   -9999.25 2310.91330   -9999.25   -9999.25   -9999.25   -9999.25   -9999.25
