~Version ---------------------------------------------------
VERS.   2.0 : CWLS log ASCII Standard -VERSION 2.0
WRAP.    NO : One line per depth step
DLM . SPACE : Column Data Section Delimiter
~Well ------------------------------------------------------
STRT .F                    7.0 : START DEPTH
STOP .F                 9979.0 : STOP DEPTH
STEP .F                    0.5 : STEP
NULL .                -9999.25 : NULL VALUE
COMP .                         : COMPANY
WELL .                         : WELL
FLD  .                         : FIELD
LOC  .                         : LOCATION
PROV .                         : PROVINCE
CNTY .                         : COUNTY
STAT .                         : STATE
CTRY .                         : COUNTRY
SRVC .                         : SERVICE COMPANY
DATE .                         : DATE
UWI  .                         : UNIQUE WELL ID
API  .                         : API NUMBER
SLAT .WGS84 2.7051883266738983 : SURFACE LATITUDE
SLON .WGS84     6.105742819103 : SURFACE LONGITUDE
DATUM.F                2728.77 : DEPTH DATUM ELEV
~Curve Information -----------------------------------------
DEPT   .F     : 
GRD    .GAPI  : GAMMA RAY FROM DENSITY LOG
NPHI_LS.DEC   : NEUTRON POROSITY LIMESTONE
PEF    .B/E   : PHOTOELECTRIC FACTOR
CALD   .IN    : CALIPER FROM DENSITY LOG
DPHI_LS.DEC   : DENSITY POROSITY LIMESTONE
DRHO   .G/C3  : BULK DENSITY CORRECTION
TEND   .LB    : TENSION FROM DENSITY LOG
RHOB   .G/C3  : BULK DENSITY
GRR    .GAPI  : GAMMA RAY FROM RESISTIVITY LOG
ILD    .OHMM  : INDUCTION DEEP RESISTIVITY
ILM    .OHMM  : INDUCTION MEDIUM RESISTIVITY
SPR    .MV    : SPONTANEOUS POTENTIAL FROM RESISTIVITY LOG
TENR   .LB    : TENSION FROM RESISTIVITY LOG
SFLU   .OHMM  : SHALLOW FOCUSED RESISTIVITY (UNAVERAGED)
GRS    .GAPI  : GAMMA RAY FROM SONIC LOG
DTCO   .US/F  : DELTA-T COMPRESSIONAL
DTSM   .US/F  : DELTA-T SHEAR
DTST   .US/F  : DELTA-T STONELEY - MONOPOLE STONELEY
~Params ----------------------------------------------------
~Other -----------------------------------------------------
~ASCII -----------------------------------------------------
# ...
 4999.00000   54.22800    0.31730   -9999.25   -9999.25   -9999.25   -9999.25   -9999.25   -9999.25   58.36440   -9999.25   -9999.25   -9999.25   -9999.25   -9999.25   -9999.25   -9999.25   -9999.25   -9999.25
 4999.50000   55.33930    0.29240   -9999.25   -9999.25   -9999.25   -9999.25   -9999.25   -9999.25   61.57070   -9999.25   -9999.25   -9999.25   -9999.25   -9999.25   -9999.25   -9999.25   -9999.25   -9999.25
 5000.00000   58.06890    0.26740    9.95960    8.00470    0.15350   -0.04950 1323.01710    2.36700   68.62320   -9999.25   -9999.25   -9999.25   -9999.25   -9999.25   -9999.25   -9999.25   -9999.25   -9999.25
 5000.50000   65.60000    0.25870    9.44570    8.05120    0.19470   -0.04910 1323.78920    2.25460   89.93980   -9999.25   -9999.25   -9999.25   -9999.25   -9999.25   -9999.25   -9999.25   -9999.25   -9999.25
 5001.00000   76.62550    0.27110    6.02920    8.09770    0.25380   -0.04860 1324.56130    2.25530   99.62510   -9999.25   -9999.25   -9999.25   -9999.25   -9999.25   -9999.25   -9999.25   -9999.25   -9999.25
 5001.50000   87.92030    0.27560    3.75770    8.23260    0.24950   -0.04820 1325.33350    2.35030  117.81100   -9999.25   -9999.25   -9999.25   -9999.25   -9999.25   -9999.25   -9999.25   -9999.25   -9999.25
 5002.00000   93.20250    0.26620    2.97750    8.48300    0.19230   -0.00840 1326.10560    2.40100  115.80200   -9999.25   -9999.25   -9999.25   -9999.25   -9999.25   -9999.25   -9999.25   -9999.25   -9999.25
 5002.50000   94.89970    0.24590    2.70520    8.76820    0.13480    0.08170 1326.87780    2.45650  109.36550   -9999.25   -9999.25   -9999.25   -9999.25   -9999.25   -9999.25   -9999.25   -9999.25   -9999.25
 5003.00000   91.80960    0.24340    2.74880    8.88310    0.11090    0.06070 1327.64990    2.51890  101.62180   -9999.25 1150.16090   45.36010 1252.83760   -9999.25   -9999.25   -9999.25   -9999.25   -9999.25
 5003.50000   88.37060    0.24120    2.81310    8.95750    0.11470    0.02240 1328.66920    2.51500   98.91960  269.07860 1201.92430   40.84070 1251.26600   -9999.25   -9999.25   -9999.25   -9999.25   -9999.25
 5004.00000   87.17480    0.24010    2.87730    8.98540    0.11770   -0.00120 1330.42180    2.51000  102.46980 1962.35910 1406.45750   36.32130 1249.69450 1907.00310   -9999.25   -9999.25   -9999.25   -9999.25
 5004.50000   93.51300    0.23880    2.94050    9.00770    0.11980   -0.00610 1332.17440    2.50500  108.18540 2030.52510 1645.54330   29.77380 1248.12280  502.77400   -9999.25   -9999.25   -9999.25   -9999.25
 5005.00000   96.45060    0.24260    2.94360    9.00900    0.12150   -0.00410 1333.92710    2.49990  110.59320 2003.34790 1259.25700   27.31350 1246.55130   52.63480   -9999.25   -9999.25   -9999.25   -9999.25
 5005.50000   95.45410    0.25200    2.89650    9.01990    0.12420   -0.00350 1335.67980    2.49490  110.62080 1689.33390 1128.52880   25.48350 1244.97960   41.09770   -9999.25   -9999.25   -9999.25   -9999.25
 5006.00000   89.62360    0.26620    2.86840    9.02260    0.12740   -0.00320 1337.43250    2.49120  104.47680  141.15830 1151.09450   23.56150 1243.40810   38.68980   -9999.25   -9999.25   -9999.25   -9999.25
 5006.50000   80.36510    0.27940    2.91650    9.00290    0.12480   -0.00290 1327.23860    2.49350   91.02560   38.65780  422.23790   22.33140 1241.83650   35.18010   -9999.25   -9999.25   -9999.25   -9999.25
 5007.00000   73.86270    0.26210    2.95720    8.98320    0.11140   -0.00260 1318.48380    2.51960   86.55040   46.20560   70.82700   20.10100 1240.26490   31.98880   -9999.25   -9999.25   -9999.25   -9999.25
 5007.50000   74.51520    0.22780    2.90780    8.96320    0.09560   -0.00220 1321.91220    2.54700   93.83160   61.29540  270.62510   15.55860 1238.82650   30.59420   -9999.25   -9999.25   -9999.25   -9999.25
 5008.00000   84.74540    0.20040    2.75950    8.95370    0.09330   -0.00190 1324.64420    2.55220  105.67220   86.69390  561.17100    8.90160 1238.52930   50.99860   -9999.25   -9999.25   -9999.25   -9999.25
 5008.50000   98.27790    0.21220    2.76880    8.95470    0.11550   -0.00160 1322.61580    2.51700  119.39590  722.72330  261.36520    2.93340 1238.23210   47.32940   -9999.25   -9999.25   -9999.25   -9999.25
 5009.00000  103.54110    0.25130    2.89580    8.99270    0.14590   -0.00130 1318.24730    2.46560  115.96800  982.61470  460.04400   -0.66040 1237.93480   57.22180   -9999.25   -9999.25   -9999.25   -9999.25
 5009.50000  103.06280    0.28540    2.94870    9.11860    0.16890   -0.00120 1314.03830    2.44080  106.81340  463.99770   41.72490   -4.12830 1237.63760   65.47940   -9999.25   -9999.25   -9999.25   -9999.25
 5010.00000  102.62730    0.29590    2.81050    9.28140    0.18360   -0.00760 1312.39540    2.40920  107.20450   39.50020   33.43540   -7.42250 1237.34030   55.03160   -9999.25   -9999.25   -9999.25   -9999.25
 5010.50000  103.55680    0.27850    2.61320    9.37080    0.19950   -0.01550 1310.75240    2.36080  112.33190   28.72440   29.80730  -10.67460 1237.04310   43.08230   -9999.25   -9999.25   -9999.25   -9999.25
 5011.00000  105.32260    0.25910    2.43970    9.43090    0.22030   -0.02320 1310.09950    2.32180  118.65200   27.67980   41.10350  -13.92670 1236.74580   38.83240   -9999.25   -9999.25   -9999.25   -9999.25
 5011.50000  107.29140    0.25380    2.42640    9.45360    0.24500   -0.03060 1303.95090    2.28080  116.98410   29.26070   50.54690  -16.34700 1236.72420   39.54470   -9999.25   -9999.25   -9999.25   -9999.25
 5012.00000  110.34740    0.26340    2.54970    9.39340    0.25870   -0.03150 1322.29550    2.26520  115.49450   32.60210   50.30060  -18.39720 1236.75390   86.80010   -9999.25   -9999.25   -9999.25   -9999.25
 5012.50000  113.38060    0.27140    2.69010    9.30640    0.26310   -0.02980 1324.89110    2.25860  115.14310   32.39300   48.41620  -20.44750 1236.50390  150.40640   -9999.25   -9999.25   -9999.25   -9999.25
 5013.00000  114.84160    0.27300    2.72800    9.40430    0.27320   -0.03130 1329.18400    2.24460  116.96660   30.31190   39.19220  -22.86540 1236.25400  150.71370   -9999.25   -9999.25   -9999.25   -9999.25
 5013.50000  113.59930    0.27290    2.71620    9.49960    0.28590   -0.03380 1344.02670    2.21940  117.09800   28.32790   32.54230  -24.45760 1231.87960  119.07670   -9999.25   -9999.25   -9999.25   -9999.25
 5014.00000  111.90630    0.26850    2.74420    9.44160    0.28730   -0.03040 1354.49660    2.21390  116.85060   26.40930   28.09930  -25.83150 1228.80270   48.42050   -9999.25   -9999.25   -9999.25   -9999.25
 5014.50000  112.30590    0.26330    2.80260    9.37000    0.27720   -0.02250 1350.93010    2.23270  117.00860   24.62060   25.36680  -27.15070 1243.68270   27.96610   -9999.25   -9999.25   -9999.25   -9999.25
 5015.00000  113.25870    0.25880    2.84870    9.49990    0.26190   -0.01210 1340.80440    2.26820  116.66300   22.95310   23.64650  -27.97730 1247.01550   24.86750   -9999.25   -9999.25   -9999.25   -9999.25
 5015.50000  112.73390    0.26190    2.89130    9.66240    0.23140    0.02070 1332.94540    2.31610  112.41120   20.60150   21.71370  -28.85530 1239.63100   23.65700   -9999.25   -9999.25   -9999.25   -9999.25
 5016.00000  107.68350    0.26970    2.90080    9.60430    0.19180    0.05660 1332.74730    2.39360  104.36680   17.89560   19.68250  -29.71680 1241.06560   28.20070   -9999.25   -9999.25   -9999.25   -9999.25
 5016.50000   97.12790    0.26700    2.90810    9.49460    0.16000    0.08070 1334.02620    2.43670  100.44110   15.54520   16.84360  -31.11600 1242.50020   29.79940   -9999.25   -9999.25   -9999.25   -9999.25
 5017.00000   89.28160    0.24320    2.90970    9.45560    0.15140    0.06600 1332.92020    2.45030   98.55770   13.50340   14.25000  -32.45230 1247.00620   25.44240   -9999.25   -9999.25   -9999.25   -9999.25
 5017.50000   87.36490    0.21680    2.90970    9.48400    0.14850    0.04720 1319.69290    2.45990  103.60550   12.19880   12.69440  -33.69600 1248.51980   19.56970   -9999.25   -9999.25   -9999.25   -9999.25
 5018.00000   92.06230    0.19640    2.90970    9.71400    0.12640    0.07410 1343.17100    2.49010  109.80620   10.77540   11.66790  -35.39060 1248.39710   15.64580   -9999.25   -9999.25   -9999.25   -9999.25
