~Version ---------------------------------------------------
VERS.   2.0 : CWLS log ASCII Standard -VERSION 2.0
WRAP.    NO : One line per depth step
DLM . SPACE : Column Data Section Delimiter
~Well ------------------------------------------------------
STRT .F                    7.0 : START DEPTH
STOP .F                 9979.0 : STOP DEPTH
STEP .F                    0.5 : STEP
NULL .                -9999.25 : NULL VALUE
COMP .                         : COMPANY
WELL .                         : WELL
FLD  .                         : FIELD
LOC  .                         : LOCATION
PROV .                         : PROVINCE
CNTY .                         : COUNTY
STAT .                         : STATE
CTRY .                         : COUNTRY
SRVC .                         : SERVICE COMPANY
DATE .                         : DATE
UWI  .                         : UNIQUE WELL ID
API  .                         : API NUMBER
SLAT .WGS84 2.7051883266738983 : SURFACE LATITUDE
SLON .WGS84     6.105742819103 : SURFACE LONGITUDE
DATUM.F                2728.77 : DEPTH DATUM ELEV
~Curve Information -----------------------------------------
DEPT   .F     : 
GRD    .GAPI  : GAMMA RAY FROM DENSITY LOG
NPHI_LS.DEC   : NEUTRON POROSITY LIMESTONE
PEF    .B/E   : PHOTOELECTRIC FACTOR
CALD   .IN    : CALIPER FROM DENSITY LOG
DPHI_LS.DEC   : DENSITY POROSITY LIMESTONE
DRHO   .G/C3  : BULK DENSITY CORRECTION
TEND   .LB    : TENSION FROM DENSITY LOG
RHOB   .G/C3  : BULK DENSITY
GRR    .GAPI  : GAMMA RAY FROM RESISTIVITY LOG
ILD    .OHMM  : INDUCTION DEEP RESISTIVITY
ILM    .OHMM  : INDUCTION MEDIUM RESISTIVITY
SPR    .MV    : SPONTANEOUS POTENTIAL FROM RESISTIVITY LOG
TENR   .LB    : TENSION FROM RESISTIVITY LOG
SFLU   .OHMM  : SHALLOW FOCUSED RESISTIVITY (UNAVERAGED)
GRS    .GAPI  : GAMMA RAY FROM SONIC LOG
DTCO   .US/F  : DELTA-T COMPRESSIONAL
DTSM   .US/F  : DELTA-T SHEAR
DTST   .US/F  : DELTA-T STONELEY - MONOPOLE STONELEY
~Params ----------------------------------------------------
~Other -----------------------------------------------------
~ASCII -----------------------------------------------------
# ...
 8938.00000   34.27480    0.00750    3.99150    8.21670    0.03880    0.01560 2034.96630    2.63960   36.09430  186.34370  339.35180  -72.16270 2053.69210  906.77440   27.08820   47.99130   92.23860  197.42910
 8938.50000   35.68250    0.00790    4.14720    8.18890    0.02980    0.02600 2035.27470    2.65250   34.84540  199.70290  344.09440  -71.56910 2053.56180  669.97580   26.92530   49.09910   92.26090  197.08910
 8939.00000   37.09030    0.00790    4.20740    8.18070    0.02030    0.03760 2035.58300    2.66720   34.95560  197.96270  330.12610  -71.12800 2053.43160  599.78560   26.22930   50.28530   92.26010  196.55770
 8939.50000   37.62560    0.00790    4.24300    8.17770    0.01540    0.04350 2035.89150    2.68190   36.00010  196.23790  314.67610  -70.70750 2053.30130  585.14200   25.64990   50.91470   92.23930  196.26980
 8940.00000   36.97100    0.00820    4.30530    8.17520    0.01700    0.03770 2036.19980    2.68630   38.54790  187.56660  299.94920  -70.28710 2053.17090  599.84420   25.90450   50.56770   92.18730  196.27770
 8940.50000   36.01870    0.00880    4.33250    8.17410    0.02160    0.03020 2036.50820    2.67620   38.76440  180.58690  286.99670  -69.80220 2053.04050  614.32450   26.33580   50.14130   92.13540  196.28510
 8941.00000   35.24350    0.00930    4.21330    8.17530    0.02750    0.02470 2036.81650    2.66510   36.27640  179.06470  278.06050  -68.99810 2052.91040  619.77620   27.21640   50.11210   92.08340  196.29250
 8941.50000   34.42040    0.00970    4.06100    8.17590    0.02830    0.02230 2037.12490    2.65980   33.96770  181.70320  275.59710  -68.12180 2052.78000  709.60210   27.42420   50.14040   92.03140  196.29990
 8942.00000   34.19420    0.01000    4.14840    8.17640    0.02440    0.02140 2037.43330    2.66580   33.75710  184.38050  279.30580  -67.17380 2052.64970  730.12240   26.90970   50.13620   91.97940  196.30720
 8942.50000   33.40970    0.01020    4.28840    8.17700    0.02080    0.01300 2037.74170    2.67130   35.35170  190.45560  294.35010  -66.21920 2052.51930  641.64610   25.93280   50.11000   91.92740  196.31460
 8943.00000   32.19500    0.00980    4.37310    8.17760    0.02160    0.00650 2038.05000    2.67220   35.63140  196.14690  314.89160  -65.02400 2052.38920  600.71290   25.04560   50.08380   91.87540  196.32200
 8943.50000   28.47340    0.00840    4.41840    8.17820    0.02440   -0.00030 2038.35840    2.66880   33.29680  199.17860  371.49910  -63.70630 2052.25880  613.83970   24.15680   50.11320   91.82340  196.33740
 8944.00000   24.71690    0.00660    4.48810    8.17880    0.02610   -0.00470 2038.66670    2.66580   29.48210  202.65940  491.34060  -62.75030 2052.12840  812.10590   22.09560   50.14280   91.77150  196.63220
 8944.50000   22.65270    0.00560    4.62570    8.17920    0.02650   -0.00570 2038.97520    2.66480   28.31900  207.75750  510.47070  -61.79420 2051.99800 1209.61800   18.87920   49.96920   91.81210  196.63960
 8945.00000   23.50300    0.00600    4.69300    8.17930    0.02710   -0.00410 2039.28360    2.66370   30.94040  212.98390  498.00330  -60.85220 2051.86790 1417.48380   18.13120   49.69730   91.86600  196.64700
 8945.50000   25.04180    0.00800    4.73880    8.18110    0.02780   -0.00250 2039.59190    2.66320   33.74820  218.34180  485.11520  -59.94230 2051.73750 1225.76590   19.18720   49.42530   91.91980  196.35910
 8946.00000   25.98950    0.00990    4.61590    8.19080    0.02710    0.00140 2039.90030    2.66370   30.96690  224.31620  497.86120  -59.03240 2051.60720  875.12630   21.42540   49.53220   92.05590  196.36650
 8946.50000   26.68080    0.01140    4.35570    8.19750    0.02390    0.00250 2040.20860    2.66690   26.03470  230.27290  531.67180  -58.12250 2051.47680  673.51160   22.65720   49.70430   92.30850  196.37390
 8947.00000   27.24330    0.01160    4.22320    8.19560    0.02170    0.00030 2040.51710    2.67050   24.29090  230.25800  552.34190  -57.28530 2051.34670  758.02160   21.94880   49.97990   92.56110  196.08570
 8947.50000   27.67670    0.01160    4.17640    8.18370    0.02070   -0.00230 2040.82540    2.67080   24.65310  226.51430  549.55780  -56.08690 2051.21630  931.68430   20.49590   50.25550   92.68060  196.09340
 8948.00000   27.37670    0.01260    4.19770    8.18030    0.02250   -0.00430 2041.13380    2.66950   26.91470  223.78050  537.23380  -54.87300 2051.08590  931.75130   20.45980   50.45810   92.68640  195.80500
 8948.50000   26.73840    0.01360    4.21590    8.18300    0.02530    0.00010 2043.42070    2.66720   30.21510  222.67380  528.78920  -53.76510 2050.95560  817.72130   20.77070   50.62030   92.44500  195.81290
 8949.00000   26.79130    0.01400    4.08590    8.18570    0.02710    0.00470 2046.67370    2.66480   31.62410  227.59250  532.90230  -53.29630 2050.82540  803.28530   20.83010   50.76420   92.24520  195.82030
 8949.50000   27.48770    0.01390    3.92060    8.18840    0.02790    0.00780 2049.92680    2.66380   32.12010  231.33290  544.61400  -53.05590 2050.69510  845.45760   20.90080   50.69890   92.06150  196.41860
 8950.00000   28.24120    0.01390    3.83940    8.19110    0.02640    0.00570 2053.17990    2.66350   29.91520  234.55370  578.74170  -52.70320 2050.56470 1013.70220   20.37830   50.53660   91.98240  196.72140
 8950.50000   27.88060    0.01340    3.84710    8.19380    0.02620    0.00260 2056.43310    2.66330   27.68430  236.88050  649.57450  -52.35050 2050.43430 1126.62960   19.68710   50.37430   91.94490  196.72890
 8951.00000   26.89850    0.01240    3.90700    8.19650    0.02690    0.00050 2059.68600    2.66250   30.59030  234.06340  729.07670  -51.99790 2050.46660 1229.56090   18.91600   50.21200   91.93580  196.73630
 8951.50000   26.92050    0.01160    3.94100    8.19920    0.02960    0.00060 2062.93920    2.65950   33.27660  231.27990  843.51510  -51.64520 2050.52860 1259.42770   18.40100   50.01170   91.42420  196.74380
 8952.00000   28.17020    0.01100    3.96270    8.20190    0.03310    0.00070 2066.19240    2.65170   33.90150  229.30290  977.63060  -51.44240 2050.59060 1196.70650   19.63720   50.14270   90.97870  196.45580
 8952.50000   31.88510    0.01050    3.86980    8.20240    0.03730    0.00180 2069.44560    2.64830   31.92600  225.52490 1026.30850  -51.30570 2050.65260  993.98490   21.41890   51.10640   90.79860  196.46320
 8953.00000   36.18290    0.01050    3.67300    8.20230    0.03810    0.00380 2072.69850    2.64650   33.80300  221.80900  956.49270  -51.30900 2050.71480  807.18640   23.33990   52.09350   90.77160  196.47070
 8953.50000   38.85330    0.01080    3.54730    8.20230    0.03780    0.00530 2075.95170    2.64580   38.51230  218.15450  827.54540  -51.60500 2050.77690  655.49270   25.53150   52.66100   90.74450  196.47810
 8954.00000   37.69630    0.01120    3.52930    8.20220    0.03660    0.00560 2079.20480    2.64510   41.25110  214.11380  798.29610  -51.93550 2050.83890  605.83470   27.90290   52.80570   90.76400  196.78100
 8954.50000   34.05400    0.01130    3.59370    8.20210    0.03880    0.00160 2082.45780    2.64420   39.40510  208.43740  854.61880  -52.26870 2050.90090  659.08560   29.14630   52.95040   90.80560  197.08380
 8955.00000   33.73550    0.01070    3.68770    8.21670    0.04130   -0.00220 2085.71090    2.63900   36.00470  202.91150  953.13170  -52.62360 2050.96310  733.91640   28.53000   53.09510   90.84720  197.68210
 8955.50000   34.60550    0.01010    3.80500    8.23330    0.04430   -0.00620 2088.96410    2.63430   35.63850  197.75410  996.03880  -53.16650 2051.02510  817.24290   28.24290   52.93830   90.88880  197.98500
 8956.00000   36.51420    0.01060    3.97190    8.24990    0.04430   -0.00660 2092.21700    2.63350   39.58160  194.12140  693.57860  -53.49780 2051.08720  784.91410   29.97380   52.88790   90.93040  198.58330
 8956.50000   39.23730    0.01200    3.82870    8.27260    0.04160   -0.00640 2095.47020    2.63740   43.21940  189.22830  469.23210  -53.82560 2051.14920  588.00820   30.79830   52.84460   90.97200  198.88610
 8957.00000   39.67390    0.01440    3.61210    8.31170    0.03750   -0.00380 2098.72340    2.64490   43.77240  180.85100  386.77370  -54.02480 2051.21140  451.01630   30.85000   52.44580   91.01360  199.18900
