~Version ---------------------------------------------------
VERS.   2.0 : CWLS log ASCII Standard -VERSION 2.0
WRAP.    NO : One line per depth step
DLM . SPACE : Column Data Section Delimiter
~Well ------------------------------------------------------
STRT .F                    7.0 : START DEPTH
STOP .F                 9979.0 : STOP DEPTH
STEP .F                    0.5 : STEP
NULL .                -9999.25 : NULL VALUE
COMP .                         : COMPANY
WELL .                         : WELL
FLD  .                         : FIELD
LOC  .                         : LOCATION
PROV .                         : PROVINCE
CNTY .                         : COUNTY
STAT .                         : STATE
CTRY .                         : COUNTRY
SRVC .                         : SERVICE COMPANY
DATE .                         : DATE
UWI  .                         : UNIQUE WELL ID
API  .                         : API NUMBER
SLAT .WGS84 2.7051883266738983 : SURFACE LATITUDE
SLON .WGS84     6.105742819103 : SURFACE LONGITUDE
DATUM.F                2728.77 : DEPTH DATUM ELEV
~Curve Information -----------------------------------------
DEPT   .F     : 
GRD    .GAPI  : GAMMA RAY FROM DENSITY LOG
NPHI_LS.DEC   : NEUTRON POROSITY LIMESTONE
PEF    .B/E   : PHOTOELECTRIC FACTOR
CALD   .IN    : CALIPER FROM DENSITY LOG
DPHI_LS.DEC   : DENSITY POROSITY LIMESTONE
DRHO   .G/C3  : BULK DENSITY CORRECTION
TEND   .LB    : TENSION FROM DENSITY LOG
RHOB   .G/C3  : BULK DENSITY
GRR    .GAPI  : GAMMA RAY FROM RESISTIVITY LOG
ILD    .OHMM  : INDUCTION DEEP RESISTIVITY
ILM    .OHMM  : INDUCTION MEDIUM RESISTIVITY
SPR    .MV    : SPONTANEOUS POTENTIAL FROM RESISTIVITY LOG
TENR   .LB    : TENSION FROM RESISTIVITY LOG
SFLU   .OHMM  : SHALLOW FOCUSED RESISTIVITY (UNAVERAGED)
GRS    .GAPI  : GAMMA RAY FROM SONIC LOG
DTCO   .US/F  : DELTA-T COMPRESSIONAL
DTSM   .US/F  : DELTA-T SHEAR
DTST   .US/F  : DELTA-T STONELEY - MONOPOLE STONELEY
~Params ----------------------------------------------------
~Other -----------------------------------------------------
~ASCII -----------------------------------------------------
# ...
 7963.00000  100.40230    0.19530    3.13940    9.54400    0.06840   -0.00480 1849.25000    2.58410   99.29950   23.59950   27.40670  -13.36570 1832.64120   59.26080   -9999.25   -9999.25   -9999.25   -9999.25
 7963.50000   91.90830    0.16430    3.15070    9.49780    0.05320   -0.00430 1847.36050    2.61790   93.85840   23.62840   25.95800  -13.15920 1833.43120   49.54710   -9999.25   -9999.25   -9999.25   -9999.25
 7964.00000   92.15510    0.14350    3.13020    9.43020    0.03810   -0.00600 1849.36130    2.63720  102.91920   23.10100   24.84140  -12.85140 1834.22120   39.31080   -9999.25   -9999.25   -9999.25   -9999.25
 7964.50000   99.39220    0.14740    3.12500    9.41020    0.03070   -0.00650 1861.67090    2.65680  113.15920   22.26440   23.91200  -12.60660 1835.01110   32.53510   -9999.25   -9999.25   -9999.25   -9999.25
 7965.00000  105.13570    0.16970    3.14490    9.45410    0.03510   -0.00730 1859.84520    2.65550  123.39070   21.45470   23.01730  -12.29620 1835.80110   31.03160   -9999.25   -9999.25   -9999.25   -9999.25
 7965.50000  107.72170    0.19020    3.05540    9.49840    0.04340   -0.00800 1859.00440    2.63720  123.00160   20.67450   22.15610  -11.87960 1836.59110   31.32810   -9999.25   -9999.25   -9999.25   -9999.25
 7966.00000  110.53410    0.19460    2.89360    9.56170    0.04880   -0.00710 1859.21610    2.62550  126.40650   19.92260   21.32160  -11.46300 1837.38110   33.80990   -9999.25   -9999.25   -9999.25   -9999.25
 7966.50000  119.40680    0.19390    2.81970    9.61310    0.04760   -0.00250 1859.42790    2.62560  139.71280   19.19810   20.51600  -11.09670 1838.17110   35.58960   -9999.25   -9999.25   -9999.25   -9999.25
 7967.00000  133.45140    0.19940    2.84180    9.65520    0.04550    0.00000 1859.63960    2.63100  157.48120   18.49990   19.74080  -11.03550 1838.96110   35.52240   -9999.25   -9999.25   -9999.25   -9999.25
 7967.50000  145.22580    0.21640    2.91630    9.69950    0.04950   -0.00100 1859.85140    2.62490  167.07000   18.21080   19.14400  -11.00440 1839.75110   34.85080   -9999.25   -9999.25   -9999.25   -9999.25
 7968.00000  152.75040    0.25000    2.99590    9.73200    0.06330   -0.00360 1860.06320    2.60730  164.55690   18.00780   18.85240  -10.83690 1840.54100   33.34740   -9999.25   -9999.25   -9999.25   -9999.25
 7968.50000  148.66260    0.26080    3.08020    9.78330    0.07110   -0.00660 1860.27500    2.58750  156.39790   17.80700   18.78440  -10.58130 1841.33110   31.01500   -9999.25   -9999.25   -9999.25   -9999.25
 7969.00000  138.10960    0.25470    3.20320    9.84790    0.07280   -0.00980 1860.48670    2.58430  145.88020   17.60850   18.78440  -10.27940 1842.12100   27.95190   -9999.25   -9999.25   -9999.25   -9999.25
 7969.50000  128.93030    0.23920    3.32120    9.90370    0.07060   -0.00990 1860.69850    2.58430  138.90060   17.29210   19.12190   -9.91070 1839.08250   26.96100   -9999.25   -9999.25   -9999.25   -9999.25
 7970.00000  119.68620    0.22110    3.37270    9.93800    0.06520   -0.00870 1860.91030    2.59850  135.50630   16.70760   19.32060   -9.98330 1833.95480   29.56490   -9999.25   -9999.25   -9999.25   -9999.25
 7970.50000  120.01560    0.20760    3.34300    9.97220    0.05860   -0.00750 1861.12210    2.60840  136.76450   16.63870   18.74200  -10.25290 1827.31980   30.83480   -9999.25   -9999.25   -9999.25   -9999.25
 7971.00000  124.45820    0.20840    3.31680   10.00640    0.05470   -0.00660 1861.33390    2.61440  140.19930   16.48580   17.67990  -10.47850 1820.68480   28.81270   -9999.25   -9999.25   -9999.25   -9999.25
 7971.50000  128.37430    0.21990    3.31530   10.03640    0.05410   -0.00570 1861.54570    2.61480  144.01950   16.23960   17.13510  -10.69610 1831.63820   23.53880   -9999.25   -9999.25   -9999.25   -9999.25
 7972.00000  131.11640    0.22980    3.29320   10.06910    0.05560   -0.00630 1859.17530    2.61520  148.09790   15.95020   17.13510  -10.91370 1832.70970   21.74330   -9999.25   -9999.25   -9999.25   -9999.25
 7972.50000  131.28720    0.23680    3.30780   10.11190    0.05590   -0.00520 1856.31850    2.61580  149.73540   15.63320   17.03620  -11.04900 1832.96970   23.46890   -9999.25   -9999.25   -9999.25   -9999.25
 7973.00000  128.90960    0.23480    3.31060   10.18090    0.05160   -0.00210 1856.27610    2.62150  148.10360   15.13220   16.36330  -11.34790 1833.22970   25.18680   -9999.25   -9999.25   -9999.25   -9999.25
 7973.50000  124.48020    0.22910    3.25640   10.19770    0.04890    0.00100 1857.04480    2.62600  143.13070   14.55530   15.50700  -11.72790 1837.41420   25.96870   -9999.25   -9999.25   -9999.25   -9999.25
 7974.00000  119.82060    0.21160    2.93400   10.20330    0.04750    0.00500 1857.81350    2.62890  135.57370   13.98480   14.69790  -12.06160 1839.68880   25.12580   -9999.25   -9999.25   -9999.25   -9999.25
 7974.50000  117.00480    0.19350    2.77660   10.19150    0.04300    0.00820 1858.58220    2.63530  129.84850   13.66500   14.05270  -12.09150 1840.38840   23.21040   -9999.25   -9999.25   -9999.25   -9999.25
 7975.00000  117.63890    0.18430    2.74440   10.11010    0.03710    0.01120 1859.35080    2.64330  124.20000   13.71730   14.28810  -11.89140 1841.08810   21.44100   -9999.25   -9999.25   -9999.25   -9999.25
 7975.50000  119.01850    0.19620    2.79070    9.97820    0.03420    0.01090 1860.11950    2.65090  121.88620   14.00850   15.24010  -11.54780 1841.78770   20.28300   -9999.25   -9999.25   -9999.25   -9999.25
 7976.00000  120.30390    0.21280    3.04330    9.91020    0.03470    0.00960 1860.88820    2.65200  126.01040   14.72690   16.76200  -11.02820 1842.48740   21.28080   -9999.25   -9999.25   -9999.25   -9999.25
 7976.50000  122.85370    0.22440    3.25090    9.91600    0.03630    0.00730 1861.65690    2.64920  137.93830   15.43510   17.89120  -10.57160 1843.18700   24.02640   -9999.25   -9999.25   -9999.25   -9999.25
 7977.00000  126.93880    0.22730    3.37530    9.93990    0.03990    0.00290 1862.42550    2.64240  146.42910   15.75900   18.07650  -10.17030 1843.88660   26.03830   -9999.25   -9999.25   -9999.25   -9999.25
 7977.50000  130.39380    0.23260    3.36100    9.96230    0.04790   -0.00030 1863.19420    2.62940  152.34140   16.33920   18.07650   -9.79880 1844.58630   26.60490   -9999.25   -9999.25   -9999.25   -9999.25
 7978.00000  131.48110    0.23490    3.17830    9.98460    0.05460   -0.00290 1863.96290    2.61690  154.00390   17.43910   18.67110   -9.79960 1845.28590   27.36770   -9999.25   -9999.25   -9999.25   -9999.25
 7978.50000  124.14120    0.23090    3.05140   10.00700    0.05450   -0.00400 1864.73160    2.61270  153.41590   18.65980   19.98970   -9.80030 1845.98550   28.77340   -9999.25   -9999.25   -9999.25   -9999.25
 7979.00000  118.05270    0.21940    2.99850   10.00970    0.04970   -0.00290 1865.50020    2.62180  152.43120   19.83180   21.31580   -9.80100 1846.68520   30.87640   -9999.25   -9999.25   -9999.25   -9999.25
 7979.50000  115.34920    0.21250    2.95990   10.00980    0.04840   -0.00100 1866.26900    2.62600  151.18010   19.50040   22.69300   -9.80180 1846.15940   33.81050   -9999.25   -9999.25   -9999.25   -9999.25
 7980.00000  117.42470    0.20850    2.89340   10.03250    0.05120    0.00020 1867.03770    2.62360  149.39490   18.37040   22.54510  -10.18730 1840.75060   36.16770   -9999.25   -9999.25   -9999.25   -9999.25
 7980.50000  120.45540    0.20940    2.92340   10.05890    0.05350    0.00110 1867.80640    2.62120  145.18550   17.38260   20.49680  -10.56430 1834.82640   35.80880   -9999.25   -9999.25   -9999.25   -9999.25
 7981.00000  123.48610    0.20910    2.94220   10.08940    0.05270    0.00130 1868.69040    2.62050  143.45140   16.11720   18.14900  -10.66160 1833.79680   27.52990   -9999.25   -9999.25   -9999.25   -9999.25
 7981.50000  126.62000    0.20500    2.95150   10.11990    0.05100    0.00020 1869.98220    2.62300  142.70530   14.76790   16.07020  -10.86870 1835.06340   22.45450   -9999.25   -9999.25   -9999.25   -9999.25
 7982.00000  128.74190    0.20410    2.96010   10.15570    0.04930   -0.00010 1871.27390    2.62620  146.70960   12.98590   13.69610  -11.12240 1836.33010   17.43570   -9999.25   -9999.25   -9999.25   -9999.25
