~Version ---------------------------------------------------
VERS.   2.0 : CWLS log ASCII Standard -VERSION 2.0
WRAP.    NO : One line per depth step
DLM . SPACE : Column Data Section Delimiter
~Well ------------------------------------------------------
STRT .F                  200.0 : START DEPTH
STOP .F                 9803.0 : STOP DEPTH
STEP .F                    0.5 : STEP
NULL .                -9999.25 : NULL VALUE
COMP .                         : COMPANY
WELL .                         : WELL
FLD  .                         : FIELD
LOC  .                         : LOCATION
PROV .                         : PROVINCE
CNTY .                         : COUNTY
STAT .                         : STATE
CTRY .                         : COUNTRY
SRVC .                         : SERVICE COMPANY
DATE .                         : DATE
UWI  .                         : UNIQUE WELL ID
API  .                         : API NUMBER
SLAT .WGS84 2.2541198811984984 : SURFACE LATITUDE
SLON .WGS84  8.299205892898016 : SURFACE LONGITUDE
DATUM.F                    nan : DEPTH DATUM ELEV
~Curve Information -----------------------------------------
DEPT   .F     : 1 MEASURED DEPTH
TNPH_LS.DEC   : THERMAL NEUTRON POROSITY [LIMESTONE]
HSGRD  .GAPI  : HNGS STANDARD GAMMA RAY FROM DENSITY LOG
PEFZ   .B/E   : HRDD STANDARD RESOLUTION FORMATION PHOTOELECTRIC FACTOR
DPHZ_LS.DEC   : HGRD STANDARD RESOLUTION DENSITY POROSITY
HCALD  .IN    : HRCC CALIPER CALIBRATED FROM DENSITY LOG
HDRA   .G/C3  : HRDD SPINE AND RIBS DENSITY CORRECTION
RHOZ   .G/C3  : HRDD STANDARD RESOLUTION FORMATION DENSITY
RLA3   .OHMM  : APPARENT RESISTIVITY FROM COMPUTED FOCUSING MODE 3
RLA5   .OHMM  : APPARENT RESISTIVITY FROM COMPUTED FOCUSING MODE 5
RXOZ   .OHMM  : INVADED FORMATION RESISTIVITY FILTERED AT 18 INCHES
DTCO   .US/F  : DELTA-T COMPRESSIONAL
DTSM   .US/F  : DELTA-T SHEAR
~Params ----------------------------------------------------
~Other -----------------------------------------------------
~ASCII -----------------------------------------------------
# ...
 8320.00000    0.07390   73.35140    2.71120    0.05380    9.01410    0.00700    2.61800   19.54290   20.36300   17.72380   60.26990  100.45410
 8320.50000    0.07100   72.27290    2.72680    0.05590    9.01330    0.00700    2.61430   19.09280   20.60630   18.22630   60.16400  100.26860
 8321.00000    0.06930   72.00760    2.73830    0.05710    9.01260    0.00700    2.61240   18.94030   20.75930   18.85960   59.99300  100.23370
 8321.50000    0.06860   72.29440    2.75040    0.05570    9.01180    0.00700    2.61470   18.86350   20.75930   18.70380   59.77870  100.21770
 8322.00000    0.07030   73.93200    2.75670    0.05590    9.01100    0.00690    2.61450   18.76070   19.95260   18.23340   59.57350  100.27590
 8322.50000    0.07260   75.00680    2.77120    0.05600    9.01030    0.00690    2.61420   18.93080   19.78710   18.10380   59.34290  100.38250
 8323.00000    0.07260   75.01520    2.79620    0.05420    9.00950    0.00690    2.61730   21.46100   20.16240   19.29850   59.17450  100.51090
 8323.50000    0.07010   73.74850    2.82270    0.05350    9.00880    0.00690    2.61850   24.85950   24.93080   20.99760   59.03870  100.42490
 8324.00000    0.06510   72.25490    2.84930    0.05250    9.00800    0.00690    2.62040   28.79620   28.99790   28.31610   58.99590  100.47980
 8324.50000    0.06310   71.86030    2.87580    0.04440    9.00720    0.00690    2.63410   30.78860   28.08180   33.29840   58.98680  100.49120
 8325.00000    0.06480   71.83840    2.84320    0.03360    9.00650    0.00680    2.65270   27.75320   22.09560   26.20070   58.93100  100.34730
 8325.50000    0.07000   71.81640    2.79570    0.02800    9.00570    0.00680    2.66200   24.06800   20.07760   21.47380   58.80740   99.74060
 8326.00000    0.07090   72.07060    2.74820    0.03860    9.00500    0.00680    2.64390   21.64100   19.54970   20.26770   58.79390   98.92050
 8326.50000    0.07050   72.67410    2.74570    0.04640    9.00420    0.00680    2.63060   22.39960   20.56740   21.56350   58.79600   98.09940
 8327.00000    0.07090   73.24850    2.77160    0.04690    9.00340    0.00680    2.62980   23.64500   22.31840   23.67560   58.88850   97.37140
 8327.50000    0.07190   72.02060    2.77320    0.04330    9.00270    0.00680    2.63600   24.72870   23.12330   24.39200   59.17770   97.19810
 8328.00000    0.07240   70.58570    2.78090    0.04190    9.00190    0.00680    2.63830   24.50530   21.26040   24.08150   59.56660   96.96830
 8328.50000    0.07180   69.83080    2.80850    0.04140    9.00110    0.00680    2.63920   23.87730   21.16200   22.69930   59.79420   96.81970
 8329.00000    0.07100   69.94610    2.83620    0.04220    9.00040    0.00680    2.63790   23.26540   21.06400   22.41680   60.03700   96.95690
 8329.50000    0.07020   70.20970    2.86400    0.04520    8.99960    0.00680    2.63270   22.71120   21.26870   22.85480   60.32190   97.19710
 8330.00000    0.06940   70.27550    2.89170    0.04730    8.99890    0.00680    2.62910   23.02140   21.89070   24.76160   60.64730   97.78270
 8330.50000    0.06900   70.16610    2.87570    0.04950    8.99810    0.00680    2.62530   23.80690   22.53080   26.64220   61.21930   98.83620
 8331.00000    0.07190   70.80380    2.85200    0.04980    8.99730    0.00680    2.62480   25.87750   23.37110   29.44680   61.68120   99.58800
 8331.50000    0.07580   71.63540    2.82820    0.05240    8.99660    0.00680    2.62050   28.40980   26.45180   31.12800   61.94460   99.87720
 8332.00000    0.08040   73.01200    2.80440    0.05990    8.99580    0.00680    2.60730   35.05130   29.93860   35.42890   61.99370   99.74670
 8332.50000    0.09140   76.83160    2.78070    0.07020    8.99510    0.00680    2.59010   44.99770   36.32960   42.00100   61.97350   99.50290
 8333.00000    0.10830   87.29700    2.76720    0.07530    8.99430    0.00680    2.58130   64.31560   53.04880   52.95110   61.93760   99.07110
 8333.50000    0.12410  109.74950    2.87720    0.07560    8.99350    0.00680    2.58080   95.75660   77.46240   87.81780   61.90170   98.63470
 8334.00000    0.13860  124.93210    2.98380    0.06940    8.99280    0.00680    2.59140  142.56770  113.11130  158.15230   61.68010   98.10420
 8334.50000    0.13720  122.72050    3.09080    0.05910    8.99200    0.00680    2.60900  142.85690  122.65470  240.18700   61.26390   97.59860
 8335.00000    0.11040  105.82560    3.18020    0.04700    8.99130    0.00680    2.64300  130.26700   92.15680  198.42800   60.87310   97.26330
 8335.50000    0.09970   89.57430    3.17470    0.03980    8.99050    0.00680    2.64230  118.78660  101.79890  186.46800   60.49470   96.85260
 8336.00000    0.09510   78.20850    3.16920    0.04330    8.98970    0.00680    2.63590  116.48350  113.71970  202.47260   60.18040   96.82860
 8336.50000    0.09260   71.03460    3.16370    0.05230    8.98900    0.00680    2.62050   72.33580   86.27990  162.39790   60.02530   96.97480
 8337.00000    0.08770   65.24210    3.08400    0.06330    8.98820    0.00680    2.60190   64.24980   63.09660  124.44820   60.12370   97.52480
 8337.50000    0.08380   61.09930    2.99250    0.07180    8.98750    0.00680    2.58720   58.21610   52.42220  106.89960   60.37600   98.89670
 8338.00000    0.07980   61.14100    2.97230    0.07780    8.98670    0.00680    2.57710   54.02400   49.82600   99.87330   60.70740  100.22420
 8338.50000    0.07720   62.53660    2.94730    0.07990    8.98590    0.00680    2.57340   54.02400   51.10630   99.87330   60.94820  101.13800
 8339.00000    0.08390   72.90470    2.89500    0.07750    8.98520    0.00680    2.57750   62.56330   55.65330  103.08680   60.93980  101.27780
 8339.50000    0.09570   95.19710    2.84270    0.07080    8.98440    0.00730    2.58900   89.21230   63.04250  116.28500   60.76940  100.87790
 8340.00000    0.11660  117.10450    2.79040    0.06410    8.98360    0.00850    2.60050  127.21240   90.94110  170.10760   60.60580  100.46940
 8340.50000    0.13450  134.75810    2.84540    0.05690    8.98290    0.01010    2.61280  181.39870  139.96100  328.73080   60.52390  100.18380
 8341.00000    0.14050  131.60460    2.92420    0.05110    8.98210    0.01160    2.62270  211.92240  206.23290  772.99410   60.52250  100.28040
 8341.50000    0.13190  116.06950    3.00300    0.05180    8.98140    0.01120    2.62150  200.69990  175.62770  578.02670   60.67270  100.46070
 8342.00000    0.12030  102.21850    3.05400    0.05420    8.98060    0.00960    2.61740  159.02140  131.76080  386.63320   60.86500  100.66530
 8342.50000    0.11900  103.13760    3.05730    0.05810    8.97980    0.00800    2.61080  133.54780  126.95490  258.61300   61.09870  101.08790
 8343.00000    0.11890  116.56590    3.08550    0.05790    8.97910    0.00700    2.61110  155.90370  137.41350  315.15430   61.35620  101.66750
 8343.50000    0.12200  133.83470    3.08790    0.05990    8.97830    0.00620    2.60770  233.47510  184.30320  501.87260   61.59940  101.98360
 8344.00000    0.12300  141.15050    3.06770    0.06220    8.97760    0.00530    2.60360  239.57380  218.69240  429.64180   61.77500  102.24890
 8344.50000    0.12150  143.45800    2.95530    0.06410    8.97680    0.00570    2.60050  237.74440  233.02570  441.63470   61.85260  102.49620
 8345.00000    0.11630  147.81360    2.84300    0.06440    8.97670    0.00630    2.59980  276.31610  227.17300  285.21150   61.80060  102.47220
 8345.50000    0.11100  152.52260    2.81520    0.07210    8.97670    0.00680    2.58670  356.69880  233.49890  251.31080   61.71720  102.25660
 8346.00000    0.10920  150.50560    2.81310    0.07780    8.97670    0.00730    2.57700  315.99450  236.69580  250.21880   61.68590  102.09240
 8346.50000    0.10920  143.32430    2.81100    0.08080    8.97680    0.00760    2.57200  301.11680  245.55750  862.98160   61.68750  102.07830
 8347.00000    0.11180  140.05110    2.80890    0.07440    8.97680    0.00780    2.58270  323.03990  270.54260  353.05920   61.74920  102.23450
 8347.50000    0.11750  145.34220    2.91350    0.06810    8.97690    0.00800    2.59370  351.50270  294.20130  182.77530   61.93590  102.59990
