~Version ---------------------------------------------------
VERS.   2.0 : CWLS log ASCII Standard -VERSION 2.0
WRAP.    NO : One line per depth step
DLM . SPACE : Column Data Section Delimiter
~Well ------------------------------------------------------
STRT .F                  200.0 : START DEPTH
STOP .F                 9803.0 : STOP DEPTH
STEP .F                    0.5 : STEP
NULL .                -9999.25 : NULL VALUE
COMP .                         : COMPANY
WELL .                         : WELL
FLD  .                         : FIELD
LOC  .                         : LOCATION
PROV .                         : PROVINCE
CNTY .                         : COUNTY
STAT .                         : STATE
CTRY .                         : COUNTRY
SRVC .                         : SERVICE COMPANY
DATE .                         : DATE
UWI  .                         : UNIQUE WELL ID
API  .                         : API NUMBER
SLAT .WGS84 2.2541198811984984 : SURFACE LATITUDE
SLON .WGS84  8.299205892898016 : SURFACE LONGITUDE
DATUM.F                    nan : DEPTH DATUM ELEV
~Curve Information -----------------------------------------
DEPT   .F     : 1 MEASURED DEPTH
TNPH_LS.DEC   : THERMAL NEUTRON POROSITY [LIMESTONE]
HSGRD  .GAPI  : HNGS STANDARD GAMMA RAY FROM DENSITY LOG
PEFZ   .B/E   : HRDD STANDARD RESOLUTION FORMATION PHOTOELECTRIC FACTOR
DPHZ_LS.DEC   : HGRD STANDARD RESOLUTION DENSITY POROSITY
HCALD  .IN    : HRCC CALIPER CALIBRATED FROM DENSITY LOG
HDRA   .G/C3  : HRDD SPINE AND RIBS DENSITY CORRECTION
RHOZ   .G/C3  : HRDD STANDARD RESOLUTION FORMATION DENSITY
RLA3   .OHMM  : APPARENT RESISTIVITY FROM COMPUTED FOCUSING MODE 3
RLA5   .OHMM  : APPARENT RESISTIVITY FROM COMPUTED FOCUSING MODE 5
RXOZ   .OHMM  : INVADED FORMATION RESISTIVITY FILTERED AT 18 INCHES
DTCO   .US/F  : DELTA-T COMPRESSIONAL
DTSM   .US/F  : DELTA-T SHEAR
~Params ----------------------------------------------------
~Other -----------------------------------------------------
~ASCII -----------------------------------------------------
# ...
 9048.00000    0.24180  123.96450    2.92610    0.21530    8.88850    0.00420    2.34180   48.54630   72.36950   39.69370   91.74360  138.41950
 9048.50000    0.23760  123.81140    3.04560    0.21650    8.88750    0.00440    2.33960   50.64530   67.97160   37.03600   92.17360  139.60010
 9049.00000    0.24170  118.67260    2.99830    0.23650    8.88660    0.00440    2.30540   63.43120   69.78610   50.27020   92.27450  140.62580
 9049.50000    0.25020  113.93520    2.78930    0.26250    8.88570    0.00450    2.26110   82.91390   98.49600   78.90730   92.37540  141.49710
 9050.00000    0.25840  116.34810    2.58020    0.26320    8.88230    0.00450    2.26010   84.04790  117.65740   97.89290   92.47630  142.66300
 9050.50000    0.26330  125.75910    2.44100    0.23890    8.86980    0.00460    2.30180   59.06970   98.53700   60.19780   92.57720  143.34900
 9051.00000    0.27130  132.44090    2.56650    0.19620    8.85730    0.00460    2.37500   39.23520   66.21340   36.24280   92.67820  143.75700
 9051.50000    0.27750  130.01240    2.79340    0.16680    8.84480    0.00470    2.42480   30.72390   44.49310   20.29920   92.71310  143.99790
 9052.00000    0.27110  115.76890    3.02030    0.15750    8.83230    0.00470    2.44070   27.49270   33.67940   15.38640   92.74480  144.09770
 9052.50000    0.26210   98.92340    3.21680    0.15320    8.82870    0.00480    2.44800   23.06640   28.64790   11.84550   92.84500  144.19470
 9053.00000    0.26050   91.25270    3.28790    0.15380    8.82870    0.00490    2.44700   22.14560   27.41650   13.37700   92.96920  144.00760
 9053.50000    0.26080   87.86040    3.35890    0.15790    8.82870    0.00490    2.44010   21.58110   26.23950   13.37960   93.06170  143.88170
 9054.00000    0.26190   87.18220    3.38770    0.16440    8.82870    0.00500    2.42880   22.19480   26.33140   13.38880   93.19220  143.60390
 9054.50000    0.26630   87.02410    3.38310    0.16440    8.82870    0.00470    2.42890   25.44630   29.27060   13.63110   93.28560  143.50320
 9055.00000    0.27180   87.11130    3.26230    0.16040    8.82870    0.00450    2.43580   29.36580   33.57120   15.12150   93.26780  143.40720
 9055.50000    0.27510   86.03030    3.14150    0.16730    8.82870    0.00430    2.42390   33.88900   38.50370   19.13720   93.17410  143.48850
 9056.00000    0.26220   84.45990    3.09170    0.18140    8.82870    0.00410    2.39960   36.57770   41.14590   21.81450   93.02200  143.47760
 9056.50000    0.25050   84.41530    3.13520    0.19220    8.82870    0.00380    2.38160   42.45160   39.04860   25.88780   92.86720  143.33540
 9057.00000    0.25190   85.65260    3.18030    0.18170    8.82870    0.00360    2.39930   32.64330   31.15880   20.08830   92.74040  143.23380
 9057.50000    0.25860   87.18220    3.22640    0.15300    8.82870    0.00340    2.44880   22.51030   25.43440   15.58830   92.52300  142.94920
 9058.00000    0.26350   88.77980    3.27250    0.13160    8.82880    0.00320    2.47920   21.97080   25.22000   14.36730   92.28910  142.41760
 9058.50000    0.26100   90.26450    3.27230    0.14160    8.82880    0.00300    2.46690   24.47990   28.36200   14.98190   92.08110  141.86890
 9059.00000    0.25540   91.35020    3.25790    0.16580    8.82880    0.00270    2.42600   27.48590   31.98100   15.63340   91.79180  141.18470
 9059.50000    0.24890   87.01900    3.08590    0.18090    8.82880    0.00250    2.40070   30.86100   40.33260   15.81310   91.10750  139.86160
 9060.00000    0.23550   81.83440    3.01210    0.17640    8.82880    0.00230    2.40780   44.73960   53.39810   19.66320   89.83140  138.40990
 9060.50000    0.22370   80.64300    2.93820    0.17640    8.82880    0.00210    2.40830   59.12100   67.53600   29.56020   88.54070  137.28670
 9061.00000    0.21610   83.04410    2.86430    0.18220    8.82880    0.00200    2.39850   53.14400   67.54330   35.43220   86.86100  135.19750
 9061.50000    0.21110   85.35230    2.79050    0.19360    8.82880    0.00210    2.37880   49.66890   60.83900   34.94080   84.55220  132.25570
 9062.00000    0.20890   80.97250    2.71660    0.19930    8.82880    0.00220    2.36920   50.37770   69.97450   31.86380   83.17990  129.89510
 9062.50000    0.20230   70.67570    2.64280    0.19490    8.82880    0.00230    2.37690   62.12930   65.91660   31.85140   81.10430  127.40180
 9063.00000    0.18160   58.10480    2.57770    0.18210    8.82880    0.00240    2.39870   76.62220   95.25130   43.48100   79.57770  125.21000
 9063.50000    0.16040   47.27920    2.49750    0.17120    8.82880    0.00250    2.41730  109.56980  159.91440   60.58100   78.15630  122.84650
 9064.00000    0.15550   43.53710    2.47920    0.16590    8.82880    0.00260    2.42620   97.88980   97.07280   74.43620   77.05560  120.77110
 9064.50000    0.15860   44.36560    2.49550    0.16800    8.82880    0.00270    2.42260   75.64440   77.73940   56.03100   75.84110  118.09190
 9065.00000    0.16190   45.61680    2.52740    0.17010    8.82880    0.00280    2.41920   62.46760   76.84550   50.69960   74.52080  115.12830
 9065.50000    0.16170   46.81180    2.55940    0.16870    8.82880    0.00290    2.42200   72.82740   95.63870   50.55020   73.62500  113.42490
 9066.00000    0.15640   46.49380    2.59130    0.15940    8.82880    0.00300    2.43750  101.29780  129.10150   58.67230   72.88560  111.61910
 9066.50000    0.14870   44.71240    2.62330    0.15010    8.82850    0.00310    2.45340  147.24810  195.68630   55.45180   72.01500  110.24620
 9067.00000    0.14030   42.39860    2.65520    0.14850    8.82780    0.00320    2.45610  174.45200  254.78900   70.81370   70.77450  108.71490
 9067.50000    0.13080   39.76270    2.69770    0.14710    8.82710    0.00330    2.45840  160.12730  174.23450   81.30830   69.34800  106.19120
 9068.00000    0.12140   36.86440    2.79950    0.14220    8.82640    0.00340    2.46680  191.34220  245.96660  140.74310   68.05240  104.64310
 9068.50000    0.11190   34.74320    2.90130    0.13310    8.82570    0.00350    2.48240  264.46430  341.86400  121.81450   66.72710  102.71240
 9069.00000    0.10240   33.62430    3.00320    0.12410    8.82500    0.00360    2.49790  255.09230  321.38230  148.65510   65.43600  101.77760
 9069.50000    0.09400   33.98880    3.10500    0.11490    8.82430    0.00370    2.51340  239.29610  313.74550  142.09980   64.61860  100.87550
 9070.00000    0.08660   34.69140    3.20680    0.10570    8.82360    0.00380    2.52940  251.23480  327.14280  176.43200   64.33020  100.35430
 9070.50000    0.07930   34.53710    3.24760    0.09640    8.82290    0.00410    2.54510  290.44930  377.10020  275.38180   64.18660  100.06260
 9071.00000    0.07190   32.64500    3.26580    0.08720    8.82220    0.00520    2.56090  344.04150  440.53460  297.63200   64.57370  100.24050
 9071.50000    0.06840   29.57060    3.28400    0.08020    8.82150    0.00640    2.57290  407.52220  518.99510  207.45250   66.02990  101.87910
 9072.00000    0.06900   27.61570    3.28580    0.07810    8.82080    0.00750    2.57650  432.78590  554.42840  174.59020   68.16240  103.48430
 9072.50000    0.07820   27.41330    3.27230    0.08980    8.82010    0.00860    2.55650  370.79750  504.59300  145.13270   70.21720  107.36640
 9073.00000    0.09790   30.43540    3.10250    0.12550    8.81950    0.00980    2.49500  258.64620  323.41110  162.45740   72.62100  110.15600
 9073.50000    0.11780   34.25300    2.92910    0.17320    8.81880    0.01090    2.41350  182.55720  221.40930  137.82710   74.32470  112.87160
 9074.00000    0.13980   38.57420    2.75400    0.20930    8.81810    0.01190    2.35190  159.79930  164.21610  123.54470   76.22210  115.51270
 9074.50000    0.16190   42.05210    2.57900    0.24540    8.81740    0.01170    2.29020  158.58790  162.78200  111.26980   77.21900  117.54170
 9075.00000    0.17900   42.88810    2.41350    0.25200    8.81670    0.01160    2.27900  161.68910  183.43270  104.56990   77.71210  118.31160
 9075.50000    0.18010   43.24300    2.41370    0.24470    8.81600    0.01140    2.29180  201.91470  226.15700  108.80300   77.50440  118.41010
