~Version ---------------------------------------------------
VERS.   2.0 : CWLS log ASCII Standard -VERSION 2.0
WRAP.    NO : One line per depth step
DLM . SPACE : Column Data Section Delimiter
~Well ------------------------------------------------------
STRT .F                  200.0 : START DEPTH
STOP .F                 9803.0 : STOP DEPTH
STEP .F                    0.5 : STEP
NULL .                -9999.25 : NULL VALUE
COMP .                         : COMPANY
WELL .                         : WELL
FLD  .                         : FIELD
LOC  .                         : LOCATION
PROV .                         : PROVINCE
CNTY .                         : COUNTY
STAT .                         : STATE
CTRY .                         : COUNTRY
SRVC .                         : SERVICE COMPANY
DATE .                         : DATE
UWI  .                         : UNIQUE WELL ID
API  .                         : API NUMBER
SLAT .WGS84 2.2541198811984984 : SURFACE LATITUDE
SLON .WGS84  8.299205892898016 : SURFACE LONGITUDE
DATUM.F                    nan : DEPTH DATUM ELEV
~Curve Information -----------------------------------------
DEPT   .F     : 1 MEASURED DEPTH
TNPH_LS.DEC   : THERMAL NEUTRON POROSITY [LIMESTONE]
HSGRD  .GAPI  : HNGS STANDARD GAMMA RAY FROM DENSITY LOG
PEFZ   .B/E   : HRDD STANDARD RESOLUTION FORMATION PHOTOELECTRIC FACTOR
DPHZ_LS.DEC   : HGRD STANDARD RESOLUTION DENSITY POROSITY
HCALD  .IN    : HRCC CALIPER CALIBRATED FROM DENSITY LOG
HDRA   .G/C3  : HRDD SPINE AND RIBS DENSITY CORRECTION
RHOZ   .G/C3  : HRDD STANDARD RESOLUTION FORMATION DENSITY
RLA3   .OHMM  : APPARENT RESISTIVITY FROM COMPUTED FOCUSING MODE 3
RLA5   .OHMM  : APPARENT RESISTIVITY FROM COMPUTED FOCUSING MODE 5
RXOZ   .OHMM  : INVADED FORMATION RESISTIVITY FILTERED AT 18 INCHES
DTCO   .US/F  : DELTA-T COMPRESSIONAL
DTSM   .US/F  : DELTA-T SHEAR
~Params ----------------------------------------------------
~Other -----------------------------------------------------
~ASCII -----------------------------------------------------
# ...
 6528.00000    0.10630   53.68240    2.52120    0.10620    9.40780    0.00760    2.54830    5.38930    5.95010    5.27500   65.68340  111.97810
 6528.50000    0.09530   52.86380    2.53770    0.09430    9.40020    0.00840    2.56670    6.98570    7.71300    6.17780   65.51510  111.61800
 6529.00000    0.08550   52.22130    2.61110    0.08260    9.39710    0.00930    2.58070    9.45780   10.90260    7.65120   65.35750  111.25520
 6529.50000    0.08510   53.77320    2.65620    0.07580    9.39700    0.01010    2.58110   13.76840   14.52510    9.83370   65.18890  110.96190
 6530.00000    0.09400   56.86460    2.66170    0.08150    9.39690    0.01030    2.57040    8.54590   10.98870    7.36010   65.01770  110.66910
 6530.50000    0.10430   59.96730    2.64580    0.09070    9.39680    0.00750    2.55320    5.44060    6.02520    4.40990   64.82810  110.35060
 6531.00000    0.11050   61.73570    2.62990    0.09600    9.39670    0.00470    2.54580    5.42520    5.76920    5.06390   64.65490  109.99220
 6531.50000    0.11380   60.82990    2.61400    0.09700    9.39660    0.00490    2.54420    6.69540    8.23550    6.10040   64.56100  109.69020
 6532.00000    0.10720   58.09320    2.59810    0.09790    9.39650    0.00510    2.54270    6.10140    7.07480    6.41500   64.35790  109.38770
 6532.50000    0.09810   54.01890    2.63280    0.09370    9.39630    0.00530    2.55030    5.94210    7.11510    6.24400   64.35520  109.28050
 6533.00000    0.08760   52.12310    2.69600    0.08280    9.39630    0.00550    2.56870    7.95030   10.28350    8.08820   64.44970  109.46730
 6533.50000    0.08040   53.58360    2.75920    0.07570    9.39670    0.00570    2.58080   10.63730   13.53980   11.17670   64.47690  109.63680
 6534.00000    0.08040   60.50540    2.82350    0.07470    9.39710    0.00590    2.58180   12.25490   13.02440   11.17520   64.55060  109.95160
 6534.50000    0.09380   69.21400    2.85100    0.08410    9.39750    0.00610    2.56600   11.71820   11.97320   11.66230   64.65930  110.30400
 6535.00000    0.11030   76.13670    2.83420    0.08640    9.39790    0.00610    2.56240   11.01710   11.66550   12.47470   64.93600  110.65650
 6535.50000    0.11910   81.32870    2.80200    0.08460    9.40190    0.00610    2.56550   10.39230   11.42290   11.50150   65.33120  111.10520
 6536.00000    0.11780   80.84030    2.76730    0.08370    9.40790    0.00610    2.56700    9.97340   11.07330   11.66430   65.79790  111.95180
 6536.50000    0.11560   77.39570    2.73260    0.08400    9.41390    0.00610    2.56620    9.20080   10.51610   11.04400   66.09510  112.76950
 6537.00000    0.11900   73.21820    2.69790    0.08530    9.42000    0.00610    2.56420    8.25550    9.66590    9.66880   66.56360  113.61590
 6537.50000    0.12140   70.49830    2.67830    0.08530    9.42600    0.00610    2.56380    7.40720    8.88430    8.35380   66.85230  114.31850
 6538.00000    0.12620   68.31410    2.65440    0.09160    9.43200    0.00600    2.55330    6.64610    8.17130    7.21760   66.99350  114.86160
 6538.50000    0.13370   68.20470    2.62790    0.09690    9.43800    0.00600    2.54420    6.35750    7.54100    6.62850   67.24300  115.23090
 6539.00000    0.13770   68.62910    2.60130    0.09780    9.44400    0.00600    2.54310    6.62670    7.04930    6.16190   67.53030  115.54010
 6539.50000    0.14000   69.93350    2.57540    0.09370    9.45000    0.00600    2.54990    6.79970    7.05830    5.77350   67.75060  115.90900
 6540.00000    0.14050   70.24500    2.58530    0.09340    9.45600    0.00600    2.55030    6.85880    7.09250    6.08820   67.85020  116.21020
 6540.50000    0.13910   69.07790    2.61410    0.09930    9.46090    0.00600    2.54010    6.88740    7.12680    6.35560   67.87240  116.46200
 6541.00000    0.13740   67.76260    2.64810    0.10570    9.46560    0.00600    2.52920    6.88790    7.14230    6.62120   67.86460  116.56570
 6541.50000    0.13650   68.00960    2.65410    0.11110    9.47030    0.00590    2.52010    6.89140    7.14290    6.54340   67.66530  116.04510
 6542.00000    0.14080   69.32800    2.63100    0.11080    9.47490    0.00560    2.52070    6.90830    7.14340    6.37870   67.45130  115.35370
 6542.50000    0.14150   70.83670    2.60800    0.10270    9.47290    0.00530    2.53460    6.92510    7.14400    6.37460   67.25250  114.77590
 6543.00000    0.13660   71.24790    2.58500    0.09510    9.46890    0.00500    2.54760    6.94210    7.10380    6.44730   67.11410  114.21180
 6543.50000    0.12480   70.91220    2.59100    0.09140    9.46490    0.00470    2.55370    6.92510    7.05410    6.50790   66.98500  113.73040
 6544.00000    0.12160   69.50880    2.60670    0.09390    9.46090    0.00440    2.54940    6.87950    7.00470    6.47330   66.81730  113.38420
 6544.50000    0.11790   67.49720    2.62230    0.09760    9.45730    0.00410    2.54320    6.86910    6.99210    6.50260   66.65000  112.87350
 6545.00000    0.11730   65.44510    2.63800    0.09930    9.45420    0.00380    2.54020    6.86930    6.99230    6.56290   66.52020  112.58790
 6545.50000    0.11900   64.81580    2.59600    0.09820    9.45110    0.00350    2.54240    6.86950    6.99250    6.61350   66.46730  112.43320
 6546.00000    0.12030   64.73160    2.56780    0.08980    9.44800    0.00320    2.55660    6.86980    6.99270    6.37320   66.43680  112.24360
 6546.50000    0.12010   64.55970    2.57000    0.08400    9.44490    0.00290    2.56640    6.87000    6.99290    6.09160   66.50250  112.10100
 6547.00000    0.11600   63.42530    2.58240    0.08160    9.44020    0.00260    2.57050    6.87020    6.99320    6.37170   66.61910  111.97300
 6547.50000    0.10910   61.87590    2.61230    0.08690    9.43260    0.00230    2.56140    6.95520    7.17760    6.82260   66.75870  111.87310
 6548.00000    0.10980   63.64340    2.64720    0.09570    9.42490    0.00200    2.54620    7.73800    8.17510    7.30540   66.97570  111.83250
 6548.50000    0.11220   67.21110    2.68200    0.10040    9.41720    0.00160    2.53840    8.89720   10.31610    8.32870   67.19260  111.81280
 6549.00000    0.12160   75.57180    2.73540    0.10040    9.40960    0.00160    2.53860   13.28270   15.45940   10.50120   67.44580  111.89730
 6549.50000    0.13920   87.01350    2.81840    0.08950    9.40190    0.00190    2.55690   19.89660   25.98950   15.36600   67.75550  111.75270
 6550.00000    0.15650   99.02240    2.90150    0.08230    9.39420    0.00210    2.56930   58.19860   59.67070   27.42910   68.07900  111.88780
 6550.50000    0.15940  101.57670    2.97010    0.07760    9.38650    0.00240    2.57740   48.67830   57.22100   45.82760   68.39570  112.02290
 6551.00000    0.14160   93.57560    2.85960    0.07930    9.37890    0.00260    2.57440   32.49230   38.05860   27.31750   68.64350  112.22520
 6551.50000    0.12120   83.52680    2.70940    0.08070    9.37120    0.00280    2.57190   21.68830   25.31340   19.12460   68.74130  112.22460
 6552.00000    0.12670   79.72960    2.75470    0.08600    9.36350    0.00310    2.56270   18.41750   18.74720   16.16850   68.71670  112.20880
 6552.50000    0.13790   85.50480    2.82300    0.09530    9.35590    0.00330    2.54640   18.41600   22.20110   16.76700   68.62650  112.24670
 6553.00000    0.15890   93.30380    2.88570    0.10580    9.35360    0.00360    2.52920   34.31940   44.51390   24.46080   68.51930  112.21410
 6553.50000    0.17020   97.39360    2.83680    0.11100    9.35510    0.00380    2.52010   68.82760   73.46340   36.16700   68.39950  112.24590
 6554.00000    0.15210   86.09990    2.78790    0.11110    9.36290    0.00410    2.51990   35.56600   48.87940   25.92310   68.27230  112.30830
 6554.50000    0.13380   75.29100    2.72110    0.10790    9.36770    0.00430    2.52620   20.48140   22.09930   15.97170   68.21550  112.38760
 6555.00000    0.11840   69.57780    2.63890    0.10120    9.37110    0.00460    2.53700   17.27680   18.45290   13.93840   68.19720  112.48570
 6555.50000    0.11010   68.29550    2.63600    0.09560    9.37460    0.00480    2.54660   14.89920   15.56860   12.32240   68.13180  112.55800
