~Version ---------------------------------------------------
VERS.   2.0 : CWLS log ASCII Standard -VERSION 2.0
WRAP.    NO : One line per depth step
DLM . SPACE : Column Data Section Delimiter
~Well ------------------------------------------------------
STRT .F                  200.0 : START DEPTH
STOP .F                 9803.0 : STOP DEPTH
STEP .F                    0.5 : STEP
NULL .                -9999.25 : NULL VALUE
COMP .                         : COMPANY
WELL .                         : WELL
FLD  .                         : FIELD
LOC  .                         : LOCATION
PROV .                         : PROVINCE
CNTY .                         : COUNTY
STAT .                         : STATE
CTRY .                         : COUNTRY
SRVC .                         : SERVICE COMPANY
DATE .                         : DATE
UWI  .                         : UNIQUE WELL ID
API  .                         : API NUMBER
SLAT .WGS84 2.2541198811984984 : SURFACE LATITUDE
SLON .WGS84  8.299205892898016 : SURFACE LONGITUDE
DATUM.F                    nan : DEPTH DATUM ELEV
~Curve Information -----------------------------------------
DEPT   .F     : 1 MEASURED DEPTH
TNPH_LS.DEC   : THERMAL NEUTRON POROSITY [LIMESTONE]
HSGRD  .GAPI  : HNGS STANDARD GAMMA RAY FROM DENSITY LOG
PEFZ   .B/E   : HRDD STANDARD RESOLUTION FORMATION PHOTOELECTRIC FACTOR
DPHZ_LS.DEC   : HGRD STANDARD RESOLUTION DENSITY POROSITY
HCALD  .IN    : HRCC CALIPER CALIBRATED FROM DENSITY LOG
HDRA   .G/C3  : HRDD SPINE AND RIBS DENSITY CORRECTION
RHOZ   .G/C3  : HRDD STANDARD RESOLUTION FORMATION DENSITY
RLA3   .OHMM  : APPARENT RESISTIVITY FROM COMPUTED FOCUSING MODE 3
RLA5   .OHMM  : APPARENT RESISTIVITY FROM COMPUTED FOCUSING MODE 5
RXOZ   .OHMM  : INVADED FORMATION RESISTIVITY FILTERED AT 18 INCHES
DTCO   .US/F  : DELTA-T COMPRESSIONAL
DTSM   .US/F  : DELTA-T SHEAR
~Params ----------------------------------------------------
~Other -----------------------------------------------------
~ASCII -----------------------------------------------------
# ...
 7956.00000    0.08090   54.65540    2.43690    0.09230    9.18610    0.00920    2.55070    6.08560    5.87850    6.11960   63.88930  108.33810
 7956.50000    0.08190   54.02320    2.44690    0.09330    9.18720    0.00950    2.55000    6.18140    6.01950    6.74370   64.06470  108.72620
 7957.00000    0.08050   54.28460    2.45700    0.09300    9.18830    0.00980    2.55180    6.48040    6.30810    7.28790   64.20850  109.23760
 7957.50000    0.07960   54.60010    2.46700    0.09260    9.18940    0.00910    2.55170    6.57410    6.39700    7.22380   64.28070  109.46750
 7958.00000    0.08770   54.95620    2.46170    0.09260    9.19050    0.00840    2.54870    6.29270    6.12670    6.70720   64.36670  109.61820
 7958.50000    0.08900   55.43850    2.44860    0.09480    9.19160    0.00780    2.54280    6.00710    5.84100    6.22420   64.44060  109.74000
 7959.00000    0.09150   56.55040    2.43560    0.10080    9.19270    0.00710    2.53690    5.87890    5.72730    6.07170   64.45030  109.78290
 7959.50000    0.09430   58.15620    2.42250    0.10370    9.19380    0.00640    2.53470    6.07130    5.67890    6.04360   64.45270  109.77170
 7960.00000    0.09710   60.56820    2.40940    0.10010    9.19490    0.00570    2.54060    7.15290    6.54540    7.22140   64.46180  109.72460
 7960.50000    0.09740   63.77370    2.39630    0.09360    9.19600    0.00500    2.55200    8.42720    7.83730    8.98040   64.45050  109.73230
 7961.00000    0.09620   64.71460    2.38180    0.08690    9.19710    0.00440    2.56340    9.01590    8.60000    9.71630   64.38550  109.76980
 7961.50000    0.09300   62.89940    2.36270    0.08320    9.19820    0.00370    2.57050    8.72780    8.35130    9.65110   64.35520  109.73010
 7962.00000    0.08980   61.25690    2.36530    0.08660    9.19930    0.00350    2.56220    7.68390    7.30570    7.87600   64.33770  109.47910
 7962.50000    0.08660   59.86380    2.38630    0.09360    9.20040    0.00360    2.55010    6.76480    6.38700    7.11110   64.35180  109.45570
 7963.00000    0.08450   59.78870    2.40730    0.09970    9.20340    0.00380    2.53970    6.28970    6.11180    6.36700   64.39570  109.49810
 7963.50000    0.08720   59.14240    2.42440    0.10190    9.20670    0.00390    2.53580    6.32760    6.18790    6.63090   64.44050  109.55850
 7964.00000    0.09090   58.54860    2.41110    0.10030    9.21000    0.00410    2.53860    6.56000    6.38270    7.11220   64.45790  109.53960
 7964.50000    0.09460   58.38010    2.39980    0.09760    9.21330    0.00430    2.54320    6.85050    6.63830    7.33200   64.42160  109.45370
 7965.00000    0.09550   58.39830    2.38840    0.09640    9.21660    0.00440    2.54510    6.98480    6.88560    7.34760   64.22100  109.13770
 7965.50000    0.09490   58.38280    2.37700    0.09710    9.21990    0.00460    2.54400    6.84680    6.70670    7.26250   63.94540  108.41280
 7966.00000    0.09150   58.49110    2.38950    0.09800    9.22320    0.00470    2.54250    6.59960    6.43800    7.03950   63.48390  107.51960
 7966.50000    0.08810   59.23960    2.41690    0.09740    9.22650    0.00490    2.54350    6.45200    6.25580    6.77490   63.09460  106.66000
 7967.00000    0.08470   59.64780    2.43330    0.09530    9.22980    0.00500    2.54700    7.15560    6.59070    7.01800   62.86690  106.11450
 7967.50000    0.08070   59.31520    2.44230    0.09000    9.23310    0.00520    2.55600    8.92180    7.28500    7.83300   62.60540  105.61940
 7968.00000    0.07190   56.41770    2.50060    0.07830    9.23640    0.00530    2.57960   11.12400    8.40710    9.56520   62.51210  105.49630
 7968.50000    0.06450   52.89780    2.55890    0.07120    9.23970    0.00550    2.59320   13.40160   11.07160   12.55860   62.53830  105.44200
 7969.00000    0.05890   52.10220    2.60770    0.07880    9.24200    0.00570    2.57550   13.85040   12.69180   14.53070   62.56450  105.46910
 7969.50000    0.06410   54.50730    2.61390    0.08450    9.23920    0.00580    2.56580   10.73630    9.73760   12.32290   62.67350  105.70780
 7970.00000    0.07660   59.05470    2.55460    0.08570    9.23650    0.00600    2.56350    8.32240    8.92470    9.35630   62.87830  106.16010
 7970.50000    0.08270   63.43530    2.49230    0.08700    9.23370    0.00610    2.56130    7.33490    8.86780    9.85650   63.12640  106.70580
 7971.00000    0.08510   63.16530    2.43460    0.08970    9.23090    0.00630    2.55670    7.15210    8.58860    9.39710   63.37850  107.11790
 7971.50000    0.08760   60.84420    2.42690    0.09150    9.22810    0.00640    2.55360    7.07050    7.73330    8.29410   63.59970  107.60660
 7972.00000    0.08760   57.96280    2.41050    0.09140    9.22540    0.00830    2.55380    7.03300    6.88910    7.36700   63.64780  107.60210
 7972.50000    0.08630   57.46540    2.39800    0.09020    9.22260    0.01040    2.55580    7.03300    6.76130    7.27020   63.63370  107.54010
 7973.00000    0.08490   59.85970    2.39310    0.08880    9.21980    0.00900    2.55810    7.52040    6.80670    7.23840   63.59410  107.33870
 7973.50000    0.08660   63.96040    2.43500    0.08390    9.21700    0.00770    2.56660    9.10960    7.18840    7.39190   63.64340  107.20420
 7974.00000    0.09140   68.92510    2.47700    0.07520    9.21420    0.00630    2.58200   11.84580    8.73760    9.56190   63.59490  107.02920
 7974.50000    0.09490   72.78060    2.51900    0.06620    9.21150    0.00580    2.59680   15.51470   12.50020   13.74360   63.59030  106.90440
 7975.00000    0.09830   72.58870    2.51730    0.06670    9.20870    0.00480    2.59590   13.97790   16.52400   19.84500   63.58780  106.86770
 7975.50000    0.09940   68.41650    2.50420    0.07310    9.20590    0.00480    2.58510   10.87140   12.84100   12.93080   63.64170  106.79460
 7976.00000    0.09590   61.65190    2.47530    0.08220    9.20310    0.00490    2.56960    8.59640    7.69650    9.97040   63.69750  106.78730
 7976.50000    0.09150   58.28660    2.44630    0.08660    9.19990    0.00490    2.56190    7.16220    7.06970    7.77730   63.77170  106.73250
 7977.00000    0.09090   58.05800    2.43450    0.08220    9.19650    0.00520    2.56940    6.99580    6.83310    7.30190   63.76410  106.59020
 7977.50000    0.09210   58.65430    2.44940    0.07890    9.19300    0.00540    2.57510    7.23240    6.88810    7.84170   63.60510  106.33470
 7978.00000    0.09290   57.63480    2.45300    0.07700    9.18950    0.00570    2.57840    7.44350    7.08420    8.91960   63.28930  105.83730
 7978.50000    0.09210   56.06900    2.44350    0.08590    9.18600    0.00580    2.56320    7.12240    6.85340    8.41130   62.88010  105.34190
 7979.00000    0.08770   54.29150    2.46500    0.09340    9.18260    0.00590    2.55020    6.60370    6.42030    7.20850   62.55530  104.87780
 7979.50000    0.08320   53.55360    2.48720    0.09270    9.17910    0.00590    2.55160    6.51570    6.35430    6.87390   62.26170  104.51040
 7980.00000    0.07570   52.99500    2.50940    0.08660    9.17560    0.00590    2.56190    7.26340    6.98110    8.17390   62.10140  104.14290
 7980.50000    0.06830   51.71680    2.51750    0.07840    9.17220    0.00590    2.57570    8.55640    7.98000   10.32120   62.01110  103.80490
 7981.00000    0.06090   48.60570    2.52710    0.07230    9.16870    0.00590    2.58230    9.42350    9.12170    9.87420   61.94530  103.80490
 7981.50000    0.05340   45.60350    2.56050    0.07150    9.16520    0.00600    2.58240   10.20720   10.01940   12.40850   62.02040  103.80490
 7982.00000    0.04890   45.05220    2.59380    0.07820    9.16170    0.00600    2.57620    9.74130   10.07240   12.59360   62.14130  103.89930
 7982.50000    0.05600   46.21940    2.61970    0.08570    9.15830    0.00600    2.56340    8.16280    6.16740    8.44950   62.35130  104.26910
 7983.00000    0.06390   48.28530    2.60080    0.08800    9.15480    0.00600    2.55950    6.84010    5.65930    6.13590   62.66270  104.73110
 7983.50000    0.07040   51.20990    2.60180    0.08670    9.15130    0.00610    2.56170    6.63850    5.70160    6.25150   62.85570  104.83140
