~Version ---------------------------------------------------
VERS.   2.0 : CWLS log ASCII Standard -VERSION 2.0
WRAP.    NO : One line per depth step
DLM . SPACE : Column Data Section Delimiter
~Well ------------------------------------------------------
STRT .F                  200.0 : START DEPTH
STOP .F                 9803.0 : STOP DEPTH
STEP .F                    0.5 : STEP
NULL .                -9999.25 : NULL VALUE
COMP .                         : COMPANY
WELL .                         : WELL
FLD  .                         : FIELD
LOC  .                         : LOCATION
PROV .                         : PROVINCE
CNTY .                         : COUNTY
STAT .                         : STATE
CTRY .                         : COUNTRY
SRVC .                         : SERVICE COMPANY
DATE .                         : DATE
UWI  .                         : UNIQUE WELL ID
API  .                         : API NUMBER
SLAT .WGS84 2.2541198811984984 : SURFACE LATITUDE
SLON .WGS84  8.299205892898016 : SURFACE LONGITUDE
DATUM.F                    nan : DEPTH DATUM ELEV
~Curve Information -----------------------------------------
DEPT   .F     : 1 MEASURED DEPTH
TNPH_LS.DEC   : THERMAL NEUTRON POROSITY [LIMESTONE]
HSGRD  .GAPI  : HNGS STANDARD GAMMA RAY FROM DENSITY LOG
PEFZ   .B/E   : HRDD STANDARD RESOLUTION FORMATION PHOTOELECTRIC FACTOR
DPHZ_LS.DEC   : HGRD STANDARD RESOLUTION DENSITY POROSITY
HCALD  .IN    : HRCC CALIPER CALIBRATED FROM DENSITY LOG
HDRA   .G/C3  : HRDD SPINE AND RIBS DENSITY CORRECTION
RHOZ   .G/C3  : HRDD STANDARD RESOLUTION FORMATION DENSITY
RLA3   .OHMM  : APPARENT RESISTIVITY FROM COMPUTED FOCUSING MODE 3
RLA5   .OHMM  : APPARENT RESISTIVITY FROM COMPUTED FOCUSING MODE 5
RXOZ   .OHMM  : INVADED FORMATION RESISTIVITY FILTERED AT 18 INCHES
DTCO   .US/F  : DELTA-T COMPRESSIONAL
DTSM   .US/F  : DELTA-T SHEAR
~Params ----------------------------------------------------
~Other -----------------------------------------------------
~ASCII -----------------------------------------------------
# ...
 5800.00000    0.16370   65.35330    2.71980    0.11850    9.98420    0.01390    2.50730    3.85450    3.70910    4.33620   70.85670  126.84140
 5800.50000    0.17390   74.04060    2.71540    0.11490    9.96500    0.01380    2.51390    3.86500    3.49620    4.13430   70.25260  125.66810
 5801.00000    0.17620   79.76140    2.71950    0.10320    9.94580    0.01270    2.53340    5.08660    4.41480    4.93280   69.99820  124.86930
 5801.50000    0.16740   85.44640    2.76720    0.09030    9.92650    0.01140    2.55530    6.69410    5.80920    6.51660   69.61720  124.11590
 5802.00000    0.15690   89.75160    2.81720    0.07870    9.90730    0.01020    2.57500    8.52620    7.64410    8.60880   69.20560  123.34250
 5802.50000    0.14800   90.59310    2.86720    0.07500    9.88430    0.00870    2.58180    8.52620    8.32200    9.57710   68.80440  122.61590
 5803.00000    0.13950   86.64680    2.90600    0.07900    9.85740    0.00700    2.57510    8.48510    8.28000    9.29090   68.38230  121.58210
 5803.50000    0.13230   81.55530    2.93590    0.08780    9.83050    0.00540    2.56030    8.43270    8.23080    8.98880   67.93530  120.74170
 5804.00000    0.12810   78.57050    2.96580    0.08980    9.80360    0.00370    2.55640    8.78490    8.26490    8.86610   67.61190  119.99820
 5804.50000    0.12940   76.90310    2.99580    0.08110    9.77670    0.00210    2.57080   10.07830    9.05920    9.89950   67.41530  119.35460
 5805.00000    0.13050   75.53920    2.97020    0.07340    9.74980    0.00230    2.58430   11.56220    9.70540   11.21170   67.17270  118.84410
 5805.50000    0.12630   74.59290    2.95740    0.07010    9.74310    0.00370    2.59020   11.61160    9.96720   12.18300   66.92270  118.29170
 5806.00000    0.12080   74.57140    2.94210    0.06790    9.73840    0.00510    2.59390   11.61290    9.94610   11.90300   66.71450  117.82730
 5806.50000    0.12180   75.40660    2.93400    0.06490    9.73370    0.00650    2.59900   11.03580   10.16850   11.89970   66.52380  117.38060
 5807.00000    0.12710   75.72800    2.93920    0.06230    9.72900    0.00770    2.60360   10.45530    9.93110   12.34560   66.43990  117.15500
 5807.50000    0.12550   71.31330    2.94450    0.06400    9.71710    0.00760    2.60070    9.90540    9.45300   12.01270   66.39150  116.91700
 5808.00000    0.10820   65.01830    2.95080    0.06770    9.70450    0.00760    2.59450    9.45320    8.99800   11.01880   66.49760  117.06870
 5808.50000    0.09400   59.40400    2.96730    0.06850    9.69190    0.00750    2.59300    9.02490    8.65260   10.45680   66.58290  117.22400
 5809.00000    0.09400   59.84900    2.98380    0.06660    9.67920    0.00740    2.59610    8.85650    8.59580   10.09810   66.65520  117.42390
 5809.50000    0.10010   66.85350    3.00020    0.06470    9.66660    0.00730    2.59940    9.39970    8.66100   10.01940   66.69160  117.65860
 5810.00000    0.11530   78.18590    3.01670    0.06480    9.65400    0.00720    2.59930   10.15380    9.34710   10.21490   66.80790  117.96640
 5810.50000    0.12920   84.87470    3.02860    0.06350    9.66900    0.00710    2.60140   10.96840    9.88510   11.57000   66.92920  118.32090
 5811.00000    0.13960   86.48980    3.02290    0.05970    9.68770    0.00700    2.60800   11.41740    9.98610   13.20170   67.01380  118.51700
 5811.50000    0.13480   83.75440    3.01730    0.06060    9.70340    0.00690    2.60660   11.52890    9.90770   12.54040   67.15830  118.87430
 5812.00000    0.12390   77.71970    3.01170    0.06590    9.71870    0.00680    2.59750   10.56300    9.63990   11.49170   67.29820  119.23370
 5812.50000    0.11080   71.79700    3.00600    0.07010    9.73400    0.00670    2.59010    9.97660    9.36650   11.27520   67.46100  119.57180
 5813.00000    0.10820   69.84480    2.98010    0.06720    9.74920    0.00660    2.59520    9.42270    9.03070   11.04770   67.65120  119.94410
 5813.50000    0.10790   72.27330    2.93800    0.05940    9.76450    0.00650    2.60840    8.96910    8.74380   10.13940   67.69700  120.05830
 5814.00000    0.11870   74.88980    2.89590    0.05600    9.76160    0.00640    2.61420    8.82880    8.57900    9.19260   67.80660  120.22880
 5814.50000    0.13030   76.87250    2.87870    0.06240    9.75810    0.00630    2.60350    8.36680    8.04260    8.87870   67.93290  120.39930
 5815.00000    0.13530   76.49860    2.88870    0.07290    9.75470    0.00620    2.58610    7.86290    7.58200    8.87730   68.06670  120.62330
 5815.50000    0.13090   73.78030    2.89870    0.08140    9.75340    0.00610    2.57120    7.77230    7.54000    8.87590   68.17650  120.71930
 5816.00000    0.12420   71.47800    2.91500    0.08260    9.75900    0.00610    2.56880    8.06760    7.73890    8.87450   68.30460  120.73920
 5816.50000    0.12460   71.11120    2.89850    0.07920    9.75810    0.00600    2.57460    8.40850    7.95890    8.89780   68.46150  120.82630
 5817.00000    0.13260   75.56070    2.84890    0.07390    9.75640    0.00590    2.58360    8.76370    8.15480    9.03660   68.66550  121.04070
 5817.50000    0.14440   80.82230    2.79520    0.07300    9.76080    0.00580    2.58510    8.52860    7.83100    9.32690   68.90790  121.64350
 5818.00000    0.14920   84.84440    2.79290    0.08090    9.76520    0.00570    2.57190    7.71470    6.70600    9.68650   69.16870  122.97060
 5818.50000    0.15270   81.36630    2.77750    0.09380    9.76950    0.00560    2.54890    5.90050    5.12870    7.96600   69.44450  125.60070
 5819.00000    0.15620   74.32430    2.75740    0.10980    9.77390    0.00550    2.52360    4.51290    3.92240    5.67950   70.59880  128.80010
 5819.50000    0.15930   68.01650    2.73740    0.12420    9.77830    0.00540    2.49810    3.49610    3.18690    4.01240   71.07580  131.19090
 5820.00000    0.15700   63.67380    2.71340    0.12910    9.78260    0.00530    2.48940    2.94030    2.67950    3.21430   71.92290  134.17110
 5820.50000    0.15100   61.20200    2.68180    0.12690    9.79310    0.00520    2.49310    2.88640    2.53310    3.30130   72.50700  136.05520
 5821.00000    0.14970   60.13370    2.65020    0.12380    9.81230    0.00510    2.49860    3.11310    3.03640    4.29100   72.68680  137.09110
 5821.50000    0.15390   59.87670    2.61860    0.13320    9.83140    0.00500    2.48260    3.07710    2.54580    4.27880   73.17550  138.81700
 5822.00000    0.17430   59.31450    2.54760    0.15110    9.85940    0.00490    2.45220    2.09150    1.98780    2.98750   74.20520  141.50500
 5822.50000    0.18680   58.48040    2.48010    0.16700    9.90650    0.00490    2.42470    1.91830    1.82350    2.51740   74.96190  143.57960
 5823.00000    0.19210   57.23580    2.43320    0.16960    9.95350    0.00500    2.41980    1.83390    1.71760    2.46610   76.08000  146.98980
 5823.50000    0.19530   55.64160    2.40620    0.17130   10.00060    0.00520    2.41710    2.02990    1.90700    2.57880   77.24890  150.28260
 5824.00000    0.20010   53.60780    2.39630    0.18320   10.04770    0.00530    2.39700    2.08660    1.90030    2.75230   78.10820  152.67140
 5824.50000    0.20920   51.66910    2.38640    0.20520   10.09470    0.00540    2.35850    1.91340    1.69130    2.80430   78.75600  154.65530
 5825.00000    0.21840   50.09320    2.37650    0.22020   10.14180    0.00560    2.33000    1.71340    1.54760    2.58880   79.21760  155.74550
 5825.50000    0.22640   49.26370    2.36760    0.22200   10.19000    0.00570    2.32950    1.54770    1.44230    2.50890   79.85990  157.08540
 5826.00000    0.22850   49.77520    2.36010    0.22190   10.23360    0.00590    2.33100    1.53850    1.41850    2.43260   80.04190  157.93790
 5826.50000    0.22960   49.96770    2.35260    0.22340   10.27720    0.00600    2.32370    1.52950    1.39670    2.42190   80.08940  158.20640
 5827.00000    0.23110   49.16200    2.34510    0.22450   10.30030    0.00620    2.33140    1.51550    1.37530    2.41440   79.95220  158.24560
 5827.50000    0.23410   48.22090    2.34210    0.22040   10.31350    0.00630    2.34520    1.49790    1.37420    2.38710   79.83070  158.33780
