~Version ---------------------------------------------------
VERS.   2.0 : CWLS log ASCII Standard -VERSION 2.0
WRAP.    NO : One line per depth step
DLM . SPACE : Column Data Section Delimiter
~Well ------------------------------------------------------
STRT .F                  200.0 : START DEPTH
STOP .F                 9803.0 : STOP DEPTH
STEP .F                    0.5 : STEP
NULL .                -9999.25 : NULL VALUE
COMP .                         : COMPANY
WELL .                         : WELL
FLD  .                         : FIELD
LOC  .                         : LOCATION
PROV .                         : PROVINCE
CNTY .                         : COUNTY
STAT .                         : STATE
CTRY .                         : COUNTRY
SRVC .                         : SERVICE COMPANY
DATE .                         : DATE
UWI  .                         : UNIQUE WELL ID
API  .                         : API NUMBER
SLAT .WGS84 2.2541198811984984 : SURFACE LATITUDE
SLON .WGS84  8.299205892898016 : SURFACE LONGITUDE
DATUM.F                    nan : DEPTH DATUM ELEV
~Curve Information -----------------------------------------
DEPT   .F     : 1 MEASURED DEPTH
TNPH_LS.DEC   : THERMAL NEUTRON POROSITY [LIMESTONE]
HSGRD  .GAPI  : HNGS STANDARD GAMMA RAY FROM DENSITY LOG
PEFZ   .B/E   : HRDD STANDARD RESOLUTION FORMATION PHOTOELECTRIC FACTOR
DPHZ_LS.DEC   : HGRD STANDARD RESOLUTION DENSITY POROSITY
HCALD  .IN    : HRCC CALIPER CALIBRATED FROM DENSITY LOG
HDRA   .G/C3  : HRDD SPINE AND RIBS DENSITY CORRECTION
RHOZ   .G/C3  : HRDD STANDARD RESOLUTION FORMATION DENSITY
RLA3   .OHMM  : APPARENT RESISTIVITY FROM COMPUTED FOCUSING MODE 3
RLA5   .OHMM  : APPARENT RESISTIVITY FROM COMPUTED FOCUSING MODE 5
RXOZ   .OHMM  : INVADED FORMATION RESISTIVITY FILTERED AT 18 INCHES
DTCO   .US/F  : DELTA-T COMPRESSIONAL
DTSM   .US/F  : DELTA-T SHEAR
~Params ----------------------------------------------------
~Other -----------------------------------------------------
~ASCII -----------------------------------------------------
# ...
 4708.00000    0.18130   65.30390    2.47070    0.17120   10.19520    0.00350    2.41710    2.90620    2.70430    3.49510   77.91220  144.14790
 4708.50000    0.18570   60.06990    2.44650    0.18040   10.17710    0.00480    2.40140    2.46360    2.07410    3.29570   77.98980  143.88240
 4709.00000    0.19060   56.80680    2.42230    0.18230   10.15910    0.00610    2.39810    2.14740    2.06180    2.71660   77.73240  143.06000
 4709.50000    0.19560   54.47460    2.41470    0.18030   10.14110    0.00750    2.40170    2.24370    2.16310    2.69610   77.53530  142.33020
 4710.00000    0.19900   54.85450    2.42200    0.17320   10.11900    0.00880    2.41360    2.36030    2.27840    2.80000   77.18530  141.60400
 4710.50000    0.19670   55.97130    2.43510    0.16800   10.06740    0.01010    2.42300    2.48300    2.39660    2.97060   76.79340  140.59280
 4711.00000    0.19090   59.73530    2.47300    0.15420   10.01580    0.01140    2.44620    2.81230    2.62220    3.36770   76.33410  139.72230
 4711.50000    0.18190   63.20580    2.49520    0.14360    9.96420    0.01270    2.46440    3.19760    2.98120    4.04080   75.72130  138.75440
 4712.00000    0.17970   64.37780    2.51750    0.14280    9.92860    0.00960    2.46490    3.41660    3.30860    4.64060   74.86700  136.39650
 4712.50000    0.17710   59.22070    2.53970    0.15510    9.90510    0.00600    2.44440    3.41660    2.94920    4.14700   73.76500  134.34550
 4713.00000    0.17080   51.01630    2.55340    0.16080    9.88160    0.00500    2.43500    2.47030    2.25610    3.48550   73.11290  132.94310
 4713.50000    0.14860   45.70010    2.58220    0.13840    9.85810    0.00500    2.47360    3.44490    2.61190    3.90040   72.48820  131.77720
 4714.00000    0.12560   45.69940    2.64440    0.11780    9.83460    0.00500    2.50870    4.39880    4.03430    7.03940   72.21990  131.07020
 4714.50000    0.11810   46.56510    2.70660    0.11210    9.81110    0.00500    2.51830    4.93150    4.14200    9.50520   72.05230  130.65140
 4715.00000    0.13050   51.76600    2.72030    0.12420    9.78750    0.00500    2.49750    4.18360    3.75190    5.72280   71.92560  130.41280
 4715.50000    0.14650   61.51500    2.73310    0.12650    9.76400    0.00500    2.49460    3.49700    3.29490    4.64420   71.93420  130.28020
 4716.00000    0.16330   72.41750    2.85170    0.10850    9.74050    0.00500    2.52470    4.55420    3.71720    5.64000   72.04680  130.43190
 4716.50000    0.18020   84.88190    2.98810    0.07090    9.71900    0.00500    2.59050    8.55920    6.20540    8.49480   72.26700  130.53660
 4717.00000    0.18610   91.42380    3.10130    0.05130    9.73070    0.00500    2.62210   10.11010    9.81950   13.25110   72.40620  130.72260
 4717.50000    0.17880   90.90630    3.22760    0.05250    9.74250    0.00500    2.61980    9.89460    9.13080   11.46800   72.54480  130.90970
 4718.00000    0.17350   89.38540    3.24690    0.06340    9.75420    0.00500    2.60140    8.79800    8.50080    9.92230   72.63850  131.09730
 4718.50000    0.17050   89.68180    3.24700    0.06820    9.76590    0.00530    2.59340    9.05680    8.81470    9.92230   72.80750  131.33680
 4719.00000    0.16800   90.31670    3.24710    0.07010    9.78030    0.00570    2.59040    8.84700    8.56670    9.83210   73.06190  131.57940
 4719.50000    0.16530   87.60580    3.15220    0.07760    9.82210    0.00610    2.57730    8.16530    7.68430    8.53530   73.28200  132.11930
 4720.00000    0.16350   83.74150    3.01820    0.08540    9.86380    0.00660    2.56380    7.32330    6.89290    7.21940   73.84090  132.89800
 4720.50000    0.16350   81.04320    2.92850    0.09030    9.90560    0.00650    2.55550    6.56810    6.18300    6.71390   74.41150  133.84760
 4721.00000    0.16760   79.39400    2.84690    0.09540    9.94730    0.00640    2.54730    5.89070    5.51720    6.34690   74.87700  134.73480
 4721.50000    0.17030   76.39460    2.79630    0.10650    9.98910    0.00630    2.52760    5.21020    4.86780    6.03510   75.38580  135.47830
 4722.00000    0.17240   72.60900    2.74570    0.11720   10.00600    0.00610    2.50940    4.59650    4.29480    5.15200   75.67060  135.80200
 4722.50000    0.17280   69.16860    2.69510    0.12400    9.99920    0.00600    2.49770    4.05520    3.78520    4.29470   75.69380  135.75660
 4723.00000    0.17730   65.30650    2.68270    0.13320    9.99250    0.00590    2.48230    3.54240    3.28360    3.73160   75.26750  134.83030
 4723.50000    0.18210   61.61470    2.68090    0.14380    9.94280    0.00580    2.46420    3.07280    2.84840    3.32010   74.36860  133.37520
 4724.00000    0.18240   58.59290    2.67910    0.14610    9.86760    0.00570    2.46010    2.70590    2.64000    2.95450   73.33610  132.14600
 4724.50000    0.16160   55.29540    2.68690    0.13260    9.79230    0.00560    2.48270    3.16490    2.82610    3.02610   72.16370  130.39560
 4725.00000    0.13270   52.86120    2.75800    0.11510    9.74140    0.00550    2.51330    4.51490    3.51130    3.71550   71.12260  128.99100
 4725.50000    0.09900   50.42690    2.92720    0.09750    9.71200    0.00540    2.54330    7.48900    5.78350    6.81740   70.52970  127.41270
 4726.00000    0.08450   48.32080    3.02890    0.07980    9.68270    0.00520    2.57300   12.51130    9.51860   11.84820   69.89480  126.47370
 4726.50000    0.07910   48.80090    3.02370    0.07450    9.67930    0.00510    2.58260   12.55620   10.42610   16.49190   69.72480  125.95640
 4727.00000    0.09640   58.76110    3.01490    0.07220    9.67930    0.00500    2.58640    8.30790    6.39750   10.87800   69.76470  125.55230
 4727.50000    0.12840   70.30040    3.04860    0.07480    9.69390    0.00490    2.58220    7.37140    6.24260   10.02850   70.01020  126.11220
 4728.00000    0.16530   79.94260    3.07520    0.07140    9.72560    0.00480    2.58780    9.21250    8.81220   10.12820   70.80310  127.54050
 4728.50000    0.17640   87.74950    3.07540    0.07430    9.75730    0.00470    2.58290    8.86300    8.47080   13.60320   71.62680  129.32030
 4729.00000    0.17700   88.60980    3.07550    0.08500    9.78910    0.00460    2.56570    7.95680    6.74300    9.01760   72.28170  130.84280
 4729.50000    0.17140   86.43120    2.93680    0.10180    9.82080    0.00440    2.53610    5.76920    4.88930    6.97650   72.79360  132.51590
 4730.00000    0.17110   81.45920    2.83080    0.11920    9.85260    0.00430    2.50630    4.18300    3.73160    5.39740   73.28110  133.90650
 4730.50000    0.17540   75.78290    2.77060    0.13610    9.88430    0.00420    2.47730    3.52210    3.28860    4.18430   73.71940  135.14790
 4731.00000    0.18220   72.97210    2.69590    0.14410    9.91600    0.00410    2.46370    3.10370    2.89820    3.59810   73.99440  136.44660
 4731.50000    0.18660   72.03770    2.62120    0.14270    9.94780    0.00400    2.46590    2.81100    2.73780    3.24070   74.43480  137.85320
 4732.00000    0.18670   72.26560    2.54650    0.14220    9.97950    0.00390    2.46680    2.86920    2.79460    3.11110   74.65040  138.66420
 4732.50000    0.18480   71.75860    2.50430    0.14970   10.03110    0.00360    2.45400    2.81390    2.68010    3.06740   74.92290  139.54200
 4733.00000    0.18160   68.73200    2.48350    0.15530   10.09130    0.00300    2.44430    2.51980    2.34400    2.96260   75.20880  140.59070
 4733.50000    0.17970   64.85420    2.46270    0.16080   10.15150    0.00250    2.43500    2.20410    2.05010    2.68700   75.71370  142.31230
 4734.00000    0.18030   61.13240    2.44190    0.17380   10.21170    0.00250    2.41300    1.92790    1.79300    2.48590   76.23490  143.78460
 4734.50000    0.18000   57.96990    2.44150    0.18850   10.27190    0.00270    2.38780    1.78520    1.74030    2.48770   76.83560  145.92650
 4735.00000    0.17640   52.98660    2.46760    0.19410   10.33380    0.00300    2.37790    1.90890    1.80760    2.47560   78.06510  149.19950
 4735.50000    0.16660   47.85580    2.47710    0.18680   10.39390    0.00320    2.39020    2.15030    1.98880    2.45630   79.10690  151.72950
