~Version ---------------------------------------------------
VERS.   2.0 : CWLS log ASCII Standard -VERSION 2.0
WRAP.    NO : One line per depth step
DLM . SPACE : Column Data Section Delimiter
~Well ------------------------------------------------------
STRT .F                  200.0 : START DEPTH
STOP .F                 9803.0 : STOP DEPTH
STEP .F                    0.5 : STEP
NULL .                -9999.25 : NULL VALUE
COMP .                         : COMPANY
WELL .                         : WELL
FLD  .                         : FIELD
LOC  .                         : LOCATION
PROV .                         : PROVINCE
CNTY .                         : COUNTY
STAT .                         : STATE
CTRY .                         : COUNTRY
SRVC .                         : SERVICE COMPANY
DATE .                         : DATE
UWI  .                         : UNIQUE WELL ID
API  .                         : API NUMBER
SLAT .WGS84 2.2541198811984984 : SURFACE LATITUDE
SLON .WGS84  8.299205892898016 : SURFACE LONGITUDE
DATUM.F                    nan : DEPTH DATUM ELEV
~Curve Information -----------------------------------------
DEPT   .F     : 1 MEASURED DEPTH
TNPH_LS.DEC   : THERMAL NEUTRON POROSITY [LIMESTONE]
HSGRD  .GAPI  : HNGS STANDARD GAMMA RAY FROM DENSITY LOG
PEFZ   .B/E   : HRDD STANDARD RESOLUTION FORMATION PHOTOELECTRIC FACTOR
DPHZ_LS.DEC   : HGRD STANDARD RESOLUTION DENSITY POROSITY
HCALD  .IN    : HRCC CALIPER CALIBRATED FROM DENSITY LOG
HDRA   .G/C3  : HRDD SPINE AND RIBS DENSITY CORRECTION
RHOZ   .G/C3  : HRDD STANDARD RESOLUTION FORMATION DENSITY
RLA3   .OHMM  : APPARENT RESISTIVITY FROM COMPUTED FOCUSING MODE 3
RLA5   .OHMM  : APPARENT RESISTIVITY FROM COMPUTED FOCUSING MODE 5
RXOZ   .OHMM  : INVADED FORMATION RESISTIVITY FILTERED AT 18 INCHES
DTCO   .US/F  : DELTA-T COMPRESSIONAL
DTSM   .US/F  : DELTA-T SHEAR
~Params ----------------------------------------------------
~Other -----------------------------------------------------
~ASCII -----------------------------------------------------
# ...
 6892.00000    0.06700   41.84070    2.61840    0.07800    9.43650    0.00790    2.57660    4.68290    5.64740    8.93630   64.24550  111.38950
 6892.50000    0.08140   41.95110    2.56400    0.09490    9.45410    0.00780    2.54760    3.52660    4.05500    6.30480   64.98900  112.85980
 6893.00000    0.09520   41.95280    2.49130    0.11210    9.46180    0.00760    2.51830    2.92860    3.26000    4.60870   66.09140  115.35820
 6893.50000    0.10640   41.79170    2.41850    0.12930    9.46940    0.00730    2.48890    2.70690    2.76540    3.96610   67.08100  117.59630
 6894.00000    0.11760   40.83680    2.34570    0.14640    9.47710    0.00710    2.45950    2.61060    2.61270    3.75180   68.05380  119.44960
 6894.50000    0.12590   40.53790    2.31200    0.14940    9.47190    0.00690    2.45450    2.51770    2.61270    3.68610   68.66190  120.99080
 6895.00000    0.12870   40.88040    2.34090    0.14820    9.46920    0.00660    2.45660    2.46090    2.60380    3.74080   68.89610  121.96450
 6895.50000    0.12960   41.55620    2.35590    0.14810    9.46920    0.00640    2.45660    2.38190    2.38910    3.64080   68.91060  122.29130
 6896.00000    0.13210   42.77280    2.35600    0.15150    9.46920    0.00620    2.45090    2.27450    2.19260    3.48400   68.91300  122.39950
 6896.50000    0.13550   43.73710    2.33250    0.15510    9.46850    0.00590    2.44470    2.16200    2.05500    3.34460   68.92190  122.50780
 6897.00000    0.13790   43.08470    2.30400    0.15660    9.45930    0.00570    2.44220    2.12610    1.98870    3.33090   69.06100  122.85760
 6897.50000    0.13540   41.54410    2.30530    0.15080    9.43900    0.00540    2.45220    2.26370    2.04300    3.36320   69.18710  123.11540
 6898.00000    0.12610   40.59640    2.31650    0.14020    9.41870    0.00520    2.47030    2.50730    2.26030    3.66450   69.34340  123.33300
 6898.50000    0.11680   40.62440    2.32240    0.12970    9.39840    0.00500    2.48830    2.77710    2.60870    4.74030   69.48940  123.45750
 6899.00000    0.11730   41.86950    2.32830    0.12440    9.38890    0.00470    2.49720    2.97810    2.74290    5.81750   69.71180  123.47300
 6899.50000    0.12300   43.17430    2.33420    0.12560    9.38920    0.00450    2.49500    2.63090    2.30550    4.68600   69.88350  123.50050
 6900.00000    0.12870   42.87660    2.35420    0.14720    9.38910    0.00430    2.45890    2.21720    1.95440    3.90640   69.99850  123.36360
 6900.50000    0.13410   41.26440    2.37440    0.15900    9.38890    0.00400    2.43820    2.16530    1.95440    3.25980   70.04520  123.03210
 6901.00000    0.13240   40.76880    2.39460    0.15150    9.38350    0.00380    2.45070    2.50930    2.29230    3.36640   69.63520  122.26850
 6901.50000    0.12820   40.80320    2.43100    0.13550    9.37620    0.00360    2.47800    2.90800    2.59450    4.77160   68.65890  120.81220
 6902.00000    0.12600   40.67810    2.48590    0.13460    9.36890    0.00330    2.47990    2.94220    2.64840    4.74100   67.69230  119.38150
 6902.50000    0.13050   40.56000    2.45660    0.14370    9.36150    0.00640    2.46460    2.55550    2.26910    4.33390   66.33410  117.63190
 6903.00000    0.13370   40.74600    2.39080    0.15310    9.37000    0.00820    2.44860    2.21970    2.08800    3.59980   65.09560  115.68400
 6903.50000    0.13030   41.10940    2.42200    0.15450    9.38680    0.00380    2.44610    2.24810    2.03070    3.36810   64.14520  114.45060
 6904.00000    0.11680   41.04370    2.47260    0.12840    9.36880    0.00850    2.48970    4.03710    3.77080    4.03630   63.59410  113.96680
 6904.50000    0.09290   40.11640    2.52310    0.06970    9.32460    0.01430    2.58900   10.66290   15.76610    6.29960   63.32300  113.73600
 6905.00000    0.06900   39.59920    2.61650    0.04250    9.29430    0.01160    2.63750   36.91040   78.61130   22.02220   63.26700  113.68740
 6905.50000    0.06200   39.71170    2.72840    0.04360    9.30260    0.00770    2.63510   60.15250   21.49270  119.88310   63.30420  113.91070
 6906.00000    0.06840   40.40010    2.82870    0.07090    9.31090    0.00650    2.58970    6.58690    3.48560   11.74420   63.51150  114.31160
 6906.50000    0.07960   41.09060    2.73560    0.09690    9.31230    0.00640    2.54060    2.94360    2.39290    6.71240   64.20830  114.96930
 6907.00000    0.09080   41.52860    2.64250    0.09370    9.32980    0.00650    2.54910    3.23120    2.84290    7.22290   65.18890  116.24340
 6907.50000    0.09180   41.41730    2.55370    0.09430    9.34190    0.00680    2.55480    3.58540    2.58960    8.49560   66.02590  117.17350
 6908.00000    0.09680   41.43500    2.52170    0.10150    9.35020    0.00710    2.53680    2.82270    2.25010    5.79300   66.86870  118.05320
 6908.50000    0.10360   41.72300    2.49050    0.11020    9.36010    0.00740    2.52190    3.15870    2.95360    4.63340   67.49870  118.80570
 6909.00000    0.11050   42.31990    2.45930    0.11990    9.36990    0.00780    2.50530    3.14940    2.80920    5.68150   67.82200  119.34720
 6909.50000    0.11730   42.04450    2.41870    0.12970    9.37970    0.00770    2.48860    2.85640    2.52610    5.15720   68.08640  119.77800
 6910.00000    0.12400   41.45020    2.36620    0.13830    9.38950    0.00660    2.47380    2.57830    2.27160    3.97140   68.20440  120.16880
 6910.50000    0.13070   40.54010    2.31370    0.14460    9.39930    0.00630    2.46280    2.45470    2.18970    3.37900   68.16770  120.36350
 6911.00000    0.13730   39.89630    2.26760    0.15100    9.40920    0.00640    2.45210    2.45550    2.18970    3.35820   68.08430  120.47810
 6911.50000    0.13890   40.04910    2.25520    0.15330    9.41700    0.00650    2.44800    2.52310    2.43480    3.35330   67.97520  120.67300
 6912.00000    0.13820   40.66980    2.26180    0.15540    9.42080    0.00660    2.44450    2.54320    2.38940    3.36050   68.01850  120.77130
 6912.50000    0.13600   41.07520    2.27010    0.15230    9.42280    0.00670    2.44960    2.39130    2.26130    3.32040   68.14880  120.85600
 6913.00000    0.12690   40.86340    2.30870    0.14500    9.41750    0.00680    2.46210    2.25290    2.13510    3.33510   68.39400  121.05520
 6913.50000    0.11350   40.30410    2.32470    0.13770    9.41220    0.00690    2.47450    3.29940    2.86630    3.94760   68.82000  121.34840
 6914.00000    0.10240   39.89610    2.34060    0.13480    9.40690    0.00670    2.47960    3.09790    3.04670    4.11030   69.14490  121.52650
 6914.50000    0.10500   40.41840    2.35650    0.13890    9.41660    0.00650    2.47290    2.93810    2.74460    4.88000   69.39420  121.45660
 6915.00000    0.11890   41.10330    2.36460    0.14840    9.42770    0.00640    2.45650    2.62820    2.19110    3.75530   69.30330  121.34980
 6915.50000    0.13280   42.83710    2.35240    0.15790    9.42620    0.00630    2.44030    2.09350    1.79350    3.12120   68.79130  120.47060
 6916.00000    0.14670   47.47060    2.34020    0.16090    9.41870    0.00630    2.43490    2.05400    1.84380    2.75040   67.95310  118.70690
 6916.50000    0.14860   55.49390    2.32970    0.14880    9.41120    0.00630    2.45530    2.21300    2.11210    2.96600   66.72800  116.52750
 6917.00000    0.14760   64.19100    2.46770    0.12950    9.40360    0.00620    2.48820    2.75080    2.34800    3.80400   65.48190  114.71700
 6917.50000    0.14070   72.03250    2.61740    0.10970    9.39610    0.00620    2.52220    4.55090    3.13560    7.49650   64.37600  111.73510
 6918.00000    0.13200   69.61250    2.74680    0.08980    9.38850    0.00620    2.55610    6.09540    4.19960   12.59670   63.72100  110.21160
 6918.50000    0.09790   59.61440    2.87590    0.07520    9.38100    0.00610    2.58120    8.61100    5.82570   12.25220   63.36750  108.93830
 6919.00000    0.07800   44.32880    2.99650    0.06030    9.37340    0.00610    2.60670   12.59120    9.89200   16.76180   63.35540  108.87130
 6919.50000    0.06350   35.64550    2.98170    0.05380    9.36590    0.00610    2.61790   10.77950    8.76030   41.75720   63.89000  109.61530
