~Version ---------------------------------------------------
VERS.   2.0 : CWLS log ASCII Standard -VERSION 2.0
WRAP.    NO : One line per depth step
DLM . SPACE : Column Data Section Delimiter
~Well ------------------------------------------------------
STRT .F                  200.0 : START DEPTH
STOP .F                 9803.0 : STOP DEPTH
STEP .F                    0.5 : STEP
NULL .                -9999.25 : NULL VALUE
COMP .                         : COMPANY
WELL .                         : WELL
FLD  .                         : FIELD
LOC  .                         : LOCATION
PROV .                         : PROVINCE
CNTY .                         : COUNTY
STAT .                         : STATE
CTRY .                         : COUNTRY
SRVC .                         : SERVICE COMPANY
DATE .                         : DATE
UWI  .                         : UNIQUE WELL ID
API  .                         : API NUMBER
SLAT .WGS84 2.2541198811984984 : SURFACE LATITUDE
SLON .WGS84  8.299205892898016 : SURFACE LONGITUDE
DATUM.F                    nan : DEPTH DATUM ELEV
~Curve Information -----------------------------------------
DEPT   .F     : 1 MEASURED DEPTH
TNPH_LS.DEC   : THERMAL NEUTRON POROSITY [LIMESTONE]
HSGRD  .GAPI  : HNGS STANDARD GAMMA RAY FROM DENSITY LOG
PEFZ   .B/E   : HRDD STANDARD RESOLUTION FORMATION PHOTOELECTRIC FACTOR
DPHZ_LS.DEC   : HGRD STANDARD RESOLUTION DENSITY POROSITY
HCALD  .IN    : HRCC CALIPER CALIBRATED FROM DENSITY LOG
HDRA   .G/C3  : HRDD SPINE AND RIBS DENSITY CORRECTION
RHOZ   .G/C3  : HRDD STANDARD RESOLUTION FORMATION DENSITY
RLA3   .OHMM  : APPARENT RESISTIVITY FROM COMPUTED FOCUSING MODE 3
RLA5   .OHMM  : APPARENT RESISTIVITY FROM COMPUTED FOCUSING MODE 5
RXOZ   .OHMM  : INVADED FORMATION RESISTIVITY FILTERED AT 18 INCHES
DTCO   .US/F  : DELTA-T COMPRESSIONAL
DTSM   .US/F  : DELTA-T SHEAR
~Params ----------------------------------------------------
~Other -----------------------------------------------------
~ASCII -----------------------------------------------------
# ...
 8684.00000    0.14130  106.80330    2.85090    0.13490    8.89970    0.00570    2.47900  138.32420  140.14310  132.60320   72.88930  110.82110
 8684.50000    0.14830  113.78200    2.64040    0.14280    8.89870    0.00670    2.46580  138.32860  145.72970  117.40750   72.90120  110.85880
 8685.00000    0.14690  114.90220    2.61560    0.13510    8.89760    0.00780    2.47910  132.62530  146.84590  109.37730   72.67820  110.88360
 8685.50000    0.14130  111.86340    2.64070    0.12540    8.89660    0.00880    2.49530  127.66500  145.48230  118.64930   72.27850  110.84470
 8686.00000    0.13560  107.27510    2.66570    0.11850    8.89550    0.00940    2.50740  117.38460  126.75120  111.10220   71.62880  110.68100
 8686.50000    0.13560  101.00370    2.67510    0.11590    8.89440    0.00970    2.51170  101.46580  106.37390   84.51630   71.13320  110.41880
 8687.00000    0.14010   96.50810    2.69960    0.11940    8.89340    0.01000    2.50570   98.75680  133.79850   92.10230   70.53270  110.15670
 8687.50000    0.14110   97.73910    2.72730    0.13200    8.89230    0.01030    2.48410  115.79150  181.08710  110.09600   70.01160  109.89450
 8688.00000    0.13940  103.20090    2.75510    0.14560    8.89130    0.01060    2.46080  139.89950  153.76510  128.08230   69.65630  109.84580
 8688.50000    0.13260   99.98540    2.86300    0.14300    8.89020    0.01310    2.46620  169.41090  204.62810  129.49480   69.47540  109.79300
 8689.00000    0.11500   90.99380    3.02910    0.11100    8.88910    0.01590    2.52060  205.23280  312.77350  146.02620   69.51300  109.73180
 8689.50000    0.10310   84.88620    3.19520    0.06770    8.88810    0.01860    2.59380  265.59630  458.02920  220.29610   69.74650  109.95910
 8690.00000    0.10610   94.23990    3.23950    0.06420    8.88700    0.01910    2.60020  313.30280  398.88310  247.71040   70.12900  110.26120
 8690.50000    0.12060  106.74420    3.17030    0.08040    8.88640    0.01730    2.57270  211.07380  267.24010  219.19260   70.68110  110.47420
 8691.00000    0.13290  124.89520    2.88370    0.11180    8.88810    0.01360    2.51890  134.91460  188.98020  157.31770   71.05590  110.49120
 8691.50000    0.14530  134.76860    2.74810    0.11840    8.88970    0.00920    2.50750  131.65480  146.57080  119.83440   71.41930  110.60920
 8692.00000    0.14800  141.64150    2.72770    0.12340    8.89140    0.00560    2.49890  148.36010  190.56800  121.96700   71.50460  110.55840
 8692.50000    0.15580  145.93520    2.80010    0.12400    8.89310    0.00530    2.49800  181.07520  219.78190  165.09360   71.29630  110.20900
 8693.00000    0.16130  141.73250    2.87280    0.12280    8.89470    0.00500    2.50010  142.24000  162.79140  121.73570   70.58660  109.46760
 8693.50000    0.15920  132.35690    2.94560    0.11620    8.89640    0.00460    2.51130  110.82860  128.31710   94.42520   69.27570  108.60150
 8694.00000    0.15240  123.30250    3.10090    0.11070    8.89800    0.00430    2.52070  116.46860  162.20640   96.13900   67.01140  106.53930
 8694.50000    0.13660  114.16000    3.30080    0.10750    8.89970    0.00400    2.52620  175.20600  218.05640  105.31140   64.93780  104.89330
 8695.00000    0.11110   99.75680    3.58130    0.08950    8.90140    0.00370    2.55730  263.56570  312.93600  143.39230   62.28160  102.77210
 8695.50000    0.08730   83.79870    3.81210    0.06470    8.90300    0.00340    2.60000  306.77350  315.76680  173.95940   60.78080  101.61180
 8696.00000    0.06340   65.96110    3.96480    0.04180    8.90470    0.00310    2.63890  324.43480  447.13360  254.26400   60.08460  101.10080
 8696.50000    0.05250   52.26030    4.14460    0.03130    8.90630    0.00280    2.65650  456.80510  624.29440  366.86000   59.76920  101.10680
 8697.00000    0.04630   45.96710    4.45380    0.02850    8.90800    0.00300    2.66130  643.18230  746.27000  482.41380   60.01390  101.31440
 8697.50000    0.04380   42.32840    4.80030    0.02750    8.90970    0.00330    2.66310  802.84610  966.14510  587.24080   61.29120  102.45720
 8698.00000    0.04390   42.86240    4.83430    0.02080    8.91130    0.00360    2.67460  931.10450 1518.30090  662.45230   63.27460  104.07640
 8698.50000    0.04570   51.67390    4.80110    0.01860    8.91300    0.00390    2.67820 1177.95860 1585.53480  744.81950   65.49190  105.89850
 8699.00000    0.06280   70.95240    4.38190    0.02630    8.91460    0.00420    2.66480  978.38920 1155.42250  807.18290   67.59540  107.85360
 8699.50000    0.09000   94.35540    3.81450    0.04920    8.91630    0.00440    2.62550  618.27180  684.77430  434.32900   69.02020  109.74340
 8700.00000    0.12170  118.41220    3.36310    0.08400    8.91800    0.00470    2.56530  363.04810  381.16820  296.10600   70.21420  111.88230
 8700.50000    0.15040  139.22140    3.07410    0.10740    8.91960    0.00500    2.52540  228.73920  262.36150  244.30990   70.96760  112.77240
 8701.00000    0.17300  149.45030    3.07790    0.11740    8.92130    0.00530    2.50920  149.16160  206.26130  167.61630   70.98410  112.76850
 8701.50000    0.18440  143.87290    3.17790    0.11010    8.92290    0.00550    2.52170  109.16680  132.22010   98.27730   70.63970  112.14150
 8702.00000    0.18340  127.38760    3.29070    0.09840    8.92460    0.00580    2.54260   84.42570   97.55260   77.05320   69.86380  110.43310
 8702.50000    0.15930  109.81260    3.39690    0.08050    8.92630    0.00570    2.57260   97.70380  111.37880   87.55100   68.98660  109.14040
 8703.00000    0.13680   95.75620    3.48370    0.06540    8.92790    0.00540    2.59950  129.56140  176.36830  121.70190   67.96580  107.81180
 8703.50000    0.12460   88.05750    3.52690    0.05290    8.92960    0.00520    2.61750  120.35290  136.26790  104.62210   67.30870  106.71700
 8704.00000    0.12090   84.64040    3.57000    0.05230    8.93120    0.00490    2.62540  110.82460  117.15610  101.48050   66.70560  105.77210
 8704.50000    0.11900   84.83240    3.61310    0.05660    8.93260    0.00460    2.61270  156.34850  274.48120  108.56100   66.35830  104.91130
 8705.00000    0.11570   87.38010    3.51530    0.06580    8.93080    0.00500    2.59640  235.83570  243.97860  210.48530   66.03510  104.17450
 8705.50000    0.11300   88.61310    3.41210    0.07620    8.92910    0.00620    2.57940  241.24710  325.78320  209.07520   65.88020  103.57100
 8706.00000    0.11040   85.33600    3.44460    0.08010    8.92740    0.00730    2.57320  167.39040  168.88930  154.95010   65.90610  103.30760
 8706.50000    0.10750   74.32770    3.50110    0.07250    8.92560    0.00850    2.58620  121.42210  132.19520  114.83690   65.91230  103.23320
 8707.00000    0.09640   63.44030    3.55760    0.05650    8.92390    0.01130    2.61300  107.47160  121.41330   93.61420   65.79790  103.20670
 8707.50000    0.08960   57.43510    3.57310    0.03560    8.92220    0.01740    2.65010  129.64850  132.58110  120.30870   65.61310  103.29300
 8708.00000    0.09250   68.39300    3.48570    0.03090    8.92150    0.02360    2.65570  106.82380  110.41190   66.55790   65.32060  103.36620
 8708.50000    0.10640   79.64620    3.39840    0.05480    8.92170    0.02470    2.61580   74.91840   84.26170   45.36030   64.95750  103.40100
 8709.00000    0.11910   84.14060    3.42240    0.08070    8.92190    0.02120    2.57070  116.52210  198.66370   44.22390   64.45440  103.43590
 8709.50000    0.11360   75.93550    3.65180    0.09070    8.92210    0.01760    2.55640  276.33710  405.34100  148.98520   63.98720  103.28420
 8710.00000    0.08940   67.15720    3.87640    0.07210    8.92230    0.01410    2.58740  529.46890  730.10680  391.69280   63.50160  103.09400
 8710.50000    0.07870   67.47560    4.08110    0.05280    8.92250    0.01090    2.62010  741.70900  864.62290  727.69150   63.08920  102.90380
 8711.00000    0.08290   70.37170    4.06120    0.04690    8.92270    0.01090    2.62990  831.76440  944.12340  652.21550   62.58510  102.69250
 8711.50000    0.08770   65.46400    4.04130    0.04550    8.92290    0.01090    2.63230  776.97970  878.27200  442.41070   62.31890  102.54980
