~Version ---------------------------------------------------
VERS.   2.0 : CWLS log ASCII Standard -VERSION 2.0
WRAP.    NO : One line per depth step
DLM . SPACE : Column Data Section Delimiter
~Well ------------------------------------------------------
STRT .F                  200.0 : START DEPTH
STOP .F                 9803.0 : STOP DEPTH
STEP .F                    0.5 : STEP
NULL .                -9999.25 : NULL VALUE
COMP .                         : COMPANY
WELL .                         : WELL
FLD  .                         : FIELD
LOC  .                         : LOCATION
PROV .                         : PROVINCE
CNTY .                         : COUNTY
STAT .                         : STATE
CTRY .                         : COUNTRY
SRVC .                         : SERVICE COMPANY
DATE .                         : DATE
UWI  .                         : UNIQUE WELL ID
API  .                         : API NUMBER
SLAT .WGS84 2.2541198811984984 : SURFACE LATITUDE
SLON .WGS84  8.299205892898016 : SURFACE LONGITUDE
DATUM.F                    nan : DEPTH DATUM ELEV
~Curve Information -----------------------------------------
DEPT   .F     : 1 MEASURED DEPTH
TNPH_LS.DEC   : THERMAL NEUTRON POROSITY [LIMESTONE]
HSGRD  .GAPI  : HNGS STANDARD GAMMA RAY FROM DENSITY LOG
PEFZ   .B/E   : HRDD STANDARD RESOLUTION FORMATION PHOTOELECTRIC FACTOR
DPHZ_LS.DEC   : HGRD STANDARD RESOLUTION DENSITY POROSITY
HCALD  .IN    : HRCC CALIPER CALIBRATED FROM DENSITY LOG
HDRA   .G/C3  : HRDD SPINE AND RIBS DENSITY CORRECTION
RHOZ   .G/C3  : HRDD STANDARD RESOLUTION FORMATION DENSITY
RLA3   .OHMM  : APPARENT RESISTIVITY FROM COMPUTED FOCUSING MODE 3
RLA5   .OHMM  : APPARENT RESISTIVITY FROM COMPUTED FOCUSING MODE 5
RXOZ   .OHMM  : INVADED FORMATION RESISTIVITY FILTERED AT 18 INCHES
DTCO   .US/F  : DELTA-T COMPRESSIONAL
DTSM   .US/F  : DELTA-T SHEAR
~Params ----------------------------------------------------
~Other -----------------------------------------------------
~ASCII -----------------------------------------------------
# ...
 9776.00000    0.11930  104.64430    2.64730    0.07620    8.84060    0.00760    2.57980   94.09770   98.69690   51.73070   70.68660  110.67570
 9776.50000    0.12860  104.60760    2.70110    0.07720    8.83940    0.00780    2.57810   94.27150   98.70340   50.94320   -9999.25   -9999.25
 9777.00000    0.13400  104.58730    2.73580    0.07780    8.83820    0.00790    2.57700   94.44570   98.70990   53.27140   -9999.25   -9999.25
 9777.50000    0.12630  104.58460    2.68970    0.07400    8.84060    0.00810    2.58340   94.62020   98.71640   77.28450   -9999.25   -9999.25
 9778.00000    0.11420  104.58180    2.64360    0.06590    8.84280    0.00830    2.59730   94.79500   98.72290   91.53470   -9999.25   -9999.25
 9778.50000    0.09740  104.57900    2.62100    0.06490    8.84230    0.00890    2.59900   94.97010   98.72940   76.40600   -9999.25   -9999.25
 9779.00000    0.09160  104.57630    2.63910    0.06740    8.84740    0.00970    2.59490   95.14560   98.73590   48.88990   -9999.25   -9999.25
 9779.50000    0.10080  104.57350    2.67900    0.07660    8.84990    0.01050    2.57890   95.32130   98.74240   44.80590   -9999.25   -9999.25
 9780.00000    0.11320  104.57070    2.71880    0.08000    8.84710    0.01120    2.57310   95.49750   98.74880   46.17060   -9999.25   -9999.25
 9780.50000    0.12480  104.56800    2.75550    0.08190    8.84430    0.01120    2.56980   95.67390   98.75530   59.96580   -9999.25   -9999.25
 9781.00000    0.13870  104.56520    2.81860    0.08230    8.84150    0.01100    2.56920   95.85060   98.76180   66.92540   -9999.25   -9999.25
 9781.50000    0.15160  104.56240    2.90830    0.08280    8.86430    0.01090    2.56830   96.02770   98.76830   76.36970   -9999.25   -9999.25
 9782.00000    0.15930  104.55970    2.96420    0.08570    8.84190    0.01070    2.56340   96.20510   98.77480   98.61950   -9999.25   -9999.25
 9782.50000    0.16010  104.55690    2.98080    0.08680    8.84180    0.01050    2.56160   96.38280   98.78130   88.43490   -9999.25   -9999.25
 9783.00000    0.16000  104.55420    2.99740    0.08400    8.84220    0.01030    2.56620   96.56090   98.78780   77.50040   -9999.25   -9999.25
 9783.50000    0.15970  104.55140    3.01390    0.07990    8.83840    0.01020    2.57340   96.73930   98.79430   79.18550   -9999.25   -9999.25
 9784.00000    0.12770  104.54860    2.95650    0.07540    8.83680    0.01000    2.58090   96.91800   98.80080   87.98520   -9999.25   -9999.25
 9784.50000    0.10370  104.54590    2.79310    0.07240    8.84730    0.00980    2.58610   97.09710   98.80730  137.60860   -9999.25   -9999.25
 9785.00000    0.08270  104.54310    2.72550    0.07270    8.85770    0.00960    2.58560   97.27650   98.81380  191.18950   -9999.25   -9999.25
 9785.50000    0.07920  104.54030    2.78410    0.07980    8.86820    0.00950    2.57390   97.45200   98.82030  273.68960   -9999.25   -9999.25
 9786.00000    0.09710  104.53760    2.83960    0.09080    8.87870    0.00930    2.55470   97.10020   98.82680  185.79620   -9999.25   -9999.25
 9786.50000    0.11800  104.53480    2.88050    0.10480    8.88910    0.00910    2.53080   96.74970   98.83330  173.66480   -9999.25   -9999.25
 9787.00000    0.13960  104.53200    2.92140    0.10930    8.89960    0.00890    2.52300   96.40040   98.83980  177.03260   -9999.25   -9999.25
 9787.50000    0.15400  104.52930    2.96240    0.11000    8.90130    0.00880    2.52190   96.05240   98.84630  140.44420   -9999.25   -9999.25
 9788.00000    0.16590  104.52650    2.99780    0.10960    8.87910    0.00860    2.52250   95.70560   98.85280  115.68420   -9999.25   -9999.25
 9788.50000    0.16780  104.52370    3.02370    0.10760    8.85700    0.00840    2.52600   95.54710   98.85930  127.01410   -9999.25   -9999.25
 9789.00000    0.15950  104.52100    3.04960    0.10720    8.84570    0.00840    2.52660   95.44360   98.86580  188.80290   -9999.25   -9999.25
 9789.50000    0.15250  104.51820    3.07550    0.10640    8.84500    0.00870    2.52790   95.34030   98.87230  288.26690   -9999.25   -9999.25
 9790.00000    0.15730  104.51540    3.10140    0.10500    8.85200    0.00890    2.53040   95.23700   98.87880  313.05200   -9999.25   -9999.25
 9790.50000    0.17010  104.51270    3.12730    0.10650    8.85850    0.00920    2.52790   95.13390   98.88530  317.58650   -9999.25   -9999.25
 9791.00000    0.17650  104.50990    3.16690    0.10650    8.85680    0.00940    2.52780   95.03090   98.89180  254.88130   -9999.25   -9999.25
 9791.50000    0.17570  104.50710    3.18070    0.10550    8.85520    0.00970    2.52950   94.92790   98.89830  207.28590   -9999.25   -9999.25
 9792.00000    0.17410  104.50440    3.17140    0.10300    8.85350    0.00990    2.53380   94.82510   98.90480  196.83990   -9999.25   -9999.25
 9792.50000    0.17450  104.50160    3.14660    0.10170    8.85180    0.01010    2.53600   94.72240   98.85300  204.18800   -9999.25   -9999.25
 9793.00000    0.17560  104.49880    3.12190    0.10810    8.85010    0.01040    2.52510   94.61990   98.77760  192.58180   -9999.25   -9999.25
 9793.50000    0.17640  104.49610    3.09720    0.12340    8.84840    0.01060    2.48730   94.51740   98.70220  199.54300   -9999.25   -9999.25
 9794.00000    0.17550  104.49330    3.07460    0.13040    8.84630    0.01090    2.48790   94.41500   98.62690  217.88270   -9999.25   -9999.25
 9794.50000    0.17410  104.49050    3.05360    0.12030    8.84380    0.01110    2.50410   94.31280   98.55160  219.78020   -9999.25   -9999.25
 9795.00000    0.17290  104.48780    3.03270    0.09850    8.84130    0.01140    2.54010   94.21060   98.47640  222.19310   -9999.25   -9999.25
 9795.50000    0.17200  104.48500    2.99450    0.08310    8.83870    0.01160    2.56790   94.10860   98.40130  271.18950   -9999.25   -9999.25
 9796.00000    0.17160  104.48230    2.92990    0.07920    8.83600    0.01190    2.57460   94.00670   98.32620  321.67810   -9999.25   -9999.25
 9796.50000    0.17290  104.47950    2.92180    0.08850    8.83340    0.01210    2.55840   93.90490   98.25120  197.27690   -9999.25   -9999.25
 9797.00000    0.17310  104.47670    2.99180    0.10460    8.83240    0.01240    2.53180   93.80320   98.17620  172.08870   -9999.25   -9999.25
 9797.50000    0.17170  104.46500    3.01160    0.11400    8.83190    0.01260    2.51500   93.74810   98.10130  203.34120   -9999.25   -9999.25
 9798.00000    0.17030  104.44270    3.03140    0.12110    8.83100    0.01280    2.50290   93.94820   98.02640  229.48130   -9999.25   -9999.25
 9798.50000    0.16890  104.42050    3.04200    0.12700    8.82920    0.01310    2.49280   94.14860   97.95160  214.29800   -9999.25   -9999.25
 9799.00000    0.16720  104.39830    3.04200    0.12860    8.83060    0.01330    2.49010   94.34950   97.87680  201.97290   -9999.25   -9999.25
 9799.50000    0.16710  104.37610    3.00110    0.12660    8.83210    0.01360    2.49340   94.55090   97.80220  229.52400   -9999.25   -9999.25
 9800.00000    0.16750  104.35380    2.95510    0.11810    8.83350    0.01380    2.50810   94.75260   97.72750  214.15870   -9999.25   -9999.25
 9800.50000    0.16800  104.33160    2.90910    0.11290    8.83480    0.01410    2.51690   94.83770   97.65300  171.78240   -9999.25   -9999.25
 9801.00000    0.16840  104.30940    2.87410    0.11040    8.83090    0.01430    2.52240   94.87460   97.57840  150.57740   -9999.25   -9999.25
 9801.50000    0.16980  104.28720    2.85910    0.10920    8.83930    0.01460    2.52810   94.91160   97.50400  180.52420   -9999.25   -9999.25
 9802.00000    0.16980  104.26490    2.85730    0.10440    8.85860    0.01430    2.53310   94.94860   97.42960  201.03060   -9999.25   -9999.25
 9802.50000    0.16850  104.40810    2.82580    0.10150    8.90340    0.01360    2.53240   94.98560   97.35520  174.00630   -9999.25   -9999.25
 9803.00000    0.16780  104.62790    2.78770    0.10760    9.00530    0.01290    2.51740   95.02260   97.28090  161.06040   -9999.25   -9999.25
