~Version ---------------------------------------------------
VERS.   2.0 : CWLS log ASCII Standard -VERSION 2.0
WRAP.    NO : One line per depth step
DLM . SPACE : Column Data Section Delimiter
~Well ------------------------------------------------------
STRT .F                  200.0 : START DEPTH
STOP .F                 9803.0 : STOP DEPTH
STEP .F                    0.5 : STEP
NULL .                -9999.25 : NULL VALUE
COMP .                         : COMPANY
WELL .                         : WELL
FLD  .                         : FIELD
LOC  .                         : LOCATION
PROV .                         : PROVINCE
CNTY .                         : COUNTY
STAT .                         : STATE
CTRY .                         : COUNTRY
SRVC .                         : SERVICE COMPANY
DATE .                         : DATE
UWI  .                         : UNIQUE WELL ID
API  .                         : API NUMBER
SLAT .WGS84 2.2541198811984984 : SURFACE LATITUDE
SLON .WGS84  8.299205892898016 : SURFACE LONGITUDE
DATUM.F                    nan : DEPTH DATUM ELEV
~Curve Information -----------------------------------------
DEPT   .F     : 1 MEASURED DEPTH
TNPH_LS.DEC   : THERMAL NEUTRON POROSITY [LIMESTONE]
HSGRD  .GAPI  : HNGS STANDARD GAMMA RAY FROM DENSITY LOG
PEFZ   .B/E   : HRDD STANDARD RESOLUTION FORMATION PHOTOELECTRIC FACTOR
DPHZ_LS.DEC   : HGRD STANDARD RESOLUTION DENSITY POROSITY
HCALD  .IN    : HRCC CALIPER CALIBRATED FROM DENSITY LOG
HDRA   .G/C3  : HRDD SPINE AND RIBS DENSITY CORRECTION
RHOZ   .G/C3  : HRDD STANDARD RESOLUTION FORMATION DENSITY
RLA3   .OHMM  : APPARENT RESISTIVITY FROM COMPUTED FOCUSING MODE 3
RLA5   .OHMM  : APPARENT RESISTIVITY FROM COMPUTED FOCUSING MODE 5
RXOZ   .OHMM  : INVADED FORMATION RESISTIVITY FILTERED AT 18 INCHES
DTCO   .US/F  : DELTA-T COMPRESSIONAL
DTSM   .US/F  : DELTA-T SHEAR
~Params ----------------------------------------------------
~Other -----------------------------------------------------
~ASCII -----------------------------------------------------
# ...
 4344.00000    0.01310   10.42910    5.20690   -0.13110   12.38200    0.00640    2.93430 55613.05860 1363.80490 1445.33130   -9999.25   -9999.25
 4344.50000    0.01300   10.38100    5.26140   -0.13490   12.41780    0.00850    2.94070 19125.65040 1023.35530 1439.94820   -9999.25   -9999.25
 4345.00000    0.01220   11.32890    5.28590   -0.13990   12.47010    0.01070    2.95920 15462.29100  926.64870 1490.72180   -9999.25   -9999.25
 4345.50000    0.01270   12.34860    5.28610   -0.14330   12.51390    0.01280    2.95320 31803.14060  841.71470 1508.56100   -9999.25   -9999.25
 4346.00000    0.01410   12.55420    5.25300   -0.13580   12.57410    0.01400    2.94240 39999.01950  812.18840 1288.14320   -9999.25   -9999.25
 4346.50000    0.01550   12.15100    5.20820   -0.13350   12.63430    0.01420    2.93950 54632.62110  782.77590 1170.20210   -9999.25   -9999.25
 4347.00000    0.01730   11.39900    5.16340   -0.13480   12.68140    0.01670    2.94520 54356.25390  756.47310 1112.81920   -9999.25   -9999.25
 4347.50000    0.01650   11.17900    5.13190   -0.13560   12.68980    0.01450    2.94600 48732.80080  741.32760 1147.50380   -9999.25   -9999.25
 4348.00000    0.01320   12.16310    5.11140   -0.13140   12.70900    0.01230    2.93390 46431.72270  726.48520 1085.44620   -9999.25   -9999.25
 4348.50000    0.00910   12.58340    5.08930   -0.13140   12.72540    0.01070    2.93530 46045.73440  709.82720  928.37840   -9999.25   -9999.25
 4349.00000    0.00620   12.94010    5.07090   -0.13470   12.72820    0.01060    2.94040 40041.51170  683.88280  812.11830   -9999.25   -9999.25
 4349.50000    0.00460   13.00760    5.08410   -0.14110   12.72830    0.01060    2.95130 27769.54100  654.82310  820.55380   -9999.25   -9999.25
 4350.00000   -0.00030   13.05570    5.09640   -0.14740   12.72830    0.01220    2.96230 35667.58980  626.99850  973.35020   -9999.25   -9999.25
 4350.50000   -0.00560   12.35940    5.10350   -0.15380   12.72830    0.01400    2.97300 32578.94920  600.35620 1190.09800   -9999.25   -9999.25
 4351.00000   -0.01370   11.31830    5.11060   -0.15880   12.74640    0.01450    2.98140 28105.94340  574.84600 1244.14860   -9999.25   -9999.25
 4351.50000   -0.01710   10.26160    5.11770   -0.15500   12.79020    0.01500    2.97510 28256.00980  550.41950 1124.76890   -9999.25   -9999.25
 4352.00000   -0.02020    9.02080    5.12480   -0.16120   12.85650    0.01550    2.98570 30837.28520  527.10150 1099.08340   -9999.25   -9999.25
 4352.50000   -0.02150    7.70290    5.13190   -0.17200   12.88400    0.01600    3.00400 30837.28520  507.08970 1050.07470   -9999.25   -9999.25
 4353.00000   -0.02110    7.45320    5.13900   -0.17760   12.88790    0.01650    3.01920 30465.61520  490.51320  992.00330   -9999.25   -9999.25
 4353.50000   -0.02060    8.56910    5.14610   -0.16860   12.88210    0.01670    2.99630 26813.16410  474.97480  800.00530   -9999.25   -9999.25
 4354.00000   -0.02050    9.98490    5.15320   -0.15410   12.87630    0.01580    2.97330 25128.99410  459.41560  660.80980   -9999.25   -9999.25
 4354.50000   -0.02050   11.26220    5.16030   -0.14620   12.87050    0.01500    2.96320 23550.60740  444.36580  674.23190   -9999.25   -9999.25
 4355.00000   -0.02050   11.80080    5.16740   -0.14870   12.82870    0.01430    2.96600 23375.81640  441.34040  893.65660   -9999.25   -9999.25
 4355.50000   -0.02140   11.69370    5.17450   -0.15320   12.78640    0.01370    2.97200 26485.72070  452.36920 1441.66310   -9999.25   -9999.25
 4356.00000   -0.02350   10.63900    5.18830   -0.16000   12.74400    0.01300    2.98360 27465.67770  472.82820 1741.55700   -9999.25   -9999.25
 4356.50000   -0.02580    9.19190    5.20870   -0.16070   12.74710    0.01240    2.98470 27039.62300  494.21250 1974.41540   -9999.25   -9999.25
 4357.00000   -0.02670    9.00730    5.22920   -0.15800   12.79080    0.01170    2.98000 27112.51760  484.39780 1974.41540   -9999.25   -9999.25
 4357.50000   -0.02500    9.47180    5.24960   -0.15380   12.82630    0.01100    2.97300 34654.23440  458.68170 1974.41540   -9999.25   -9999.25
 4358.00000   -0.02240   10.22050    5.27010   -0.15250   12.85890    0.01040    2.97080 30158.46480  438.72930 1974.41540   -9999.25   -9999.25
 4358.50000   -0.02040   10.95770    5.27370   -0.15490   12.89160    0.00980    2.97490 25487.05270  406.47850 1890.05730   -9999.25   -9999.25
 4359.00000   -0.01710   11.13740    5.26040   -0.14880   12.91830    0.00920    2.96430 23508.57620  399.05020 1562.57710   -9999.25   -9999.25
 4359.50000   -0.01570   11.32280    5.23480   -0.14110   12.91870    0.00900    2.95110 24233.31250  397.60210 1300.96590   -9999.25   -9999.25
 4360.00000   -0.01490   11.44460    5.20910   -0.13860   12.91920    0.00900    2.94690 26006.13280  399.25940 1114.09070   -9999.25   -9999.25
 4360.50000   -0.01410   10.85560    5.18350   -0.14090   12.91920    0.00900    2.95100 22737.20900  400.92360  980.52170   -9999.25   -9999.25
 4361.00000   -0.01460    9.53530    5.16990   -0.14240   12.91180    0.00900    2.95340 25081.03120  400.12110  895.73430   -9999.25   -9999.25
 4361.50000   -0.01450    8.23000    5.16890   -0.14130   12.89360    0.00900    2.95160 25001.62890  386.43880  853.70680   -9999.25   -9999.25
 4362.00000   -0.01410    7.70220    5.16000   -0.13670   12.87540    0.00900    2.94360 20996.26950  373.22420  827.90440   -9999.25   -9999.25
 4362.50000   -0.01390    7.72870    5.15650   -0.12800   12.85730    0.00900    2.92880 18548.41210  351.15190  765.10430   -9999.25   -9999.25
 4363.00000   -0.01400    8.40730    5.15300   -0.13050   12.83910    0.00900    2.93320 20723.01760  322.68610  831.31020   -9999.25   -9999.25
 4363.50000   -0.01410    9.49920    5.15950   -0.13540   12.82040    0.00900    2.95020 27029.29300  286.62210 1058.08580   -9999.25   -9999.25
 4364.00000   -0.01420   10.11380    5.19640   -0.13760   12.80180    0.00900    2.94020 21942.98630  260.98020 1147.78480   -9999.25   -9999.25
 4364.50000   -0.01490   10.20800    5.23320   -0.13240   12.78310    0.00900    2.93070 18439.89840  250.67210  737.65310   -9999.25   -9999.25
 4365.00000   -0.01780    9.21630    5.27010   -0.13110   12.76450    0.00860    2.93850 18652.25980  250.45240  571.71020   -9999.25   -9999.25
 4365.50000   -0.02030    7.91620    5.21760   -0.14080   12.77820    0.00810    2.95050 24283.49220  259.00510  637.47250   -9999.25   -9999.25
 4366.00000   -0.02210    7.33750    5.16470   -0.14770   12.79270    0.00770    2.96870 22019.63670  270.32510  890.54380   -9999.25   -9999.25
 4366.50000   -0.02400    6.79560    5.15130   -0.14870   12.82060    0.00730    2.96760 19241.32620  282.13990 1117.39030   -9999.25   -9999.25
 4367.00000   -0.02600    6.56940    5.18030   -0.14870   12.87810    0.00680    2.96480 22234.74020  293.23770 1162.13760   -9999.25   -9999.25
 4367.50000   -0.02860    6.49830    5.23520   -0.14740   12.93570    0.00640    2.96200 29662.19340  290.32900 1199.97160   -9999.25   -9999.25
 4368.00000   -0.03070    6.94870    5.29010   -0.14450   12.96750    0.00600    2.95690 30458.52340  287.44910 1137.73780   -9999.25   -9999.25
 4368.50000   -0.03010    7.99440    5.33950   -0.14290   12.97100    0.00550    2.95490 29780.38870  283.84620 1203.03340   -9999.25   -9999.25
 4369.00000   -0.02860    8.92620    5.32410   -0.14670   12.96190    0.00510    2.96350 25711.03320  274.34480 1517.91170   -9999.25   -9999.25
 4369.50000   -0.02710    9.73260    5.30860   -0.14990   12.94100    0.00470    2.96790 24646.05860  258.35930 1902.31040   -9999.25   -9999.25
 4370.00000   -0.02500   10.18260    5.29320   -0.13870   12.88820    0.00430    2.94690 32089.77930  250.00900 1998.92940   -9999.25   -9999.25
 4370.50000   -0.02290   10.74110    5.40590   -0.13000   12.83530    0.00440    2.93220 34247.83980  255.33950 1998.48290   -9999.25   -9999.25
 4371.00000   -0.02200   10.38860    5.54880   -0.12500   12.81050    0.00450    2.92370 28354.40230  316.04470 1998.03750   -9999.25   -9999.25
 4371.50000   -0.02130   10.36280    5.66690   -0.12850   12.80730    0.00460    2.92970 37646.58200  379.11530 1997.59110   -9999.25   -9999.25
