~Version ---------------------------------------------------
VERS.   2.0 : CWLS log ASCII Standard -VERSION 2.0
WRAP.    NO : One line per depth step
DLM . SPACE : Column Data Section Delimiter
~Well ------------------------------------------------------
STRT .F                  200.0 : START DEPTH
STOP .F                 9803.0 : STOP DEPTH
STEP .F                    0.5 : STEP
NULL .                -9999.25 : NULL VALUE
COMP .                         : COMPANY
WELL .                         : WELL
FLD  .                         : FIELD
LOC  .                         : LOCATION
PROV .                         : PROVINCE
CNTY .                         : COUNTY
STAT .                         : STATE
CTRY .                         : COUNTRY
SRVC .                         : SERVICE COMPANY
DATE .                         : DATE
UWI  .                         : UNIQUE WELL ID
API  .                         : API NUMBER
SLAT .WGS84 2.2541198811984984 : SURFACE LATITUDE
SLON .WGS84  8.299205892898016 : SURFACE LONGITUDE
DATUM.F                    nan : DEPTH DATUM ELEV
~Curve Information -----------------------------------------
DEPT   .F     : 1 MEASURED DEPTH
TNPH_LS.DEC   : THERMAL NEUTRON POROSITY [LIMESTONE]
HSGRD  .GAPI  : HNGS STANDARD GAMMA RAY FROM DENSITY LOG
PEFZ   .B/E   : HRDD STANDARD RESOLUTION FORMATION PHOTOELECTRIC FACTOR
DPHZ_LS.DEC   : HGRD STANDARD RESOLUTION DENSITY POROSITY
HCALD  .IN    : HRCC CALIPER CALIBRATED FROM DENSITY LOG
HDRA   .G/C3  : HRDD SPINE AND RIBS DENSITY CORRECTION
RHOZ   .G/C3  : HRDD STANDARD RESOLUTION FORMATION DENSITY
RLA3   .OHMM  : APPARENT RESISTIVITY FROM COMPUTED FOCUSING MODE 3
RLA5   .OHMM  : APPARENT RESISTIVITY FROM COMPUTED FOCUSING MODE 5
RXOZ   .OHMM  : INVADED FORMATION RESISTIVITY FILTERED AT 18 INCHES
DTCO   .US/F  : DELTA-T COMPRESSIONAL
DTSM   .US/F  : DELTA-T SHEAR
~Params ----------------------------------------------------
~Other -----------------------------------------------------
~ASCII -----------------------------------------------------
# ...
 5072.00000    0.20320   55.34760    2.56050    0.19060   10.58280    0.00540    2.38410    2.19120    2.17330    2.93270   76.61540  148.94450
 5072.50000    0.20630   56.90510    2.54680    0.19050   10.60840    0.00550    2.38470    2.18430    2.07830    2.88150   76.78590  150.07930
 5073.00000    0.20610   57.77580    2.53210    0.18130   10.62540    0.00560    2.39990    2.17740    2.01420    2.75970   77.00650  150.97280
 5073.50000    0.19820   57.51670    2.51740    0.17970   10.62700    0.00560    2.40270    2.14000    1.99050    2.65930   77.14830  151.65870
 5074.00000    0.19340   55.81010    2.50270    0.18070   10.62830    0.00570    2.40100    2.10510    1.95980    2.61680   77.29320  152.20680
 5074.50000    0.19030   54.05880    2.48800    0.18210   10.64500    0.00580    2.39870    2.08640    1.92630    2.58190   77.43220  152.73060
 5075.00000    0.18940   52.92110    2.47330    0.17690   10.63610    0.00580    2.40750    2.06780    1.88500    2.60310   77.55900  153.22090
 5075.50000    0.18910   51.95890    2.45870    0.17240   10.62290    0.00590    2.41530    2.04930    1.85900    2.60760   77.75180  153.68020
 5076.00000    0.19090   50.68060    2.44400    0.17750   10.60960    0.00600    2.40630    2.03560    1.83730    2.74380   77.92510  154.04140
 5076.50000    0.19930   48.33790    2.43950    0.18740   10.60540    0.00610    2.38920    2.03560    1.84840    2.85790   78.08270  154.40220
 5077.00000    0.20590   45.60460    2.44970    0.19880   10.60860    0.00610    2.37000    2.03240    1.85560    2.89470   78.22200  154.62190
 5077.50000    0.20560   46.37970    2.42840    0.19970   10.60820    0.00620    2.36850    2.01880    1.85560    2.87890   78.39370  154.84910
 5078.00000    0.20140   47.91460    2.41400    0.19230   10.60840    0.00630    2.38130    1.99110    1.82420    2.83680   78.57940  155.13760
 5078.50000    0.19620   49.04620    2.41510    0.18550   10.63300    0.00640    2.39290    1.91970    1.77490    2.82530   78.75440  155.28210
 5079.00000    0.19220   48.86850    2.41780    0.18350   10.64830    0.00650    2.39620    1.86050    1.72700    2.75440   78.90490  155.29240
 5079.50000    0.19220   48.82210    2.42050    0.18540   10.66360    0.00650    2.39290    1.85320    1.70080    2.62220   79.07020  155.31000
 5080.00000    0.19450   49.19380    2.42320    0.18780   10.67890    0.00710    2.38880    1.85990    1.67990    2.52360   79.23550  155.49530
 5080.50000    0.19840   49.64740    2.42590    0.18980   10.68790    0.00790    2.38560    1.87560    1.66690    2.51190   79.34330  155.74890
 5081.00000    0.20250   49.78860    2.42860    0.18810   10.68810    0.00870    2.38840    1.87730    1.68090    2.50840   79.41950  156.00240
 5081.50000    0.19830   50.62670    2.43130    0.18720   10.67990    0.00950    2.38980    1.86960    1.69490    2.48790   79.47550  156.19650
 5082.00000    0.19110   54.14020    2.43400    0.18020   10.64910    0.01030    2.40200    1.85470    1.73190    2.40280   79.35770  155.93090
 5082.50000    0.18420   59.69360    2.43670    0.17330   10.61260    0.01110    2.41380    1.89010    1.78220    2.40770   79.08000  155.20860
 5083.00000    0.18140   64.26540    2.46320    0.16780   10.58060    0.01130    2.42310    1.92620    1.83400    2.43270   78.70620  154.25420
 5083.50000    0.18920   64.17120    2.49630    0.16720   10.54850    0.01080    2.42410    1.99410    1.88720    2.41740   78.39960  153.22220
 5084.00000    0.20130   59.99030    2.51500    0.16840   10.51640    0.01030    2.42200    2.06770    1.94210    2.34340   78.21340  152.23340
 5084.50000    0.19880   56.77700    2.52260    0.16890   10.50250    0.00980    2.42120    2.18300    2.03760    2.39220   78.07760  150.96340
 5085.00000    0.19510   54.61110    2.53020    0.17250   10.48250    0.00930    2.41490    2.25040    2.08720    2.41900   76.91330  147.99560
 5085.50000    0.19440   53.18980    2.53790    0.17430   10.44020    0.00890    2.41200    2.16170    2.01220    2.44530   76.67480  146.17170
 5086.00000    0.19290   53.20190    2.54550    0.17090   10.40920    0.00840    2.41770    2.08900    1.97620    2.49810   76.41210  145.68470
 5086.50000    0.18820   53.96100    2.55310    0.16350   10.36850    0.00790    2.43040    2.20260    2.07120    2.62770   76.47670  145.28690
 5087.00000    0.18250   54.26980    2.56070    0.15750   10.32790    0.00760    2.44080    2.34620    2.17070    2.86460   76.16410  144.50560
 5087.50000    0.17440   54.04900    2.55960    0.15650   10.28720    0.00770    2.44240    2.47150    2.27510    3.12210   75.95470  143.75450
 5088.00000    0.16850   53.99180    2.54980    0.15710   10.26350    0.00780    2.44140    2.41300    2.29640    3.10230   76.06220  143.59740
 5088.50000    0.16790   54.46860    2.54000    0.15840   10.26520    0.00780    2.43920    2.35380    2.28270    2.93280   76.15460  143.51660
 5089.00000    0.17240   55.61560    2.53020    0.15770   10.26610    0.00790    2.44040    2.29730    2.23610    2.77250   76.24230  143.55680
 5089.50000    0.18220   56.63680    2.52640    0.15890   10.27390    0.00800    2.43830    2.24380    2.18400    2.62100   76.31100  143.71120
 5090.00000    0.18890   57.38640    2.53400    0.16100   10.27940    0.00810    2.43470    2.24340    2.18320    2.59780   76.41890  143.91870
 5090.50000    0.19010   57.29710    2.53750    0.16550   10.28720    0.00820    2.42670    2.27810    2.22190    2.67960   76.59810  144.19400
 5091.00000    0.19480   55.19820    2.54100    0.17070   10.29500    0.00830    2.41810    2.23520    2.14340    2.66560   76.77730  144.73440
 5091.50000    0.19950   53.84950    2.54440    0.17390   10.30270    0.00840    2.41270    2.09060    2.00460    2.48820   76.86300  145.20800
 5092.00000    0.19810   54.76680    2.54870    0.17060   10.32000    0.00840    2.41830    2.16480    2.02740    2.40570   76.79870  145.72730
 5092.50000    0.19220   58.80570    2.57490    0.16570   10.34150    0.00840    2.42670    2.43680    2.28140    2.51610   76.70550  146.30890
 5093.00000    0.18800   62.86920    2.60110    0.16160   10.37990    0.00840    2.43360    2.58060    2.51760    2.79350   76.58830  146.85160
 5093.50000    0.18470   63.27330    2.62720    0.16040   10.39950    0.00840    2.43570    2.54460    2.41140    2.99580   76.56810  147.28680
 5094.00000    0.18330   60.27390    2.61430    0.16030   10.40080    0.00840    2.43590    2.31770    2.19640    2.45570   76.51410  147.45620
 5094.50000    0.18230   57.32500    2.58200    0.15870   10.39980    0.00840    2.43870    2.11450    2.05240    2.29390   76.33930  147.44050
 5095.00000    0.18060   55.51770    2.55560    0.15200   10.39890    0.00840    2.45010    2.16640    2.05450    2.28090   76.29540  147.35590
 5095.50000    0.17260   54.73220    2.56210    0.14970   10.39790    0.00840    2.45410    2.28670    2.14400    2.60290   76.35660  147.49570
 5096.00000    0.17130   54.30480    2.55560    0.15230   10.40520    0.00840    2.44950    2.39640    2.19580    2.67540   76.50810  147.77080
 5096.50000    0.17370   53.95370    2.54640    0.16130   10.42180    0.00840    2.43410    2.28410    2.06570    2.59580   76.66190  148.23780
 5097.00000    0.17950   53.57170    2.53710    0.16460   10.43830    0.00840    2.42850    2.15780    1.91320    2.47400   76.83320  148.94560
 5097.50000    0.19130   53.36200    2.53430    0.17010   10.46680    0.00840    2.41920    2.03840    1.93740    2.47920   77.03190  149.68340
 5098.00000    0.20420   53.22810    2.53280    0.17580   10.51710    0.00840    2.40930    2.00320    1.93380    2.47030   77.32320  150.50990
 5098.50000    0.21220   52.96730    2.53130    0.18400   10.56730    0.00840    2.39290    1.97750    1.91150    2.39140   77.55010  151.37810
 5099.00000    0.21170   52.05390    2.52970    0.18750   10.61760    0.00840    2.38960    1.95660    1.90340    2.25010   77.75620  152.17260
 5099.50000    0.20350   51.05310    2.52820    0.18600   10.67320    0.00840    2.39050    1.93820    1.87130    2.21260   77.99940  152.93180
