~Version ---------------------------------------------------
VERS.   2.0 : CWLS log ASCII Standard -VERSION 2.0
WRAP.    NO : One line per depth step
DLM . SPACE : Column Data Section Delimiter
~Well ------------------------------------------------------
STRT .F                  200.0 : START DEPTH
STOP .F                 9803.0 : STOP DEPTH
STEP .F                    0.5 : STEP
NULL .                -9999.25 : NULL VALUE
COMP .                         : COMPANY
WELL .                         : WELL
FLD  .                         : FIELD
LOC  .                         : LOCATION
PROV .                         : PROVINCE
CNTY .                         : COUNTY
STAT .                         : STATE
CTRY .                         : COUNTRY
SRVC .                         : SERVICE COMPANY
DATE .                         : DATE
UWI  .                         : UNIQUE WELL ID
API  .                         : API NUMBER
SLAT .WGS84 2.2541198811984984 : SURFACE LATITUDE
SLON .WGS84  8.299205892898016 : SURFACE LONGITUDE
DATUM.F                    nan : DEPTH DATUM ELEV
~Curve Information -----------------------------------------
DEPT   .F     : 1 MEASURED DEPTH
TNPH_LS.DEC   : THERMAL NEUTRON POROSITY [LIMESTONE]
HSGRD  .GAPI  : HNGS STANDARD GAMMA RAY FROM DENSITY LOG
PEFZ   .B/E   : HRDD STANDARD RESOLUTION FORMATION PHOTOELECTRIC FACTOR
DPHZ_LS.DEC   : HGRD STANDARD RESOLUTION DENSITY POROSITY
HCALD  .IN    : HRCC CALIPER CALIBRATED FROM DENSITY LOG
HDRA   .G/C3  : HRDD SPINE AND RIBS DENSITY CORRECTION
RHOZ   .G/C3  : HRDD STANDARD RESOLUTION FORMATION DENSITY
RLA3   .OHMM  : APPARENT RESISTIVITY FROM COMPUTED FOCUSING MODE 3
RLA5   .OHMM  : APPARENT RESISTIVITY FROM COMPUTED FOCUSING MODE 5
RXOZ   .OHMM  : INVADED FORMATION RESISTIVITY FILTERED AT 18 INCHES
DTCO   .US/F  : DELTA-T COMPRESSIONAL
DTSM   .US/F  : DELTA-T SHEAR
~Params ----------------------------------------------------
~Other -----------------------------------------------------
~ASCII -----------------------------------------------------
# ...
 7228.00000    0.06090   36.68980    2.63150    0.08770    9.17070    0.00960    2.54290    6.94010    6.58760    7.62510   63.07640  106.57090
 7228.50000    0.06840   36.87130    2.59260    0.09650    9.18370    0.00840    2.52990    5.52970    5.22490    5.44640   63.43140  107.21240
 7229.00000    0.07590   37.00120    2.55360    0.10500    9.19200    0.00730    2.51700    4.51300    4.27820    4.87240   63.73880  107.66700
 7229.50000    0.08430   37.35970    2.51470    0.11350    9.18840    0.00640    2.50830    4.18880    3.94100    4.55110   64.05030  108.17270
 7230.00000    0.09090   38.32680    2.47580    0.11770    9.17930    0.00660    2.51060    3.88790    3.66930    4.27380   64.22280  108.42670
 7230.50000    0.09090   39.55080    2.44950    0.11700    9.17460    0.00680    2.51980    3.81120    3.60200    4.24180   64.37430  108.58960
 7231.00000    0.08670   40.23070    2.45930    0.11390    9.17330    0.00700    2.52910    4.28530    4.03880    4.54720   64.48950  108.72590
 7231.50000    0.08250   40.05260    2.51860    0.10920    9.16060    0.00720    2.53670    4.86530    4.67580    5.19750   64.65360  108.84460
 7232.00000    0.07830   39.13810    2.57800    0.10030    9.14790    0.00750    2.54360    5.52370    5.41330    5.94080   64.91060  109.22750
 7232.50000    0.07590   37.68990    2.67320    0.09130    9.13880    0.00770    2.56520    5.89250    5.62500    6.79050   65.18610  109.62940
 7233.00000    0.07650   36.48280    2.75100    0.08410    9.13720    0.00790    2.56810    9.42610    8.38350   11.55320   65.41830  109.95730
 7233.50000    0.08310   36.59590    2.77250    0.08660    9.13560    0.00810    2.55790    8.72700    8.54450   24.54500   65.53120  109.94730
 7234.00000    0.09650   43.62860    2.75470    0.10690    9.13400    0.00830    2.49220    4.84320    3.41850   10.39340   65.36860  109.64260
 7234.50000    0.11520   53.54780    2.70120    0.12390    9.13240    0.00850    2.49570    3.49570    2.99770    4.43480   64.95700  109.29180
 7235.00000    0.13280   73.09870    2.64770    0.12660    9.13080    0.00870    2.53110    4.12960    3.11470    4.45470   64.35590  108.55500
 7235.50000    0.14970   90.78280    2.67070    0.09820    9.12920    0.00900    2.56020   28.19380    5.03050    6.50480   63.27970  106.64430
 7236.00000    0.15290  100.45830    2.77990    0.07950    9.12770    0.00920    2.58940   53.42640   49.03850   29.81260   62.19710  104.74790
 7236.50000    0.12930   97.98870    2.90620    0.06420    9.12610    0.00780    2.61720   31.26860   39.48310   80.24490   61.10430  103.10320
 7237.00000    0.09780   82.79050    3.10400    0.04980    9.12450    0.00570    2.63860   21.89400   36.96170   25.98320   59.90560  101.19680
 7237.50000    0.06590   60.88540    3.45060    0.03380    9.12290    0.00440    2.66310   42.08530   66.30650   36.95300   59.08880  100.00340
 7238.00000    0.03480   45.37260    3.71250    0.01790    9.12130    0.00450    2.68490   96.84240  240.18340   55.78080   58.81340   99.65410
 7238.50000    0.02780   35.92560    3.61410    0.01540    9.11970    0.00450    2.68060   69.68200  133.92620  714.29170   58.62660   99.42610
 7239.00000    0.02780   35.36410    3.42040    0.02780    9.12110    0.00460    2.66130   21.30170   29.74280   32.23560   58.62070   99.46670
 7239.50000    0.03640   36.76220    3.13450    0.04760    9.12530    0.00460    2.62860    7.56930   11.33740   11.58280   58.80550   99.76940
 7240.00000    0.05300   37.66030    3.01360    0.06510    9.12960    0.00460    2.59870    9.12520   10.44270    9.07100   59.39690  100.73300
 7240.50000    0.05810   38.63700    2.89480    0.07580    9.13380    0.00470    2.58050   10.82330   12.61090    9.40600   60.03100  101.51310
 7241.00000    0.05780   39.74750    2.77600    0.07540    9.13810    0.00470    2.58110   10.36290   11.57390    8.95190   60.60780  102.40140
 7241.50000    0.05650   40.92860    2.79160    0.07110    9.14230    0.00480    2.58850    9.82550   10.38550    7.54700   61.02800  103.17450
 7242.00000    0.05530   42.43540    2.84330    0.07490    9.14650    0.00480    2.58200   10.85250   12.88460    9.25600   61.39960  103.87180
 7242.50000    0.05500   42.54710    2.89500    0.07010    9.15080    0.00480    2.59010   10.40280   14.62440   11.02110   61.84330  104.49280
 7243.00000    0.05900   44.16870    2.88180    0.06470    9.15500    0.00490    2.59900    7.90820   11.38850    9.36070   62.23800  105.17060
 7243.50000    0.06610   48.07430    2.82310    0.06490    9.15930    0.00490    2.59910    8.53750    9.37180    8.12230   62.68840  105.73360
 7244.00000    0.07930   58.59170    2.77660    0.07300    9.16350    0.00500    2.58510   11.96090   12.90040    9.56580   63.22030  106.33370
 7244.50000    0.09180   69.57780    2.76980    0.07860    9.16770    0.00500    2.57570   16.37680   17.96550   14.34790   63.76760  106.93720
 7245.00000    0.10430   81.69580    2.74210    0.08010    9.17200    0.00500    2.57280   21.84280   25.01930   19.95920   64.22830  107.46690
 7245.50000    0.11510   87.63670    2.70980    0.08390    9.17620    0.00510    2.56660   20.55460   26.32200   25.98230   64.67320  108.00780
 7246.00000    0.11570   87.40780    2.67750    0.08300    9.18050    0.00510    2.56820   14.81040   17.95240   19.89490   64.87690  108.44070
 7246.50000    0.11620   86.54450    2.63810    0.07890    9.18470    0.00520    2.57510   12.30980   12.62560   15.23380   65.06740  108.64120
 7247.00000    0.11660   85.63680    2.62250    0.07810    9.18890    0.00520    2.57650   12.42600   12.16250   13.67890   65.23230  108.78240
 7247.50000    0.11540   84.66770    2.63630    0.08260    9.19320    0.00520    2.56900   11.48460   10.59710   12.14830   65.36400  108.95230
 7248.00000    0.11420   81.85960    2.65010    0.08610    9.19740    0.00530    2.56280   10.04200    9.01080   10.48510   65.44730  109.04360
 7248.50000    0.11450   79.71610    2.64950    0.08650    9.20160    0.00530    2.56220    8.78060    8.06460    9.14400   65.48900  109.20920
 7249.00000    0.11420   77.40540    2.63400    0.08270    9.20590    0.00540    2.56820    8.01500    7.46770    8.90360   65.61820  109.54150
 7249.50000    0.11510   76.20810    2.60220    0.07750    9.21010    0.00540    2.57760    8.13320    7.10220    8.89300   65.78730  109.83350
 7250.00000    0.11920   77.46860    2.56850    0.07160    9.21440    0.00540    2.58750    8.25330    7.77390    9.16660   65.86190  110.10290
 7250.50000    0.12130   78.19710    2.56780    0.06940    9.21860    0.00550    2.59140    7.94020    7.72490    8.86320   65.91460  110.37660
 7251.00000    0.11970   76.64870    2.56710    0.07590    9.22280    0.00550    2.58030    7.60250    6.81250    7.79700   65.92030  110.26240
 7251.50000    0.11710   74.12510    2.56640    0.08700    9.22710    0.00560    2.56150    7.27920    5.89620    6.84090   65.82990  110.09670
 7252.00000    0.11430   71.99160    2.56570    0.09350    9.23130    0.00560    2.55030    6.96970    5.86580    6.16960   65.63910  109.99640
 7252.50000    0.11190   70.22860    2.56500    0.09420    9.23560    0.00560    2.54900    6.69640    5.81730    6.06220   65.50830  109.89610
 7253.00000    0.11040   67.81910    2.56430    0.09110    9.23980    0.00570    2.55410    6.74980    5.73000    5.99410   65.52980  109.86990
 7253.50000    0.10820   65.23840    2.56850    0.08760    9.24400    0.00570    2.56130    6.89040    5.99020    6.16140   65.70450  110.14280
 7254.00000    0.10230   64.16660    2.57800    0.08640    9.24640    0.00570    2.56550    8.05020    6.39210    6.85490   65.80910  110.51450
 7254.50000    0.09760   65.93570    2.57330    0.08820    9.24760    0.00580    2.56030    8.58450    6.55130    7.95300   65.92810  110.90510
 7255.00000    0.10300   68.81170    2.55240    0.09190    9.24880    0.00580    2.55330    7.85160    6.15150    7.49950   66.10170  111.38670
 7255.50000    0.11140   71.86650    2.53560    0.09730    9.24990    0.00590    2.54380    7.18120    5.88430    6.55070   66.32380  112.16350
