~Version ---------------------------------------------------
VERS.   2.0 : CWLS log ASCII Standard -VERSION 2.0
WRAP.    NO : One line per depth step
DLM . SPACE : Column Data Section Delimiter
~Well ------------------------------------------------------
STRT .F                  200.0 : START DEPTH
STOP .F                 9803.0 : STOP DEPTH
STEP .F                    0.5 : STEP
NULL .                -9999.25 : NULL VALUE
COMP .                         : COMPANY
WELL .                         : WELL
FLD  .                         : FIELD
LOC  .                         : LOCATION
PROV .                         : PROVINCE
CNTY .                         : COUNTY
STAT .                         : STATE
CTRY .                         : COUNTRY
SRVC .                         : SERVICE COMPANY
DATE .                         : DATE
UWI  .                         : UNIQUE WELL ID
API  .                         : API NUMBER
SLAT .WGS84 2.2541198811984984 : SURFACE LATITUDE
SLON .WGS84  8.299205892898016 : SURFACE LONGITUDE
DATUM.F                    nan : DEPTH DATUM ELEV
~Curve Information -----------------------------------------
DEPT   .F     : 1 MEASURED DEPTH
TNPH_LS.DEC   : THERMAL NEUTRON POROSITY [LIMESTONE]
HSGRD  .GAPI  : HNGS STANDARD GAMMA RAY FROM DENSITY LOG
PEFZ   .B/E   : HRDD STANDARD RESOLUTION FORMATION PHOTOELECTRIC FACTOR
DPHZ_LS.DEC   : HGRD STANDARD RESOLUTION DENSITY POROSITY
HCALD  .IN    : HRCC CALIPER CALIBRATED FROM DENSITY LOG
HDRA   .G/C3  : HRDD SPINE AND RIBS DENSITY CORRECTION
RHOZ   .G/C3  : HRDD STANDARD RESOLUTION FORMATION DENSITY
RLA3   .OHMM  : APPARENT RESISTIVITY FROM COMPUTED FOCUSING MODE 3
RLA5   .OHMM  : APPARENT RESISTIVITY FROM COMPUTED FOCUSING MODE 5
RXOZ   .OHMM  : INVADED FORMATION RESISTIVITY FILTERED AT 18 INCHES
DTCO   .US/F  : DELTA-T COMPRESSIONAL
DTSM   .US/F  : DELTA-T SHEAR
~Params ----------------------------------------------------
~Other -----------------------------------------------------
~ASCII -----------------------------------------------------
# ...
 6164.00000    0.15190  100.07770    2.86070    0.07430    9.45550    0.00490    2.58290   30.38900   28.71090   35.31680   68.30010  116.46630
 6164.50000    0.15320   94.19990    2.80660    0.07920    9.46780    0.00490    2.57440   20.77300   16.06230   23.16060   68.55920  117.16760
 6165.00000    0.14610   82.43410    2.75250    0.09500    9.48020    0.00500    2.54770   11.49940    8.20260   11.17200   68.73950  117.92850
 6165.50000    0.13760   72.51300    2.70230    0.10950    9.52320    0.00500    2.52240    5.89140    4.67030    5.46250   68.87440  118.76240
 6166.00000    0.13370   67.96640    2.69070    0.12110    9.53820    0.00510    2.50300    4.46120    4.21030    4.47220   68.97660  119.63690
 6166.50000    0.13490   65.85220    2.70130    0.12250    9.54490    0.00510    2.50050    4.02180    3.81760    3.95750   69.01000  120.04280
 6167.00000    0.13790   64.82330    2.70950    0.12040    9.53440    0.00510    2.50410    3.85520    3.75820    3.89830   69.02570  120.63710
 6167.50000    0.13460   64.29220    2.75630    0.11860    9.52390    0.00520    2.50720    3.91570    3.73820    4.03140   69.11790  121.11520
 6168.00000    0.12550   64.69720    2.80320    0.11580    9.51340    0.00520    2.51190    4.73120    4.28320    4.92240   69.16030  121.48520
 6168.50000    0.12310   64.97430    2.85000    0.11340    9.50410    0.00530    2.51610    5.63260    5.17610    7.76970   69.24980  121.91330
 6169.00000    0.12910   65.25930    2.82700    0.11340    9.49900    0.00530    2.51600    5.63260    5.22730    6.16390   69.32390  122.24720
 6169.50000    0.14320   66.05330    2.75720    0.11660    9.51440    0.00540    2.51050    4.66110    4.12010    4.14210   69.36800  122.42720
 6170.00000    0.15800   66.70670    2.68750    0.12060    9.51710    0.00540    2.50360    3.76700    3.67480    3.90110   69.41600  122.52790
 6170.50000    0.15330   66.85970    2.64830    0.12330    9.51980    0.00540    2.49910    3.85900    3.74150    3.98840   69.44090  122.73860
 6171.00000    0.15100   65.99250    2.66670    0.12370    9.52260    0.00550    2.49840    3.91750    3.82380    4.17280   69.44310  122.93050
 6171.50000    0.15150   65.65980    2.68420    0.12410    9.52530    0.00550    2.49780    3.73940    3.58220    4.09670   69.42450  122.83840
 6172.00000    0.15110   66.44000    2.68200    0.11890    9.52800    0.00560    2.50690    3.98220    3.76490    4.01110   69.34850  122.70420
 6172.50000    0.14550   68.05810    2.69940    0.11360    9.53070    0.00560    2.52030    4.39330    4.15350    4.40870   69.23250  122.53890
 6173.00000    0.13730   69.10900    2.71680    0.11330    9.53350    0.00570    2.51300    4.63990    4.52300    5.02470   69.09380  122.34570
 6173.50000    0.14030   69.20030    2.73420    0.12010    9.53620    0.00570    2.49430    4.61800    4.35060    4.85270   69.00120  122.16930
 6174.00000    0.14380   68.43090    2.74690    0.12690    9.53890    0.00570    2.49360    4.15110    3.91170    4.38900   68.95880  121.99290
 6174.50000    0.14980   67.59200    2.75830    0.12550    9.54080    0.00580    2.50190    4.00200    3.89510    4.16630   68.93200  121.83300
 6175.00000    0.15460   68.36560    2.76450    0.12140    9.54080    0.00580    2.50550    4.09730    3.98790    4.19110   68.88870  121.86110
 6175.50000    0.15200   70.32600    2.76070    0.12320    9.54080    0.00580    2.50110    4.18820    4.08290    4.28090   68.83760  121.91890
 6176.00000    0.15030   72.17380    2.73830    0.12300    9.54080    0.00580    2.49910    4.23810    4.12970    4.40440   68.67350  121.39970
 6176.50000    0.14940   72.52430    2.71590    0.12140    9.54080    0.00590    2.50320    4.04880    3.79060    4.30440   68.33270  120.85520
 6177.00000    0.14800   71.13600    2.69340    0.11610    9.54080    0.00590    2.51140    3.96580    3.84520    4.15740   67.95810  120.21780
 6177.50000    0.14660   68.27770    2.68250    0.11340    9.54080    0.00590    2.51600    4.11760    3.99250    4.13420   67.59360  119.44590
 6178.00000    0.14100   65.66440    2.68310    0.11250    9.53920    0.00590    2.51770    3.99990    3.82920    4.24770   67.36800  118.97720
 6178.50000    0.13270   61.91220    2.68430    0.11130    9.53640    0.00590    2.51970    4.14660    3.96370    4.42700   67.06420  118.44430
 6179.00000    0.12070   56.86910    2.68550    0.10870    9.53360    0.00590    2.52410    4.46680    4.26970    4.66030   66.84870  118.11900
 6179.50000    0.10970   52.52830    2.68140    0.10410    9.53080    0.00590    2.53340    4.73320    4.59920    4.94330   66.75180  118.02990
 6180.00000    0.10210   49.33080    2.67160    0.09950    9.52800    0.00590    2.53890    4.73400    4.62070    5.55700   66.85530  118.11720
 6180.50000    0.10120   49.41800    2.66190    0.09760    9.52520    0.00590    2.51410    4.56100    4.33870    5.62290   67.00730  118.20890
 6181.00000    0.10680   49.81470    2.65210    0.11100    9.52240    0.00590    2.48920    4.14930    3.92230    4.99490   67.25470  118.58630
 6181.50000    0.12030   50.00070    2.64230    0.12840    9.52620    0.00590    2.47480    4.00750    3.90670    4.46850   67.46990  119.05900
 6182.00000    0.13250   50.10600    2.61080    0.13280    9.53390    0.00590    2.47450    3.88000    3.21430    4.21420   67.56300  119.19560
 6182.50000    0.13870   51.05740    2.55880    0.13310    9.54280    0.00590    2.47440    2.98610    2.89980    3.89450   67.62610  119.29700
 6183.00000    0.13560   52.56240    2.52980    0.13270    9.55740    0.00590    2.47490    2.89000    2.80640    3.68360   67.63060  119.34530
 6183.50000    0.13060   55.30000    2.51770    0.13150    9.57190    0.00590    2.47840    2.82410    2.75650    3.61930   67.67670  119.50210
 6184.00000    0.13170   59.35580    2.52930    0.12940    9.58650    0.00590    2.48440    3.14180    2.77780    3.63020   67.86250  120.03530
 6184.50000    0.13630   64.75090    2.56110    0.12420    9.60110    0.00590    2.49740    3.87240    3.45220    4.08230   68.15910  120.65850
 6185.00000    0.13470   64.37010    2.59280    0.11550    9.61570    0.00590    2.51240    4.13820    3.99940    4.74840   68.66730  121.87490
 6185.50000    0.12940   59.83630    2.62460    0.11040    9.63030    0.00590    2.52120    4.15440    3.87180    5.38640   69.47680  123.20070
 6186.00000    0.12760   54.18710    2.58950    0.12150    9.63420    0.00590    2.50260    3.52710    3.17910    5.05860   70.31310  124.87500
 6186.50000    0.13350   49.11680    2.54340    0.14090    9.63420    0.00590    2.46920    2.89580    2.61040    4.43540   71.37990  126.72310
 6187.00000    0.14490   46.97080    2.49730    0.16210    9.63420    0.00600    2.43290    2.50480    2.34620    3.74390   72.23920  128.40290
 6187.50000    0.15510   46.70370    2.42640    0.18340    9.63420    0.00600    2.39680    2.37430    2.22140    3.39390   72.93460  129.39760
 6188.00000    0.16440   47.14430    2.36250    0.18590    9.63420    0.00600    2.39200    2.25060    2.16760    3.23590   73.33170  129.82460
 6188.50000    0.17370   48.16600    2.34800    0.18270    9.63420    0.00600    2.39760    2.20260    2.14070    3.22950   73.35770  130.04940
 6189.00000    0.17870   47.77010    2.35100    0.17880    9.61990    0.00600    2.40430    2.35240    2.25660    3.26620   73.03280  129.48050
 6189.50000    0.17720   47.66140    2.37200    0.17480    9.60480    0.00600    2.41110    2.56200    2.41000    3.34210   72.35160  128.15790
 6190.00000    0.17210   48.13820    2.38380    0.17040    9.59090    0.00600    2.41860    2.85160    2.49770    3.57760   71.79840  127.30810
 6190.50000    0.16740   48.74950    2.39570    0.16600    9.58050    0.00600    2.42610    2.62030    2.50570    3.88840   71.41720  126.63240
 6191.00000    0.16330   49.23410    2.40760    0.16240    9.57010    0.00600    2.43230    2.77490    2.67400    4.06570   71.14010  126.00110
 6191.50000    0.16250   49.27990    2.41950    0.16370    9.55980    0.00600    2.43020    2.96730    2.85370    4.10550   70.83000  125.50430
