~Version ---------------------------------------------------
VERS.   2.0 : CWLS log ASCII Standard -VERSION 2.0
WRAP.    NO : One line per depth step
DLM . SPACE : Column Data Section Delimiter
~Well ------------------------------------------------------
STRT .F                  200.0 : START DEPTH
STOP .F                 9803.0 : STOP DEPTH
STEP .F                    0.5 : STEP
NULL .                -9999.25 : NULL VALUE
COMP .                         : COMPANY
WELL .                         : WELL
FLD  .                         : FIELD
LOC  .                         : LOCATION
PROV .                         : PROVINCE
CNTY .                         : COUNTY
STAT .                         : STATE
CTRY .                         : COUNTRY
SRVC .                         : SERVICE COMPANY
DATE .                         : DATE
UWI  .                         : UNIQUE WELL ID
API  .                         : API NUMBER
SLAT .WGS84 2.2541198811984984 : SURFACE LATITUDE
SLON .WGS84  8.299205892898016 : SURFACE LONGITUDE
DATUM.F                    nan : DEPTH DATUM ELEV
~Curve Information -----------------------------------------
DEPT   .F     : 1 MEASURED DEPTH
TNPH_LS.DEC   : THERMAL NEUTRON POROSITY [LIMESTONE]
HSGRD  .GAPI  : HNGS STANDARD GAMMA RAY FROM DENSITY LOG
PEFZ   .B/E   : HRDD STANDARD RESOLUTION FORMATION PHOTOELECTRIC FACTOR
DPHZ_LS.DEC   : HGRD STANDARD RESOLUTION DENSITY POROSITY
HCALD  .IN    : HRCC CALIPER CALIBRATED FROM DENSITY LOG
HDRA   .G/C3  : HRDD SPINE AND RIBS DENSITY CORRECTION
RHOZ   .G/C3  : HRDD STANDARD RESOLUTION FORMATION DENSITY
RLA3   .OHMM  : APPARENT RESISTIVITY FROM COMPUTED FOCUSING MODE 3
RLA5   .OHMM  : APPARENT RESISTIVITY FROM COMPUTED FOCUSING MODE 5
RXOZ   .OHMM  : INVADED FORMATION RESISTIVITY FILTERED AT 18 INCHES
DTCO   .US/F  : DELTA-T COMPRESSIONAL
DTSM   .US/F  : DELTA-T SHEAR
~Params ----------------------------------------------------
~Other -----------------------------------------------------
~ASCII -----------------------------------------------------
# ...
 7592.00000    0.15370   46.00480    2.42510    0.16340    9.24440    0.00670    2.43100    2.80220    2.74490    3.24750   70.05620  121.52210
 7592.50000    0.15320   44.56380    2.48060    0.16380    9.25380    0.00630    2.43020    2.83400    2.69590    3.32580   69.76850  121.48950
 7593.00000    0.14700   44.46020    2.53610    0.16020    9.26310    0.00600    2.43610    3.05610    2.65200    3.79690   69.38950  120.70760
 7593.50000    0.13880   45.61100    2.55700    0.15280    9.27250    0.00560    2.44900    3.51030    3.04930    4.35750   68.94110  119.48890
 7594.00000    0.13100   47.55620    2.55620    0.14480    9.27940    0.00520    2.46260    3.97840    3.51510    4.72240   68.31210  118.14070
 7594.50000    0.12450   49.52410    2.52670    0.13760    9.28220    0.00480    2.47490    4.08700    3.68600    4.27880   67.71580  117.06560
 7595.00000    0.11800   51.25150    2.49720    0.13030    9.28500    0.00450    2.48730    4.19350    3.17780    4.37600   67.24370  116.20060
 7595.50000    0.11180   52.43050    2.47260    0.12310    9.28770    0.00410    2.49970    4.24750    3.22170    4.45470   67.06020  115.51780
 7596.00000    0.11130   53.08180    2.47670    0.11730    9.29050    0.00370    2.50950    4.07360    3.64810    4.92830   66.97240  115.49170
 7596.50000    0.11370   53.23740    2.45560    0.11710    9.29330    0.00340    2.50950    4.24990    3.86090    5.17560   66.94000  115.49220
 7597.00000    0.11780   52.38470    2.40020    0.12410    9.29600    0.00360    2.49770    4.20580    3.68580    4.71120   67.03200  115.57030
 7597.50000    0.12200   50.45180    2.35510    0.12970    9.29880    0.00380    2.48830    4.00190    3.30970    4.22500   67.25550  116.06840
 7598.00000    0.12390   49.25370    2.36650    0.12750    9.30160    0.00400    2.49190    3.80080    3.02180    4.15190   67.60410  116.80700
 7598.50000    0.12450   49.11790    2.37790    0.12740    9.30430    0.00420    2.49220    3.74810    3.02170    4.50480   67.94620  117.52770
 7599.00000    0.12760   49.11980    2.38930    0.13040    9.30710    0.00440    2.48690    3.85670    3.57810    4.65700   68.26760  118.39890
 7599.50000    0.13560   49.05040    2.39530    0.13550    9.30990    0.00460    2.47820    3.56580    3.37680    4.04640   68.55670  119.14040
 7600.00000    0.14490   49.12680    2.39660    0.13930    9.31260    0.00480    2.47180    3.37110    3.12380    3.52480   68.90010  119.86110
 7600.50000    0.14780   49.55990    2.39790    0.14020    9.31540    0.00510    2.47000    3.18690    2.91210    3.40020   69.21440  120.48650
 7601.00000    0.14880   51.54200    2.39920    0.14270    9.31970    0.00530    2.46520    3.01290    2.67200    3.39320   69.34360  120.83190
 7601.50000    0.14940   53.26560    2.38330    0.15020    9.32450    0.00550    2.45300    2.91730    2.46990    3.31250   69.29800  121.01350
 7602.00000    0.14850   53.97310    2.36710    0.14920    9.32930    0.00570    2.45470    2.94530    2.73260    3.29040   69.29150  120.96090
 7602.50000    0.14750   54.14210    2.33410    0.14850    9.33400    0.00590    2.45590    2.98260    2.81810    3.43070   69.39910  120.91160
 7603.00000    0.14740   54.70550    2.33450    0.15100    9.33880    0.00610    2.45160    2.78660    2.75890    3.30770   69.59280  120.99740
 7603.50000    0.14830   57.12490    2.35160    0.15190    9.34360    0.00630    2.45060    2.72230    2.16560    2.84810   69.90190  121.19590
 7604.00000    0.15020   61.42170    2.41020    0.13650    9.34840    0.00650    2.47720    2.83900    2.63590    3.18020   70.24310  121.60110
 7604.50000    0.15170   64.91950    2.42410    0.11990    9.35310    0.00700    2.50490    4.01490    3.65830    4.80570   70.60770  121.92740
 7605.00000    0.15400   64.48930    2.40630    0.12320    9.35790    0.00710    2.49890    4.83220    4.55510    7.17750   70.94150  122.18360
 7605.50000    0.16130   60.86450    2.38810    0.14180    9.36270    0.00700    2.46630    3.67290    2.85270    4.45080   71.23120  122.43990
 7606.00000    0.16920   57.63720    2.36970    0.16000    9.36740    0.00690    2.43570    2.44970    2.04460    2.96760   71.48390  122.69610
 7606.50000    0.17400   55.12500    2.35140    0.16520    9.37200    0.00680    2.42730    2.38180    2.25630    2.57050   71.56340  122.92220
 7607.00000    0.16440   52.64830    2.33310    0.16460    9.36920    0.00670    2.42860    2.63860    2.53170    2.80140   71.64290  123.12170
 7607.50000    0.15210   51.34510    2.32840    0.15820    9.36640    0.00660    2.43930    3.00410    2.84260    3.64320   71.71610  123.28750
 7608.00000    0.14460   52.04760    2.34190    0.15860    9.36370    0.00630    2.43860    3.42010    3.19170    3.99170   71.59040  122.95910
 7608.50000    0.14760   54.35550    2.35540    0.15870    9.36090    0.00480    2.43860    3.75090    3.49960    4.11360   71.07930  121.70150
 7609.00000    0.14850   55.02620    2.36900    0.15360    9.35810    0.00340    2.44760    3.99440    3.83670    4.14950   70.52120  120.29060
 7609.50000    0.14360   53.44120    2.40910    0.14050    9.35530    0.00340    2.46990    4.25380    4.18590    4.67560   70.05650  118.56290
 7610.00000    0.13810   50.85080    2.49210    0.13310    9.35250    0.00340    2.48240    4.25800    4.13150    5.25650   69.20130  117.29930
 7610.50000    0.13260   49.83270    2.56350    0.13170    9.34330    0.00340    2.48470    4.10710    3.94270    5.88850   68.90480  116.21310
 7611.00000    0.12860   50.38380    2.60410    0.12880    9.33370    0.00340    2.48980    3.81670    3.54670    6.26950   68.50450  115.58080
 7611.50000    0.12600   52.56140    2.55440    0.12550    9.32420    0.00340    2.49540    3.72430    3.57510    5.24510   68.12890  115.15740
 7612.00000    0.12330   54.46210    2.50470    0.12220    9.31470    0.00340    2.50100    4.86810    4.50050    5.36440   67.97730  114.79520
 7612.50000    0.12070   55.02270    2.45490    0.12050    9.30520    0.00340    2.50380    4.71560    4.37780    5.57050   67.81010  114.37690
 7613.00000    0.11810   53.47890    2.44570    0.12280    9.29560    0.00340    2.49970    4.30950    4.00840    5.11400   67.75320  114.06650
 7613.50000    0.11520   51.25810    2.45480    0.12350    9.28610    0.00340    2.49880    3.98510    3.78090    4.51680   67.71800  113.93310
 7614.00000    0.10980   49.46280    2.46400    0.11850    9.27660    0.00340    2.50740    4.40430    3.92290    5.22050   67.72050  113.68740
 7614.50000    0.10530   48.86340    2.47320    0.11240    9.26700    0.00340    2.51760    5.98340    5.34620    8.00940   67.71550  113.45830
 7615.00000    0.10470   48.83210    2.47340    0.11870    9.25750    0.00340    2.50660    6.92300    6.26970    8.18610   67.70840  113.44870
 7615.50000    0.11100   49.23150    2.44050    0.12780    9.24800    0.00340    2.49100    5.74970    5.08900    6.49480   67.68790  113.44660
 7616.00000    0.12150   50.05330    2.38240    0.13410    9.23850    0.00340    2.48060    4.72600    4.24160    5.32120   67.62710  113.47820
 7616.50000    0.12150   51.33240    2.35390    0.13030    9.22890    0.00340    2.48730    4.64310    4.30130    5.22820   67.54290  113.49740
 7617.00000    0.11500   51.94310    2.35660    0.12290    9.22420    0.00340    2.49990    5.06410    4.88250    5.64350   67.45550  113.43450
 7617.50000    0.10840   51.47580    2.35920    0.11840    9.23180    0.00340    2.50740    5.52320    5.14090    6.57170   67.34290  113.46660
 7618.00000    0.10420   49.91010    2.36190    0.12070    9.23940    0.00340    2.50330    5.42490    4.91170    6.38380   67.27240  113.46470
 7618.50000    0.10500   49.09590    2.36460    0.12980    9.24700    0.00340    2.48780    4.97580    4.53760    6.20440   67.20800  113.45670
 7619.00000    0.11190   49.06360    2.36720    0.13320    9.25460    0.00330    2.48210    4.58220    4.19200    5.03140   67.13390  113.45130
 7619.50000    0.11670   49.63340    2.36990    0.13030    9.26220    0.00330    2.48710    4.23300    3.92490    4.80940   67.05570  113.58070
