~Version ---------------------------------------------------
VERS.   2.0 : CWLS log ASCII Standard -VERSION 2.0
WRAP.    NO : One line per depth step
DLM . SPACE : Column Data Section Delimiter
~Well ------------------------------------------------------
STRT .F                  200.0 : START DEPTH
STOP .F                 9803.0 : STOP DEPTH
STEP .F                    0.5 : STEP
NULL .                -9999.25 : NULL VALUE
COMP .                         : COMPANY
WELL .                         : WELL
FLD  .                         : FIELD
LOC  .                         : LOCATION
PROV .                         : PROVINCE
CNTY .                         : COUNTY
STAT .                         : STATE
CTRY .                         : COUNTRY
SRVC .                         : SERVICE COMPANY
DATE .                         : DATE
UWI  .                         : UNIQUE WELL ID
API  .                         : API NUMBER
SLAT .WGS84 2.2541198811984984 : SURFACE LATITUDE
SLON .WGS84  8.299205892898016 : SURFACE LONGITUDE
DATUM.F                    nan : DEPTH DATUM ELEV
~Curve Information -----------------------------------------
DEPT   .F     : 1 MEASURED DEPTH
TNPH_LS.DEC   : THERMAL NEUTRON POROSITY [LIMESTONE]
HSGRD  .GAPI  : HNGS STANDARD GAMMA RAY FROM DENSITY LOG
PEFZ   .B/E   : HRDD STANDARD RESOLUTION FORMATION PHOTOELECTRIC FACTOR
DPHZ_LS.DEC   : HGRD STANDARD RESOLUTION DENSITY POROSITY
HCALD  .IN    : HRCC CALIPER CALIBRATED FROM DENSITY LOG
HDRA   .G/C3  : HRDD SPINE AND RIBS DENSITY CORRECTION
RHOZ   .G/C3  : HRDD STANDARD RESOLUTION FORMATION DENSITY
RLA3   .OHMM  : APPARENT RESISTIVITY FROM COMPUTED FOCUSING MODE 3
RLA5   .OHMM  : APPARENT RESISTIVITY FROM COMPUTED FOCUSING MODE 5
RXOZ   .OHMM  : INVADED FORMATION RESISTIVITY FILTERED AT 18 INCHES
DTCO   .US/F  : DELTA-T COMPRESSIONAL
DTSM   .US/F  : DELTA-T SHEAR
~Params ----------------------------------------------------
~Other -----------------------------------------------------
~ASCII -----------------------------------------------------
# ...
 9412.00000    0.17540  142.66750    3.11210    0.12070    8.86150    0.00540    2.50340  369.65770  462.30380  268.98010   77.33370  119.56760
 9412.50000    0.18030  149.75750    3.08060    0.12470    8.86270    0.00480    2.49660  312.61730  327.48260  225.69400   77.30320  119.24540
 9413.00000    0.17780  149.00320    3.06130    0.13210    8.86380    0.00410    2.48410  351.53440  403.58710  250.74640   77.18590  118.89820
 9413.50000    0.16910  138.65160    3.11310    0.13350    8.86490    0.00370    2.48190  353.07840  388.19060  252.33090   76.99670  118.53890
 9414.00000    0.16050  120.39710    3.20830    0.12330    8.86600    0.00420    2.49920  334.32250  358.18310  222.56000   76.79870  118.39580
 9414.50000    0.15410  103.67850    3.24740    0.10820    8.86720    0.00470    2.52510  394.35010  479.79850  227.89830   76.27170  118.15550
 9415.00000    0.14990   96.00800    3.28650    0.09990    8.86830    0.00530    2.53920  355.21970  427.97060  209.39550   75.44000  117.74460
 9415.50000    0.14950   99.96900    3.31220    0.10910    8.86940    0.00810    2.52350  357.72380  375.97960  255.45630   74.72400  117.59450
 9416.00000    0.15240  108.12210    3.30890    0.12410    8.87050    0.01080    2.49760  357.64040  392.85530  191.14720   74.00960  117.39380
 9416.50000    0.15720  113.60180    3.33810    0.13490    8.87170    0.01270    2.47930  342.56380  368.53300  256.72700   73.71090  117.19040
 9417.00000    0.15520  106.43180    3.36730    0.12520    8.87280    0.01050    2.49660  328.29390  335.58540  275.37630   73.76970  117.18650
 9417.50000    0.14120   95.04430    3.51020    0.09330    8.87390    0.00830    2.54900  322.48630  335.50710  242.24710   74.32350  117.54280
 9418.00000    0.11910   86.47910    3.70910    0.06130    8.87500    0.00680    2.60540  371.60920  442.27300  325.46340   75.23020  118.45270
 9418.50000    0.11150   84.66810    3.75590    0.03890    8.87620    0.01450    2.64320  492.04430  537.39130  494.02560   76.38250  119.39240
 9419.00000    0.11810   88.94800    3.80260    0.05510    8.87730    0.02680    2.61160  487.56560  528.49730  422.54030   77.67330  120.37290
 9419.50000    0.15130   91.71310    3.56710    0.09300    8.87840    0.02960    2.55040  455.80310  498.88090  356.75660   78.47210  121.28530
 9420.00000    0.17700   90.52690    3.29450    0.12250    8.88200    0.02340    2.50030  428.93260  492.99960  281.63420   79.23000  122.03830
 9420.50000    0.18500   89.82670    3.19970    0.13630    8.88920    0.01010    2.47700  371.49720  447.77430  225.31240   79.75000  122.74590
 9421.00000    0.17920   94.32150    3.14040    0.12900    8.89640    0.00480    2.48960  270.47710  326.26560  181.86480   79.85480  123.03870
 9421.50000    0.17890  100.86860    3.08120    0.12620    8.90350    0.00420    2.49420  204.19060  212.77350  104.34830   79.62830  122.91650
 9422.00000    0.18480  106.39810    3.04340    0.12720    8.91070    0.00370    2.49240  189.70630  205.36540   79.34600   79.34440  122.67550
 9422.50000    0.19430  109.13810    3.04540    0.13080    8.91790    0.00370    2.48640  218.92930  246.69060   71.84390   79.10750  122.50200
 9423.00000    0.19970  102.98420    3.07070    0.12040    8.92510    0.00370    2.50390  213.53490  213.60680   74.61070   78.93830  122.45550
 9423.50000    0.19120   97.36910    3.09590    0.10510    8.93230    0.00400    2.53000  190.51890  220.18620   71.94240   78.87220  122.43990
 9424.00000    0.17370   94.85970    3.16750    0.08930    8.93950    0.00450    2.55730  232.80230  268.44330   97.47550   78.80040  122.40390
 9424.50000    0.16730   95.35030    3.18010    0.09740    8.94670    0.00470    2.54350  216.51590  260.21400  134.00590   78.76740  122.33560
 9425.00000    0.16980   99.20100    3.10760    0.10580    8.95390    0.00480    2.52930  154.01390  178.96510   87.87390   78.75020  122.26730
 9425.50000    0.17900  105.57320    3.08470    0.11340    8.96110    0.00490    2.51610  141.05050  153.94390   64.04410   78.75160  122.19910
 9426.00000    0.18960  115.83760    3.07980    0.11850    8.96830    0.00500    2.50740  181.27010  244.84540   78.94640   78.75220  122.13080
 9426.50000    0.19730  122.83370    3.07500    0.13200    8.97550    0.00520    2.48430  322.45890  370.14180  128.01870   78.75600  122.06250
 9427.00000    0.19880  119.83190    3.07010    0.13430    8.97730    0.00530    2.48030  326.71170  346.99480  173.28410   78.88000  121.99400
 9427.50000    0.18140  111.64930    3.10430    0.12450    8.97490    0.00620    2.49680  260.06270  299.17990  201.46740   79.04610  121.82180
 9428.00000    0.15350  102.85720    3.17530    0.10380    8.97250    0.00790    2.53260  217.13500  233.49310  123.10850   79.22270  121.71600
 9428.50000    0.15150   97.22650    3.24640    0.09190    8.97010    0.00710    2.55290  232.28130  255.80440  112.57050   79.41650  121.82740
 9429.00000    0.15400   94.49870    3.06490    0.09980    8.96760    0.00500    2.53930  214.94030  283.86320  110.81900   79.66860  121.87780
 9429.50000    0.16060   94.04120    2.94080    0.11950    8.96520    0.00330    2.50550  135.04760  160.87150   87.95880   79.93590  121.89680
 9430.00000    0.16950   97.52670    2.88220    0.13530    8.96280    0.00180    2.47860  131.75860  153.46040   78.62790   80.08580  121.96930
 9430.50000    0.17330  104.08760    2.88780    0.14360    8.96040    0.00150    2.46430  213.30220  245.89270   87.40910   80.13700  122.04180
 9431.00000    0.17850  110.93920    2.89340    0.14670    8.95800    0.00240    2.45910  356.57450  393.99890  166.61040   79.77740  121.56880
 9431.50000    0.18000  115.49020    2.89890    0.14800    8.95560    0.00320    2.45680  408.69060  440.88200  215.33870   78.56750  120.45570
 9432.00000    0.18050  117.44530    2.92540    0.14770    8.95320    0.00410    2.45740  444.94380  466.16150  253.13170   76.68170  118.31930
 9432.50000    0.18380  119.09600    2.98070    0.14680    8.95070    0.00490    2.45890  409.21860  433.27350  248.30800   73.98410  116.02370
 9433.00000    0.18830  121.13190    3.03600    0.14390    8.94830    0.00580    2.46390  366.61410  378.22250  236.22120   71.34000  113.98820
 9433.50000    0.19130  121.37770    3.12310    0.13770    8.94590    0.00660    2.47450  342.67150  371.09920  205.76360   68.94870  110.77760
 9434.00000    0.16070  104.33310    3.37390    0.12480    8.94350    0.00550    2.49650  337.17110  422.16350  195.67710   66.94740  109.21190
 9434.50000    0.12520   82.17350    3.72660    0.08460    8.94110    0.00400    2.56510  626.80090  839.75500  236.10250   65.66130  107.79050
 9435.00000    0.07800   52.69420    4.13290    0.04530    8.93870    0.00460    2.63250 1557.68490 2248.70020  361.55280   65.22810  107.14150
 9435.50000    0.03360   39.92780    4.53890    0.01460    8.93620    0.00600    2.68540 3381.63790 6097.98440  700.39200   65.25530  107.07150
 9436.00000    0.03210   50.05590    4.54790   -0.00230    8.93380    0.00740    2.71740 3022.07470 4315.85400  795.63510   65.73260  107.42300
 9436.50000    0.05080   76.05710    4.40740    0.00570    8.93140    0.00870    2.70020 1330.97400 2477.68360  694.44920   66.26190  108.02300
 9437.00000    0.08130  111.30440    4.12180    0.03610    8.92900    0.00980    2.64870  503.05430  619.30440  411.98900   67.23100  108.91810
 9437.50000    0.13290  145.31300    3.72610    0.08190    8.92660    0.00780    2.57000  331.00480  347.48460  266.64170   68.37140  110.27780
 9438.00000    0.18100  156.25620    3.50240    0.11850    8.92420    0.00530    2.50730  364.28430  379.39370  211.26970   69.34710  111.20840
 9438.50000    0.18280  151.52130    3.31820    0.12420    8.92170    0.00210    2.49790  464.14240  498.56190  244.61690   70.46100  112.22340
 9439.00000    0.14840  132.55770    3.32930    0.10830    8.91930    0.00140    2.52600  599.01600  728.03000  292.96240   71.02880  112.87950
 9439.50000    0.11680  112.18510    3.32440    0.08970    8.91690    0.00330    2.55660  875.24830 1172.35950  405.20770   71.39160  113.37580
