~Version ---------------------------------------------------
VERS.   2.0 : CWLS log ASCII Standard -VERSION 2.0
WRAP.    NO : One line per depth step
DLM . SPACE : Column Data Section Delimiter
~Well ------------------------------------------------------
STRT .F                  200.0 : START DEPTH
STOP .F                 9803.0 : STOP DEPTH
STEP .F                    0.5 : STEP
NULL .                -9999.25 : NULL VALUE
COMP .                         : COMPANY
WELL .                         : WELL
FLD  .                         : FIELD
LOC  .                         : LOCATION
PROV .                         : PROVINCE
CNTY .                         : COUNTY
STAT .                         : STATE
CTRY .                         : COUNTRY
SRVC .                         : SERVICE COMPANY
DATE .                         : DATE
UWI  .                         : UNIQUE WELL ID
API  .                         : API NUMBER
SLAT .WGS84 2.2541198811984984 : SURFACE LATITUDE
SLON .WGS84  8.299205892898016 : SURFACE LONGITUDE
DATUM.F                    nan : DEPTH DATUM ELEV
~Curve Information -----------------------------------------
DEPT   .F     : 1 MEASURED DEPTH
TNPH_LS.DEC   : THERMAL NEUTRON POROSITY [LIMESTONE]
HSGRD  .GAPI  : HNGS STANDARD GAMMA RAY FROM DENSITY LOG
PEFZ   .B/E   : HRDD STANDARD RESOLUTION FORMATION PHOTOELECTRIC FACTOR
DPHZ_LS.DEC   : HGRD STANDARD RESOLUTION DENSITY POROSITY
HCALD  .IN    : HRCC CALIPER CALIBRATED FROM DENSITY LOG
HDRA   .G/C3  : HRDD SPINE AND RIBS DENSITY CORRECTION
RHOZ   .G/C3  : HRDD STANDARD RESOLUTION FORMATION DENSITY
RLA3   .OHMM  : APPARENT RESISTIVITY FROM COMPUTED FOCUSING MODE 3
RLA5   .OHMM  : APPARENT RESISTIVITY FROM COMPUTED FOCUSING MODE 5
RXOZ   .OHMM  : INVADED FORMATION RESISTIVITY FILTERED AT 18 INCHES
DTCO   .US/F  : DELTA-T COMPRESSIONAL
DTSM   .US/F  : DELTA-T SHEAR
~Params ----------------------------------------------------
~Other -----------------------------------------------------
~ASCII -----------------------------------------------------
# ...
 5436.00000    0.07590   60.51240    3.03340    0.05760    9.83810    0.00970    2.61140   12.86510   12.76140   12.17680   62.88810  110.27600
 5436.50000    0.07380   56.89570    3.02070    0.05380    9.75430    0.00960    2.61790   13.12230   13.83050   12.63800   62.51110  109.69000
 5437.00000    0.07390   54.03140    3.05860    0.05070    9.67040    0.00950    2.62320   15.05240   16.88330   14.05500   62.21560  109.23720
 5437.50000    0.07570   54.19870    3.13930    0.04970    9.58660    0.00940    2.62490   19.40890   21.23060   17.88630   61.93740  108.84420
 5438.00000    0.07770   57.37790    3.22140    0.04840    9.54840    0.00930    2.62710   24.97190   28.39050   22.59140   61.78820  108.60170
 5438.50000    0.08070   62.75350    3.23270    0.04260    9.53040    0.00920    2.63730   28.75330   33.80580   30.31740   61.78600  108.54740
 5439.00000    0.08840   68.61940    3.24400    0.03850    9.51240    0.00930    2.64410   28.33000   33.16900   30.83680   61.83800  108.66770
 5439.50000    0.09600   70.64010    3.25530    0.03560    9.50940    0.00930    2.64900   25.67560   31.59640   27.79250   61.95280  108.79740
 5440.00000    0.09850   68.57540    3.19140    0.03660    9.51780    0.00940    2.64730   18.12340   24.23340   22.66260   61.97980  108.81080
 5440.50000    0.09820   64.18960    3.14790    0.04440    9.52660    0.00940    2.63400   13.60140   18.73800   15.73930   61.90550  108.79000
 5441.00000    0.09500   60.48610    3.10440    0.05340    9.53650    0.00950    2.60670   14.09850   15.01510   13.39070   61.69890  108.70770
 5441.50000    0.08940   57.69160    3.06190    0.06440    9.54640    0.00950    2.59760   14.95320   15.15940   14.28920   61.22390  108.44970
 5442.00000    0.08370   58.17680    3.10980    0.06280    9.55620    0.00960    2.60320   15.87640   16.98210   15.83080   60.70930  108.09160
 5442.50000    0.08360   60.05160    3.13990    0.05750    9.55540    0.00960    2.61210   17.25630   19.07360   17.53860   60.18050  107.76220
 5443.00000    0.08600   61.64650    3.24960    0.05030    9.54540    0.00970    2.63040   18.86610   21.42270   19.86350   59.60150  107.43490
 5443.50000    0.08600   61.52940    3.44460    0.03370    9.53550    0.00970    2.68360   21.88330   30.76240   24.69070   59.16560  107.25830
 5444.00000    0.08190   56.99830    3.68120    0.01470    9.51970    0.00980    2.70050   29.85430   47.98490   35.53610   58.95710  107.24290
 5444.50000    0.07210   51.40570    3.99300    0.00420    9.50290    0.00980    2.71210   49.42460   74.84940   58.55540   58.76400  107.08550
 5445.00000    0.06290   48.93780    4.24310    0.00300    9.48620    0.00990    2.70570   66.97670   92.19940   76.15660   58.66010  106.82280
 5445.50000    0.06310   49.27870    4.32190    0.00690    9.46950    0.00990    2.70990   44.62080   87.68400   74.07490   58.68670  106.88060
 5446.00000    0.07070   55.92310    4.11240   -0.00330    9.45280    0.01000    2.71990   32.14500   54.40180   58.43710   58.89990  107.01010
 5446.50000    0.08580   65.03830    3.89450   -0.00450    9.46210    0.01000    2.71510   22.30070   31.15310   38.93520   59.24110  107.05510
 5447.00000    0.09390   71.48400    3.63050    0.00200    9.48020    0.01010    2.70520   21.83870   20.74790   27.68450   59.61620  107.28540
 5447.50000    0.09260   73.81690    3.41210    0.01650    9.49820    0.01020    2.68170   22.66010   20.10760   24.45640   59.95780  107.48420
 5448.00000    0.09060   72.74060    3.30530    0.02630    9.51630    0.00650    2.66490   23.27380   20.43000   24.40040   60.23890  107.71780
 5448.50000    0.09030   72.74650    3.28460    0.03320    9.53430    0.00240    2.65320   21.34540   20.28700   22.73700   60.44430  107.89490
 5449.00000    0.09010   74.59710    3.26400    0.03650    9.55240    0.00290    2.64740   20.31930   19.23250   21.77490   60.53440  108.00230
 5449.50000    0.08920   75.80090    3.24330    0.03610    9.57040    0.00340    2.64810   21.64260   19.07630   21.77860   60.54500  108.04920
 5450.00000    0.08630   72.96780    3.22100    0.02990    9.58850    0.00390    2.65890   24.62510   22.77270   25.31120   60.71250  108.57030
 5450.50000    0.08220   69.42390    3.18430    0.02560    9.60650    0.00440    2.66610   28.39860   24.84790   30.83140   61.07050  109.36860
 5451.00000    0.08050   67.73860    3.14770    0.02740    9.62460    0.00480    2.66280   27.09800   21.15610   29.35730   61.52780  111.00330
 5451.50000    0.08060   67.88000    3.11070    0.03280    9.64260    0.00530    2.65340   21.53100   17.84050   23.89960   62.26330  113.57230
 5452.00000    0.08290   68.59800    3.03990    0.04060    9.66070    0.00530    2.64010   16.78680   14.75660   19.65720   63.08320  117.59110
 5452.50000    0.08550   68.54240    2.97140    0.04810    9.68490    0.00530    2.62710   13.08790   11.50470   16.25860   63.93520  120.40130
 5453.00000    0.09010   67.52270    2.90620    0.06330    9.72280    0.00530    2.60100   10.18130    8.80640   11.91800   64.86620  123.67350
 5453.50000    0.09940   66.74360    2.84490    0.08310    9.76070    0.00530    2.56750    7.68640    6.64840    8.37940   65.94070  126.26740
 5454.00000    0.10820   66.34130    2.81120    0.09250    9.79850    0.00530    2.55130    5.80290    5.01920    5.63820   66.96860  128.66970
 5454.50000    0.11860   66.05460    2.78810    0.09660    9.83640    0.00530    2.54460    4.38090    3.97560    4.98950   67.87600  130.83690
 5455.00000    0.12660   65.61510    2.76490    0.09780    9.87430    0.00530    2.54230    3.85400    3.68030    4.41550   69.01730  132.99810
 5455.50000    0.13350   65.18410    2.74180    0.10370    9.91220    0.00530    2.53220    3.56770    3.40690    3.93980   70.05020  135.09520
 5456.00000    0.14120   65.13180    2.71210    0.11000    9.95000    0.00530    2.52140    3.30270    3.15380    3.52670   70.78960  136.78080
 5456.50000    0.14630   64.38160    2.68150    0.11570    9.98790    0.00530    2.51180    3.05740    2.79790    3.15680   71.41950  138.35320
 5457.00000    0.15170   63.68350    2.65080    0.12270   10.02180    0.00510    2.50020    2.75990    2.47420    2.82540   72.08340  140.02650
 5457.50000    0.15740   63.06020    2.62520    0.13620   10.04980    0.00430    2.47640    2.47450    2.18790    2.52830   72.62370  141.41270
 5458.00000    0.16030   62.91760    2.60640    0.14900   10.07770    0.00350    2.45470    2.21860    2.06580    2.26240   73.08950  142.69530
 5458.50000    0.16590   62.77490    2.59630    0.15440   10.10570    0.00270    2.44580    2.02950    1.96920    2.21370   73.65740  143.94140
 5459.00000    0.17590   62.72890    2.59640    0.15420   10.13370    0.00260    2.44620    1.95010    1.89000    2.20450   74.32190  145.67800
 5459.50000    0.18250   62.72890    2.59380    0.15620   10.16440    0.00380    2.44260    1.94050    1.81670    2.20460   74.96780  147.72350
 5460.00000    0.18880   62.60960    2.57420    0.15880   10.24620    0.00500    2.43820    1.94980    1.74620    2.01040   75.82310  149.77720
 5460.50000    0.19270   62.27900    2.55460    0.16100   10.33310    0.00610    2.43460    1.93390    1.67810    1.98970   76.71290  151.85060
 5461.00000    0.19950   59.01190    2.53500    0.16540   10.44110    0.00730    2.42680    1.80280    1.55820    1.99820   77.59070  153.92400
 5461.50000    0.20680   55.35180    2.49560    0.17870   10.56200    0.00850    2.40360    1.56790    1.44680    1.99800   78.17970  155.99740
 5462.00000    0.22380   52.04490    2.44280    0.19910   10.69600    0.00860    2.36850    1.36360    1.13070    1.89630   78.93530  158.07080
 5462.50000    0.23800   50.11760    2.39000    0.21390   10.83530    0.00870    2.34380    1.32180    1.15620    1.82930   79.94860  160.14420
 5463.00000    0.24290   51.53320    2.35110    0.21610   10.97470    0.00880    2.34050    1.39280    1.23120    1.91600   80.31880  162.14280
 5463.50000    0.23820   54.93220    2.36380    0.20930   11.08650    0.00890    2.35210    1.49140    1.30050    1.99780   80.82610  163.60780
