~Version ---------------------------------------------------
VERS.   2.0 : CWLS log ASCII Standard -VERSION 2.0
WRAP.    NO : One line per depth step
DLM . SPACE : Column Data Section Delimiter
~Well ------------------------------------------------------
STRT .F                 4330.0 : START DEPTH
STOP .F                 9210.0 : STOP DEPTH
STEP .F                    0.5 : STEP
NULL .                -9999.25 : NULL VALUE
COMP .                         : COMPANY
WELL .                         : WELL
FLD  .                         : FIELD
LOC  .                         : LOCATION
PROV .                         : PROVINCE
CNTY .                         : COUNTY
STAT .                         : STATE
CTRY .                         : COUNTRY
SRVC .                         : SERVICE COMPANY
DATE .                         : DATE
UWI  .                         : UNIQUE WELL ID
API  .                         : API NUMBER
SLAT .WGS84  6.182925732514001 : SURFACE LATITUDE
SLON .WGS84 3.1151921801412783 : SURFACE LONGITUDE
DATUM.F                1601.17 : DEPTH DATUM ELEV
~Curve Information -----------------------------------------
DEPT   .F     : 1 MEASURED DEPTH
GR     .GAPI  : GAMMA RAY
GRD    .GAPI  : GAMMA RAY FROM DENSITY LOG
NPHI_LS.DEC   : NEUTRON POROSITY LIMESTONE
DPHI_LS.DEC   : DENSITY POROSITY LIMESTONE
RHOB   .G/C3  : BULK DENSITY
CALD   .IN    : CALIPER FROM DENSITY LOG
QRHO   .G/C3  : SLDT DENSITY QUALITY FACTOR
AST10  .OHMM  : ARRAY INDUCTION 2FT RESISTIVITY A10
AST30  .OHMM  : ARRAY INDUCTION 2FT RESISTIVITY A30
AST90  .OHMM  : ARRAY INDUCTION 2FT RESISTIVITY A90
SPR    .MV    : SPONTANEOUS POTENTIAL FROM RESISTIVITY LOG
DTCO   .US/F  : DELTA-T COMPRESSIONAL
DTSM   .US/F  : DELTA-T SHEAR
~Params ----------------------------------------------------
~Other -----------------------------------------------------
~ASCII -----------------------------------------------------
# ...
 9010.00000   73.52340   66.33620    0.24500    0.14880    2.45680    4.83710    0.00130    1.38080    1.47730    1.38930    4.38950  114.26420  205.60790
 9010.50000   73.56220   65.75780    0.25250    0.15050    2.45460    4.80660    0.00130    1.52190    1.46210    1.42330    4.05220  114.92110  206.89340
 9011.00000   75.26700   65.20510    0.26070    0.14900    2.45680    4.81110    0.00130    1.49900    1.44500    1.25520    3.66440  114.65070  208.43580
 9011.50000   74.43010   64.31600    0.26560    0.14540    2.46310    4.82660    0.00130    1.61310    1.44960    1.45130    3.86050  114.35480  208.36790
 9012.00000   73.42590   63.41470    0.26530    0.14240    2.46880    4.83080    0.00130    1.74170    1.60660    1.60990    3.65450  113.75300  207.98000
 9012.50000   74.65460   62.74220    0.26130    0.14000    2.47200    4.83080    0.00130    1.85290    2.00730    2.09860    3.66740  112.34190  202.67700
 9013.00000   78.66580   62.04300    0.25680    0.13670    2.47770    4.83020    0.00120    1.78590    2.19000    2.35140    3.84790  110.02490  191.43330
 9013.50000   79.65920   61.97260    0.25230    0.13400    2.48230    4.82000    0.00120    1.84430    1.78240    1.79570    3.68060  107.99990  181.49190
 9014.00000   74.30760   61.79370    0.25080    0.13480    2.48090    4.79640    0.00120    1.29660    1.32050    1.32390    3.48980  108.43880  182.19650
 9014.50000   67.99840   64.64010    0.24910    0.13910    2.47390    4.77950    0.00120    1.45770    1.40530    1.45280    3.50080  111.33720  191.52560
 9015.00000   68.86670   66.25370    0.24420    0.14510    2.46240    4.77240    0.00120    1.50530    1.45080    1.54820    3.78250  113.91530  199.03380
 9015.50000   74.12700   66.51530    0.23130    0.15320    2.44820    4.77120    0.00120    1.74250    1.68190    1.76450    3.53920  112.77850  205.31880
 9016.00000   81.59240   67.14220    0.21660    0.15930    2.43780    4.76100    0.00110    2.54330    2.71440    2.64670    3.53630  105.33550  205.12160
 9016.50000   90.18250   68.90810    0.20210    0.16510    2.42860    4.75480    0.00110    4.06750    4.48450    4.10670    3.53340  101.69580  204.23310
 9017.00000   94.32220   72.93710    0.19480    0.17110    2.41870    4.75490    0.00110    3.26800    3.27530    2.92830    3.49300  100.75840  204.73240
 9017.50000   96.14630   75.89410    0.21140    0.17610    2.41090    4.75730    0.00110    1.49970    1.62400    1.62990    3.18530  101.76790  199.60480
 9018.00000   93.31200   76.47810    0.24200    0.17860    2.40720    4.75970    0.00110    1.32800    1.34560    1.34400    2.55920  106.58880  197.00840
 9018.50000   87.84420   76.68310    0.27190    0.17920    2.40520    4.76200    0.00110    1.36440    1.36760    1.36900    2.43300  113.29990  196.09490
 9019.00000   86.46880   77.31470    0.28050    0.17790    2.40740    4.76330    0.00100    1.22090    1.30470    1.29570    2.67710  116.92180  191.22620
 9019.50000   93.24860   79.57680    0.28160    0.17760    2.40770    4.76950    0.00100    1.35770    1.23750    1.21740    2.61670  119.41700  182.60490
 9020.00000   98.61300   81.22860    0.28330    0.18050    2.40280    4.78120    0.00100    1.17060    1.23880    1.17330    2.42380  120.67640  178.28000
 9020.50000   97.64730   82.03930    0.28750    0.18480    2.39630    4.79130    0.00100    1.14080    1.19820    1.14090    2.10840  121.35570  174.88480
 9021.00000   98.13970   81.59040    0.29200    0.18920    2.38760    4.80140    0.00100    1.14280    1.13290    1.18670    1.90600  122.28160  169.79570
 9021.50000  102.54760   81.29900    0.29390    0.19190    2.38460    4.78450    0.00100    1.04500    1.11570    1.10930    1.89930  123.23450  162.07700
 9022.00000  106.49540   82.13480    0.29120    0.19060    2.38650    4.73300    0.00090    1.30930    1.34170    1.28520    1.88530  124.33300  165.75350
 9022.50000  105.54400   82.32480    0.28320    0.18820    2.39140    4.70330    0.00090    1.71950    1.66120    1.65080    1.87370  126.49530  172.40500
 9023.00000   98.96300   80.72370    0.27660    0.18590    2.39390    4.68670    0.00090    1.46420    1.34900    1.30580    1.86690  128.06670  173.56880
 9023.50000   86.63710   79.35580    0.26840    0.18510    2.39520    4.68520    0.00090    1.12570    1.12750    1.13030    1.96370  127.80690  191.60930
 9024.00000   78.76260   79.30850    0.26000    0.18110    2.40160    4.69610    0.00090    1.19180    1.19420    1.15540    1.79930  126.57060  210.44390
 9024.50000   74.44010   79.91020    0.24780    0.17090    2.41980    4.69850    0.00090    1.54370    1.54730    1.55260    1.85210  123.27740  203.53890
 9025.00000   77.26900   79.28730    0.23820    0.15170    2.45180    4.69440    0.00080    1.78430    2.07050    2.04320    2.02030  117.12840  188.03020
 9025.50000   81.31000   76.32610    0.23040    0.13270    2.48370    4.68660    0.00080    2.48260    2.52760    2.44760    2.22980  110.71580  176.34630
 9026.00000   78.29540   70.89230    0.22180    0.11960    2.51080    4.68460    0.00080    3.01580    2.93060    2.87610    1.93680  103.82710  169.09070
 9026.50000   71.28270   64.54510    0.20490    0.11370    2.51710    4.66090    0.00080    2.85100    2.80310    2.73880    1.82140  100.31120  175.77210
 9027.00000   68.09390   59.59460    0.19330    0.10970    2.52430    4.66060    0.00080    2.21700    2.57180    2.57770    2.10140   98.51580  183.39170
 9027.50000   71.11300   57.94930    0.19540    0.09860    2.54470    4.66030    0.00080    2.02640    2.98460    2.99010    2.11380   97.07800  177.73200
 9028.00000   80.25780   57.11800    0.20340    0.08010    2.57720    4.66500    0.00080    2.50620    2.52980    2.55350    1.74500   93.55940  163.70220
 9028.50000   87.21380   56.45180    0.20720    0.06890    2.59560    4.68960    0.00080    1.63340    1.36820    1.10400    1.59650   88.23900  162.15860
 9029.00000   87.74220   56.42130    0.20870    0.07230    2.58680    4.72120    0.00070    1.67980    1.65260    1.55700    1.56180   85.23420  174.02420
 9029.50000   89.92350   59.00160    0.21930    0.08640    2.55880    4.76840    0.00070    1.50800    1.87590    1.78890    1.02570   88.09140  181.09570
 9030.00000   95.61790   61.82520    0.24040    0.10280    2.53660    4.76500    0.00070    1.58680    1.58960    1.59320    0.47460   96.99780  181.73370
 9030.50000   98.56750   64.49470    0.26110    0.11050    2.52160    4.75160    0.00070    1.40320    1.40440    1.40590    0.62850  104.47890  181.22610
 9031.00000   94.33030   66.67890    0.27180    0.11640    2.51130    4.75760    0.00070    1.42470    1.42580    1.42740    0.64100  109.07240  182.12290
 9031.50000   86.50920   69.17000    0.26880    0.12620    2.49460    4.77010    0.00070    1.36870    1.36990    1.37160    0.46180  111.86100  187.75940
 9032.00000   83.68860   72.14380    0.26500    0.13900    2.47160    4.77800    0.00070    1.41610    1.34180    1.34320    0.28260  114.54470  196.65720
 9032.50000   84.49420   74.26620    0.26520    0.15280    2.44930    4.77780    0.00070    1.36190    1.34900    1.35040    0.13870  116.84150  204.54270
 9033.00000   85.56620   75.38100    0.27070    0.15990    2.43770    4.77220    0.00060    1.46110    1.46290    1.39540    0.01140  118.52400  207.33510
 9033.50000   86.31890   74.66560    0.27480    0.15950    2.43830    4.76300    0.00060    1.64860    1.65050    1.48300   -0.11600  118.94460  207.28190
 9034.00000   89.04120   73.72900    0.27580    0.15660    2.44400    4.75930    0.00060    1.45270    1.45660    1.33350   -0.24340  117.98200  206.42600
 9034.50000   93.36200   72.77430    0.27660    0.15220    2.45180    4.76710    0.00060    1.43540    1.43810    1.34420   -0.37070  117.15120  200.91450
 9035.00000  101.01950   72.92630    0.27790    0.14710    2.46090    4.77880    0.00060    1.72160    1.72490    1.58390   -0.49810  116.21620  192.60320
 9035.50000  107.08470   73.90180    0.27940    0.14390    2.46520    4.79220    0.00060    1.24180    1.24450    1.24760   -0.62540  116.11010  195.80900
