~Version ---------------------------------------------------
VERS.   2.0 : CWLS log ASCII Standard -VERSION 2.0
WRAP.    NO : One line per depth step
DLM . SPACE : Column Data Section Delimiter
~Well ------------------------------------------------------
STRT .F                 4330.0 : START DEPTH
STOP .F                 9210.0 : STOP DEPTH
STEP .F                    0.5 : STEP
NULL .                -9999.25 : NULL VALUE
COMP .                         : COMPANY
WELL .                         : WELL
FLD  .                         : FIELD
LOC  .                         : LOCATION
PROV .                         : PROVINCE
CNTY .                         : COUNTY
STAT .                         : STATE
CTRY .                         : COUNTRY
SRVC .                         : SERVICE COMPANY
DATE .                         : DATE
UWI  .                         : UNIQUE WELL ID
API  .                         : API NUMBER
SLAT .WGS84  6.182925732514001 : SURFACE LATITUDE
SLON .WGS84 3.1151921801412783 : SURFACE LONGITUDE
DATUM.F                1601.17 : DEPTH DATUM ELEV
~Curve Information -----------------------------------------
DEPT   .F     : 1 MEASURED DEPTH
GR     .GAPI  : GAMMA RAY
GRD    .GAPI  : GAMMA RAY FROM DENSITY LOG
NPHI_LS.DEC   : NEUTRON POROSITY LIMESTONE
DPHI_LS.DEC   : DENSITY POROSITY LIMESTONE
RHOB   .G/C3  : BULK DENSITY
CALD   .IN    : CALIPER FROM DENSITY LOG
QRHO   .G/C3  : SLDT DENSITY QUALITY FACTOR
AST10  .OHMM  : ARRAY INDUCTION 2FT RESISTIVITY A10
AST30  .OHMM  : ARRAY INDUCTION 2FT RESISTIVITY A30
AST90  .OHMM  : ARRAY INDUCTION 2FT RESISTIVITY A90
SPR    .MV    : SPONTANEOUS POTENTIAL FROM RESISTIVITY LOG
DTCO   .US/F  : DELTA-T COMPRESSIONAL
DTSM   .US/F  : DELTA-T SHEAR
~Params ----------------------------------------------------
~Other -----------------------------------------------------
~ASCII -----------------------------------------------------
# ...
 9114.00000   39.32940   38.24060    0.10100    0.02090    2.67610    4.75710    0.00070    5.73210    5.28550    5.08750    4.45610   71.35770  232.37300
 9114.50000   40.49820   37.04760    0.10120    0.02170    2.67450    4.75650    0.00070    5.83420    5.36100    5.19640    4.23100   70.99450  232.39600
 9115.00000   40.97700   37.02280    0.10080    0.02210    2.67400    4.75580    0.00070    5.50640    5.17510    4.97100    4.08490   70.85820  232.33730
 9115.50000   40.94300   37.03770    0.10040    0.02280    2.67320    4.75550    0.00070    5.17230    4.99570    4.75530    3.75590   70.72150  232.31940
 9116.00000   40.72670   36.98120    0.10000    0.02380    2.67150    4.75930    0.00060    5.30180    4.90940    4.91500    3.43360   70.58400  231.97490
 9116.50000   38.42530   36.96670    0.10170    0.02470    2.66940    4.76730    0.00060    5.11390    4.93000    4.94650    2.99960   70.60660  231.23680
 9117.00000   36.46560   37.01630    0.10370    0.02490    2.66900    4.76850    0.00060    5.03700    4.86800    4.87340    2.24980   70.71580  231.04750
 9117.50000   39.10850   37.03500    0.10490    0.02460    2.66980    4.76880    0.00060    5.00130    4.75760    4.76280    1.81870   70.98760  230.92680
 9118.00000   41.90570   38.09200    0.10580    0.02330    2.67160    4.76540    0.00050    4.96860    4.67520    4.68030    1.76550   71.02570  230.93250
 9118.50000   41.24770   39.39710    0.10610    0.02210    2.67370    4.76200    0.00050    5.43840    5.19070    5.23150    1.44610   71.03240  230.88800
 9119.00000   38.45500   41.14530    0.10630    0.01940    2.67930    4.75860    0.00050    5.02670    4.94330    4.45940    1.28510   71.03890  230.88290
 9119.50000   34.87620   41.57920    0.10680    0.01730    2.68180    4.75520    0.00050    5.12340    4.91490    4.80820    0.74860   71.04240  230.98590
 9120.00000   33.13560   42.01310    0.10730    0.01910    2.67860    4.75190    0.00040    5.36700    5.02630    4.90230    0.42230   71.03490  230.97000
 9120.50000   32.27900   41.60300    0.10770    0.02270    2.67270    4.74850    0.00040    5.59950    5.14030    5.14980    0.09600   71.03520  230.95410
 9121.00000   29.90860   41.43220    0.10770    0.02240    2.67410    4.74510    0.00040    5.75770    5.49080    5.49970   -0.23020   70.92230  230.95370
 9121.50000   28.58850   40.33840    0.10770    0.02030    2.67720    4.74170    0.00040    5.58540    5.54880    5.55740   -0.55650   70.69980  230.93910
 9122.00000   30.51950   39.07080    0.10770    0.02030    2.67750    4.73830    0.00030    5.29780    5.23710    5.24350   -0.76580   70.64590  230.90990
 9122.50000   -9999.25   37.80330    0.10760    0.02000    2.67770    4.73490    0.00030    5.43720    5.28120    5.28820   -0.78180   70.98880  230.70960
 9123.00000   -9999.25   36.89710    0.10760    0.01700    2.68250    4.73150    0.00030    5.24900    4.95450    4.96010   -0.79770   71.03660  230.56090
 9123.50000   -9999.25   -9999.25    0.10610    0.01440    2.68730    4.73210    0.00030    4.99570    4.85470    4.85980   -0.81370   71.05710  230.56290
 9124.00000   -9999.25   -9999.25    0.10610    0.01360    2.68950    4.73660    0.00020    5.26920    5.00570    4.99460   -0.66400   71.07770  230.57230
 9124.50000   -9999.25   -9999.25    0.10610    0.01410    2.68730    4.74120    0.00020    5.69350    5.28920    5.13550   -1.15460   70.77480  230.85710
 9125.00000   -9999.25   -9999.25    0.10620    0.01650    2.68340    4.74570    0.00020    6.22980    6.23550    5.40670   -1.01040   70.57560  230.95700
 9125.50000   -9999.25   -9999.25    0.10630    0.02050    2.67700    4.74680    0.00020    6.02080    6.02620    6.32880   -2.00710   70.34680  231.02010
 9126.00000   -9999.25   -9999.25    0.10640    0.02410    2.67020    4.74170    0.00010    4.59550    4.59970    4.60490   -2.45900   70.24730  231.43700
 9126.50000   -9999.25   -9999.25    0.10680    0.02600    2.66750    4.74250    0.00010    5.05350    5.00220    5.01020   -3.16490   70.58670  231.92630
 9127.00000   -9999.25   -9999.25    0.10710    0.02620    2.66690    4.74070    0.00010    5.78160    5.73730    5.39940   -3.70020   70.90400  232.41570
 9127.50000   -9999.25   -9999.25    0.10710    0.02690    2.66600    4.71400    0.00010    5.62590    5.52710    5.02780   -4.10330   71.31500  233.44600
 9128.00000   -9999.25   -9999.25    0.10670    0.02720    2.66540    4.70080    0.00000    5.42430    5.29870    4.92400   -4.91620   71.61950  233.83010
 9128.50000   -9999.25   -9999.25    0.10640    0.02640    2.66680    4.68240    0.00000    5.44880    5.25230    5.04190   -5.28210   72.21500  233.96220
 9129.00000   -9999.25   -9999.25    0.10600    0.02350    2.67110    4.68200   -0.00000    5.38720    5.26850    5.10750   -5.32100   72.58730  234.04510
 9129.50000   -9999.25   -9999.25    0.10560    0.02000    2.67730    4.68240   -0.00000    6.43160    5.08250    4.91780   -5.45220   72.94730  233.42660
 9130.00000   -9999.25   -9999.25    0.10470    0.01520    2.68470    4.68280   -0.00010    6.08600    4.64560    4.36580   -5.56990   72.93650  232.46370
 9130.50000   -9999.25   -9999.25    0.10350    0.01050    2.69200    4.68270   -0.00010    7.30520    3.80890    3.81660   -5.99970   72.45870  231.24580
 9131.00000   -9999.25   -9999.25    0.10250    0.00840    2.69650    4.68210   -0.00010    4.44930    3.35420    3.12360   -6.53030   71.60170  230.07750
 9131.50000   -9999.25   -9999.25    0.10150    0.00840    2.69710    4.54860   -0.00010    4.09690    4.82630    4.48150   -6.81780   70.42230  229.40500
 9132.00000   -9999.25   -9999.25    0.09860    0.01570    2.68640    4.27700   -0.00020    6.00900    8.97070    5.70690   -6.88390   69.00190  229.05350
 9132.50000   -9999.25   -9999.25    0.09430    0.01940    2.67850    4.08330   -0.00020    6.34250    6.60010    5.36640   -7.22830   67.92500  228.64030
 9133.00000   -9999.25   -9999.25    0.08340    0.01710    2.68370    4.31000   -0.00020    7.93970    4.51210    4.35710   -7.22210   67.21430  228.80770
 9133.50000   -9999.25   -9999.25    0.08130    0.01240    2.68900    4.56850   -0.00020    8.22640    5.07730    5.15330   -7.67120   66.50350  228.97500
 9134.00000   -9999.25   -9999.25    0.08420    0.00970    2.69270    4.60980   -0.00030    9.79320    5.96070    7.93240   -8.52100   65.79280  229.10230
 9134.50000   -9999.25   -9999.25    0.08690    0.00890    2.69350    4.63410   -0.00030    8.95460    7.02770   10.79760   -9.07910   65.05270  229.41230
 9135.00000   -9999.25   -9999.25    0.08790    0.00980    2.69430    4.63560   -0.00030    9.17220    7.62550   12.47840   -9.23680   64.08750  230.18600
 9135.50000   -9999.25   -9999.25    0.08870    0.01000    2.69440    4.63520   -0.00030    9.19390    7.95860   10.63900   -8.86520   62.81230  231.31770
 9136.00000   -9999.25   -9999.25    0.08970    0.01000    2.69440    4.63610   -0.00040    7.13610    7.86240    8.59700   -9.14700   62.21110  230.75840
 9136.50000   -9999.25   -9999.25    0.09000    0.01000    2.69490    4.63660   -0.00040    7.10780    6.89940    6.87510   -9.16380   61.56070  230.19910
 9137.00000   -9999.25   -9999.25    0.09030    0.01100    2.69240    4.63680   -0.00040    8.62730    8.53350    6.42780   -9.69090   61.47250  229.79710
 9137.50000   -9999.25   -9999.25    0.09040    0.01310    2.69010    4.63690   -0.00040    7.00980    7.27600    7.83940  -10.14170   61.63990  229.70430
 9138.00000   -9999.25   -9999.25    0.09040    0.01360    2.68900    4.63650   -0.00050    6.25070    6.14880    7.98560  -10.40450   62.61170  230.64350
 9138.50000   -9999.25   -9999.25    0.09030    0.01300    2.69050    4.63580   -0.00050    5.69560    5.81620    6.66650  -10.48830   64.90180  232.21710
 9139.00000   -9999.25   -9999.25    0.09100    0.01020    2.69360    4.63530   -0.00050    5.61370    5.97250    6.97260  -10.94370   66.35660  232.18440
 9139.50000   -9999.25   -9999.25    0.09210    0.00820    2.69710    4.63140   -0.00050    8.22130    8.33110    6.78700  -12.08090   68.92490  231.54300
