~Version ---------------------------------------------------
VERS.   2.0 : CWLS log ASCII Standard -VERSION 2.0
WRAP.    NO : One line per depth step
DLM . SPACE : Column Data Section Delimiter
~Well ------------------------------------------------------
STRT .F                 4330.0 : START DEPTH
STOP .F                 9210.0 : STOP DEPTH
STEP .F                    0.5 : STEP
NULL .                -9999.25 : NULL VALUE
COMP .                         : COMPANY
WELL .                         : WELL
FLD  .                         : FIELD
LOC  .                         : LOCATION
PROV .                         : PROVINCE
CNTY .                         : COUNTY
STAT .                         : STATE
CTRY .                         : COUNTRY
SRVC .                         : SERVICE COMPANY
DATE .                         : DATE
UWI  .                         : UNIQUE WELL ID
API  .                         : API NUMBER
SLAT .WGS84  6.182925732514001 : SURFACE LATITUDE
SLON .WGS84 3.1151921801412783 : SURFACE LONGITUDE
DATUM.F                1601.17 : DEPTH DATUM ELEV
~Curve Information -----------------------------------------
DEPT   .F     : 1 MEASURED DEPTH
GR     .GAPI  : GAMMA RAY
GRD    .GAPI  : GAMMA RAY FROM DENSITY LOG
NPHI_LS.DEC   : NEUTRON POROSITY LIMESTONE
DPHI_LS.DEC   : DENSITY POROSITY LIMESTONE
RHOB   .G/C3  : BULK DENSITY
CALD   .IN    : CALIPER FROM DENSITY LOG
QRHO   .G/C3  : SLDT DENSITY QUALITY FACTOR
AST10  .OHMM  : ARRAY INDUCTION 2FT RESISTIVITY A10
AST30  .OHMM  : ARRAY INDUCTION 2FT RESISTIVITY A30
AST90  .OHMM  : ARRAY INDUCTION 2FT RESISTIVITY A90
SPR    .MV    : SPONTANEOUS POTENTIAL FROM RESISTIVITY LOG
DTCO   .US/F  : DELTA-T COMPRESSIONAL
DTSM   .US/F  : DELTA-T SHEAR
~Params ----------------------------------------------------
~Other -----------------------------------------------------
~ASCII -----------------------------------------------------
# ...
 8724.00000  119.53390   85.21630    0.24680    0.04960    2.62580    4.72670    0.00010    3.65810    3.51210    3.48040  -10.10960   89.06230  192.81040
 8724.50000  112.35130   86.06630    0.24460    0.04760    2.62910    4.77270    0.00010    3.68130    3.52750    3.52400   -8.91270   88.57500  188.00780
 8725.00000  111.21580   86.83100    0.24290    0.04620    2.63170    4.81820    0.00010    3.67710    3.54290    3.50750   -7.52580   88.21060  185.85900
 8725.50000  112.77530   87.73060    0.24180    0.04630    2.63170    4.82650    0.00010    3.74730    3.57180    3.47450   -6.46100   88.16540  188.32480
 8726.00000  112.25950   89.19540    0.23850    0.04670    2.63160    4.82080    0.00010    3.70490    3.61790    3.49190   -9.45910   88.18380  195.08940
 8726.50000  110.63190   89.84030    0.23390    0.04670    2.63130    4.80540    0.00010    3.66070    3.64670    3.56220  -11.83310   88.47310  198.24260
 8727.00000  110.92280   89.30800    0.23250    0.04770    2.62970    4.76320    0.00010    3.84210    3.60600    3.58770  -10.82810   88.70270  201.70500
 8727.50000  111.43270   88.78650    0.23760    0.04920    2.62710    4.76140    0.00010    3.69680    3.58480    3.58670   -9.42170   88.96130  205.21100
 8728.00000  111.34840   89.22780    0.24470    0.05140    2.62230    4.76680    0.00010    3.75650    3.76000    3.95100   -9.52320   89.31190  208.22960
 8728.50000  109.71360   89.66910    0.24780    0.05360    2.61950    4.76670    0.00010    3.51440    3.51880    3.75300  -11.88620   89.48400  211.92940
 8729.00000  108.22890   90.11040    0.24400    0.05330    2.61970    4.76090    0.00010    3.25980    3.26250    3.57370  -14.07630   89.42400  198.76940
 8729.50000  104.57940   89.77720    0.23890    0.05180    2.62180    4.75350    0.00010    3.51730    3.52180    3.79510  -11.48930   89.20580  174.70120
 8730.00000  102.79400   87.27270    0.24030    0.05110    2.62400    4.73610    0.00010    3.80480    3.81100    4.03340   -7.11740   88.81750  179.21080
 8730.50000  107.01870   83.87340    0.24600    0.05120    2.62340    4.71020    0.00010    3.20600    3.21140    3.55260   -4.93120   88.44500  179.92230
 8731.00000  108.47080   77.06300    0.25010    0.05260    2.62020    4.68420    0.00010    3.12680    2.97700    3.39340   -5.29030   88.40800  174.16710
 8731.50000  107.39350   62.47550    0.24400    0.05560    2.61580    4.75280    0.00010    3.14770    3.21460    3.23730   -5.38360   88.63710  182.29740
 8732.00000  108.40070   45.37560    0.23890    0.05600    2.61560    4.94520    0.00010    2.97060    3.54580    3.07970   -5.92020   88.67700  204.90140
 8732.50000  104.09360   32.92860    0.23650    0.05220    2.62200    5.07290    0.00010    2.84140    3.50090    2.98720   -7.26170   89.15100  220.69500
 8733.00000   83.42850   28.30800    0.23600    0.04250    2.64090    5.06400    0.00010    2.61930    3.23460    3.13710   -8.93800   89.72730  209.90320
 8733.50000   58.58670   28.84380    0.23350    0.02600    2.67200    5.05520    0.00010    2.90350    3.75170    3.50930  -11.20060   88.94360  184.27400
 8734.00000   53.46200   29.40260    0.23290    0.00720    2.69940    4.93770    0.00010    3.58040    2.52910    3.84820  -13.95970   85.51990  180.76140
 8734.50000   67.86180   29.46060    0.23670   -0.00410    2.71980    4.77540    0.00010    4.10690    3.00040    4.14270  -15.03790   78.77380  186.20880
 8735.00000   91.46350   30.31800    0.24830   -0.01060    2.72970    4.65980    0.00010    2.43640    2.31080    2.39720  -10.84790   75.62530  181.03750
 8735.50000  102.72170   34.40340    0.24930   -0.01190    2.73150    4.61660    0.00010    3.89190    3.48860    3.76510   -8.50910   76.69650  157.89360
 8736.00000  100.22280   44.45890    0.25350   -0.00600    2.72160    4.73230    0.00010    4.13650    4.95890    4.31620   -7.59740   82.48640  158.11130
 8736.50000   98.97210   55.03460    0.28450    0.01860    2.68150    4.87600    0.00010    3.46710    8.91620    5.69740   -7.51620   88.70770  167.47530
 8737.00000  107.99060   66.15210    0.29960    0.06180    2.60340    4.87460    0.00010    3.61500    5.48910    3.66960   -8.76050   91.43500  172.00550
 8737.50000  117.89620   73.65800    0.29980    0.11360    2.51900    4.86770   -0.00100    1.85290    2.71740    2.05360   -9.63440   91.60060  177.01310
 8738.00000  118.85330   75.73710    0.29750    0.14730    2.46680    4.87110   -0.00270    1.43660    1.57460    1.32780   -8.69650   91.59040  178.65940
 8738.50000  111.73740   76.60510    0.27580    0.17710    2.41670    4.88150   -0.00100    2.09090    2.53480    2.02030   -9.95680   92.13190  181.41730
 8739.00000  104.84610   76.29720    0.26630    0.20190    2.37070    4.93060    0.00010    2.34360    2.64240    2.64990  -11.59790   93.51560  179.72560
 8739.50000  103.90220   77.36630    0.27640    0.22550    2.32820    4.83310    0.00010    2.51070    2.54310    2.35910  -12.59930   93.98430  175.67880
 8740.00000  107.03170   78.39900    0.29700    0.24280    2.29860    4.43170    0.00010    2.41360    2.60200    2.13290  -12.90930   94.52750  177.36660
 8740.50000  106.95630   78.48430    0.29990    0.25000    2.28440    3.88000    0.00010    2.72540    2.62270    2.05150  -12.92940   94.73280  179.00880
 8741.00000  102.08690   77.59830    0.29990    0.24640    2.28780    3.24620    0.00010    2.66630    2.62470    2.08800  -13.21010   94.20520  178.17090
 8741.50000   95.59020   77.13190    0.29990    0.24210    2.29670    2.85950    0.00010    2.76200    2.62410    2.42690  -13.92240   94.03330  178.72310
 8742.00000   94.39870   76.99850    0.29990    0.24340    2.29610    2.75450    0.00010    2.73320    2.63550    3.25920  -13.98270   94.00620  179.27540
 8742.50000  102.32030   76.42360    0.29990    0.24780    2.28760    2.71280   -0.00160    2.67510    2.56040    3.78360  -14.00260   94.16560  179.82760
 8743.00000  110.60780   75.90300    0.29060    0.25440    2.27550    2.73480   -0.00130    2.84300    2.32060    2.53870  -14.40980   94.95610  175.85800
 8743.50000  112.46220   76.73820    0.22630    0.26000    2.26690    2.73630    0.00100    2.80590    1.81010    1.51670  -14.45600   95.53700  169.09780
 8744.00000  111.43660   79.71120    0.18480    0.26410    2.25870    2.73440    0.00160    2.42010    1.43000    1.17510  -14.49900   95.84400  168.74990
 8744.50000  106.86110   81.31450    0.21950    0.26990    2.24910    2.73240    0.00150    2.31440    1.34580    1.00500  -14.56280   95.99080  173.05760
 8745.00000  103.83140   80.76950    0.27750    0.27470    2.23910    2.71710    0.00130    1.72720    2.39270    1.43210  -15.01890   96.12210  188.07570
 8745.50000  101.46850   79.93130    0.29840    0.27830    2.23530    2.68620    0.00120    2.93350    4.03040    2.90860  -15.45560   96.34300  201.65150
 8746.00000   90.83860   79.80960    0.26550    0.27810    2.23520    2.65540    0.00110    3.15760    2.67340    2.62000  -15.74880   96.13820  188.51010
 8746.50000   71.90320   79.82440    0.18770    0.27710    2.23750    2.56140    0.00090    4.02720    1.62330    1.64840  -15.62760   94.82300  173.52740
 8747.00000   47.55020   79.27720    0.09820    0.27080    2.25030    2.51860    0.00080    5.60300    2.08200    2.75470  -15.79000   88.92000  157.53480
 8747.50000   30.16400   78.46510    0.04530    0.25760    2.27240    2.51170    0.00060    4.99520    3.48200    4.99550  -16.20690   79.10790  137.66520
 8748.00000   25.69870   74.98850    0.02820    0.23630    2.30920    2.51120    0.00050   12.50730   11.81920   11.64550  -16.52840   68.08760  113.59000
 8748.50000   29.32220   69.23460    0.02840    0.21760    2.33810    2.51070    0.00040   31.31670   29.65960    9.52850  -16.31890   57.67450   99.44950
 8749.00000   38.28260   56.64040    0.03080    0.20310    2.36450    2.51010    0.00020   23.65740    8.54880    5.28240  -16.35780   51.44650   97.42760
 8749.50000   40.47900   44.48780    0.03400    0.19020    2.38690    2.51150    0.00010   20.04730    6.49480    4.16170  -16.39060   49.59160   97.44210
