~Version ---------------------------------------------------
VERS.   2.0 : CWLS log ASCII Standard -VERSION 2.0
WRAP.    NO : One line per depth step
DLM . SPACE : Column Data Section Delimiter
~Well ------------------------------------------------------
STRT .F                 4330.0 : START DEPTH
STOP .F                 9210.0 : STOP DEPTH
STEP .F                    0.5 : STEP
NULL .                -9999.25 : NULL VALUE
COMP .                         : COMPANY
WELL .                         : WELL
FLD  .                         : FIELD
LOC  .                         : LOCATION
PROV .                         : PROVINCE
CNTY .                         : COUNTY
STAT .                         : STATE
CTRY .                         : COUNTRY
SRVC .                         : SERVICE COMPANY
DATE .                         : DATE
UWI  .                         : UNIQUE WELL ID
API  .                         : API NUMBER
SLAT .WGS84  6.182925732514001 : SURFACE LATITUDE
SLON .WGS84 3.1151921801412783 : SURFACE LONGITUDE
DATUM.F                1601.17 : DEPTH DATUM ELEV
~Curve Information -----------------------------------------
DEPT   .F     : 1 MEASURED DEPTH
GR     .GAPI  : GAMMA RAY
GRD    .GAPI  : GAMMA RAY FROM DENSITY LOG
NPHI_LS.DEC   : NEUTRON POROSITY LIMESTONE
DPHI_LS.DEC   : DENSITY POROSITY LIMESTONE
RHOB   .G/C3  : BULK DENSITY
CALD   .IN    : CALIPER FROM DENSITY LOG
QRHO   .G/C3  : SLDT DENSITY QUALITY FACTOR
AST10  .OHMM  : ARRAY INDUCTION 2FT RESISTIVITY A10
AST30  .OHMM  : ARRAY INDUCTION 2FT RESISTIVITY A30
AST90  .OHMM  : ARRAY INDUCTION 2FT RESISTIVITY A90
SPR    .MV    : SPONTANEOUS POTENTIAL FROM RESISTIVITY LOG
DTCO   .US/F  : DELTA-T COMPRESSIONAL
DTSM   .US/F  : DELTA-T SHEAR
~Params ----------------------------------------------------
~Other -----------------------------------------------------
~ASCII -----------------------------------------------------
# ...
 8854.00000   87.61550   65.61910    0.18860    0.14560    2.46250    4.69080   -0.00200    2.52080    2.43590    2.35910    8.89960   91.59030  178.67330
 8854.50000   87.37070   66.37930    0.19100    0.14540    2.46270    4.65600   -0.00030    2.40400    2.22750    2.03630    8.63490   92.69170  189.46470
 8855.00000   85.81130   66.53990    0.19350    0.14430    2.46420    4.60520   -0.00030    2.24110    1.91320    1.91780    8.42810   93.45680  203.93460
 8855.50000   87.02890   66.75400    0.19570    0.14210    2.46820    4.58160   -0.00020    1.90140    1.66300    1.66490    8.51090   93.46790  208.87250
 8856.00000   88.29830   67.18080    0.19640    0.13950    2.47280    4.56490   -0.00020    2.65940    2.87600    2.53720    8.23660   92.84740  209.98510
 8856.50000   84.98730   67.01880    0.19640    0.13710    2.47670    4.56770   -0.00020    2.54830    3.79350    3.36510    8.21040   92.20630  210.10040
 8857.00000   83.26180   66.21540    0.19380    0.13620    2.47770    4.58560   -0.00010    2.57290    2.56680    2.57590    8.15090   91.91260  210.21580
 8857.50000   78.05960   64.75380    0.18680    0.13540    2.47900    4.59990   -0.00010    2.96350    2.39350    2.61520    7.75110   91.76550  209.99370
 8858.00000   69.44890   62.74760    0.17910    0.13190    2.48450    4.63870   -0.00010    2.97100    2.47810    2.97550    7.64280   91.26190  209.62390
 8858.50000   63.32880   60.47650    0.17160    0.12650    2.49440    4.70640   -0.00000    3.07500    2.88050    3.40120    7.45430   90.19140  207.37640
 8859.00000   63.38870   57.98240    0.16880    0.11660    2.50990    4.76810    0.00000    3.21480    3.44200    3.58990    7.39360   88.76910  202.34660
 8859.50000   68.25700   57.00370    0.16600    0.10420    2.53130    4.76370    0.00000    3.20380    3.75140    3.52370    7.39100   86.88860  194.03050
 8860.00000   72.58380   56.97860    0.16160    0.09680    2.54500    4.72490    0.00010    3.14250    3.80120    3.24410    7.37550   85.78610  194.49080
 8860.50000   74.12500   56.59990    0.15710    0.09560    2.54770    4.68130    0.00010    3.19060    3.76020    3.09000    7.03410   84.78870  199.13350
 8861.00000   73.49200   56.20210    0.15150    0.09580    2.54710    4.67290    0.00010    3.54060    3.45270    3.24700    7.01790   84.12460  199.97630
 8861.50000   74.22260   56.20580    0.15000    0.09620    2.54650    4.66140    0.00020    3.80500    3.78180    3.53900    7.00000   84.08600  191.91330
 8862.00000   75.22480   56.43070    0.15070    0.09870    2.54080    4.64980    0.00020    3.32810    3.30290    3.61110    7.01010   84.51470  189.41820
 8862.50000   68.44330   56.29340    0.15270    0.10310    2.53330    4.61280    0.00030    3.14090    3.30290    3.47710    7.00300   85.07090  192.54540
 8863.00000   58.48810   54.74140    0.15270    0.10430    2.53370    4.58950    0.00030    3.27390    3.30290    3.84440    6.99710   85.30880  207.20830
 8863.50000   55.95700   52.93460    0.15060    0.10040    2.54530    4.61040    0.00030    3.51950    3.57720    3.60380    6.99190   85.18700  223.15880
 8864.00000   62.02740   51.49980    0.14700    0.08960    2.55560    4.70100    0.00040    3.70850    3.78500    3.70940    6.77990   83.88740  232.17110
 8864.50000   68.45970   51.28780    0.14450    0.09180    2.55760    4.72910    0.00040    3.72900    3.90740    3.45700    6.57780   82.13270  233.44920
 8865.00000   70.33460   50.66230    0.14540    0.09780    2.54920    4.71420    0.00040    3.87750    3.89490    3.42710    6.57260   82.12700  229.04610
 8865.50000   72.42930   49.22330    0.14620    0.10720    2.53390    4.68570    0.00050    3.50210    3.56930    3.44040    6.63720   83.07990  218.60000
 8866.00000   75.55000   48.55570    0.14930    0.11380    2.51830    4.63310   -0.00020    3.47930    3.95460    3.96200    6.88010   83.98290  206.26280
 8866.50000   77.69350   48.76570    0.15800    0.11810    2.51140    4.56810   -0.00180    2.91980    4.71230    4.59620    6.94200   85.09470  198.69350
 8867.00000   80.74510   50.69780    0.16730    0.12400    2.50170    4.51150   -0.00340    4.84260    4.49790    4.39850    6.55480   86.18850  199.57760
 8867.50000   87.20270   52.54330    0.17440    0.13390    2.48780    4.48310   -0.00490    2.85320    2.96370    2.98060    6.54920   87.30920  197.17960
 8868.00000   95.91290   54.43170    0.17800    0.14870    2.46160    4.49720   -0.00640    1.43590    1.72710    1.48030    6.55350   90.17290  189.42640
 8868.50000   95.43490   56.73310    0.18440    0.16170    2.43880    4.51130   -0.00850    1.67820    2.22850    1.74240    6.51770   94.11480  180.73130
 8869.00000   87.36140   59.14440    0.19180    0.17120    2.41950    4.51740   -0.00750    2.00360    2.40260    2.02740    6.25980   97.23350  166.23220
 8869.50000   84.19990   61.92920    0.20240    0.17280    2.41550    4.52890   -0.00530    2.03790    2.45940    2.05950    6.12200   99.03260  158.26570
 8870.00000   86.46650   64.61750    0.21090    0.16740    2.42470    4.54490   -0.00180    2.02230    2.40680    1.55330    6.06290   99.33580  169.27410
 8870.50000   91.40420   66.38690    0.21340    0.15820    2.43870    4.56310    0.00050    1.54610    1.24710    1.18300    5.79370   99.95430  182.26000
 8871.00000   93.52820   66.75440    0.21350    0.15220    2.44870    4.59420    0.00050    1.66690    1.64450    1.49410    5.71540  100.59470  183.02780
 8871.50000   92.04040   67.02170    0.21720    0.15070    2.45400    4.62530    0.00050    1.77780    2.03130    1.79630    5.69510  101.46350  179.39790
 8872.00000   90.06920   68.10310    0.22420    0.15230    2.45130    4.63860    0.00060    1.46500    1.36930    1.38770    5.29680  102.52090  186.61190
 8872.50000   89.55840   69.45420    0.23430    0.15320    2.44860    4.65030    0.00060    1.33870    1.15230    0.97770    5.19310  103.61390  194.58700
 8873.00000   91.57730   70.32980    0.24050    0.15140    2.45350    4.67040    0.00060    1.47370    1.38980    1.25910    4.84450  104.38510  205.45700
 8873.50000   93.00550   70.76470    0.24510    0.14810    2.45970    4.69850    0.00070    1.42120    1.40280    1.38950    4.96670  105.05730  214.44440
 8874.00000   91.26880   70.31040    0.24360    0.14520    2.46230    4.75630    0.00070    1.41740    1.37610    1.34170    5.01590  105.38830  215.98090
 8874.50000   88.60050   70.27350    0.24200    0.14470    2.46440    4.80320    0.00070    1.38840    1.35830    1.26890    5.08190  105.57230  213.38310
 8875.00000   88.68680   71.19260    0.24220    0.14490    2.46350    4.84200    0.00080    1.43130    1.33790    1.24680    5.08020  105.47220  209.18460
 8875.50000   89.82210   72.97890    0.24280    0.14480    2.46380    4.84260    0.00080    1.40420    1.31850    1.24570    4.86310  105.53600  213.92970
 8876.00000   89.92780   73.18890    0.24360    0.14390    2.46530    4.84260    0.00080    1.38330    1.35440    1.30100    4.59810  105.47220  213.76250
 8876.50000   89.00720   72.75500    0.24430    0.14220    2.46830    4.85930    0.00080    1.40190    1.40300    1.35060    4.67280  105.99320  207.48390
 8877.00000   84.66470   73.12250    0.24990    0.14050    2.47110    4.91250    0.00090    1.42080    1.42490    1.36540    4.45460  105.56560  199.26420
 8877.50000   84.10370   74.65830    0.25270    0.13890    2.47360    4.90280    0.00090    1.41310    1.41430    1.34260    4.32270  105.44210  192.30700
 8878.00000   89.62870   76.13810    0.25210    0.13750    2.47610    4.89300    0.00090    1.40090    1.40210    1.33390    4.14200  105.34910  190.32010
 8878.50000   91.70460   76.43870    0.25190    0.13710    2.47690    4.91630    0.00100    1.39480    1.38990    1.32020    3.66260  105.27170  190.34270
 8879.00000   92.41990   75.94630    0.25300    0.13780    2.47590    4.93400    0.00100    1.40460    1.38240    1.30670    3.37010  105.27500  191.21790
 8879.50000   93.00280   74.86800    0.25430    0.13940    2.47340    4.92200    0.00100    1.41440    1.38200    1.29420    3.37050  105.39140  191.69270
