~Version ---------------------------------------------------
VERS.   2.0 : CWLS log ASCII Standard -VERSION 2.0
WRAP.    NO : One line per depth step
DLM . SPACE : Column Data Section Delimiter
~Well ------------------------------------------------------
STRT .F                 4330.0 : START DEPTH
STOP .F                 9210.0 : STOP DEPTH
STEP .F                    0.5 : STEP
NULL .                -9999.25 : NULL VALUE
COMP .                         : COMPANY
WELL .                         : WELL
FLD  .                         : FIELD
LOC  .                         : LOCATION
PROV .                         : PROVINCE
CNTY .                         : COUNTY
STAT .                         : STATE
CTRY .                         : COUNTRY
SRVC .                         : SERVICE COMPANY
DATE .                         : DATE
UWI  .                         : UNIQUE WELL ID
API  .                         : API NUMBER
SLAT .WGS84  6.182925732514001 : SURFACE LATITUDE
SLON .WGS84 3.1151921801412783 : SURFACE LONGITUDE
DATUM.F                1601.17 : DEPTH DATUM ELEV
~Curve Information -----------------------------------------
DEPT   .F     : 1 MEASURED DEPTH
GR     .GAPI  : GAMMA RAY
GRD    .GAPI  : GAMMA RAY FROM DENSITY LOG
NPHI_LS.DEC   : NEUTRON POROSITY LIMESTONE
DPHI_LS.DEC   : DENSITY POROSITY LIMESTONE
RHOB   .G/C3  : BULK DENSITY
CALD   .IN    : CALIPER FROM DENSITY LOG
QRHO   .G/C3  : SLDT DENSITY QUALITY FACTOR
AST10  .OHMM  : ARRAY INDUCTION 2FT RESISTIVITY A10
AST30  .OHMM  : ARRAY INDUCTION 2FT RESISTIVITY A30
AST90  .OHMM  : ARRAY INDUCTION 2FT RESISTIVITY A90
SPR    .MV    : SPONTANEOUS POTENTIAL FROM RESISTIVITY LOG
DTCO   .US/F  : DELTA-T COMPRESSIONAL
DTSM   .US/F  : DELTA-T SHEAR
~Params ----------------------------------------------------
~Other -----------------------------------------------------
~ASCII -----------------------------------------------------
# ...
 9166.00000   -9999.25   -9999.25   -9999.25   -9999.25   -9999.25    4.53650   -0.00190    5.61600    8.32830    7.50800    4.34420   48.16190  160.35950
 9166.50000   -9999.25   -9999.25   -9999.25   -9999.25   -9999.25    4.29760   -0.00180    8.24290    8.84140    9.02810    3.78310   47.88860  160.08640
 9167.00000   -9999.25   -9999.25   -9999.25   -9999.25   -9999.25    3.64050   -0.00220   11.60170    6.72770    6.62570    3.65630   47.82440  158.94270
 9167.50000   -9999.25   -9999.25   -9999.25   -9999.25   -9999.25    2.97160   -0.00210   25.80330   15.91590   16.11550    3.74520   47.81790  157.79890
 9168.00000   -9999.25   -9999.25   -9999.25   -9999.25   -9999.25    2.57930   -0.00210   36.80790   42.64500   33.95650    3.68610   47.87990  154.91420
 9168.50000   -9999.25   -9999.25   -9999.25   -9999.25   -9999.25    2.50360   -0.00200   81.47260  141.39930   70.80690    3.74130   48.15650  150.11220
 9169.00000   -9999.25   -9999.25   -9999.25   -9999.25   -9999.25    2.50130   -0.00170   78.75980   80.75760   30.77070    4.53480   48.35110  134.52680
 9169.50000   -9999.25   -9999.25   -9999.25   -9999.25   -9999.25    2.50090   -0.00120   48.84920   42.38200   23.43460    6.49960   48.52020  114.14300
 9170.00000   -9999.25   -9999.25   -9999.25   -9999.25   -9999.25    2.49750   -0.00070   31.15150   31.75200   21.66060    6.80920   48.49290   98.40150
 9170.50000   -9999.25   -9999.25   -9999.25   -9999.25   -9999.25    2.49400   -0.00020   25.84330   25.46030   22.18360    6.20060   48.25820   95.07870
 9171.00000   -9999.25   -9999.25   -9999.25   -9999.25   -9999.25    2.49540    0.00030   17.53330   18.46920   18.48890    5.37630   48.20300   95.16860
 9171.50000   -9999.25   -9999.25   -9999.25   -9999.25   -9999.25    2.49970    0.00050   20.33700   25.39660   24.51610    4.17380   48.18270   95.87170
 9172.00000   -9999.25   -9999.25   -9999.25   -9999.25   -9999.25    2.50090    0.00050   16.70160   29.43540   24.85440    2.30670   47.95180   97.60550
 9172.50000   -9999.25   -9999.25   -9999.25   -9999.25   -9999.25    2.50130    0.00050    8.60590   33.07720   23.81020    0.35110   47.79500  101.72110
 9173.00000   -9999.25   -9999.25   -9999.25   -9999.25   -9999.25    2.50040    0.00040   10.62510   47.44430   23.28530   -1.48540   47.71950  113.07090
 9173.50000   -9999.25   -9999.25   -9999.25   -9999.25   -9999.25    2.49990    0.00040   10.95580   54.11600   38.94700   -2.89950   47.47720  138.83740
 9174.00000   -9999.25   -9999.25   -9999.25   -9999.25   -9999.25    2.50010    0.00040    7.26020   28.96410   19.60820   -7.21030   47.88220  158.35680
 9174.50000   -9999.25   -9999.25   -9999.25   -9999.25   -9999.25    2.50100    0.00030    5.10160   15.50220    9.51750  -12.07300   48.84420  152.86180
 9175.00000   -9999.25   -9999.25   -9999.25   -9999.25   -9999.25    2.50100    0.00030    3.99090   14.81710   11.05640  -16.29340   51.30930  131.76750
 9175.50000   -9999.25   -9999.25   -9999.25   -9999.25   -9999.25    2.50100    0.00020    3.67030   12.45080   11.14020  -19.88650   54.24050  135.02340
 9176.00000   -9999.25   -9999.25   -9999.25   -9999.25   -9999.25    2.50000    0.00020    4.14830   10.40270    9.68120  -21.78250   56.32640  161.01680
 9176.50000   -9999.25   -9999.25   -9999.25   -9999.25   -9999.25    2.49600    0.00020    3.97090   10.81740    9.68120  -22.27530   57.74420  175.11450
 9177.00000   -9999.25   -9999.25   -9999.25   -9999.25   -9999.25    2.49320    0.00010    3.99850   14.09120   11.09400  -21.85090   57.80090  176.53370
 9177.50000   -9999.25   -9999.25   -9999.25   -9999.25   -9999.25    2.49700    0.00010    4.15320   18.35590   12.71310  -21.92490   57.38860  176.01750
 9178.00000   -9999.25   -9999.25   -9999.25   -9999.25   -9999.25    2.50090    0.00010    4.22340   22.12900   14.26550  -22.54840   57.35910  175.57990
 9178.50000   -9999.25   -9999.25   -9999.25   -9999.25   -9999.25    2.50170    0.00000    4.22340   19.82950   14.21530  -22.61390   57.59790  175.38130
 9179.00000   -9999.25   -9999.25   -9999.25   -9999.25   -9999.25    2.50080   -0.00000    4.22070   16.47390   14.08990  -22.86060   57.91750  175.30380
 9179.50000   -9999.25   -9999.25   -9999.25   -9999.25   -9999.25    2.50080   -0.00010    4.21930   13.68610   13.37150  -22.80880   58.20810  175.13130
 9180.00000   -9999.25   -9999.25   -9999.25   -9999.25   -9999.25    2.50080   -0.00010    4.21250   13.06870   12.67280  -22.21110   58.46890  175.00180
 9180.50000   -9999.25   -9999.25   -9999.25   -9999.25   -9999.25    2.50090   -0.00010    4.24630   12.56110   12.10070  -21.09080   58.57810  175.02760
 9181.00000   -9999.25   -9999.25   -9999.25   -9999.25   -9999.25    2.50090   -0.00020    4.30800   12.65130   12.36810  -18.73560   58.62080  175.05340
 9181.50000   -9999.25   -9999.25   -9999.25   -9999.25   -9999.25    2.50090   -0.00020    4.37240   12.76390   12.81500   -1.78280   58.98290  175.07070
 9182.00000   -9999.25   -9999.25   -9999.25   -9999.25   -9999.25    2.50060   -0.00020    4.47460   12.60590   12.61970   28.90780   59.00550  174.99230
 9182.50000   -9999.25   -9999.25   -9999.25   -9999.25   -9999.25    2.49900   -0.00030    4.69490   12.42280   12.54270   59.59850   59.01090  174.98140
 9183.00000   -9999.25   -9999.25   -9999.25   -9999.25   -9999.25    2.49750   -0.00030    4.77070   11.79970   11.82170   67.19870   59.01150  174.99470
 9183.50000   -9999.25   -9999.25   -9999.25   -9999.25   -9999.25    2.50110   -0.00040    4.84690    9.80020   10.24750   67.41060   59.01220  175.25690
 9184.00000   -9999.25   -9999.25   -9999.25   -9999.25   -9999.25    2.50220   -0.00040    5.04080    9.60680   10.42950   68.48470   58.69850  176.14900
 9184.50000   -9999.25   -9999.25   -9999.25   -9999.25   -9999.25    2.50170   -0.00040    6.00870   15.07580   12.51830   68.79860   57.83830  177.53960
 9185.00000   -9999.25   -9999.25   -9999.25   -9999.25   -9999.25    2.50110   -0.00050    6.68990   13.37710   11.82280   68.84120   56.60490  183.52090
 9185.50000   -9999.25   -9999.25   -9999.25   -9999.25   -9999.25    2.49950   -0.00050    6.33870   13.32060   11.95730   69.81820   55.31510  197.20730
 9186.00000   -9999.25   -9999.25   -9999.25   -9999.25   -9999.25    2.49600   -0.00050    6.38710   14.25120   13.56100   70.40820   54.27000  213.59240
 9186.50000   -9999.25   -9999.25   -9999.25   -9999.25   -9999.25    2.49260   -0.00060    6.92210   17.00630   17.62460   70.42010   53.86050  228.59090
 9187.00000   -9999.25   -9999.25   -9999.25   -9999.25   -9999.25    2.50100   -0.00060    7.63030   20.00120   24.65830   71.12090   53.84970  228.93290
 9187.50000   -9999.25   -9999.25   -9999.25   -9999.25   -9999.25    2.50230   -0.00070    9.10910   18.91380   28.90680   71.92610   53.84740  228.95190
 9188.00000   -9999.25   -9999.25   -9999.25   -9999.25   -9999.25    2.50220   -0.00070    8.43330   17.29560   18.31080   72.01940   53.84510  228.96690
 9188.50000   -9999.25   -9999.25   -9999.25   -9999.25   -9999.25    2.50130   -0.00070    8.28850   11.09210   10.63130   72.92000   53.84280  228.96690
 9189.00000   -9999.25   -9999.25   -9999.25   -9999.25   -9999.25    2.49850   -0.00080    9.73020   11.07800    7.76250   73.57200   53.84060  228.96690
 9189.50000   -9999.25   -9999.25   -9999.25   -9999.25   -9999.25    2.49580   -0.00080   10.19560   10.39800    8.03260   73.69350   53.84070  228.96690
 9190.00000   -9999.25   -9999.25   -9999.25   -9999.25   -9999.25    2.49950   -0.00080   11.56920   14.85110    7.63990   74.16190   53.84070  228.95540
 9190.50000   -9999.25   -9999.25   -9999.25   -9999.25   -9999.25    2.50120   -0.00090   11.50070   16.44050    8.75700   75.12580   53.84080  228.94890
 9191.00000   -9999.25   -9999.25   -9999.25   -9999.25   -9999.25    2.49950   -0.00090   11.96990   16.77760    7.64870   76.06810   53.84080  228.96280
 9191.50000   -9999.25   -9999.25   -9999.25   -9999.25   -9999.25    2.49780   -0.00100   12.14210   13.86150    6.62790   76.55880   53.84090  229.00130
