~Version ---------------------------------------------------
VERS.   2.0 : CWLS log ASCII Standard -VERSION 2.0
WRAP.    NO : One line per depth step
DLM . SPACE : Column Data Section Delimiter
~Well ------------------------------------------------------
STRT .F                 4330.0 : START DEPTH
STOP .F                 9210.0 : STOP DEPTH
STEP .F                    0.5 : STEP
NULL .                -9999.25 : NULL VALUE
COMP .                         : COMPANY
WELL .                         : WELL
FLD  .                         : FIELD
LOC  .                         : LOCATION
PROV .                         : PROVINCE
CNTY .                         : COUNTY
STAT .                         : STATE
CTRY .                         : COUNTRY
SRVC .                         : SERVICE COMPANY
DATE .                         : DATE
UWI  .                         : UNIQUE WELL ID
API  .                         : API NUMBER
SLAT .WGS84  6.182925732514001 : SURFACE LATITUDE
SLON .WGS84 3.1151921801412783 : SURFACE LONGITUDE
DATUM.F                1601.17 : DEPTH DATUM ELEV
~Curve Information -----------------------------------------
DEPT   .F     : 1 MEASURED DEPTH
GR     .GAPI  : GAMMA RAY
GRD    .GAPI  : GAMMA RAY FROM DENSITY LOG
NPHI_LS.DEC   : NEUTRON POROSITY LIMESTONE
DPHI_LS.DEC   : DENSITY POROSITY LIMESTONE
RHOB   .G/C3  : BULK DENSITY
CALD   .IN    : CALIPER FROM DENSITY LOG
QRHO   .G/C3  : SLDT DENSITY QUALITY FACTOR
AST10  .OHMM  : ARRAY INDUCTION 2FT RESISTIVITY A10
AST30  .OHMM  : ARRAY INDUCTION 2FT RESISTIVITY A30
AST90  .OHMM  : ARRAY INDUCTION 2FT RESISTIVITY A90
SPR    .MV    : SPONTANEOUS POTENTIAL FROM RESISTIVITY LOG
DTCO   .US/F  : DELTA-T COMPRESSIONAL
DTSM   .US/F  : DELTA-T SHEAR
~Params ----------------------------------------------------
~Other -----------------------------------------------------
~ASCII -----------------------------------------------------
# ...
 8880.00000   94.11040   72.99020    0.25570    0.14170    2.46990    4.92030    0.00100    1.40480    1.38150    1.29830    3.36170  105.60550  190.99630
 8880.50000   94.77010   71.10190    0.25580    0.14420    2.46520    4.91850    0.00110    1.40470    1.40590    1.32720    3.36140  105.57740  190.36440
 8881.00000   93.95860   70.36220    0.25340    0.14520    2.46390    4.91680    0.00110    1.43540    1.43650    1.44220    3.08910  105.19820  193.06720
 8881.50000   95.91650   71.68880    0.25130    0.14360    2.46550    4.91510    0.00110    1.44140    1.44250    1.43680    3.24370  104.61890  202.62100
 8882.00000   98.49650   73.16900    0.25230    0.14130    2.46960    4.91330    0.00120    1.43140    1.43960    1.42650    3.28740  104.59560  212.10450
 8882.50000   96.53800   74.41750    0.25460    0.13960    2.47270    4.91710    0.00120    1.41800    1.43670    1.41630    3.31820  105.11640  216.16890
 8883.00000   96.31700   75.13460    0.25720    0.13880    2.47390    4.94760    0.00120    1.40470    1.43380    1.40610    3.11970  105.48570  218.36190
 8883.50000   96.67430   74.15350    0.25990    0.13840    2.47430    4.93560    0.00130    1.42940    1.43160    1.39600    3.26600  105.42720  218.05850
 8884.00000   90.98610   73.80240    0.26250    0.13850    2.47320    4.91830    0.00130    1.46750    1.46890    1.44180    3.26630  104.94880  217.75510
 8884.50000   84.27240   74.24320    0.26700    0.13890    2.47240    4.90980    0.00130    1.48500    1.48640    1.49250    3.11570  104.44610  217.42120
 8885.00000   87.25730   74.94460    0.27300    0.13840    2.47410    4.91040    0.00130    1.39940    1.40090    1.40270    2.47770  104.78180  214.48390
 8885.50000   92.43690   74.79830    0.27400    0.13800    2.47450    4.92960    0.00140    1.42700    1.42850    1.43040    2.58640  105.08620  206.78310
 8886.00000   89.54560   74.67320    0.27140    0.13820    2.47380    4.94500    0.00140    1.47540    1.47660    1.47820    2.61300  105.20430  199.92090
 8886.50000   87.29420   75.46000    0.26880    0.13770    2.47540    4.89740    0.00140    1.45080    1.45210    1.45390    2.24560  105.19180  203.48630
 8887.00000   89.57070   76.42530    0.26650    0.13610    2.47770    4.82620    0.00150    1.44890    1.45060    1.43170    2.33260  104.84300  208.57050
 8887.50000   92.76710   76.65800    0.26400    0.13450    2.48080    4.77180    0.00150    1.53690    1.59510    1.42060    1.87010  104.40730  209.47680
 8888.00000   95.57060   75.90440    0.26040    0.13450    2.48120    4.80090    0.00150    1.51160    1.59710    1.38610    1.32830  103.86480  210.13720
 8888.50000   99.95540   75.31690    0.25780    0.13660    2.47820    4.83210    0.00150    1.50800    1.49780    1.40800    0.39380  103.33290  210.49910
 8889.00000   96.32570   75.33870    0.25600    0.14010    2.47210    4.83490    0.00160    1.53020    1.63020    1.63340   -2.00520  103.22090  206.89840
 8889.50000   73.74310   76.31180    0.25420    0.14430    2.46450    4.83580    0.00160    1.58850    1.87820    1.86770   -3.89290  103.14780  198.04170
 8890.00000   46.20180   77.17200    0.24110    0.14820    2.45880    4.84280    0.00160    1.62050    1.58100    1.57710   -4.81870  102.09030  203.48190
 8890.50000   34.25660   77.20450    0.21190    0.15010    2.45570    4.85080    0.00170    1.30040    1.06290    1.13190   -4.95520   98.68710  211.45410
 8891.00000   39.25190   69.91700    0.17410    0.14670    2.46100    4.81420    0.00170    1.32880    1.33980    1.35320   -6.29670   89.94420  212.89880
 8891.50000   61.03640   52.66530    0.14420    0.12990    2.48240    4.74160    0.00170    3.79190    3.83700    3.26310   -9.09770   79.53290  208.63570
 8892.00000   78.31190   36.67170    0.11450    0.11080    2.52420    4.69410    0.00180   12.43680   12.35410    7.06550  -15.07790   68.62940  196.59700
 8892.50000   85.70940   25.44420    0.10050    0.09170    2.55550    4.64670    0.00160   16.22250    9.06810    6.17580  -19.19150   64.35120  180.34210
 8893.00000   78.55370   26.48880    0.09940    0.08470    2.56480    4.59920   -0.00160   11.81920   10.01110    8.39380  -20.98730   63.50170  157.47100
 8893.50000   65.43710   36.47080    0.10600    0.08910    2.55840    4.55290   -0.00480   17.71740   11.32310   11.40840  -21.37990   65.72150  160.99040
 8894.00000   59.51960   50.01750    0.12260    0.09540    2.55060    4.51100   -0.00660   16.44030   12.13540   12.91750  -20.87560   67.76800  171.32740
 8894.50000   59.72240   56.91720    0.13280    0.09750    2.54420    4.47520   -0.00670   13.06560   10.33300   11.09180  -19.86140   69.23310  174.69630
 8895.00000   61.20760   57.84740    0.13120    0.10080    2.53780    4.46900   -0.00710    9.45010    8.13100    7.64460  -18.48760   69.00980  173.19870
 8895.50000   61.49340   55.22910    0.12760    0.10750    2.52780    4.45060   -0.00780   14.99820    9.86400    9.73000  -17.90480   69.07610  170.94700
 8896.00000   60.33030   52.39130    0.12630    0.11490    2.51390    4.43760   -0.00800   20.26560   12.40370   11.31040  -18.28800   68.91990  169.05810
 8896.50000   55.40270   51.10980    0.12950    0.11730    2.50960    4.42510   -0.00630   12.28920    9.95530   11.13350  -18.74880   69.12890  166.88450
 8897.00000   48.57830   50.88150    0.13680    0.11620    2.51150    4.41450   -0.00400   15.91400   12.40560   14.55670  -19.38400   69.77520  171.48840
 8897.50000   42.74810   50.73980    0.14620    0.11330    2.51690    4.42920   -0.00070   12.08470   14.08960   15.33720  -20.16290   71.11140  180.87330
 8898.00000   35.68110   50.16410    0.15320    0.11350    2.51690    4.46610    0.00040   12.98900   12.16630   12.86230  -20.92790   73.47260  199.37790
 8898.50000   30.05120   46.99940    0.15670    0.12250    2.50240    4.54700    0.00050   14.08320    9.53220    9.82510  -22.56230   76.23560  212.83610
 8899.00000   27.20470   42.62840    0.15380    0.14010    2.47220    4.64910    0.00050   11.31300    7.74990    7.75820  -23.27860   79.10920  214.93980
 8899.50000   31.90480   38.86440    0.14720    0.15900    2.44160    4.76590    0.00050   13.30840   13.40330   13.67380  -24.47950   80.34890  213.24890
 8900.00000   42.71200   35.95520    0.13820    0.16390    2.43180    4.74690    0.00060   27.27580   27.51440   22.02270  -25.19130   78.74000  197.63710
 8900.50000   52.07260   34.29250    0.12850    0.16240    2.43150    4.72360    0.00060   36.32870   22.40400   19.43590  -26.29860   76.42380  181.21790
 8901.00000   50.03160   34.48530    0.11880    0.15310    2.44570    4.69030    0.00060   37.24350   20.80860   20.22190  -26.99510   73.02000  170.88880
 8901.50000   42.43170   35.23330    0.11300    0.14260    2.46290    4.65210    0.00070   33.77220   25.07330   21.45640  -27.79630   70.93850  169.32550
 8902.00000   38.98450   35.12090    0.11370    0.13300    2.47910    4.64040    0.00070   37.88730   25.33650   20.05950  -28.56580   70.84820  170.18500
 8902.50000   41.76990   32.67840    0.11470    0.13310    2.48440    4.67590    0.00070   39.38360   25.33810   18.86870  -28.94900   71.23970  172.18740
 8903.00000   47.57120   30.75400    0.11500    0.13930    2.47870    4.71140    0.00080   36.40830   25.33560   19.19060  -28.94830   71.09640  174.14370
 8903.50000   54.96900   30.51530    0.11470    0.14590    2.46630    4.71340    0.00080   37.98090   25.16540   20.66250  -28.94760   70.89770  174.85550
 8904.00000   67.73970   31.88690    0.11590    0.14840    2.45850    4.64670    0.00090   37.57910   23.19860   23.94190  -28.90500   70.69690  174.24060
 8904.50000   84.43360   36.04300    0.11940    0.14460    2.45990    4.56590    0.00090   37.21930   19.77330   22.00770  -28.48890   70.62500  173.89890
 8905.00000   92.84780   41.58340    0.12540    0.13860    2.46740    4.50690    0.00090   38.89460   16.99090   15.54120  -27.64170   70.97620  177.05190
 8905.50000   94.05110   48.05490    0.13330    0.13190    2.47730    4.46600    0.00100   21.62930   11.47290    8.36080  -26.52700   71.74720  190.10620
