~Version ---------------------------------------------------
VERS.   2.0 : CWLS log ASCII Standard -VERSION 2.0
WRAP.    NO : One line per depth step
DLM . SPACE : Column Data Section Delimiter
~Well ------------------------------------------------------
STRT .F                 4330.0 : START DEPTH
STOP .F                 9210.0 : STOP DEPTH
STEP .F                    0.5 : STEP
NULL .                -9999.25 : NULL VALUE
COMP .                         : COMPANY
WELL .                         : WELL
FLD  .                         : FIELD
LOC  .                         : LOCATION
PROV .                         : PROVINCE
CNTY .                         : COUNTY
STAT .                         : STATE
CTRY .                         : COUNTRY
SRVC .                         : SERVICE COMPANY
DATE .                         : DATE
UWI  .                         : UNIQUE WELL ID
API  .                         : API NUMBER
SLAT .WGS84  6.182925732514001 : SURFACE LATITUDE
SLON .WGS84 3.1151921801412783 : SURFACE LONGITUDE
DATUM.F                1601.17 : DEPTH DATUM ELEV
~Curve Information -----------------------------------------
DEPT   .F     : 1 MEASURED DEPTH
GR     .GAPI  : GAMMA RAY
GRD    .GAPI  : GAMMA RAY FROM DENSITY LOG
NPHI_LS.DEC   : NEUTRON POROSITY LIMESTONE
DPHI_LS.DEC   : DENSITY POROSITY LIMESTONE
RHOB   .G/C3  : BULK DENSITY
CALD   .IN    : CALIPER FROM DENSITY LOG
QRHO   .G/C3  : SLDT DENSITY QUALITY FACTOR
AST10  .OHMM  : ARRAY INDUCTION 2FT RESISTIVITY A10
AST30  .OHMM  : ARRAY INDUCTION 2FT RESISTIVITY A30
AST90  .OHMM  : ARRAY INDUCTION 2FT RESISTIVITY A90
SPR    .MV    : SPONTANEOUS POTENTIAL FROM RESISTIVITY LOG
DTCO   .US/F  : DELTA-T COMPRESSIONAL
DTSM   .US/F  : DELTA-T SHEAR
~Params ----------------------------------------------------
~Other -----------------------------------------------------
~ASCII -----------------------------------------------------
# ...
 8698.00000  119.76970   80.66760    0.19630    0.06690    2.59780    4.77970    0.00160    3.98040    3.27010    2.78160   -4.81230   82.84230  193.49990
 8698.50000  112.59840   81.53020    0.19720    0.05450    2.61860    4.78690    0.00150    3.31380    3.32840    3.35480   -5.30130   81.98050  194.09130
 8699.00000  101.62900   83.97460    0.20590    0.05460    2.61660    4.78160    0.00150    4.76300    4.76700    3.91200   -5.60220   82.38290  193.48450
 8699.50000  101.04800   85.25280    0.22150    0.06690    2.59680    4.78270    0.00140    2.74630    2.76370    2.79720   -5.90300   84.19920  194.59660
 8700.00000  108.28170   85.86340    0.24230    0.08050    2.57280    4.82880    0.00140    2.56970    2.57240    2.95370   -6.20380   87.28920  200.21610
 8700.50000  114.73590   86.42950    0.25370    0.09230    2.55160    4.84620    0.00130    2.50660    2.50960    3.43650   -6.88260   92.30660  206.74840
 8701.00000  114.16870   86.67510    0.25940    0.10080    2.53840    4.80590    0.00130    2.23550    2.23730    2.23970   -7.69950   96.81320  206.35650
 8701.50000  109.78800   84.95620    0.26180    0.10750    2.52760    4.76210    0.00120    2.35200    2.29720    2.21770   -7.86350   97.63790  204.63070
 8702.00000  107.77200   83.34080    0.26110    0.11000    2.52350    4.76170    0.00110    2.41700    2.32890    2.23040   -7.66730   97.87870  202.77120
 8702.50000  106.65350   82.18030    0.25830    0.10450    2.53200    4.78390    0.00110    1.91640    2.03910    1.93200   -6.66500   98.54800  202.98110
 8703.00000  106.46780   82.84080    0.25120    0.09350    2.55080    4.80190    0.00100    2.20150    2.21340    2.24710   -6.07690   98.44660  203.68120
 8703.50000  107.94310   83.08690    0.24210    0.08250    2.56960    4.81040    0.00100    2.52110    2.51310    2.51740   -5.94880   97.53030  206.57570
 8704.00000  106.32000   81.87230    0.23050    0.07760    2.58080    4.79970    0.00090    2.85600    2.85170    2.85770   -5.43090   96.99430  209.55680
 8704.50000   92.64630   80.25340    0.21020    0.07550    2.58150    4.80490    0.00090    2.83860    2.20280    2.21920   -4.80150   97.05740  212.96540
 8705.00000   84.92520   78.88190    0.18330    0.07620    2.58100    4.80900    0.00080    1.92160    1.60620    1.61050   -3.87880   96.16720  216.37400
 8705.50000   82.54030   77.01240    0.17010    0.07230    2.58740    4.81910    0.00070    2.27060    1.96310    2.32900   -6.50340   93.67130  219.64560
 8706.00000   83.35050   75.20920    0.16950    0.06610    2.59880    4.83230    0.00070    2.91730    2.85410    3.15880  -12.58500   89.99740  220.41440
 8706.50000   85.49590   73.11990    0.17080    0.06220    2.60400    4.84410    0.00060    2.92580    2.95670    2.97160  -20.32240   86.27980  209.58460
 8707.00000   87.82130   70.89300    0.17460    0.06520    2.59980    4.84830    0.00060    2.96460    2.96740    2.97100  -22.82080   84.82480  182.23220
 8707.50000   87.67220   69.04700    0.17570    0.07290    2.58700    4.84780    0.00050    3.77430    3.36280    3.42100  -22.33210   85.49240  166.28010
 8708.00000   86.62170   67.91770    0.17590    0.08110    2.57330    4.82030    0.00040    4.12670    3.88980    3.89490  -21.28610   86.74160  166.86440
 8708.50000   88.51990   67.31460    0.17680    0.08660    2.56320    4.79180    0.00040    3.47900    4.02330    4.10060  -20.19720   88.35180  179.00290
 8709.00000   91.94180   67.91340    0.17780    0.08840    2.56000    4.79210    0.00030    3.90300    3.89760    4.24410  -16.52350   89.29490  196.90460
 8709.50000   89.21380   68.61100    0.17900    0.08640    2.56240    4.79880    0.00030    2.80060    2.78530    3.24800  -11.83180   90.06950  206.09110
 8710.00000   88.84650   69.11320    0.17860    0.08460    2.56580    4.80550    0.00020    2.74630    2.02570    2.02830  -16.35990   90.84130  206.67930
 8710.50000   90.76260   68.41760    0.17820    0.08410    2.56680    4.80790    0.00020    3.23820    2.68490    2.69470  -22.26980   91.33630  206.52870
 8711.00000   89.13040   66.92810    0.18050    0.08460    2.56610    4.80690    0.00010    2.84150    3.34830    3.33110  -27.50640   91.87290  207.63280
 8711.50000   90.57310   66.71950    0.18700    0.08460    2.56640    4.80600    0.00000    2.82690    3.13580    2.76660  -32.23860   93.14320  200.10350
 8712.00000   95.30190   67.44630    0.20370    0.08470    2.56570    4.79450   -0.00000    2.59450    2.60450    2.20180  -33.87690   94.94430  176.33780
 8712.50000   99.17300   67.77250    0.21640    0.08750    2.55780    4.77920   -0.00010    2.48600    2.65170    2.33630  -34.11410   96.32850  170.47010
 8713.00000  104.48810   67.71170    0.22660    0.09480    2.54190    4.76500   -0.00010    2.46070    2.42600    2.30950  -34.10670   96.90070  184.87190
 8713.50000  111.18970   66.87300    0.22680    0.10330    2.52840    4.74990   -0.00020    2.44230    2.51200    2.79570  -34.14890   96.94270  198.27720
 8714.00000  115.98390   66.89710    0.22300    0.10910    2.51950    4.74820   -0.00030    2.43150    2.55210    3.42960  -34.03880   96.77040  191.53810
 8714.50000  112.89420   67.81570    0.21920    0.11290    2.51350    4.75780   -0.00030    2.25950    2.50140    3.29710  -34.27780   96.57810  186.76420
 8715.00000  103.07870   69.15490    0.21630    0.11660    2.50910    4.78500   -0.00040    2.28130    2.42870    2.77910  -34.39570   96.61190  196.44200
 8715.50000   96.05820   70.83840    0.21450    0.11760    2.51210    4.78000   -0.00040    2.24390    2.24640    2.34250  -33.73200   96.58690  203.46350
 8716.00000   90.06400   72.82700    0.21290    0.11270    2.53220    4.77040   -0.00050    1.96670    1.96980    1.97450  -30.79080   96.35510  207.40900
 8716.50000   79.42770   76.16830    0.21120    0.10180    2.55850    4.77330   -0.00050    2.13710    2.14590    2.11870  -28.57660   95.80310  210.51730
 8717.00000   68.38210   77.13500    0.20720    0.08070    2.59660    4.79090   -0.00060    3.50290    3.50750    3.05160  -25.81720   93.32560  212.79090
 8717.50000   66.23780   78.21970    0.19720    0.06460    2.62190    4.68350   -0.00120    2.71600    2.73710    2.59350  -20.99790   89.59190  208.55150
 8718.00000   71.72940   79.09300    0.17980    0.04860    2.63980    4.60470   -0.00340    1.42430    1.43160    1.44040  -18.45910   85.75370  189.12580
 8718.50000   82.85600   79.25850    0.15480    0.03410    2.65020    4.56460   -0.00520    3.80250    2.78910    2.76170  -17.93100   83.70520  179.61330
 8719.00000   95.09450   77.50150    0.15170    0.03040    2.65850    4.57720   -0.00320    7.04510    5.42750    4.33660  -18.31250   84.50330  184.06680
 8719.50000  105.30740   77.18760    0.15680    0.03400    2.65380    4.66830   -0.00380    4.23400    3.72740    2.64760  -17.94890   86.06030  188.50590
 8720.00000  111.88380   77.34550    0.17290    0.04600    2.63290    4.66270   -0.00470    4.66650    4.22450    3.29150  -17.87030   88.31900  194.51910
 8720.50000  108.30100   77.88830    0.19580    0.05640    2.61410    4.63650   -0.00380    4.17970    5.34180    4.12080  -17.56170   89.54190  202.49300
 8721.00000  104.24530   78.67370    0.23170    0.05950    2.60990    4.62810   -0.00090    3.87930    3.89580    3.55540  -17.46290   89.99470  202.47310
 8721.50000  109.56540   81.53260    0.24600    0.05680    2.61350    4.63260    0.00010    2.88760    2.58480    2.15180  -17.11280   90.59920  200.59430
 8722.00000  116.97500   84.41190    0.24690    0.05450    2.61790    4.63730    0.00010    3.23960    2.87120    2.95560  -16.96080   91.29770  198.08330
 8722.50000  119.32760   85.05840    0.24560    0.05400    2.61910    4.62330    0.00010    3.41340    3.19290    3.26140  -16.58870   91.41250  196.62740
 8723.00000  122.43020   84.44030    0.24630    0.05330    2.62020    4.60250    0.00010    3.68710    3.37150    3.36630  -15.55870   90.71110  195.89680
 8723.50000  123.76050   84.46250    0.24840    0.05200    2.62200    4.61410    0.00010    3.51350    3.47430    3.40750  -12.75400   89.78650  194.38850
