~Version ---------------------------------------------------
VERS.   2.0 : CWLS log ASCII Standard -VERSION 2.0
WRAP.    NO : One line per depth step
DLM . SPACE : Column Data Section Delimiter
~Well ------------------------------------------------------
STRT .F                 4330.0 : START DEPTH
STOP .F                 9210.0 : STOP DEPTH
STEP .F                    0.5 : STEP
NULL .                -9999.25 : NULL VALUE
COMP .                         : COMPANY
WELL .                         : WELL
FLD  .                         : FIELD
LOC  .                         : LOCATION
PROV .                         : PROVINCE
CNTY .                         : COUNTY
STAT .                         : STATE
CTRY .                         : COUNTRY
SRVC .                         : SERVICE COMPANY
DATE .                         : DATE
UWI  .                         : UNIQUE WELL ID
API  .                         : API NUMBER
SLAT .WGS84  6.182925732514001 : SURFACE LATITUDE
SLON .WGS84 3.1151921801412783 : SURFACE LONGITUDE
DATUM.F                1601.17 : DEPTH DATUM ELEV
~Curve Information -----------------------------------------
DEPT   .F     : 1 MEASURED DEPTH
GR     .GAPI  : GAMMA RAY
GRD    .GAPI  : GAMMA RAY FROM DENSITY LOG
NPHI_LS.DEC   : NEUTRON POROSITY LIMESTONE
DPHI_LS.DEC   : DENSITY POROSITY LIMESTONE
RHOB   .G/C3  : BULK DENSITY
CALD   .IN    : CALIPER FROM DENSITY LOG
QRHO   .G/C3  : SLDT DENSITY QUALITY FACTOR
AST10  .OHMM  : ARRAY INDUCTION 2FT RESISTIVITY A10
AST30  .OHMM  : ARRAY INDUCTION 2FT RESISTIVITY A30
AST90  .OHMM  : ARRAY INDUCTION 2FT RESISTIVITY A90
SPR    .MV    : SPONTANEOUS POTENTIAL FROM RESISTIVITY LOG
DTCO   .US/F  : DELTA-T COMPRESSIONAL
DTSM   .US/F  : DELTA-T SHEAR
~Params ----------------------------------------------------
~Other -----------------------------------------------------
~ASCII -----------------------------------------------------
# ...
 8802.00000   89.36870   65.17460    0.26160    0.17050    2.42060    4.67590   -0.00010    1.25420    0.92110    0.92860  -11.62510  103.86950  197.50700
 8802.50000   74.46430   64.16110    0.25340    0.17210    2.41790    4.67610    0.00120    0.63310    0.51530    0.49780  -11.75600  104.54660  203.08310
 8803.00000   55.49150   64.22670    0.22780    0.17100    2.41730    4.67440    0.00120    1.62170    1.14360    0.97490  -11.00970  104.96660  199.57880
 8803.50000   49.38230   63.67950    0.18720    0.16490    2.42620    4.64960    0.00120    1.75280    2.08940    1.59490   -9.18290  104.85300  182.71740
 8804.00000   54.78480   58.12500    0.13840    0.13560    2.45000    4.63370    0.00120    3.15050    1.64870    1.07700   -7.60640  103.51340  169.46280
 8804.50000   59.98440   48.78880    0.09270    0.09090    2.51030    4.61990    0.00110    4.37680    1.54000    1.33400   -7.12030   98.03110  181.58150
 8805.00000   61.30580   42.01120    0.07020    0.05370    2.57060    4.63590    0.00110   13.14550    2.62070    2.33800   -7.66770   90.20140  207.43360
 8805.50000   65.13780   40.20310    0.05610    0.01990    2.64200    4.66190    0.00110    9.05650    3.17050    3.32250   -7.62180   84.17310  210.49450
 8806.00000   68.32900   41.78890    0.06090    0.01420    2.68050    4.68780    0.00100    2.92880    1.74700    1.49790   -6.13340   82.15840  197.11300
 8806.50000   68.68210   43.24580    0.08200    0.01970    2.68570    4.71480    0.00100    3.10850    1.46050    1.30490   -2.40060   84.52090  186.93030
 8807.00000   79.43700   43.51350    0.10810    0.03750    2.67580    4.70820    0.00100    2.19640    2.83650    2.95950    2.61510   89.38920  202.17220
 8807.50000   97.00500   45.66650    0.13180    0.05980    2.64530    4.70270    0.00090    1.88310    2.89910    2.08670   -1.17900   93.55960  213.23170
 8808.00000  109.97670   49.62390    0.15060    0.08150    2.61130    4.69710    0.00090    1.59910    2.05880    1.54990  -16.99480   96.28170  213.03830
 8808.50000  116.02850   54.53520    0.17270    0.10240    2.57080    4.69880    0.00090    1.96980    2.02130    1.64810  -22.12800   98.62070  201.95430
 8809.00000  109.67510   60.27110    0.20950    0.12300    2.54040    4.75640    0.00080    1.73500    1.82640    1.66350  -20.87800  100.92260  191.64540
 8809.50000   95.24130   68.54450    0.23420    0.14540    2.47200    4.78350    0.00080    1.74460    1.71960    1.76400  -21.72740  101.90070  187.01350
 8810.00000   85.38660   75.70700    0.24590    0.16640    2.42720    4.81470    0.00080    2.03280    1.97200    1.96260  -22.01820  102.84900  180.05980
 8810.50000   85.48860   80.36400    0.24820    0.18760    2.39160    4.85870    0.00070    2.35630    2.19860    2.44190  -22.02050  104.50300  171.44490
 8811.00000   87.21420   80.23950    0.25060    0.20500    2.36000    4.93880    0.00070    1.64320    1.80980    1.82080  -20.50210  106.02180  158.99290
 8811.50000   82.19260   76.72480    0.25290    0.21530    2.34310    5.03300    0.00070    1.63340    1.62800    1.64060  -20.53030  107.78790  160.77740
 8812.00000   80.97920   72.95730    0.25320    0.22030    2.33500    5.04430    0.00070    2.30300    2.03500    2.15610  -21.43130  107.67460  172.25230
 8812.50000   83.28840   70.01110    0.25600    0.22280    2.33060    5.05370    0.00060    2.26170    2.06310    2.19760  -23.05760  105.74870  188.66590
 8813.00000   87.02580   68.21420    0.26230    0.21960    2.33760    5.04520    0.00060    2.19000    2.08130    2.29690  -24.62410  103.97010  197.92360
 8813.50000   88.67820   66.80330    0.26360    0.21050    2.35490    4.96530    0.00060    2.14370    2.09940    2.44960  -25.29870  101.90000  206.62440
 8814.00000   82.95240   64.68530    0.25900    0.19840    2.37600    4.88530    0.00050    2.18790    2.07980    2.50190  -25.32310   97.87220  212.86140
 8814.50000   77.44190   62.43040    0.24890    0.18610    2.39590    4.71790    0.00050    2.14630    2.06040    2.49270  -25.31840   92.60430  213.01390
 8815.00000   76.45200   61.28070    0.23700    0.18440    2.39590    4.58310   -0.00050    2.10490    2.01820    2.25190  -25.36420   89.49730  209.19230
 8815.50000   79.79630   61.97620    0.21230    0.19040    2.38150    4.60580   -0.00390    2.04260    1.97060    2.03640  -24.93190   88.94290  202.30950
 8816.00000   82.16790   64.63170    0.15850    0.19980    2.36440    4.64850   -0.00470    1.91850    1.93130    2.01830  -24.04330   91.17280  194.92860
 8816.50000   77.80750   66.10600    0.13960    0.20900    2.35280    4.68930   -0.00420    1.75710    1.89270    1.93310  -22.69200   95.02000  189.44550
 8817.00000   70.80360   65.68010    0.14090    0.21210    2.34650    4.71250   -0.00510    1.83040    1.83880    1.90450  -19.52040   97.81210  194.87030
 8817.50000   67.32130   63.22100    0.14130    0.20740    2.35560    4.71830   -0.00670    1.74890    1.78090    1.93680  -16.03880   99.82560  203.39280
 8818.00000   65.18310   61.78980    0.11830    0.18840    2.38550    4.73210   -0.00600    1.65240    1.72210    1.92000  -14.48770  101.39080  208.17870
 8818.50000   61.74130   62.29620    0.08750    0.15600    2.44010    4.75160   -0.00440    1.55350    1.55700    1.71720  -14.36570   98.71330  213.24710
 8819.00000   54.84080   63.16260    0.06200    0.11220    2.52310    4.77110   -0.00200    1.36140    1.35780    1.48120  -14.11590   89.20840  207.54290
 8819.50000   51.39590   60.55490    0.04930    0.06710    2.61420    4.78960    0.00040    2.11400    1.87470    1.90350   -8.45590   76.12410  194.05160
 8820.00000   52.13410   54.37020    0.04530    0.02950    2.66150    4.75040    0.00050    4.77060    4.46760    3.91220    3.47970   63.57820  188.06220
 8820.50000   55.65770   47.76300    0.04790    0.03730    2.64900    4.70320    0.00050   10.70850    9.04950    4.93020   11.57600   60.22940  184.10150
 8821.00000   65.36360   42.91280    0.05540    0.07330    2.58260    4.60000   -0.00100   15.04910   12.02790    7.12970   11.74430   65.34580  165.70330
 8821.50000   85.24980   41.92210    0.07080    0.11810    2.51440    4.50180   -0.00360    9.91110    9.22930    6.66310   11.73720   72.24850  157.08350
 8822.00000  100.63480   44.92520    0.09610    0.13850    2.47510    4.47590   -0.00480    5.77460    6.20980    6.14140   11.64080   73.54880  175.31120
 8822.50000   99.27350   50.09090    0.12040    0.13610    2.47710    4.46070   -0.00460    6.21970    7.18640    7.20070   11.39400   73.59560  188.91070
 8823.00000   88.70120   58.09900    0.13730    0.11410    2.51160    4.48490   -0.00190    5.63470    6.22050    6.25000   11.34770   74.32020  189.49790
 8823.50000   84.48710   65.53790    0.14860    0.08350    2.56490    4.53110    0.00130    4.32070    4.23670    4.25660   11.15710   75.27380  188.10050
 8824.00000   79.88090   71.29580    0.15150    0.07100    2.58850    4.60170    0.00130    3.31320    3.32140    3.37970   10.89320   76.42950  197.18060
 8824.50000   67.30570   72.52120    0.14290    0.09360    2.56070    4.67520    0.00130    2.64030    2.72360    2.85120   10.89230   82.95160  205.84630
 8825.00000   59.07440   70.86990    0.13580    0.13440    2.50290    4.76270   -0.00530    3.25110    2.72050    2.55050   10.44960   91.83500  195.65910
 8825.50000   61.64220   69.19420    0.13710    0.16430    2.43800    4.85010   -0.01510    3.27440    2.94220    2.40970    9.68700   97.40460  176.21390
 8826.00000   69.94890   66.42990    0.14510    0.17540    2.41220    4.87740   -0.01720    2.00100    1.92190    1.50930    9.27290   97.84040  163.79010
 8826.50000   71.80590   61.24300    0.15310    0.16890    2.42040    4.85420   -0.01500    1.33450    1.28730    1.29010    8.86590   91.40840  177.08170
 8827.00000   69.40040   54.55000    0.15440    0.14650    2.45890    4.81940   -0.01030    2.70990    2.25020    2.11740    8.67220   80.26640  193.99980
 8827.50000   65.11710   49.88090    0.14750    0.11990    2.50650    4.78030   -0.00710    6.50460    4.04830    4.05530    8.94950   74.48470  199.85350
