~Version ---------------------------------------------------
VERS.   2.0 : CWLS log ASCII Standard -VERSION 2.0
WRAP.    NO : One line per depth step
DLM . SPACE : Column Data Section Delimiter
~Well ------------------------------------------------------
STRT .F                 4330.0 : START DEPTH
STOP .F                 9210.0 : STOP DEPTH
STEP .F                    0.5 : STEP
NULL .                -9999.25 : NULL VALUE
COMP .                         : COMPANY
WELL .                         : WELL
FLD  .                         : FIELD
LOC  .                         : LOCATION
PROV .                         : PROVINCE
CNTY .                         : COUNTY
STAT .                         : STATE
CTRY .                         : COUNTRY
SRVC .                         : SERVICE COMPANY
DATE .                         : DATE
UWI  .                         : UNIQUE WELL ID
API  .                         : API NUMBER
SLAT .WGS84  6.182925732514001 : SURFACE LATITUDE
SLON .WGS84 3.1151921801412783 : SURFACE LONGITUDE
DATUM.F                1601.17 : DEPTH DATUM ELEV
~Curve Information -----------------------------------------
DEPT   .F     : 1 MEASURED DEPTH
GR     .GAPI  : GAMMA RAY
GRD    .GAPI  : GAMMA RAY FROM DENSITY LOG
NPHI_LS.DEC   : NEUTRON POROSITY LIMESTONE
DPHI_LS.DEC   : DENSITY POROSITY LIMESTONE
RHOB   .G/C3  : BULK DENSITY
CALD   .IN    : CALIPER FROM DENSITY LOG
QRHO   .G/C3  : SLDT DENSITY QUALITY FACTOR
AST10  .OHMM  : ARRAY INDUCTION 2FT RESISTIVITY A10
AST30  .OHMM  : ARRAY INDUCTION 2FT RESISTIVITY A30
AST90  .OHMM  : ARRAY INDUCTION 2FT RESISTIVITY A90
SPR    .MV    : SPONTANEOUS POTENTIAL FROM RESISTIVITY LOG
DTCO   .US/F  : DELTA-T COMPRESSIONAL
DTSM   .US/F  : DELTA-T SHEAR
~Params ----------------------------------------------------
~Other -----------------------------------------------------
~ASCII -----------------------------------------------------
# ...
 8776.00000   97.00630   69.08570    0.26650    0.13230    2.48540    4.63700    0.00090    2.17720    2.08750    2.09680   -9.28720   94.27840  194.28520
 8776.50000   89.02040   69.32780    0.28030    0.13160    2.48580    4.59880    0.00080    2.65120    1.67760    1.68050   -9.71190   95.77930  189.52830
 8777.00000   83.74840   70.89170    0.29030    0.13850    2.47490    4.59850    0.00080    1.89490    1.02230    1.06320  -10.05470   93.99420  196.46860
 8777.50000   78.36510   71.87830    0.29430    0.14810    2.45930    4.57300    0.00070    1.19150    0.84830    0.87900  -10.43020   90.18490  214.57420
 8778.00000   75.91800   71.20040    0.28400    0.15870    2.44140    4.57810    0.00020    1.17670    0.80360    0.80970  -10.31380   84.90070  228.00800
 8778.50000   73.83430   68.15560    0.26140    0.16650    2.42720    4.60610   -0.00180    2.36060    2.41560    1.69040  -10.30920   78.24310  227.82130
 8779.00000   62.09240   65.19670    0.21750    0.16410    2.43120    4.62200   -0.00330    2.65070    2.22400    1.64390  -10.33280   67.74030  226.58340
 8779.50000   42.70350   63.28520    0.16800    0.14090    2.46300    4.63800   -0.00370    5.16910    1.53200    1.40840  -10.47410   54.71220  204.19140
 8780.00000   30.84140   61.09620    0.12420    0.11000    2.52000    4.65210   -0.00160   12.71610    2.40580    2.42330  -10.79100   49.68740  191.71620
 8780.50000   30.74450   55.66200    0.08040    0.06080    2.59270    4.68370    0.00050  399.27740    5.74610    5.84300  -11.08990   49.98450  211.26680
 8781.00000   37.04610   44.96130    0.03650    0.02200    2.66270    4.71850    0.00130  137.53940   17.05380   13.91520  -11.38410   52.21120  230.50540
 8781.50000   44.52910   34.19900    0.02020   -0.00070    2.71020    4.73750    0.00130   39.26440   31.77540   14.13310  -12.30910   55.97270  231.57060
 8782.00000   47.41420   29.13210    0.02600   -0.00360    2.71700    4.68420    0.00130   16.64710   14.49560    8.21160  -13.88120   60.34920  232.36770
 8782.50000   45.93350   28.20900    0.04210    0.00150    2.70850    4.62920    0.00130   12.91580   10.27830    5.25260  -15.02460   64.66300  233.39670
 8783.00000   43.64130   31.56080    0.05630    0.01610    2.68570    4.60440    0.00140   11.48160    7.68940    4.65000  -15.59430   67.18040  234.85230
 8783.50000   39.61780   35.82350    0.07910    0.03560    2.64930    4.59550    0.00140    6.56740    5.85320    4.15440  -15.92060   67.34750  232.74390
 8784.00000   37.12090   37.83740    0.08530    0.05540    2.61740    4.59370    0.00140    4.71860    4.31220    2.70260  -15.91470   65.08770  230.55810
 8784.50000   38.56410   37.24420    0.08200    0.06440    2.60390    4.62430    0.00140    5.38590    4.43190    3.34120  -16.31320   62.32790  226.44620
 8785.00000   39.87230   35.83730    0.06650    0.05910    2.61340    4.65490    0.00150    7.43550    6.82980    6.60600  -16.82150   59.18690  222.10510
 8785.50000   39.18860   31.67240    0.04410    0.04390    2.63560    4.68330    0.00150   18.47640    9.76340    9.32250  -17.09730   57.92930  216.76860
 8786.00000   40.79440   29.17580    0.02590    0.03290    2.65280    4.70340    0.00150   27.00550    4.57590    4.63540  -16.67720   60.29400  213.70450
 8786.50000   45.94320   28.65440    0.02230    0.04260    2.64480    4.67240    0.00150   12.03810    1.36880    1.51730  -16.10760   65.81240  211.17720
 8787.00000   51.70640   30.61520    0.02480    0.06540    2.60190    4.59720    0.00160    5.15860    1.12180    1.06430  -16.35860   72.91260  208.13340
 8787.50000   64.34320   33.17000    0.03300    0.09750    2.54990    4.55690    0.00160    4.43360    1.36380    1.37560  -17.71570   78.21360  205.41200
 8788.00000   84.82030   35.96080    0.04190    0.12170    2.50080    4.56590    0.00160    3.01630    3.55390    2.47210  -18.22660   82.33500  203.46260
 8788.50000  110.45760   40.09060    0.05080    0.13600    2.47930    4.59980    0.00160    2.92590    3.23420    1.89650  -16.73910   85.77420  200.62290
 8789.00000  115.41760   47.39510    0.07470    0.13840    2.47530    4.63370    0.00170    2.22660    1.85010    1.15390  -15.32690   91.12480  198.66780
 8789.50000  101.73490   56.83580    0.09750    0.13640    2.47780    4.67680    0.00170    2.44430    1.90760    1.13780  -11.97980   97.23470  198.09660
 8790.00000   89.26860   67.58790    0.13580    0.13400    2.48260    4.81260    0.00170    1.77710    1.58030    1.14450   -7.44660   99.97700  197.83820
 8790.50000   86.37860   76.18080    0.17520    0.13220    2.48510    4.96150    0.00170    2.30970    1.86660    1.48420   -5.52270  102.54370  189.78300
 8791.00000   90.20300   76.44020    0.20350    0.13160    2.48600    5.03280    0.00180    2.39620    2.17860    1.89900   -6.78300  102.06870  174.61780
 8791.50000   92.00790   72.22990    0.21790    0.13240    2.48490    5.10410    0.00180    2.55280    2.49840    2.51750   -7.23660  101.06350  177.50500
 8792.00000   90.40850   66.33060    0.22170    0.13680    2.47840    5.14700    0.00180    3.05550    2.82530    2.91060   -7.28410  100.51630  193.19550
 8792.50000   86.70240   64.63280    0.22560    0.14140    2.47020    5.14700    0.00180    1.81670    1.70440    1.71960   -7.14410  100.57960  213.93500
 8793.00000   86.08800   65.07850    0.23550    0.14540    2.46180    5.14140    0.00190    2.36720    1.19000    1.21680   -7.35060  100.76260  211.10610
 8793.50000   84.36190   65.97840    0.24010    0.14690    2.46070    5.11070    0.00190    1.90370    1.77300    1.93530   -7.72050  101.67330  195.12780
 8794.00000   78.87030   65.87780    0.24230    0.14680    2.46060    5.07070    0.00190    1.96000    2.58200    2.49880   -8.11880  102.09660  184.34750
 8794.50000   78.58390   64.84000    0.24240    0.14700    2.46010    5.03100    0.00190    1.96540    2.27650    2.28500   -9.21040  102.61840  183.99850
 8795.00000   82.39470   64.31100    0.24250    0.14820    2.45790    4.99130    0.00200    1.69290    1.70310    1.70520  -10.22710  102.85600  184.25500
 8795.50000   86.51040   64.65390    0.24580    0.15040    2.45460    4.95170    0.00200    1.82510    1.67340    1.64400  -12.96920  103.16040  185.24550
 8796.00000   91.06760   65.64190    0.24970    0.15240    2.45070    4.92790    0.00200    1.83730    1.73640    1.74630  -14.46560  103.68100  187.37740
 8796.50000   91.43500   66.35760    0.25360    0.15360    2.44790    4.90500    0.00200    1.91730    1.76470    1.90830  -12.00240  104.20310  189.03170
 8797.00000   86.59480   66.44020    0.25780    0.15600    2.44450    4.82080    0.00110    1.92600    1.76470    2.04440   -9.31430  103.71460  188.70010
 8797.50000   81.56220   65.90170    0.26040    0.16050    2.43620    4.79830   -0.00100    1.83520    1.76610    2.01620   -8.12170  102.88590  188.34040
 8798.00000   80.84440   65.28380    0.26190    0.16570    2.42690    4.78040   -0.00390    1.91470    1.80170    1.90890   -8.29830  102.59730  188.13200
 8798.50000   84.30320   65.39440    0.26350    0.16780    2.42390    4.79330   -0.00770    2.01520    1.83810    1.84000   -8.71020  102.63410  188.25370
 8799.00000   82.51940   65.85060    0.26510    0.16790    2.42340    4.81960   -0.00850    2.12090    1.88470    1.88690   -8.71150  103.03670  188.37530
 8799.50000   76.12630   65.98410    0.26750    0.16740    2.42480    4.82880   -0.00750    2.19780    1.97050    1.99820   -9.03140  103.22490  188.48980
 8800.00000   77.91920   65.72030    0.27030    0.16680    2.42590    4.79400   -0.00640    2.35580    2.21030    2.40070   -9.35650  103.30500  188.56290
 8800.50000   88.66040   65.77330    0.27200    0.16670    2.42660    4.74650   -0.00540    2.53170    2.58310    2.94420  -10.08770  103.41220  189.04170
 8801.00000   98.87130   66.73200    0.27100    0.16770    2.42460    4.69900   -0.00450    2.43020    2.33930    2.34800  -11.20520  103.44150  189.78160
 8801.50000   97.85150   66.57890    0.26800    0.16920    2.42260    4.67090   -0.00220    3.03790    1.52210    1.53000  -11.51790  103.47090  192.49210
