~Version ---------------------------------------------------
VERS.   2.0 : CWLS log ASCII Standard -VERSION 2.0
WRAP.    NO : One line per depth step
DLM . SPACE : Column Data Section Delimiter
~Well ------------------------------------------------------
STRT .F                 4330.0 : START DEPTH
STOP .F                 9210.0 : STOP DEPTH
STEP .F                    0.5 : STEP
NULL .                -9999.25 : NULL VALUE
COMP .                         : COMPANY
WELL .                         : WELL
FLD  .                         : FIELD
LOC  .                         : LOCATION
PROV .                         : PROVINCE
CNTY .                         : COUNTY
STAT .                         : STATE
CTRY .                         : COUNTRY
SRVC .                         : SERVICE COMPANY
DATE .                         : DATE
UWI  .                         : UNIQUE WELL ID
API  .                         : API NUMBER
SLAT .WGS84  6.182925732514001 : SURFACE LATITUDE
SLON .WGS84 3.1151921801412783 : SURFACE LONGITUDE
DATUM.F                1601.17 : DEPTH DATUM ELEV
~Curve Information -----------------------------------------
DEPT   .F     : 1 MEASURED DEPTH
GR     .GAPI  : GAMMA RAY
GRD    .GAPI  : GAMMA RAY FROM DENSITY LOG
NPHI_LS.DEC   : NEUTRON POROSITY LIMESTONE
DPHI_LS.DEC   : DENSITY POROSITY LIMESTONE
RHOB   .G/C3  : BULK DENSITY
CALD   .IN    : CALIPER FROM DENSITY LOG
QRHO   .G/C3  : SLDT DENSITY QUALITY FACTOR
AST10  .OHMM  : ARRAY INDUCTION 2FT RESISTIVITY A10
AST30  .OHMM  : ARRAY INDUCTION 2FT RESISTIVITY A30
AST90  .OHMM  : ARRAY INDUCTION 2FT RESISTIVITY A90
SPR    .MV    : SPONTANEOUS POTENTIAL FROM RESISTIVITY LOG
DTCO   .US/F  : DELTA-T COMPRESSIONAL
DTSM   .US/F  : DELTA-T SHEAR
~Params ----------------------------------------------------
~Other -----------------------------------------------------
~ASCII -----------------------------------------------------
# ...
 9088.00000   36.28710   38.19610    0.06720    0.00380    2.70300    4.63450    0.00010    6.69860    5.71560    5.91830  -19.89890   67.83300  224.56490
 9088.50000   34.46720   34.45550    0.06830    0.00640    2.70120    4.63980    0.00010    7.46520    6.95900    7.25170  -20.31990   68.21230  217.38980
 9089.00000   36.10630   30.52970    0.06960    0.01120    2.69340    4.64510    0.00010    6.02550    4.74290    4.77920  -20.65120   67.00910  220.31650
 9089.50000   35.69670   28.68060    0.07090    0.01220    2.69090    4.65040    0.00010    4.33980    4.43140    4.37300  -22.66710   65.49080  229.51860
 9090.00000   32.96720   29.67680    0.07240    0.00990    2.69460    4.66130    0.00010    5.54190    5.75630    5.80600  -23.30790   64.83910  231.24710
 9090.50000   32.45450   30.45150    0.07470    0.00840    2.69790    4.67600    0.00010    5.87810    7.39230    6.46210  -24.37440   64.60800  233.63920
 9091.00000   33.51860   30.31230    0.08030    0.01060    2.69310    4.66790    0.00010    5.43400    6.11530    5.49300  -25.42380   64.89380  234.13400
 9091.50000   35.91150   29.34330    0.08700    0.01480    2.68500    4.67210    0.00020    5.61600    6.62480    5.46560  -26.71150   65.56830  233.12600
 9092.00000   35.30530   28.67530    0.09390    0.01820    2.67880    4.67630    0.00020    7.26300    5.77370    5.22520  -27.79530   66.71040  232.46290
 9092.50000   33.78930   29.95630    0.09650    0.01930    2.67820    4.68530    0.00020    5.81260    5.29340    5.31950  -29.45530   67.58440  232.74880
 9093.00000   34.86190   32.39340    0.09870    0.01700    2.68230    4.68750    0.00020    4.10250    4.04500    4.04950  -31.55130   67.69890  233.10950
 9093.50000   36.10910   33.81770    0.10000    0.01380    2.68850    4.68790    0.00020    6.25000    6.15670    5.89700  -34.27010   66.89320  233.48810
 9094.00000   35.13040   34.71500    0.10140    0.00900    2.69530    4.69870    0.00020    5.05020    5.53070    5.43860  -32.65790   66.72100  233.60390
 9094.50000   36.27820   34.62020    0.10270    0.00640    2.69850    4.72240    0.00030    5.36660    5.58920    5.59810  -27.41150   67.36290  232.44110
 9095.00000   39.65050   34.33560    0.10170    0.00550    2.69890    4.74610    0.00030    5.11190    5.02870    5.03750  -24.21300   68.18730  231.27820
 9095.50000   40.24450   34.05090    0.10090    0.00640    2.69910    4.75700    0.00030    5.77200    5.21870    5.23070  -23.78790   68.60370  230.70820
 9096.00000   39.27950   33.76630    0.10150    0.00780    2.69720    4.75170    0.00030    6.15050    6.06770    6.00150  -23.35980   69.22920  231.43850
 9096.50000   39.40490   34.06970    0.10310    0.01020    2.69380    4.74230    0.00030    5.39010    6.36970    5.35200  -22.52610   69.96510  232.29940
 9097.00000   38.45250   34.72900    0.10320    0.01330    2.68920    4.72230    0.00030    5.61620    6.04710    5.56580  -20.51820   70.13510  232.07970
 9097.50000   36.43830   35.31680    0.10270    0.01600    2.68500    4.70860    0.00030    5.46750    5.61380    5.44370  -18.38350   70.13870  231.85360
 9098.00000   37.24950   35.46790    0.10210    0.01740    2.68190    4.70830    0.00040    5.52660    5.43330    5.43950  -17.18280   70.14230  231.76970
 9098.50000   37.20050   35.61890    0.10140    0.01800    2.68080    4.71330    0.00040    5.69260    5.65720    5.66360  -16.11080   69.85640  232.13770
 9099.00000   36.17610   35.74200    0.10040    0.01680    2.68300    4.71180    0.00040    5.82880    5.87960    5.88640  -15.53510   70.05070  232.80190
 9099.50000   38.12740   35.27100    0.09870    0.01530    2.68570    4.68990    0.00040    5.85960    5.88830    5.85410  -16.30460   70.13010  231.70520
 9100.00000   40.02510   34.79990    0.09720    0.01390    2.68720    4.67160    0.00040    5.89050    5.89990    5.74110  -17.06550   69.90400  230.19440
 9100.50000   41.20790   34.32880    0.09600    0.01340    2.68820    4.70830    0.00040    5.92160    5.91160    5.62420  -17.54710   69.71220  229.16780
 9101.00000   41.05430   33.85770    0.09550    0.01380    2.68780    4.74500    0.00050    5.95280    5.91270    5.51640  -18.56840   69.69500  228.99100
 9101.50000   39.65410   33.90430    0.09540    0.01460    2.68610    4.75680    0.00050    5.98420    5.89800    5.48810  -19.43000   69.48200  228.87170
 9102.00000   37.45620   34.32860    0.09490    0.01500    2.68530    4.75600    0.00050    6.21250    5.88340    5.48340  -20.39650   69.58160  228.85870
 9102.50000   36.09230   34.75290    0.09380    0.01560    2.68460    4.75510    0.00050    6.30670    5.86540    5.54790  -21.07210   69.78010  228.87730
 9103.00000   35.99070   35.53090    0.09360    0.01620    2.68380    4.75430    0.00050    6.04940    5.84170    5.61230  -21.38490   70.06010  228.91560
 9103.50000   35.08360   36.33890    0.09360    0.01660    2.68310    4.75910    0.00050    5.80800    5.73950    5.62730  -21.74970   70.08900  229.27320
 9104.00000   35.00420   36.74250    0.09360    0.01700    2.68180    4.75970    0.00050    5.67200    5.57600    5.54280  -22.40770   69.91120  229.27110
 9104.50000   37.17900   36.60950    0.09370    0.01810    2.67990    4.75990    0.00060    5.72120    5.49240    5.49980  -24.13860   69.69860  229.26900
 9105.00000   39.30450   36.12230    0.09450    0.01870    2.67810    4.76370    0.00060    6.09980    5.83120    5.85960  -18.34250   69.48600  229.31090
 9105.50000   39.68260   35.69040    0.09740    0.01950    2.67770    4.76740    0.00060    6.38640    6.07860    6.28090   -2.19580   69.53770  229.61440
 9106.00000   39.82240   35.50890    0.10010    0.01910    2.67930    4.76900    0.00060    6.66750    6.30360    6.60740    6.86860   69.61440  230.35670
 9106.50000   38.69240   37.00390    0.10100    0.01890    2.67910    4.76840    0.00060    6.21140    6.01350    6.02350    8.04060   69.69100  231.22060
 9107.00000   34.98210   37.55580    0.09930    0.02010    2.67690    4.76390    0.00060    5.77710    5.67710    5.68320    8.06540   69.76760  231.93360
 9107.50000   35.04850   37.84940    0.09720    0.02150    2.67490    4.75790    0.00070    5.69700    5.60180    5.60770    8.10840   69.84420  231.75400
 9108.00000   36.72870   37.73600    0.09700    0.02210    2.67370    4.75460    0.00070    5.44130    5.24680    5.25410    8.11620   69.92080  231.62270
 9108.50000   35.15380   37.34800    0.09740    0.02210    2.67400    4.75610    0.00070    5.30500    4.94960    4.95500    7.96900   69.99740  231.57280
 9109.00000   31.62680   37.58870    0.09790    0.02090    2.67580    4.75310    0.00070    5.58120    5.03420    5.03960    8.10980   70.07410  231.64670
 9109.50000   30.42120   38.27700    0.09840    0.01790    2.67980    4.75780    0.00070    5.72130    5.24290    5.27430    7.76420   70.00610  231.66090
 9110.00000   30.95620   38.53210    0.09760    0.01560    2.68410    4.75850    0.00070    5.85410    5.54580    5.33610    7.64420   69.88190  231.53200
 9110.50000   34.11710   38.24070    0.09660    0.01430    2.68650    4.75930    0.00080    6.09580    5.73620    5.47080    7.08710   69.95570  231.06450
 9111.00000   37.08760   37.67060    0.09680    0.01540    2.68480    4.76000    0.00080    6.37130    5.81660    5.72700    6.88570   70.17760  230.59000
 9111.50000   39.38990   37.91280    0.09740    0.01730    2.68220    4.76170    0.00080    5.57190    5.58710    5.59460    6.56670   70.44010  230.73010
 9112.00000   39.30000   38.21040    0.09780    0.01790    2.68110    4.75960    0.00080    6.01500    6.01210    6.02180    6.28600   70.77730  230.89670
 9112.50000   39.64980   38.31590    0.09820    0.01760    2.68120    4.75900    0.00080    6.80200    6.47120    6.49080    6.02750   70.98390  231.20570
 9113.00000   40.34820   38.25390    0.09850    0.01770    2.68150    4.75840    0.00080    5.47220    5.10590    5.00740    5.36850   71.09980  231.66760
 9113.50000   39.57420   38.18320    0.09960    0.01920    2.67900    4.75770    0.00080    5.73750    4.81190    4.76240    4.95170   71.22230  232.03160
