~Version ---------------------------------------------------
VERS.   2.0 : CWLS log ASCII Standard -VERSION 2.0
WRAP.    NO : One line per depth step
DLM . SPACE : Column Data Section Delimiter
~Well ------------------------------------------------------
STRT .F                 4330.0 : START DEPTH
STOP .F                 9210.0 : STOP DEPTH
STEP .F                    0.5 : STEP
NULL .                -9999.25 : NULL VALUE
COMP .                         : COMPANY
WELL .                         : WELL
FLD  .                         : FIELD
LOC  .                         : LOCATION
PROV .                         : PROVINCE
CNTY .                         : COUNTY
STAT .                         : STATE
CTRY .                         : COUNTRY
SRVC .                         : SERVICE COMPANY
DATE .                         : DATE
UWI  .                         : UNIQUE WELL ID
API  .                         : API NUMBER
SLAT .WGS84  6.182925732514001 : SURFACE LATITUDE
SLON .WGS84 3.1151921801412783 : SURFACE LONGITUDE
DATUM.F                1601.17 : DEPTH DATUM ELEV
~Curve Information -----------------------------------------
DEPT   .F     : 1 MEASURED DEPTH
GR     .GAPI  : GAMMA RAY
GRD    .GAPI  : GAMMA RAY FROM DENSITY LOG
NPHI_LS.DEC   : NEUTRON POROSITY LIMESTONE
DPHI_LS.DEC   : DENSITY POROSITY LIMESTONE
RHOB   .G/C3  : BULK DENSITY
CALD   .IN    : CALIPER FROM DENSITY LOG
QRHO   .G/C3  : SLDT DENSITY QUALITY FACTOR
AST10  .OHMM  : ARRAY INDUCTION 2FT RESISTIVITY A10
AST30  .OHMM  : ARRAY INDUCTION 2FT RESISTIVITY A30
AST90  .OHMM  : ARRAY INDUCTION 2FT RESISTIVITY A90
SPR    .MV    : SPONTANEOUS POTENTIAL FROM RESISTIVITY LOG
DTCO   .US/F  : DELTA-T COMPRESSIONAL
DTSM   .US/F  : DELTA-T SHEAR
~Params ----------------------------------------------------
~Other -----------------------------------------------------
~ASCII -----------------------------------------------------
# ...
 8958.00000   65.54600   50.27360    0.20200    0.04140    2.63960    4.69650    0.00120    2.61650    2.61970    2.62370    2.90740   84.20000  186.61610
 8958.50000   64.37080   50.15730    0.20080    0.03910    2.64480    4.70130    0.00120    2.93130    2.93740    2.94580    2.68800   83.29500  184.99530
 8959.00000   68.65210   50.04650    0.19580    0.03820    2.64530    4.72980    0.00120    3.78090    3.83960    3.85660    2.73580   82.44960  185.43680
 8959.50000   75.79510   50.09490    0.19420    0.04050    2.64130    4.76470    0.00120    3.93490    3.94740    3.96270    2.30720   82.84330  183.86050
 8960.00000   80.29350   50.48200    0.19540    0.04490    2.63410    4.78460    0.00130    3.34060    3.09380    3.03220    2.31670   84.57500  184.20510
 8960.50000   86.58560   51.09920    0.20380    0.05280    2.61960    4.80400    0.00130    2.74190    2.68260    2.42010    1.95060   87.48750  186.57460
 8961.00000   87.38920   52.58630    0.22030    0.06400    2.60150    4.83580    0.00130    3.18750    2.64740    2.40720    1.98960   90.26130  192.19750
 8961.50000   85.28570   55.26120    0.22900    0.07820    2.57730    4.88940    0.00130    2.75200    2.35010    2.27490    1.31070   93.13730  193.39650
 8962.00000   88.19610   57.92310    0.23760    0.09400    2.55150    4.93540    0.00130    2.55560    2.24020    2.17880    1.13210   96.70840  186.67800
 8962.50000   91.30170   61.29490    0.24610    0.10420    2.53090    4.94720    0.00130    2.03180    1.91180    1.86630    0.66100  100.21560  177.38120
 8963.00000   88.78710   64.12590    0.25520    0.11070    2.52090    4.90780    0.00140    1.84410    1.79060    1.67690    0.01800  101.62720  175.95060
 8963.50000   81.19680   65.94370    0.26140    0.10980    2.52270    4.85080    0.00140    1.69980    1.67410    1.63120    0.72870  101.51540  183.66170
 8964.00000   76.98840   68.28780    0.25510    0.10330    2.53440    4.79370    0.00140    1.66300    1.56740    1.56500    0.72300   98.86330  197.68340
 8964.50000   74.11110   69.65130    0.24680    0.09500    2.54880    4.76050    0.00140    1.61340    1.56190    1.50990    0.56500   95.66890  202.96600
 8965.00000   75.58830   68.85930    0.23960    0.08500    2.56560    4.74460    0.00140    1.72840    1.73170    1.59680    0.56770   94.39130  197.34810
 8965.50000   80.03710   64.45750    0.23240    0.07680    2.57950    4.72670    0.00140    1.90150    1.90310    1.88440    0.70090   94.22900  185.99070
 8966.00000   80.21230   59.40990    0.22390    0.07230    2.58640    4.72130    0.00150    1.99580    1.99960    1.86570    0.89690   94.21770  175.80130
 8966.50000   75.94990   56.12170    0.21220    0.07200    2.58670    4.74440    0.00150    2.38210    2.38410    2.27490    1.19360   94.21990  171.67740
 8967.00000   78.59650   56.09020    0.20470    0.07510    2.58250    4.76750    0.00150    2.30690    2.30920    2.24840    1.05780   94.12460  171.56190
 8967.50000   84.38150   56.68490    0.20640    0.07710    2.57870    4.76360    0.00150    2.14710    2.14970    2.15310    0.63150   93.91400  171.69220
 8968.00000   81.79240   57.45160    0.21520    0.07790    2.57700    4.74390    0.00150    1.98650    1.98810    1.99030    0.46210   93.62860  170.81700
 8968.50000   78.46120   58.23960    0.21900    0.07950    2.57460    4.71940    0.00150    2.14990    2.15320    2.13660    0.37790   93.39710  172.54020
 8969.00000   75.99080   59.04340    0.21540    0.08150    2.57090    4.69890    0.00160    2.31910    2.46610    2.44280    0.28850   92.95920  178.85740
 8969.50000   71.91820   59.72140    0.21050    0.08100    2.57230    4.70190    0.00160    2.32600    2.35760    2.37500    0.09450   92.33390  188.09550
 8970.00000   75.12340   60.31730    0.20680    0.07790    2.57770    4.72280    0.00160    2.18380    2.18620    2.18940   -0.09950   91.75300  194.97840
 8970.50000   77.70860   60.38850    0.20390    0.07400    2.58390    4.74390    0.00160    2.17040    2.17450    2.18670   -0.29350   91.38000  195.15100
 8971.00000   77.96720   59.93980    0.20380    0.07040    2.59040    4.76700    0.00160    2.57870    2.58340    2.90720   -0.48750   90.41480  184.25730
 8971.50000   72.41810   59.16950    0.20650    0.06710    2.59690    4.77130    0.00160    2.62090    2.62310    2.85380   -0.68150   89.98280  174.79490
 8972.00000   67.81070   56.76840    0.20900    0.06550    2.59880    4.76200    0.00170    2.55340    2.56260    2.55860   -0.87550   89.59700  172.07010
 8972.50000   68.58250   55.14520    0.20840    0.06590    2.59800    4.75660    0.00170    2.47910    2.67950    2.44910   -1.07130   90.31470  172.69940
 8973.00000   70.66550   55.14460    0.20770    0.06890    2.59140    4.75610    0.00170    2.40510    2.57720    2.29060   -1.76080   91.20170  175.20180
 8973.50000   69.68600   55.96960    0.20620    0.07450    2.58200    4.75560    0.00170    2.40760    2.61090    2.62370   -1.90790   91.75370  179.06250
 8974.00000   69.51480   56.00050    0.20200    0.07810    2.57640    4.75640    0.00170    2.46230    2.81270    2.82080   -2.15670   90.89980  184.94060
 8974.50000   71.17410   54.63470    0.20160    0.07980    2.57490    4.75150    0.00170    2.28600    2.37930    2.44200   -2.47850   89.77980  187.81530
 8975.00000   72.26580   52.86580    0.20370    0.07590    2.58280    4.71950    0.00180    2.37600    2.38150    2.53530   -2.85290   88.91080  176.10120
 8975.50000   71.94940   51.53260    0.20440    0.06960    2.59430    4.69230    0.00180    2.75100    2.85420    3.23800   -3.24100   89.39230  169.91780
 8976.00000   63.33120   50.40680    0.20070    0.06720    2.59760    4.67530    0.00180    2.75240    2.93980    3.50290   -3.31710   90.37980  180.40530
 8976.50000   45.93250   50.01730    0.19150    0.07260    2.58730    4.67520    0.00180    2.65470    2.86920    3.45040   -3.63320   91.01660  201.36860
 8977.00000   32.27220   52.17230    0.17530    0.07780    2.57790    4.67550    0.00180    2.25960    2.63590    2.77450   -4.02230   85.85610  204.34420
 8977.50000   32.63080   55.63100    0.15600    0.07360    2.58560    4.67640    0.00190    1.99370    2.30070    2.20880   -4.13600   75.88070  180.47480
 8978.00000   43.96920   56.53910    0.12440    0.04810    2.62050    4.69700    0.00190    2.62580    2.80480    2.35300   -3.28650   65.86090  144.97580
 8978.50000   62.83410   51.63530    0.10260    0.01550    2.68240    4.73000    0.00190    4.54430    5.36990    4.22650   -1.33680   56.68970  136.49840
 8979.00000   79.11210   40.96540    0.09680   -0.01400    2.73590    4.73700    0.00190    7.75360   16.59470    9.37910    1.56400   55.43600  144.65300
 8979.50000   88.53740   35.58150    0.10580   -0.01870    2.74180    4.74410    0.00190   10.79470   27.03290   13.20740    3.70530   61.15630  151.67650
 8980.00000   95.95020   41.38410    0.14530    0.00950    2.69750    4.75110    0.00190    6.48430    6.56200    6.68010    4.49260   76.43880  157.86460
 8980.50000  105.02860   54.01960    0.18400    0.05490    2.61050    4.75820    0.00200    1.79060    1.81170    1.83460    5.19220   90.89510  162.92470
 8981.00000  106.58610   63.66910    0.23770    0.10170    2.54010    4.76530    0.00200    1.36700    0.97820    0.76540    5.75480  104.67250  164.92760
 8981.50000   95.28980   68.57880    0.27980    0.13470    2.48560    4.83050    0.00200    1.27830    1.53080    1.47120    6.21700  114.00380  169.78190
 8982.00000   85.82880   68.55960    0.30010    0.15020    2.45270    4.91330    0.00200    1.03450    1.65430    1.15730    6.28160  115.43410  179.13800
 8982.50000   80.72210   67.88830    0.29940    0.15330    2.44800    4.87770    0.00200    1.08910    1.26670    0.86810    6.50150  115.19760  181.09350
 8983.00000   78.27010   69.15280    0.29200    0.15400    2.44710    4.84220    0.00200    0.96780    0.96880    0.78630    6.49900  115.83010  183.04900
 8983.50000   79.55390   70.01550    0.28340    0.15660    2.44250    4.81180    0.00200    1.03510    0.90200    0.82660    6.61530  116.78050  190.89680
