~Version ---------------------------------------------------
VERS.   2.0 : CWLS log ASCII Standard -VERSION 2.0
WRAP.    NO : One line per depth step
DLM . SPACE : Column Data Section Delimiter
~Well ------------------------------------------------------
STRT .F                 4330.0 : START DEPTH
STOP .F                 9210.0 : STOP DEPTH
STEP .F                    0.5 : STEP
NULL .                -9999.25 : NULL VALUE
COMP .                         : COMPANY
WELL .                         : WELL
FLD  .                         : FIELD
LOC  .                         : LOCATION
PROV .                         : PROVINCE
CNTY .                         : COUNTY
STAT .                         : STATE
CTRY .                         : COUNTRY
SRVC .                         : SERVICE COMPANY
DATE .                         : DATE
UWI  .                         : UNIQUE WELL ID
API  .                         : API NUMBER
SLAT .WGS84  6.182925732514001 : SURFACE LATITUDE
SLON .WGS84 3.1151921801412783 : SURFACE LONGITUDE
DATUM.F                1601.17 : DEPTH DATUM ELEV
~Curve Information -----------------------------------------
DEPT   .F     : 1 MEASURED DEPTH
GR     .GAPI  : GAMMA RAY
GRD    .GAPI  : GAMMA RAY FROM DENSITY LOG
NPHI_LS.DEC   : NEUTRON POROSITY LIMESTONE
DPHI_LS.DEC   : DENSITY POROSITY LIMESTONE
RHOB   .G/C3  : BULK DENSITY
CALD   .IN    : CALIPER FROM DENSITY LOG
QRHO   .G/C3  : SLDT DENSITY QUALITY FACTOR
AST10  .OHMM  : ARRAY INDUCTION 2FT RESISTIVITY A10
AST30  .OHMM  : ARRAY INDUCTION 2FT RESISTIVITY A30
AST90  .OHMM  : ARRAY INDUCTION 2FT RESISTIVITY A90
SPR    .MV    : SPONTANEOUS POTENTIAL FROM RESISTIVITY LOG
DTCO   .US/F  : DELTA-T COMPRESSIONAL
DTSM   .US/F  : DELTA-T SHEAR
~Params ----------------------------------------------------
~Other -----------------------------------------------------
~ASCII -----------------------------------------------------
# ...
 8646.00000   54.37530   31.85900    0.05200    0.06640    2.58890    2.76830   -0.00960   19.29470  108.03570   25.68010    1.41250   45.08830  180.96150
 8646.50000   48.78980   37.44550    0.05170    0.06310    2.60220    2.61320   -0.00780   18.65980   74.56710   22.14110    1.22200   46.91690  179.10640
 8647.00000   46.28480   42.13450    0.05180    0.06160    2.60410    2.52060   -0.00720   16.52820   42.37740   25.91950    1.16900   51.67230  178.37870
 8647.50000   47.54790   43.31860    0.05070    0.06060    2.60480    2.52070   -0.00780   11.01660   17.18490   14.09870    1.21020   55.15750  184.10940
 8648.00000   53.20010   41.28820    0.04880    0.05900    2.60810    2.52140   -0.00840    7.50200    9.58370    9.59400    1.26260   55.26310  190.37260
 8648.50000   57.16850   39.57680    0.04910    0.05650    2.61200    2.52170   -0.00840   13.38710   23.88000   24.18190    0.94110   53.77080  196.21840
 8649.00000   52.13460   40.23900    0.06240    0.05400    2.61840    2.52070   -0.00720   20.95190   67.64960   68.62120    1.14420   50.57520  191.10270
 8649.50000   44.16740   41.98130    0.07630    0.04920    2.62540    2.52080   -0.00740   25.59480  212.50970  169.15910    0.63130   48.45410  183.97470
 8650.00000   39.31210   42.58140    0.09240    0.04600    2.62950    2.52080   -0.00760   31.42860   77.18320   79.12940    0.40560   49.76550  176.84660
 8650.50000   38.30520   42.19880    0.09910    0.04510    2.63370    2.52090   -0.00670   12.17330   15.89520   15.98020    0.17990   53.94360  169.71850
 8651.00000   41.20400   37.71280    0.08790    0.04420    2.63780    2.52090   -0.00560    4.24370    5.75920    5.81210   -0.04580   56.07800  163.29650
 8651.50000   43.14270   31.83810    0.07450    0.04110    2.64130    2.52100   -0.00510    2.28580    2.95150    2.65680   -0.27150   55.93550  159.01510
 8652.00000   43.35580   27.86700    0.06450    0.03910    2.64450    2.62290   -0.00290    5.63360    8.82090    8.93820   -0.49720   53.78260  156.07740
 8652.50000   45.33320   27.97910    0.06030    0.03720    2.64750    3.11690   -0.00040   11.41580   25.28530   25.49240   -0.72290   50.29520  161.62370
 8653.00000   49.28990   29.63340    0.05770    0.03070    2.65830    4.57030   -0.00040   12.10980   49.75370   61.32240   -0.88930   48.95000  162.89910
 8653.50000   49.56870   31.52320    0.05620    0.02640    2.66670    6.43490   -0.00040   19.31060   52.28240   55.28850   -1.04280   49.29220  139.98010
 8654.00000   48.42420   31.89980    0.05460    0.02820    2.66070    7.30370   -0.00040   25.04660   39.31050   42.62920   -1.19630   49.69450  109.45770
 8654.50000   51.32310   32.15190    0.04860    0.03660    2.64350    7.41940   -0.00040   28.56960   32.55270   34.12250   -1.34970   49.75120  117.37090
 8655.00000   59.26800   33.89550    0.04000    0.04940    2.62320    7.40250   -0.00040   25.31150   35.34510   37.38600   -1.50320   49.23410  137.43390
 8655.50000   63.10510   38.10080    0.03580    0.07200    2.58260    7.36680   -0.00540   24.84730   50.72290   54.94360   -1.65670   47.89530  152.21210
 8656.00000   59.06220   43.19030    0.03620    0.10800    2.51590    7.32990   -0.01760   21.20030   79.99660   80.08550   -1.81020   44.90640  157.60960
 8656.50000   57.01050   46.62480    0.04600    0.14220    2.46780    7.26180   -0.03670   18.42920   78.38380   74.61950   -1.96370   41.44200  163.46580
 8657.00000   68.20360   49.44000    0.07070    0.16060    2.43350    7.20840   -0.04310   18.83810   65.61050   81.44830   -2.11710   43.34900  178.56860
 8657.50000   84.53010   55.72870    0.11090    0.16190    2.43260    7.08600   -0.03030    7.39130   13.67090   13.91100   -2.23390   52.77360  195.46730
 8658.00000   93.72420   65.07310    0.17840    0.16090    2.43580    6.88110   -0.01460    2.38520    3.48790    3.52660   -1.87370   65.36270  206.80320
 8658.50000   98.77410   74.26730    0.20530    0.16020    2.43680    6.49090   -0.00670    1.34730    1.72270    1.72460   -1.41690   76.00530  201.70870
 8659.00000  101.88150   79.95890    0.21550    0.15910    2.43760    6.21350   -0.00390    3.80270    3.83670    3.85860   -0.96000   82.33770  188.05940
 8659.50000  101.16340   80.48490    0.22830    0.15460    2.44540    5.67100   -0.00180    6.87800    7.87180    6.45340   -0.50320   82.96720  184.30000
 8660.00000   93.40470   79.32080    0.24170    0.14760    2.45640    5.31310   -0.00230    3.38010    3.91530    3.95430   -0.04640   82.76210  187.80640
 8660.50000   77.12510   78.04740    0.24470    0.14810    2.45780    5.15030   -0.00270    1.43920    1.80040    1.80750    0.54710   86.81600  190.62500
 8661.00000   58.75440   77.26650    0.23760    0.15940    2.43630    5.10920   -0.00320    1.72970    1.94440    1.94890    1.23330   96.11960  190.91580
 8661.50000   44.37170   74.62650    0.21930    0.17020    2.41900    5.11140   -0.00430    2.22900    2.17930    2.18180    1.91950   96.86620  192.49140
 8662.00000   39.67440   69.91020    0.18680    0.16830    2.41990    5.11360   -0.00550    2.21590    2.08700    2.10150    1.89900   94.15000  200.26060
 8662.50000   44.29870   63.72060    0.13540    0.15720    2.44110    5.02030   -0.00370    2.20860    1.83630    1.84230    1.56970   92.94080  208.14350
 8663.00000   61.34980   53.91270    0.08450    0.14460    2.46530    4.86210   -0.00350    1.66680    1.88150    1.88780    1.18740   92.32830  211.03960
 8663.50000   80.68350   44.09780    0.06640    0.13200    2.48630    4.63670   -0.00270    3.90600    3.53330    3.60010    1.34930   91.67050  210.80350
 8664.00000   95.28120   36.36710    0.05760    0.12510    2.49340    4.41130   -0.00080   10.55130    9.87260    7.27000    1.34910   91.15760  210.08090
 8664.50000  101.48460   39.91540    0.05540    0.12090    2.50560    4.20280    0.00100   19.14500   16.17400    9.90410    1.32710   90.82950  209.53810
 8665.00000  105.65970   59.33320    0.10980    0.11200    2.52230    4.05590    0.00110   22.14080   22.35970   13.87010    1.32850   90.72670  209.24250
 8665.50000  112.11100   75.12890    0.19150    0.10680    2.52860    3.93060    0.00110   12.85310   16.05120   12.88620    1.33040   90.39940  208.54420
 8666.00000  114.10670   86.47050    0.24230    0.11000    2.52000    3.80830    0.00100    6.12250    5.75850    5.87250    1.35160   90.22510  207.67770
 8666.50000  109.68350   89.74530    0.26980    0.11750    2.50910    3.68070    0.00100    2.13760    2.13140    2.00960    1.32990   90.43330  200.71560
 8667.00000  110.70220   89.97630    0.26510    0.12070    2.50360    3.76320    0.00090    1.59520    1.98500    1.60190    1.32690   90.78640  191.76410
 8667.50000  118.78180   89.82960    0.26020    0.11750    2.51040    4.03870    0.00090    2.71490    2.86230    2.49100    1.54850   92.05500  197.03270
 8668.00000  119.71990   88.68480    0.26020    0.10670    2.52890    4.66740    0.00090    2.46100    3.56370    2.64480    1.73200   93.84630  206.14840
 8668.50000  119.35000   86.07400    0.26150    0.09680    2.54780    4.92140    0.00080    2.57020    2.71640    2.37430    1.71710   94.92770  207.88610
 8669.00000  126.88930   84.24440    0.26260    0.08540    2.56220    4.95590    0.00080    2.69480    2.43190    2.15050    1.73360   95.50710  209.62380
 8669.50000  131.78580   84.45970    0.26090    0.08290    2.56850    4.99030    0.00070    2.31890    2.32440    2.16570    1.65220   96.83510  208.91310
 8670.00000  130.81550   86.25480    0.25830    0.08250    2.56920    5.02480    0.00070    2.38190    2.41340    2.42680    1.40840   97.84800  208.75160
 8670.50000  129.34770   88.23450    0.25590    0.08330    2.56780    5.07800    0.00060    2.41230    2.46800    2.47310    1.20330   98.18940  209.18510
 8671.00000  127.66670   89.03810    0.25370    0.08530    2.56460    5.12360    0.00060    2.86640    2.95580    2.96930    1.00690   98.17160  209.98180
 8671.50000  125.37670   88.37460    0.25240    0.08180    2.57170    5.08430    0.00050    2.95890    3.22300    3.25390    0.71630   97.65840  210.53960
