~Version ---------------------------------------------------
VERS.   2.0 : CWLS log ASCII Standard -VERSION 2.0
WRAP.    NO : One line per depth step
DLM . SPACE : Column Data Section Delimiter
~Well ------------------------------------------------------
STRT .F                 4330.0 : START DEPTH
STOP .F                 9210.0 : STOP DEPTH
STEP .F                    0.5 : STEP
NULL .                -9999.25 : NULL VALUE
COMP .                         : COMPANY
WELL .                         : WELL
FLD  .                         : FIELD
LOC  .                         : LOCATION
PROV .                         : PROVINCE
CNTY .                         : COUNTY
STAT .                         : STATE
CTRY .                         : COUNTRY
SRVC .                         : SERVICE COMPANY
DATE .                         : DATE
UWI  .                         : UNIQUE WELL ID
API  .                         : API NUMBER
SLAT .WGS84  6.182925732514001 : SURFACE LATITUDE
SLON .WGS84 3.1151921801412783 : SURFACE LONGITUDE
DATUM.F                1601.17 : DEPTH DATUM ELEV
~Curve Information -----------------------------------------
DEPT   .F     : 1 MEASURED DEPTH
GR     .GAPI  : GAMMA RAY
GRD    .GAPI  : GAMMA RAY FROM DENSITY LOG
NPHI_LS.DEC   : NEUTRON POROSITY LIMESTONE
DPHI_LS.DEC   : DENSITY POROSITY LIMESTONE
RHOB   .G/C3  : BULK DENSITY
CALD   .IN    : CALIPER FROM DENSITY LOG
QRHO   .G/C3  : SLDT DENSITY QUALITY FACTOR
AST10  .OHMM  : ARRAY INDUCTION 2FT RESISTIVITY A10
AST30  .OHMM  : ARRAY INDUCTION 2FT RESISTIVITY A30
AST90  .OHMM  : ARRAY INDUCTION 2FT RESISTIVITY A90
SPR    .MV    : SPONTANEOUS POTENTIAL FROM RESISTIVITY LOG
DTCO   .US/F  : DELTA-T COMPRESSIONAL
DTSM   .US/F  : DELTA-T SHEAR
~Params ----------------------------------------------------
~Other -----------------------------------------------------
~ASCII -----------------------------------------------------
# ...
 8620.00000   81.29630   62.23460    0.29310   -9999.25   -9999.25   -9999.25   -9999.25   -9999.25   -9999.25   -9999.25   -9999.25   -9999.25   -9999.25
 8620.50000   79.48350   63.18560    0.29270   -9999.25   -9999.25   -9999.25   -9999.25   -9999.25   -9999.25   -9999.25   -9999.25   -9999.25   -9999.25
 8621.00000   81.15800   64.53000    0.29310   -9999.25   -9999.25   -9999.25   -9999.25   -9999.25   -9999.25   -9999.25   -9999.25   -9999.25   -9999.25
 8621.50000   80.52480   65.03390    0.29640   -9999.25   -9999.25   -9999.25   -9999.25   -9999.25   -9999.25   -9999.25   -9999.25   -9999.25   -9999.25
 8622.00000   75.93320   65.08500    0.30020    0.14070    2.47260    2.49460   -0.01230    0.45860  180.15290   23.10900 -111.17830   51.84250  116.32460
 8622.50000   73.80640   65.08120    0.30020    0.14500    2.47020    2.49270   -0.00860    0.44090   57.95940   31.05800 -107.13720   51.77110  116.31600
 8623.00000   71.50340   64.97990    0.30020    0.15150    2.46150    2.49560   -0.00500    0.42800   31.44200   66.96760 -101.90600   51.85950  119.81970
 8623.50000   66.56190   63.68630    0.30020    0.15780    2.44880    2.49970   -0.00600    0.41760   20.05370   87.38580  -99.21050   51.81980  127.21250
 8624.00000   62.46660   60.98100    0.30020    0.16600    2.43480    2.49410   -0.00740    0.41530   11.48740  337.25630  -94.63210   51.98850  135.76820
 8624.50000   60.61910   58.31360    0.30020    0.17940    2.41990    2.49100   -0.00880    0.48570   13.33150    7.89850  -84.82730   54.48990  147.23840
 8625.00000   63.89180   55.13180    0.30020    0.19910    2.39340    2.49100   -0.00800    0.56110    6.22200    2.49710  -81.95870   60.37500  157.78480
 8625.50000   73.82930   53.16160    0.30020    0.21340    2.36030    2.49100   -0.00670    0.51320    2.36720    1.24860  -83.46950   68.17340  169.92110
 8626.00000   77.96550   51.78300    0.30020    0.21780    2.34160    2.49100   -0.01010    0.46390    2.11290    1.24700  -85.09570   74.77950  195.67130
 8626.50000   74.71660   52.73160    0.30020    0.21490    2.33990    2.49130   -0.03820    0.40060    5.12970    1.39480  -84.28890   83.11930  202.07000
 8627.00000   72.35860   56.93910    0.30020    0.21050    2.34800    2.49230   -0.07120    0.33650    6.09650    1.48610  -78.15360   96.37070  201.10240
 8627.50000   76.62630   61.99900    0.30020    0.20960    2.35310    2.49340   -0.07870    0.27040    1.07850    1.00950  -70.23810  108.81780  197.28350
 8628.00000   86.04440   64.44990    0.30020    0.22410    2.33910    2.49090   -0.05130    0.20460    0.54260    0.69500  -61.10050  112.80350  197.58640
 8628.50000   89.01620   63.29890    0.30020    0.26680    2.28180    2.49150   -0.02480    0.20380    0.24140    0.40090  -57.88880  114.21240  196.94010
 8629.00000   88.11730   59.88700    0.30020    0.32610    2.16180    2.49690    0.00030    0.24300    0.35840    0.59350  -59.54080  113.69260  194.16660
 8629.50000   86.10450   55.75570    0.30020    0.37430    2.07930    2.51100    0.00030    0.41010    0.67370    0.72760  -59.38410  112.32850  193.22710
 8630.00000   78.51720   52.27280    0.30020    0.37230    2.06450    2.50580    0.00030    0.75730    0.86630    0.52330  -56.06350  109.91380  199.19430
 8630.50000   66.75410   48.73340    0.30020    0.33600    2.13110    2.50070    0.00030    0.56150    0.92760    0.44360  -48.08680  106.06710  205.44450
 8631.00000   65.20590   46.70300    0.30020    0.28170    2.21720    2.49240    0.00030    1.16130    1.13260    0.50660  -33.19500   99.32670  208.93890
 8631.50000   72.36950   46.76470    0.30020    0.24510    2.29180    2.48900    0.00030    1.83740    1.51600    0.78990  -17.17520   92.70200  209.66680
 8632.00000   83.96510   48.25840    0.29850    0.24920    2.28020    2.48930   -0.00290    1.99510    2.00120    1.06410   -8.13130   89.76720  211.61050
 8632.50000   93.88800   51.09110    0.26860    0.27040    2.23220    2.49200   -0.01160    1.36010    1.36460    1.49630   -2.02160   95.70320  215.46320
 8633.00000  102.06200   55.62800    0.23730    0.32400    2.14810    2.50410   -0.02760    1.01990    1.03650    1.48760    0.02790  114.23860  217.45450
 8633.50000  106.27740   63.22870    0.20930    0.33160    2.14430    2.51610   -0.02970    0.91460    0.99340    1.63170    1.18070  128.12760  207.63020
 8634.00000  107.74290   73.11250    0.19770    0.28880    2.21660    2.52200   -0.02080    0.87860    1.01900    1.21370    2.16750  137.15320  195.38020
 8634.50000  108.11130   81.76210    0.20250    0.23790    2.31990    2.52040   -0.00920    1.19780    1.22450    1.37290    2.44850  134.27840  200.32740
 8635.00000  110.35440   89.36030    0.21380    0.18700    2.40680    2.51510   -0.00190    1.95230    2.26340    1.83600    3.15190  113.50420  202.55240
 8635.50000  109.66080   91.81600    0.21820    0.15750    2.44530    2.49400   -0.00270    2.26840    2.61980    1.95750    3.77450   98.63120  197.85460
 8636.00000  100.94000   93.77070    0.21600    0.15700    2.44330    2.49220   -0.00390    1.96200    2.28700    1.78190    3.95090   92.99000  192.92760
 8636.50000   86.35830   94.48440    0.21390    0.16950    2.41840    2.49570   -0.00400    1.96300    2.27730    1.96530    4.26570   92.78330  190.24800
 8637.00000   74.43450   93.26220    0.21170    0.18810    2.38500    2.49440   -0.00310    2.04660    2.27060    2.09710    4.25180   95.95680  196.90320
 8637.50000   67.55450   90.45350    0.21110    0.20820    2.35780    2.49060   -0.00830    1.87020    2.24930    2.14900    4.27460  100.10390  204.88940
 8638.00000   65.55230   86.32490    0.21410    0.20800    2.35460    2.49160   -0.00750    2.06870    2.49550    2.45620    3.89240  101.41330  208.22150
 8638.50000   63.11490   79.44630    0.21720    0.19350    2.38080    2.49170   -0.00630    2.03350    2.69200    2.57670    4.07000  100.79480  206.99490
 8639.00000   60.48190   69.47710    0.22020    0.16930    2.42530    2.49080   -0.00650    2.17630    2.51810    2.44030    4.32700   97.00470  210.45180
 8639.50000   62.09260   57.82590    0.22340    0.13930    2.47810    2.49130   -0.00710    1.63440    2.09830    1.96660    4.69690   87.08860  209.81730
 8640.00000   65.15220   50.53520    0.22540    0.11600    2.51270    2.49190   -0.00750    2.33080    3.01520    3.05810    4.24410   75.62350  204.45490
 8640.50000   65.86450   47.00430    0.22700    0.11170    2.51870    2.49170   -0.00780    3.82660    5.54630    5.36600    3.88860   68.94600  197.49080
 8641.00000   62.48060   46.19730    0.23360    0.12410    2.49680    2.49390   -0.01400    4.01670    6.11800    6.02180    3.52900   68.68590  196.19760
 8641.50000   57.12090   45.44090    0.24740    0.14020    2.46700    2.52310   -0.02040    1.95880    2.80650    3.04820    3.49200   74.77650  191.75200
 8642.00000   53.13100   42.33670    0.24620    0.15880    2.44260    2.67310   -0.01960    3.10330    4.77230    4.86330    3.50740   82.19680  187.93250
 8642.50000   48.34430   37.14840    0.22590    0.16630    2.42780    3.04470   -0.01760    3.08480    4.78130    4.79390    3.46540   85.56140  178.90640
 8643.00000   45.99020   32.11080    0.19370    0.16510    2.42610    3.24180   -0.02200    2.58940    4.28870    4.29350    2.88050   84.78490  161.74360
 8643.50000   46.69790   27.95250    0.15390    0.15970    2.44820    3.51250   -0.03060    2.78740    4.26890    4.27970    2.18910   85.75370  161.73350
 8644.00000   49.24160   26.20070    0.12410    0.14120    2.46140    3.50520   -0.03300    2.07980    2.37130    2.39220    1.83790   82.59060  174.58270
 8644.50000   54.09490   25.61920    0.09630    0.12110    2.48550    3.50270   -0.03520    1.54580    2.28030    2.29610    1.45340   77.71850  186.59370
 8645.00000   57.97210   26.77660    0.06860    0.10130    2.52330    3.37530   -0.03070    4.58250    4.96650    5.02950    1.82630   68.76560  186.64910
 8645.50000   57.94340   28.84920    0.05760    0.08240    2.56150    3.06410   -0.01790   13.40890   16.05720   14.46950    1.70890   54.28200  183.15790
