~Version ---------------------------------------------------
VERS.   2.0 : CWLS log ASCII Standard -VERSION 2.0
WRAP.    NO : One line per depth step
DLM . SPACE : Column Data Section Delimiter
~Well ------------------------------------------------------
STRT .F                 4330.0 : START DEPTH
STOP .F                 9210.0 : STOP DEPTH
STEP .F                    0.5 : STEP
NULL .                -9999.25 : NULL VALUE
COMP .                         : COMPANY
WELL .                         : WELL
FLD  .                         : FIELD
LOC  .                         : LOCATION
PROV .                         : PROVINCE
CNTY .                         : COUNTY
STAT .                         : STATE
CTRY .                         : COUNTRY
SRVC .                         : SERVICE COMPANY
DATE .                         : DATE
UWI  .                         : UNIQUE WELL ID
API  .                         : API NUMBER
SLAT .WGS84  6.182925732514001 : SURFACE LATITUDE
SLON .WGS84 3.1151921801412783 : SURFACE LONGITUDE
DATUM.F                1601.17 : DEPTH DATUM ELEV
~Curve Information -----------------------------------------
DEPT   .F     : 1 MEASURED DEPTH
GR     .GAPI  : GAMMA RAY
GRD    .GAPI  : GAMMA RAY FROM DENSITY LOG
NPHI_LS.DEC   : NEUTRON POROSITY LIMESTONE
DPHI_LS.DEC   : DENSITY POROSITY LIMESTONE
RHOB   .G/C3  : BULK DENSITY
CALD   .IN    : CALIPER FROM DENSITY LOG
QRHO   .G/C3  : SLDT DENSITY QUALITY FACTOR
AST10  .OHMM  : ARRAY INDUCTION 2FT RESISTIVITY A10
AST30  .OHMM  : ARRAY INDUCTION 2FT RESISTIVITY A30
AST90  .OHMM  : ARRAY INDUCTION 2FT RESISTIVITY A90
SPR    .MV    : SPONTANEOUS POTENTIAL FROM RESISTIVITY LOG
DTCO   .US/F  : DELTA-T COMPRESSIONAL
DTSM   .US/F  : DELTA-T SHEAR
~Params ----------------------------------------------------
~Other -----------------------------------------------------
~ASCII -----------------------------------------------------
# ...
 8932.00000   77.03120   52.70930    0.22260    0.08800    2.55960    4.83400    0.00020    2.27840    4.46220    4.49070    6.20100   87.84700  162.66460
 8932.50000   61.52740   52.90310    0.22710    0.09560    2.54630    4.84510    0.00020    2.09130    2.02430    2.60030    6.17770   89.25310  192.62320
 8933.00000   48.87150   53.09690    0.21220    0.10360    2.53210    4.84290    0.00020    2.66620    2.17490    2.89260    6.10200   91.00930  212.80540
 8933.50000   35.62010   52.38940    0.16390    0.10670    2.52770    4.83710    0.00020    2.71130    2.51900    3.37780    5.57410   89.67930  213.36000
 8934.00000   25.16970   49.17390    0.09480    0.10000    2.53840    4.79000    0.00020    3.99550    4.04360    4.29920    5.20590   83.08230  202.55530
 8934.50000   21.22940   44.19550    0.05080    0.08680    2.55890    4.78100    0.00020    5.07120    8.10320    5.39850    4.98300   75.06460  179.73590
 8935.00000   18.86990   39.21710    0.04300    0.06540    2.59570    4.78500    0.00020    5.02820    8.59480    4.25070    5.01510   64.88120  153.44460
 8935.50000   16.26600   31.18990    0.03890    0.04330    2.64010    4.78910    0.00020    7.09740    7.51100    4.00450    4.90490   56.18560  134.50750
 8936.00000   16.06460   24.35720    0.03540    0.02350    2.67020    4.79310    0.00020   10.92190    7.78980    4.25510    4.52910   52.15050  117.03630
 8936.50000   18.41640   18.45010    0.03420    0.01200    2.68860    4.77290    0.00020   14.26010   10.32560    5.73130    4.52910   50.82860  103.26180
 8937.00000   26.81620   16.65910    0.03420    0.00640    2.69950    4.70550    0.00020   24.28650   17.46900   11.08060    4.18670   50.85490   98.35470
 8937.50000   41.62280   16.62080    0.03420    0.00310    2.70720    4.65180    0.00020   40.60580   31.76220   24.79870    3.79570   51.62010   95.51290
 8938.00000   56.76540   17.02310    0.03860    0.00360    2.70320    4.59810    0.00020   40.42130   50.07910   54.09100    4.05190   52.23950   93.13970
 8938.50000   59.05550   17.57630    0.06260    0.01920    2.68670    4.54680    0.00020   41.55820   54.77530   69.19620    3.89000   52.59980  107.62760
 8939.00000   56.85030   18.81010    0.09300    0.04460    2.63870    4.27400   -0.00450   51.33350   53.68610   54.52720    3.14120   54.42940  130.06680
 8939.50000   53.24820   25.16790    0.14400    0.07800    2.57110    3.92480   -0.01370   23.93160   24.09330   24.33190    2.95220   61.81830  158.53520
 8940.00000   51.95790   33.13560    0.17430    0.10720    2.52990    3.64050   -0.02170    9.13770    9.67680    9.76010    2.77840   69.50030  174.79590
 8940.50000   45.91300   41.03240    0.17550    0.10890    2.52460    4.00380   -0.01670    3.74100    4.71670    4.58120    2.58470   75.42050  180.14750
 8941.00000   34.98520   44.05140    0.14740    0.09180    2.55310    4.50350   -0.00750    3.39740    4.67960    4.71000    2.67020   76.25290  176.46490
 8941.50000   20.77140   44.00480    0.11500    0.07860    2.57630    4.71370   -0.00060    7.95860    7.68220    7.95150    2.96820   73.33080  167.10400
 8942.00000   15.90140   42.87810    0.08600    0.07330    2.58510    4.66350    0.00030    9.96850    9.69090    7.48510    2.82620   67.07940  146.67270
 8942.50000   20.67620   39.76210    0.06580    0.06690    2.59410    4.61330    0.00030    6.32930    6.53150    6.06080    2.56810   61.95970  127.65160
 8943.00000   32.58270   33.17960    0.04780    0.05020    2.62180    4.56440    0.00030    4.73840    4.77730    4.83540    2.73120   57.05060  111.66710
 8943.50000   64.53390   24.54970    0.04350    0.02470    2.67050    4.55570    0.00040   12.48830   12.59290   12.73100    2.76750   52.24380  104.05360
 8944.00000  147.78810   17.94140    0.06230   -0.00110    2.71410    4.56820    0.00040   41.43850   44.81540   43.72950    2.98910   50.29460  113.05810
 8944.50000  150.10620   16.04560    0.08560   -0.00620    2.72180    4.59710    0.00040  150.08240  267.39270  201.93380    3.04810   52.63210  131.87280
 8945.00000  150.09880   22.31970    0.12670    0.01090    2.68580    4.62600    0.00050  160.51890  128.27490  131.45720    3.14650   62.39770  164.37560
 8945.50000  105.91790   48.41700    0.15460    0.03740    2.64370    4.65540    0.00050   23.95930   20.20270   20.54650    3.58790   75.88760  195.67800
 8946.00000   78.97630   87.90590    0.18680    0.05910    2.60880    4.69030    0.00050    8.58620    7.33830    7.41580    3.75560   86.44340  202.72440
 8946.50000   65.30090  120.84430    0.20410    0.06920    2.59290    4.69500    0.00060    3.16110    3.35970    3.32160    3.82710   96.17850  187.22480
 8947.00000   60.51420  116.60600    0.20820    0.07070    2.59020    4.68130    0.00060    3.23920    3.21100    3.04030    3.90250   98.58580  166.00850
 8947.50000   58.34540   88.10160    0.20960    0.06980    2.59160    4.67570    0.00060    2.83980    2.93320    2.65940    3.97800   95.57030  164.02260
 8948.00000   62.40590   67.75170    0.21020    0.06980    2.59150    4.67640    0.00070    2.64880    2.67940    2.44040    4.23510   93.13900  180.89130
 8948.50000   66.15930   59.85140    0.21000    0.07220    2.58730    4.66980    0.00070    2.42050    2.44760    2.24980    4.33740   91.04630  197.00900
 8949.00000   65.41980   57.55710    0.20550    0.07540    2.58240    4.65670    0.00070    2.36800    2.42840    2.17470    4.20860   90.00510  199.13920
 8949.50000   64.29530   57.14210    0.19950    0.07550    2.58120    4.64100    0.00080    2.51170    2.42340    2.34310    4.24250   89.44610  192.92570
 8950.00000   62.37120   57.49680    0.19220    0.07270    2.58620    4.63570    0.00080    2.55410    2.52680    2.51560    4.27400   88.08320  172.11480
 8950.50000   62.05880   57.84610    0.18920    0.06810    2.59310    4.63420    0.00080    2.62370    2.61670    2.62040    4.22670   86.52260  164.06230
 8951.00000   65.17020   57.14700    0.18910    0.06440    2.60180    4.62050    0.00090    3.03040    3.03020    3.03450    4.21290   84.99320  180.01850
 8951.50000   65.11760   54.90380    0.18880    0.06310    2.60320    4.61440    0.00090    3.12910    3.12070    3.12420    4.35770   83.27990  192.35470
 8952.00000   62.26590   53.35380    0.18690    0.06310    2.60240    4.61580    0.00100    3.03150    3.07620    3.08000    3.94250   82.55620  194.47720
 8952.50000   63.92570   54.01870    0.18490    0.06340    2.60320    4.61530    0.00100    3.52260    3.19540    3.19880    3.89870   82.20010  195.21050
 8953.00000   65.10600   54.33220    0.18550    0.06300    2.60470    4.61540    0.00100    2.88970    3.08080    3.08400    3.86860   81.89590  196.31790
 8953.50000   62.24330   53.32700    0.18750    0.06200    2.60540    4.61520    0.00100    3.17910    3.32010    3.25810    3.83850   80.63640  196.47700
 8954.00000   60.91480   51.82520    0.19060    0.06100    2.60780    4.61490    0.00100    4.78980    4.05700    4.06160    3.80840   80.19620  193.09590
 8954.50000   61.20360   51.59480    0.19130    0.05890    2.61420    4.60960    0.00110    3.57310    3.35180    3.36270    3.28070   79.60840  191.06860
 8955.00000   62.51330   52.53500    0.19070    0.05200    2.62590    4.58580    0.00110    2.61770    2.61390    2.61680    3.41280   79.30990  191.19170
 8955.50000   63.31340   52.62800    0.19170    0.04460    2.63680    4.59070    0.00110    3.09360    2.93880    2.82580    3.48110   79.61640  184.78070
 8956.00000   66.74100   50.87280    0.19340    0.04160    2.63910    4.61740    0.00110    3.72360    3.53660    3.14870    3.43300   79.92280  183.00980
 8956.50000   70.78840   48.46440    0.19620    0.04310    2.63600    4.64600    0.00110    4.47900    4.22310    3.69940    3.40770   80.09710  188.20440
 8957.00000   72.81010   48.49220    0.19910    0.04590    2.63180    4.66850    0.00120    3.51660    3.52640    3.18500    3.43270   83.00340  197.31570
 8957.50000   70.77230   49.68180    0.20160    0.04540    2.63430    4.69100    0.00120    2.88500    2.88850    2.87480    3.09930   84.44890  196.62930
