~Version ---------------------------------------------------
VERS.   2.0 : CWLS log ASCII Standard -VERSION 2.0
WRAP.    NO : One line per depth step
DLM . SPACE : Column Data Section Delimiter
~Well ------------------------------------------------------
STRT .F                 4330.0 : START DEPTH
STOP .F                 9210.0 : STOP DEPTH
STEP .F                    0.5 : STEP
NULL .                -9999.25 : NULL VALUE
COMP .                         : COMPANY
WELL .                         : WELL
FLD  .                         : FIELD
LOC  .                         : LOCATION
PROV .                         : PROVINCE
CNTY .                         : COUNTY
STAT .                         : STATE
CTRY .                         : COUNTRY
SRVC .                         : SERVICE COMPANY
DATE .                         : DATE
UWI  .                         : UNIQUE WELL ID
API  .                         : API NUMBER
SLAT .WGS84  6.182925732514001 : SURFACE LATITUDE
SLON .WGS84 3.1151921801412783 : SURFACE LONGITUDE
DATUM.F                1601.17 : DEPTH DATUM ELEV
~Curve Information -----------------------------------------
DEPT   .F     : 1 MEASURED DEPTH
GR     .GAPI  : GAMMA RAY
GRD    .GAPI  : GAMMA RAY FROM DENSITY LOG
NPHI_LS.DEC   : NEUTRON POROSITY LIMESTONE
DPHI_LS.DEC   : DENSITY POROSITY LIMESTONE
RHOB   .G/C3  : BULK DENSITY
CALD   .IN    : CALIPER FROM DENSITY LOG
QRHO   .G/C3  : SLDT DENSITY QUALITY FACTOR
AST10  .OHMM  : ARRAY INDUCTION 2FT RESISTIVITY A10
AST30  .OHMM  : ARRAY INDUCTION 2FT RESISTIVITY A30
AST90  .OHMM  : ARRAY INDUCTION 2FT RESISTIVITY A90
SPR    .MV    : SPONTANEOUS POTENTIAL FROM RESISTIVITY LOG
DTCO   .US/F  : DELTA-T COMPRESSIONAL
DTSM   .US/F  : DELTA-T SHEAR
~Params ----------------------------------------------------
~Other -----------------------------------------------------
~ASCII -----------------------------------------------------
# ...
 9192.00000   -9999.25   -9999.25   -9999.25   -9999.25   -9999.25    2.49100   -0.00100   10.54260   11.41300    6.00220   77.10540   53.84100  229.08250
 9192.50000   -9999.25   -9999.25   -9999.25   -9999.25   -9999.25    2.49200   -0.00100   10.32480   10.70930    6.03920   78.32120   53.84100  229.16370
 9193.00000   -9999.25   -9999.25   -9999.25   -9999.25   -9999.25    2.49430   -0.00090   10.66910   11.00740    6.60540   78.79200   53.84110  229.06360
 9193.50000   -9999.25   -9999.25   -9999.25   -9999.25   -9999.25    2.50360   -0.00090   11.02480   11.31380    7.47950   79.67580   53.84110  228.93920
 9194.00000   -9999.25   -9999.25   -9999.25   -9999.25   -9999.25    2.50390   -0.00080   11.39250   11.62880    8.25710   80.78260   53.84120  228.94040
 9194.50000   -9999.25   -9999.25   -9999.25   -9999.25   -9999.25    2.50210   -0.00080   11.76760   11.78930    8.27150   81.22020   53.84120  228.94170
 9195.00000   -9999.25   -9999.25   -9999.25   -9999.25   -9999.25    2.50100   -0.00080   12.15110   11.69210    8.28600   81.96310   53.84130  228.95140
 9195.50000   -9999.25   -9999.25   -9999.25   -9999.25   -9999.25    2.50060   -0.00070   12.45830   11.59570    8.30050   83.37910   53.84130  228.96210
 9196.00000   -9999.25   -9999.25   -9999.25   -9999.25   -9999.25    2.50070   -0.00070   12.53670   11.50010    8.31500   84.40250   53.84140  228.96810
 9196.50000   -9999.25   -9999.25   -9999.25   -9999.25   -9999.25    2.50070   -0.00060   12.55020   11.42310    8.41660   85.00750   53.84140  228.94280
 9197.00000   -9999.25   -9999.25   -9999.25   -9999.25   -9999.25    2.50080   -0.00060   12.35910   11.42620    8.70420   85.12580   53.84150  228.94640
 9197.50000   -9999.25   -9999.25   -9999.25   -9999.25   -9999.25    2.50080   -0.00050   12.80480   11.66070    9.20920   85.11290   53.84150  228.95000
 9198.00000   -9999.25   -9999.25   -9999.25   -9999.25   -9999.25    2.50040   -0.00050   14.89170   12.15250    9.26590   85.67120   53.84150  228.83110
 9198.50000   -9999.25   -9999.25   -9999.25   -9999.25   -9999.25    2.49920   -0.00040   11.29810   10.98450    9.70260   86.06880   53.84150  228.95530
 9199.00000   -9999.25   -9999.25   -9999.25   -9999.25   -9999.25    2.49810   -0.00040    9.90280   11.71300   10.67470   86.66460   53.84150  229.07960
 9199.50000   -9999.25   -9999.25   -9999.25   -9999.25   -9999.25    2.49870   -0.00040   20.03310   17.34500   12.92400   87.35840   53.84150  228.90710
 9200.00000   -9999.25   -9999.25   -9999.25   -9999.25   -9999.25    2.50100   -0.00030   25.54810   19.27800   18.99740   92.85290   53.84150  228.92180
 9200.50000   -9999.25   -9999.25   -9999.25   -9999.25   -9999.25    2.50180   -0.00030   11.71530   10.80540   12.02040  101.98390   53.84150  228.95210
 9201.00000   -9999.25   -9999.25   -9999.25   -9999.25   -9999.25    2.50110   -0.00020    6.24730    6.54250    8.58660  108.42280   53.84150  228.96990
 9201.50000   -9999.25   -9999.25   -9999.25   -9999.25   -9999.25    2.49880   -0.00020    8.73060    8.38430    9.28540  111.82550   53.84150  228.97000
 9202.00000   -9999.25   -9999.25   -9999.25   -9999.25   -9999.25    2.49540   -0.00010   10.93430    7.86890   10.26860  113.47470   53.84150  228.96700
 9202.50000   -9999.25   -9999.25   -9999.25   -9999.25   -9999.25    2.49410   -0.00010   -9999.25   -9999.25   -9999.25  115.12390   53.84150  228.96410
 9203.00000   -9999.25   -9999.25   -9999.25   -9999.25   -9999.25    2.50080   -0.00000   -9999.25   -9999.25   -9999.25  117.09680   53.84150  228.96100
 9203.50000   -9999.25   -9999.25   -9999.25   -9999.25   -9999.25    2.50240    0.00000   -9999.25   -9999.25   -9999.25  119.13870   53.84150  228.95810
 9204.00000   -9999.25   -9999.25   -9999.25   -9999.25   -9999.25    2.50250    0.00010   -9999.25   -9999.25   -9999.25  123.17140   53.84150  228.95510
 9204.50000   -9999.25   -9999.25   -9999.25   -9999.25   -9999.25    2.50260    0.00010   -9999.25   -9999.25   -9999.25  127.86600   53.84150  228.97350
 9205.00000   -9999.25   -9999.25   -9999.25   -9999.25   -9999.25    2.50270    0.00010   -9999.25   -9999.25   -9999.25  131.85350   53.84150  228.99850
 9205.50000   -9999.25   -9999.25   -9999.25   -9999.25   -9999.25    2.50280    0.00020   -9999.25   -9999.25   -9999.25  135.85330   53.84150  229.02350
 9206.00000   -9999.25   -9999.25   -9999.25   -9999.25   -9999.25    2.50240    0.00020   -9999.25   -9999.25   -9999.25  139.46560   53.84150  228.96600
 9206.50000   -9999.25   -9999.25   -9999.25   -9999.25   -9999.25    2.50190    0.00030   -9999.25   -9999.25   -9999.25  141.85600   53.84150  228.95590
 9207.00000   -9999.25   -9999.25   -9999.25   -9999.25   -9999.25    2.50130    0.00030   -9999.25   -9999.25   -9999.25  143.41260   53.84150  228.96400
 9207.50000   -9999.25   -9999.25   -9999.25   -9999.25   -9999.25    2.50080    0.00040   -9999.25   -9999.25   -9999.25  137.48100   53.84150  228.97310
 9208.00000   -9999.25   -9999.25   -9999.25   -9999.25   -9999.25    2.50030    0.00040   -9999.25   -9999.25   -9999.25  120.25940   53.84150  228.98410
 9208.50000   -9999.25   -9999.25   -9999.25   -9999.25   -9999.25    2.49980    0.00050   -9999.25   -9999.25   -9999.25  101.76860   53.84150  228.99510
 9209.00000   -9999.25   -9999.25   -9999.25   -9999.25   -9999.25    2.49920    0.00050   -9999.25   -9999.25   -9999.25   97.05410   53.84150  229.00610
 9209.50000   -9999.25   -9999.25   -9999.25   -9999.25   -9999.25    2.49870    0.00050   -9999.25   -9999.25   -9999.25   95.93140   53.84150  229.01710
 9210.00000   -9999.25   -9999.25   -9999.25   -9999.25   -9999.25    2.49820    0.00060   -9999.25   -9999.25   -9999.25   96.86190   53.85170  229.02810
