~Version ---------------------------------------------------
VERS.   2.0 : CWLS log ASCII Standard -VERSION 2.0
WRAP.    NO : One line per depth step
DLM . SPACE : Column Data Section Delimiter
~Well ------------------------------------------------------
STRT .F                 4330.0 : START DEPTH
STOP .F                 9210.0 : STOP DEPTH
STEP .F                    0.5 : STEP
NULL .                -9999.25 : NULL VALUE
COMP .                         : COMPANY
WELL .                         : WELL
FLD  .                         : FIELD
LOC  .                         : LOCATION
PROV .                         : PROVINCE
CNTY .                         : COUNTY
STAT .                         : STATE
CTRY .                         : COUNTRY
SRVC .                         : SERVICE COMPANY
DATE .                         : DATE
UWI  .                         : UNIQUE WELL ID
API  .                         : API NUMBER
SLAT .WGS84  6.182925732514001 : SURFACE LATITUDE
SLON .WGS84 3.1151921801412783 : SURFACE LONGITUDE
DATUM.F                1601.17 : DEPTH DATUM ELEV
~Curve Information -----------------------------------------
DEPT   .F     : 1 MEASURED DEPTH
GR     .GAPI  : GAMMA RAY
GRD    .GAPI  : GAMMA RAY FROM DENSITY LOG
NPHI_LS.DEC   : NEUTRON POROSITY LIMESTONE
DPHI_LS.DEC   : DENSITY POROSITY LIMESTONE
RHOB   .G/C3  : BULK DENSITY
CALD   .IN    : CALIPER FROM DENSITY LOG
QRHO   .G/C3  : SLDT DENSITY QUALITY FACTOR
AST10  .OHMM  : ARRAY INDUCTION 2FT RESISTIVITY A10
AST30  .OHMM  : ARRAY INDUCTION 2FT RESISTIVITY A30
AST90  .OHMM  : ARRAY INDUCTION 2FT RESISTIVITY A90
SPR    .MV    : SPONTANEOUS POTENTIAL FROM RESISTIVITY LOG
DTCO   .US/F  : DELTA-T COMPRESSIONAL
DTSM   .US/F  : DELTA-T SHEAR
~Params ----------------------------------------------------
~Other -----------------------------------------------------
~ASCII -----------------------------------------------------
# ...
 9036.00000  105.25540   75.51170    0.28120    0.14400    2.46530    4.80350    0.00060    1.17700    1.17860    1.18090   -0.75280  116.01080  199.69150
 9036.50000   97.21170   77.50810    0.28320    0.14470    2.46450    4.79600    0.00060    1.22780    1.22890    1.23020   -0.81200  116.44930  198.51100
 9037.00000   95.60940   80.21600    0.28670    0.14360    2.46550    4.78850    0.00050    1.22230    1.22330    1.22460   -0.82990  116.83370  189.80580
 9037.50000   96.07310   81.14620    0.29000    0.14270    2.46660    4.79860    0.00050    1.20220    1.20330    1.20460   -0.84790  117.10450  194.15760
 9038.00000   93.92350   79.83490    0.28990    0.14310    2.46700    4.80300    0.00050    1.18340    1.18400    1.18520   -0.86580  116.78890  193.52420
 9038.50000   93.19840   79.00640    0.28430    0.14380    2.46590    4.80700    0.00050    1.16490    1.17070    1.17190   -0.87280  116.23560  185.78840
 9039.00000   95.65240   80.14530    0.27730    0.14460    2.46420    4.78940    0.00050    1.19210    1.18100    1.15870   -1.25260  117.13630  184.15880
 9039.50000   97.22260   82.06200    0.27920    0.14670    2.46050    4.78150    0.00050    1.19210    1.19430    1.14610   -1.18250  118.33550  190.47940
 9040.00000  101.02060   82.29900    0.29520    0.15080    2.45590    4.77580    0.00050    1.16100    1.20810    1.12480   -1.28050  119.43170  195.87630
 9040.50000  108.62610   81.94120    0.30030    0.15440    2.44770    4.76900    0.00050    1.27650    1.24590    1.15870   -1.65650  120.41800  197.60490
 9041.00000  113.46500   81.87830    0.30030    0.15750    2.44200    4.75370    0.00040    1.29820    1.27890    1.13580   -1.57650  120.42510  196.94850
 9041.50000  111.58620   82.92150    0.30030    0.15850    2.44010    4.71800    0.00040    1.27630    1.24060    1.11290   -1.97820  120.10020  197.21880
 9042.00000  104.34610   84.05270    0.30030    0.16010    2.43690    4.71700    0.00040    1.38240    1.37590    1.38190   -2.09320  118.73750  199.11460
 9042.50000   94.66610   84.18600    0.30030    0.16360    2.43090    4.72020    0.00040    2.07510    2.03410    2.04370   -1.95320  117.33290  199.59740
 9043.00000   90.96270   82.92540    0.30030    0.16730    2.42500    4.72330    0.00040    1.50600    1.64620    1.65490   -2.52150  116.07560  196.34050
 9043.50000   93.88480   81.22750    0.30030    0.16910    2.42180    4.72650    0.00040    1.30260    1.30220    1.30500   -2.45930  116.54830  188.99730
 9044.00000   95.88360   80.11230    0.30030    0.17070    2.41880    4.72970    0.00040    1.27180    1.30650    1.30980   -2.44970  117.90130  193.41790
 9044.50000   98.29320   79.70410    0.30030    0.17220    2.41640    4.73290    0.00040    1.08650    1.07170    1.06330   -2.75160  120.39650  196.96790
 9045.00000   99.72000   80.14030    0.30040    0.17400    2.41450    4.71880    0.00030    1.18720    1.05560    1.02060   -2.86330  123.21420  195.14130
 9045.50000   95.51210   80.94480    0.30040    0.17490    2.41250    4.69760    0.00030    1.18680    1.12860    1.08450   -2.87310  123.85280  195.63950
 9046.00000   87.91560   81.27000    0.30040    0.17420    2.41300    4.67650    0.00030    1.23120    1.24980    1.17750   -2.80170  123.56480  199.70390
 9046.50000   87.37560   81.10230    0.30040    0.17120    2.41760    4.65530    0.00030    1.37740    1.32020    1.28660   -2.81570  123.56630  201.18190
 9047.00000   94.96970   81.14800    0.30040    0.16950    2.42070    4.58210    0.00030    1.30510    1.30730    1.30870   -3.24090  123.00480  202.37650
 9047.50000  102.85370   81.34000    0.30040    0.17450    2.41340    4.27040    0.00030    1.30900    1.31010    1.31150   -3.11520  122.04160  203.22250
 9048.00000  106.31930   81.40650    0.30040    0.18290    2.39800    3.67960    0.00030    1.22440    1.22650    1.22180   -3.21460  121.48250  203.95430
 9048.50000  107.39540   81.28890    0.30040    0.18550    2.39450    3.10810    0.00030    1.14420    1.19420    1.15570   -3.56100  121.67390  204.67800
 9049.00000  106.06380   80.95520    0.30040    0.18350    2.39720    2.61870    0.00030    1.13710    1.18380    1.14070   -3.90170  123.25590  204.76870
 9049.50000  105.31730   80.71910    0.30040    0.18250    2.39950    2.53170    0.00020    1.13010    1.18710    1.12580   -3.96440  124.26320  204.06110
 9050.00000  102.85770   80.57130    0.30040    0.18200    2.40060    2.52870    0.00020    1.12320    1.19250    1.12760   -4.06320  124.38210  203.70480
 9050.50000   98.51520   80.58940    0.30040    0.18100    2.40210    2.53390    0.00020    1.19000    1.21590    1.16100   -4.04430  123.79790  203.60260
 9051.00000   96.47080   81.34250    0.30040    0.17680    2.40850    2.53920    0.00020    1.25930    1.22730    1.18580   -4.24080  122.80250  205.47520
 9051.50000   96.30130   82.68990    0.30040    0.17220    2.41600    2.54150    0.00020    1.19920    1.16880    1.17000   -4.39580  121.96530  206.75800
 9052.00000   98.16430   82.78460    0.30040    0.17540    2.41870    2.52710    0.00020    1.31420    1.21170    1.21320   -4.90680  123.28960  207.42360
 9052.50000  101.46900   81.97540    0.30040    0.18260    2.39750    2.52030    0.00020    1.28330    1.26620    1.26770   -5.22440  125.23460  207.47270
 9053.00000  103.15130   83.17890    0.30040    0.18980    2.38600    2.54250    0.00020    1.09870    1.08520    1.08780   -5.24500  125.93930  207.94740
 9053.50000  102.22890   83.48510    0.30020    0.19310    2.38050    2.56470    0.00010    1.08700    1.09090    1.08620   -5.26420  124.74810  207.40850
 9054.00000  102.80740   82.10860    0.29630    0.19410    2.37900    2.58690    0.00010    1.58260    1.56530    1.41970   -5.40480  122.92480  204.03630
 9054.50000  104.02010   81.10780    0.29390    0.19590    2.37660    2.68730    0.00010    2.30560    2.20210    1.61690   -5.70650  120.62680  196.27390
 9055.00000   99.52080   81.06960    0.29260    0.20080    2.36880    2.90610    0.00010    1.61460    1.52420    1.24780   -5.72570  118.46630  180.69520
 9055.50000   88.79150   82.28910    0.29060    0.20730    2.35710    3.93720    0.00010    1.95910    1.92180    1.48350   -5.80440  118.24010  188.78380
 9056.00000   87.11270   85.34780    0.29420    0.20840    2.35530    4.66550    0.00010    2.61390    2.66460    2.17800   -6.06320  118.65280  196.50220
 9056.50000   94.75670   90.00250    0.29980    0.20560    2.36060    4.86520    0.00010    2.49420    2.30880    2.30650   -6.51210  118.46640  197.54270
 9057.00000  102.70400   93.83520    0.29980    0.19940    2.36910    4.95600    0.00010    1.50590    1.36600    1.53460   -7.01750  117.56080  196.74290
 9057.50000  110.02610   95.11120    0.29970    0.19500    2.37820    4.95480    0.00000    1.69290    1.29620    1.71100   -7.26340  117.36260  195.05150
 9058.00000  113.40910   94.80460    0.29970    0.19470    2.37710    4.95710    0.00000    1.17490    1.19850    1.20570   -7.44010  119.24080  195.98560
 9058.50000   99.86310   94.36200    0.29970    0.19700    2.37330    4.95340   -0.00110    1.13000    0.73840    0.74280   -7.89570  120.23740  198.18310
 9059.00000   69.13690   93.89020    0.29970    0.19080    2.38360    4.89810   -0.00310    0.67130    0.49570    0.48790   -8.90360  119.90300  201.07730
 9059.50000   44.63880   91.93500    0.29970    0.16410    2.43750    4.84280   -0.00090    0.50530    0.67620    0.51710   -9.50500  116.80160  205.86070
 9060.00000   47.49630   85.86280    0.26500    0.11670    2.50470    4.78740    0.00000    0.96140    1.44060    0.99070  -10.69870  105.57870  215.28440
 9060.50000   54.52570   72.64240    0.19510    0.05810    2.61690    4.73210    0.00010    1.70820    1.97600    1.37550  -11.72910   94.69620  220.06500
 9061.00000   45.30150   52.35690    0.14700    0.00980    2.68980    4.67810    0.00010    3.64650    1.38610    1.27070  -12.14000   78.16960  219.24360
 9061.50000   27.28670   35.80360    0.12320    0.00350    2.70440    4.62730    0.00020    6.93180    1.97770    1.99950  -10.83900   66.92450  207.44760
