~Version ---------------------------------------------------
VERS.   2.0 : CWLS log ASCII Standard -VERSION 2.0
WRAP.    NO : One line per depth step
DLM . SPACE : Column Data Section Delimiter
~Well ------------------------------------------------------
STRT .F                 5858.0 : START DEPTH
STOP .F                 9695.0 : STOP DEPTH
STEP .F                    0.5 : STEP
NULL .                -9999.25 : NULL VALUE
COMP .                         : COMPANY
WELL .                         : WELL
FLD  .                         : FIELD
LOC  .                         : LOCATION
PROV .                         : PROVINCE
CNTY .                         : COUNTY
STAT .                         : STATE
CTRY .                         : COUNTRY
SRVC .                         : SERVICE COMPANY
DATE .                         : DATE
UWI  .                         : UNIQUE WELL ID
API  .                         : API NUMBER
SLAT .WGS84  6.099586948439203 : SURFACE LATITUDE
SLON .WGS84 2.9949352039792103 : SURFACE LONGITUDE
DATUM.F                1604.25 : DEPTH DATUM ELEV
~Curve Information -----------------------------------------
DEPT   .F     : 
TEND   .LB    : TENSION FROM DENSITY LOG
GRD    .GAPI  : GAMMA RAY FROM DENSITY LOG
NPHI_LS.DEC   : NEUTRON POROSITY LIMESTONE
DPO_LS .DEC   : HLDS DENSITY POROSITY
LCALD  .IN    : DENSITY CALIPER/LOWER CALIPER FROM DENSITY LOG
DRH    .G/C3  : BULK DENSITY CORRECTION
RHOB   .G/C3  : BULK DENSITY
AT20   .OHMM  : ARRAY INDUCTION TWO FOOT RESISTIVITY A20
AT60   .OHMM  : ARRAY INDUCTION TWO FOOT RESISTIVITY A60
TENR   .LB    : TENSION FROM RESISTIVITY LOG
AT10   .OHMM  : ARRAY INDUCTION TWO FOOT RESISTIVITY A10
AT30   .OHMM  : ARRAY INDUCTION TWO FOOT RESISTIVITY A30
AT90   .OHMM  : ARRAY INDUCTION TWO FOOT RESISTIVITY A90
SPR    .MV    : SPONTANEOUS POTENTIAL FROM RESISTIVITY LOG
GRS    .GAPI  : GAMMA RAY FROM SONIC LOG
SPHI_LS.DEC   : SONIC POROSITY [LIMESTONE]
DTCO   .US/F  : DELTA-T COMPRESSIONAL
DTSM   .US/F  : DELTA-T SHEAR
~Params ----------------------------------------------------
~Other -----------------------------------------------------
~ASCII -----------------------------------------------------
# ...
 9621.50000 3823.34740   28.24580    0.04620    0.02360    6.15380   -0.00910    2.66980    9.19390   11.34370 3826.34200   11.42220   11.85100   11.99270 -199.95180   18.30960    0.04650   54.83430  122.31800
 9622.00000 3842.67040   30.31150    0.05060    0.02080    6.14750   -0.00510    2.67570    9.83210   10.16540 3836.17650   11.95880    9.95860    9.97270 -199.95130   24.61380    0.07320   57.69360  121.98400
 9622.50000 3857.09010   30.78230    0.04670    0.01650    6.15230   -0.00290    2.68330   11.66470   10.96650 3865.35620   13.74790   11.29020   11.33570 -199.95110   28.12810    0.09580   60.55280  121.65000
 9623.00000 3856.40700   30.56510    0.03680    0.01560    6.15300   -0.00320    2.68330   11.71570   11.08230 3863.14550   13.91110   11.17760   11.20850 -199.95110   28.89350    0.10070   61.64240  121.31600
 9623.50000 3840.43360   30.37430    0.03210    0.01750    6.15380   -0.00360    2.68040   11.17680   10.36590 3849.93480   12.26820   11.04850   11.11240 -199.95110   26.72520    0.09950   61.36640  120.98200
 9624.00000 3823.47490   29.66140    0.03290    0.02020    6.14850   -0.00550    2.67560   13.19490   12.05530 3839.60080   14.26960   13.28450   13.35780 -199.95110   25.25580    0.09550   61.69670  126.24650
 9624.50000 3820.55350   28.43650    0.03900    0.02390    6.14030   -0.00800    2.66720   12.51820   11.80340 3829.40890   14.11600   11.89450   12.06140 -199.95110   25.21200    0.14960   67.86380  133.41620
 9625.00000 3822.60820   29.56590    0.05550    0.02800    6.12750   -0.00840    2.66290    8.40750    7.74460 3825.13260    7.41490    7.54410    7.64690 -199.95110   25.77880    0.19730   76.04530  138.76370
 9625.50000 3841.94630   33.57340    0.07740    0.02470    6.10380   -0.00350    2.66910    5.93210    5.37890 3844.18120    5.22090    5.29400    5.30270 -199.95110   27.07260    0.16950   76.74970  138.99800
 9626.00000 3852.96220   35.74230    0.08180    0.01400    6.08050    0.00190    2.68820    6.20940    6.44660 3846.48170    7.71110    6.71040    6.84420 -199.94600   29.38550    0.14180   68.83400  137.17490
 9626.50000 3859.39600   34.85220    0.07130    0.00010    6.07440    0.00730    2.70800   12.00600   10.85840 3865.11280   14.22680   12.80490   13.04610 -199.93720   32.52280    0.15470   69.22170  128.36570
 9627.00000 3859.39090   29.62340    0.05440   -0.00510    6.08020    0.00910    2.71760   23.00510   24.92700 3870.80440   26.24840   24.07560   24.53240 -199.93810   32.30700    0.15830   67.98670  117.80310
 9627.50000 3859.38570   24.34450    0.03470   -0.00430    6.08600    0.00630    2.71750   25.37210   30.16530 3863.36790   41.73820   29.93240   30.02760 -199.93910   27.57630    0.11950   60.09610  107.24040
 9628.00000 3854.65990   22.59330    0.03210   -0.00060    6.09170    0.00260    2.71090   23.25320   27.72810 3868.30000   43.81880   27.42640   27.50980 -199.95110   21.51460    0.07080   55.82280   97.47360
 9628.50000 3887.50370   23.87830    0.03500    0.00300    6.09750    0.00290    2.70500   21.65880   24.63220 3895.91360   39.46810   25.06160   25.11390 -199.95680   17.82210    0.05110   54.27500  100.49270
 9629.00000 3915.45900   26.10610    0.03850    0.00140    6.10330    0.00320    2.70630   20.17370   23.20240 3921.63890   35.68320   23.67150   23.72210 -199.95680   16.55990    0.04740   54.21710  103.51180
 9629.50000 3935.27080   27.80720    0.04060   -0.00310    6.10900    0.00350    2.71480   17.66000   19.32810 3917.97970   31.74100   19.57820   19.72630 -199.95680   16.84460    0.04790   54.52100  104.75840
 9630.00000 3947.17630   29.58410    0.04430   -0.00450    6.11450    0.00430    2.71740   14.93750   16.01450 3912.45190   24.77620   15.17590   15.29020 -199.95940   18.28870    0.05010   55.28460  105.69600
 9630.50000 3957.52250   31.29460    0.04910   -0.00330    6.11640    0.00350    2.71630   13.59090   15.22040 3915.61840   23.07700   14.87160   14.89190 -199.96180   20.95880    0.05400   61.63730  106.63370
 9631.00000 3927.12330   31.10470    0.04950   -0.00140    6.11830   -0.00010    2.71280   18.56310   22.21980 3918.78520   28.76000   21.46810   21.74880 -199.96180   24.05290    0.05880   68.97940  122.93650
 9631.50000 3912.87650   29.25650    0.04700    0.00350    6.12020   -0.00360    2.70760   24.92900   29.18720 3916.04570   37.14790   28.82110   28.86020 -199.96180   24.61180    0.05940   62.17320  111.97250
 9632.00000 3898.62990   27.51880    0.04730    0.00900    6.12210   -0.00730    2.69880   20.17500   21.09840 3906.94380   21.72000   17.34060   17.62330 -199.96180   22.36760    0.05560   56.65480  108.58330
 9632.50000 3889.66020   28.99760    0.05830    0.01440    6.12400   -0.01070    2.68930   10.64390   12.61620 3896.89500   11.01270   10.14220   10.30920 -199.96340   19.73530    0.08850   62.70140  118.07160
 9633.00000 3892.40600   34.45340    0.07610    0.01850    6.12590   -0.01240    2.67990    7.20810    8.06720 3897.42210    8.77880    8.14020    8.36090 -199.96540   19.72600    0.15230   68.74810  127.55990
 9633.50000 3895.15190   37.64790    0.08510    0.02020    6.12780   -0.01110    2.67670    7.36460    9.01840 3898.93990   10.29210    9.03460    9.02510 -199.96460   23.24740    0.14280   66.58740  127.45760
 9634.00000 3897.98120   36.33090    0.08190    0.01810    6.12970   -0.00960    2.67910    9.42950   10.60230 3899.93700   13.87510   10.34090   10.38320 -199.95700   27.37420    0.12550   64.21300  125.19860
 9634.50000 3901.69730   34.34220    0.07350    0.01400    6.13520   -0.00810    2.68570   10.05870   11.72070 3903.55830   14.30310   11.89400   11.94570 -199.95670   27.90240    0.10980   62.55060  122.93960
 9635.00000 3916.41040   34.18380    0.06850    0.00880    6.13680   -0.00620    2.69440   10.15540   11.96710 3915.17920   14.06350   12.00220   12.02780 -199.95670   26.20020    0.10350   61.02770  120.68060
 9635.50000 3934.13230   34.59270    0.06910    0.00610    6.12470   -0.00530    2.69800    9.76100   11.30340 3934.55490   13.69790   11.34090   11.36540 -199.95670   24.25330    0.09490   60.07900  120.14490
 9636.00000 3906.70830   35.03760    0.06990    0.00560    6.11570   -0.00530    2.69960    9.38190   10.66630 3916.32520   13.11840   10.71600   10.73940 -199.95670   23.36120    0.09050   60.16660  120.31680
 9636.50000 3920.61080   35.10120    0.07090    0.00580    6.10220   -0.00580    2.70090    9.01750   10.06510 3902.60030   12.50270   10.19560   10.21100 -199.95670   23.35820    0.09370   60.71090  120.53680
 9637.00000 3934.51320   35.87570    0.07480    0.00710    6.09990   -0.00780    2.69840    8.66730    9.78870 3913.38870   12.45630    9.97630    9.99120 -199.95670   24.16530    0.09660   61.49590  121.93300
 9637.50000 3918.12110   37.30220    0.07960    0.00850    6.09770   -0.00730    2.69600    8.34070    9.58720 3924.17720   11.41050    9.74310    9.75870 -199.95670   25.61960    0.10250   62.26960  123.40490
 9638.00000 3903.22730   38.31700    0.08650    0.00950    6.09440   -0.00970    2.69390    8.24440    9.49940 3920.92240   11.85010    9.45960    9.47490 -199.95570   27.09640    0.10640   62.99660  124.87690
 9638.50000 3869.24270   38.76820    0.09050    0.01040    6.08380   -0.01020    2.69290    8.14920    9.20140 3873.20310   12.00400    9.14660    9.16470 -199.95520   28.65980    0.11050   63.26020  126.34890
 9639.00000 3829.88330   38.05110    0.09300    0.01070    6.07820   -0.01080    2.69240    8.02120    8.74890 3852.54690   11.74660    8.73330    8.75080 -199.95510   29.67790    0.11390   63.76490  126.07800
 9639.50000 3830.67480   37.35540    0.09390    0.01140    6.07740   -0.01140    2.69130    7.77190    8.31880 3852.47090   11.48630    8.33860    8.35570 -199.95500   30.46830    0.11470   63.69770  125.51730
 9640.00000 3853.33300   37.78780    0.09270    0.01200    6.07600   -0.01100    2.69020    7.39470    8.18120 3868.23730   11.30480    7.96180    7.97830 -199.95480   31.27690    0.11270   63.26180  124.95650
 9640.50000 3873.14140   38.47640    0.09140    0.01180    6.07270   -0.01040    2.69070    7.52960    8.48310 3884.00370   11.73480    8.51440    8.48290 -199.95470   32.30310    0.10980   62.75170  124.39580
