~Version ---------------------------------------------------
VERS.   2.0 : CWLS log ASCII Standard -VERSION 2.0
WRAP.    NO : One line per depth step
DLM . SPACE : Column Data Section Delimiter
~Well ------------------------------------------------------
STRT .F                 5858.0 : START DEPTH
STOP .F                 9695.0 : STOP DEPTH
STEP .F                    0.5 : STEP
NULL .                -9999.25 : NULL VALUE
COMP .                         : COMPANY
WELL .                         : WELL
FLD  .                         : FIELD
LOC  .                         : LOCATION
PROV .                         : PROVINCE
CNTY .                         : COUNTY
STAT .                         : STATE
CTRY .                         : COUNTRY
SRVC .                         : SERVICE COMPANY
DATE .                         : DATE
UWI  .                         : UNIQUE WELL ID
API  .                         : API NUMBER
SLAT .WGS84  6.099586948439203 : SURFACE LATITUDE
SLON .WGS84 2.9949352039792103 : SURFACE LONGITUDE
DATUM.F                1604.25 : DEPTH DATUM ELEV
~Curve Information -----------------------------------------
DEPT   .F     : 
TEND   .LB    : TENSION FROM DENSITY LOG
GRD    .GAPI  : GAMMA RAY FROM DENSITY LOG
NPHI_LS.DEC   : NEUTRON POROSITY LIMESTONE
DPO_LS .DEC   : HLDS DENSITY POROSITY
LCALD  .IN    : DENSITY CALIPER/LOWER CALIPER FROM DENSITY LOG
DRH    .G/C3  : BULK DENSITY CORRECTION
RHOB   .G/C3  : BULK DENSITY
AT20   .OHMM  : ARRAY INDUCTION TWO FOOT RESISTIVITY A20
AT60   .OHMM  : ARRAY INDUCTION TWO FOOT RESISTIVITY A60
TENR   .LB    : TENSION FROM RESISTIVITY LOG
AT10   .OHMM  : ARRAY INDUCTION TWO FOOT RESISTIVITY A10
AT30   .OHMM  : ARRAY INDUCTION TWO FOOT RESISTIVITY A30
AT90   .OHMM  : ARRAY INDUCTION TWO FOOT RESISTIVITY A90
SPR    .MV    : SPONTANEOUS POTENTIAL FROM RESISTIVITY LOG
GRS    .GAPI  : GAMMA RAY FROM SONIC LOG
SPHI_LS.DEC   : SONIC POROSITY [LIMESTONE]
DTCO   .US/F  : DELTA-T COMPRESSIONAL
DTSM   .US/F  : DELTA-T SHEAR
~Params ----------------------------------------------------
~Other -----------------------------------------------------
~ASCII -----------------------------------------------------
# ...
 9426.50000 3728.97730   92.48570    0.28420    0.12440    6.19760    0.00320    2.48410    1.89100    1.84360 3729.22090    1.96850    1.87220    1.87470   30.60870   87.75720   -9999.25  101.79840  211.66190
 9427.00000 3724.19460   91.62500    0.28420    0.12300    6.16350    0.00590    2.48950    1.89330    1.82350 3729.41310    1.96500    1.83410    1.83670   30.60310   87.91340   -9999.25  101.99870  211.29010
 9427.50000 3732.48070   91.02860    0.28160    0.11960    6.15900    0.00960    2.50210    1.89500    1.83090 3729.87300    1.96150    1.85930    1.86180   30.67320   86.15260   -9999.25  102.30120  210.90880
 9428.00000 3740.05590   91.67440    0.27940    0.11950    6.16780    0.01440    2.51530    1.89800    1.83980 3741.53130    1.96260    1.87500    1.87760   30.76300   83.67670   -9999.25  102.31590  210.89330
 9428.50000 3752.18580   93.37800    0.28100    0.11930    6.19540    0.01560    2.52200    1.88700    1.84830 3747.90800    1.96380    1.87480    1.87740   30.80490   82.43130   -9999.25  102.05030  210.81850
 9429.00000 3745.61060   93.39570    0.28820    0.11840    6.23530    0.01240    2.52100    1.86470    1.83430 3741.18770    1.96500    1.86540    1.86790   30.79960   83.01600   -9999.25  101.68940  210.37010
 9429.50000 3733.92210   91.42480    0.29500    0.11500    6.21630    0.00740    2.51320    1.84260    1.79750 3710.75390    1.95670    1.83590    1.83860   30.77010   84.41160   -9999.25  101.58340  210.57880
 9430.00000 3734.31760   90.46470    0.29620    0.11240    6.16690    0.00480    2.50540    1.82080    1.76800 3735.25660    1.91330    1.80150    1.80420   30.46930   85.97840   -9999.25  102.19320  211.20510
 9430.50000 3734.64060   89.50420    0.29620    0.12060    6.16140    0.00340    2.50210    1.79920    1.76800 3769.22090    1.91170    1.76860    1.77110   30.44680   87.42670   -9999.25  103.04600  211.37990
 9431.00000 3746.50760   88.52960    0.29310    0.11760    6.16180    0.00200    2.50790    1.79860    1.77070 3732.13670    1.92000    1.79620    1.79890   30.59520   88.26410   -9999.25  103.30770  211.18650
 9431.50000 3751.96610   84.94400    0.28870    0.11220    6.16240    0.00240    2.52040    1.83480    1.78900 3729.96970    1.96030    1.81700    1.81940   30.48320   87.78480   -9999.25  103.04340  210.64830
 9432.00000 3753.09940   82.00060    0.28430    0.10910    6.16460    0.00400    2.52380    1.88170    1.80410 3733.33030    1.96580    1.81810    1.82060   30.33060   86.66890   -9999.25  102.44500  210.11000
 9432.50000 3751.68380   82.07920    0.28260    0.10850    6.17410    0.00470    2.52110    1.87120    1.80440 3737.08470    1.97130    1.81930    1.82180   30.11530   85.83250   -9999.25  101.80870  210.08210
 9433.00000 3751.11430   84.15030    0.28620    0.11180    6.18500    0.00380    2.51360    1.86080    1.80530 3715.92480    1.97680    1.82050    1.82290   30.08890   85.64660   -9999.25  101.89780  210.65110
 9433.50000 3750.54470   84.78470    0.29000    0.11340    6.19590    0.00340    2.50930    1.85040    1.80610 3727.89090    1.96450    1.82160    1.82410   30.12770   84.99180   -9999.25  102.40410  211.22010
 9434.00000 3750.28440   84.80230    0.29370    0.11390    6.22400    0.00390    2.50880    1.84770    1.80700 3739.44680    1.94740    1.82280    1.82530   30.16660   83.33440   -9999.25  102.60350  211.18240
 9434.50000 3755.61130   85.27490    0.29460    0.11590    6.23780    0.00440    2.50940    1.84830    1.80790 3744.84810    1.93050    1.82400    1.82650   30.20550   81.80930   -9999.25  102.64810  210.37290
 9435.00000 3762.43070   86.17580    0.29460    0.11940    6.21620    0.00350    2.50980    1.84830    1.80880 3761.82620    1.92190    1.82520    1.82760   30.40820   80.67080   -9999.25  102.70480  210.37390
 9435.50000 3767.89090   86.34660    0.29250    0.12160    6.21150    0.00440    2.51320    1.84830    1.80970 3767.79440    1.92400    1.82630    1.82880   30.58440   80.23100   -9999.25  102.90050  210.37490
 9436.00000 3774.85600   84.82800    0.27980    0.11700    6.21240    0.00460    2.52020    1.84830    1.81050 3769.37380    1.92790    1.82750    1.83000   30.60190   80.74580   -9999.25  102.84660  209.45570
 9436.50000 3782.99170   83.39880    0.28300    0.11400    6.21320    0.00400    2.52160    1.84820    1.81140 3771.88280    1.93180    1.82870    1.83120   30.60120   81.05650   -9999.25  102.66130  207.77390
 9437.00000 3788.92770   83.83510    0.28780    0.11420    6.21400    0.00340    2.51410    1.84820    1.81230 3774.39210    1.93960    1.82990    1.83230   30.60050   81.50970   -9999.25  102.43030  208.21800
 9437.50000 3789.93530   84.93500    0.28510    0.11580    6.21480    0.00270    2.50880    1.84820    1.81320 3788.16820    1.95020    1.83100    1.83350   30.59980   82.37190   -9999.25  102.57550  208.72180
 9438.00000 3819.15450   85.14350    0.28220    0.11740    6.21560    0.00200    2.51240    1.84820    1.81410 3812.60770    1.96080    1.83220    1.83470   30.64730   82.50290   -9999.25  102.81470  208.89960
 9438.50000 3844.15970   84.37080    0.28020    0.11770    6.21640    0.00120    2.52080    1.84820    1.80810 3856.57030    1.97140    1.83930    1.84190   30.83650   81.40190   -9999.25  102.60380  208.03940
 9439.00000 3849.55100   82.94840    0.28520    0.11790    6.21720   -0.00010    2.52120    1.83800    1.79050 3852.56930    1.95010    1.82280    1.82550   30.73790   79.62010   -9999.25  102.08440  206.82890
 9439.50000 3851.88990   81.18430    0.29210    0.11800    6.21800   -0.00150    2.51230    1.79250    1.76660 3853.20700    1.90950    1.78960    1.79230   30.63580   78.79640   -9999.25  102.05790  206.52010
 9440.00000 3854.22850   80.99260    0.29910    0.11530    6.21880   -0.00280    2.50540    1.79270    1.76640 3862.17110    1.91500    1.77490    1.77750   30.59910   79.26230   -9999.25  102.93130  206.48830
 9440.50000 3860.27390   81.49670    0.29760    0.11220    6.21970   -0.00350    2.50140    1.82740    1.78550 3871.13550    1.93940    1.80830    1.81300   30.60020   79.98880   -9999.25  103.39630  205.96600
 9441.00000 3862.84590   82.53770    0.28460    0.10920    6.22050   -0.00350    2.50340    1.84600    1.80460 3862.98680    1.95330    1.84660    1.84930   30.73560   80.26730   -9999.25  102.89330  200.26730
 9441.50000 3844.32980   82.09110    0.28550    0.11320    6.21800   -0.00350    2.50570    1.83810    1.81240 3848.39790    1.95760    1.82000    1.82250   30.76150   80.30100   -9999.25  102.62670  197.18990
 9442.00000 3830.53910   80.93780    0.28650    0.11680    6.21070   -0.00310    2.50810    1.83010    1.80450 3833.80910    1.96130    1.80800    1.81040   30.65470   79.80820   -9999.25  102.97590  201.13040
 9442.50000 3833.08350   79.82760    0.28580    0.11820    6.20350   -0.00230    2.51290    1.83560    1.81210 3823.31370    1.96490    1.80940    1.81190   30.59500   79.19160   -9999.25  103.32510  205.07100
 9443.00000 3835.62790   79.79600    0.28290    0.11750    6.19620   -0.00140    2.51900    1.85280    1.82330 3823.08010    1.96860    1.81340    1.81610   30.59500   78.33520   -9999.25  102.90550  207.27690
 9443.50000 3829.17970   80.79590    0.27990    0.11690    6.19400   -0.00090    2.51970    1.87030    1.83180 3822.84670    1.96180    1.85600    1.85850   30.59500   77.85340   -9999.25  102.71190  207.77150
 9444.00000 3813.37350   82.48090    0.28060    0.11740    6.19920   -0.00140    2.51750    1.86530    1.82150 3815.67290    1.95280    1.84260    1.84540   30.59720   77.83930   -9999.25  102.54470  207.29080
 9444.50000 3811.67550   83.50650    0.28210    0.11780    6.20040   -0.00180    2.51340    1.85020    1.80410 3815.39750    1.94370    1.82220    1.82470   30.63520   78.10520   -9999.25  102.59620  206.72810
 9445.00000 3831.37130   83.46710    0.28310    0.11830    6.19850   -0.00230    2.51090    1.83520    1.79030 3828.03340    1.93480    1.81700    1.81940   30.70950   78.06030   -9999.25  102.82920  206.16530
 9445.50000 3847.85600   83.48930    0.28160    0.11810    6.16750   -0.00270    2.50870    1.82030    1.78060 3847.21750    1.92580    1.80850    1.81100   30.78370   77.30370   -9999.25  103.02550  205.70990
