~Version ---------------------------------------------------
VERS.   2.0 : CWLS log ASCII Standard -VERSION 2.0
WRAP.    NO : One line per depth step
DLM . SPACE : Column Data Section Delimiter
~Well ------------------------------------------------------
STRT .F                 5858.0 : START DEPTH
STOP .F                 9695.0 : STOP DEPTH
STEP .F                    0.5 : STEP
NULL .                -9999.25 : NULL VALUE
COMP .                         : COMPANY
WELL .                         : WELL
FLD  .                         : FIELD
LOC  .                         : LOCATION
PROV .                         : PROVINCE
CNTY .                         : COUNTY
STAT .                         : STATE
CTRY .                         : COUNTRY
SRVC .                         : SERVICE COMPANY
DATE .                         : DATE
UWI  .                         : UNIQUE WELL ID
API  .                         : API NUMBER
SLAT .WGS84  6.099586948439203 : SURFACE LATITUDE
SLON .WGS84 2.9949352039792103 : SURFACE LONGITUDE
DATUM.F                1604.25 : DEPTH DATUM ELEV
~Curve Information -----------------------------------------
DEPT   .F     : 
TEND   .LB    : TENSION FROM DENSITY LOG
GRD    .GAPI  : GAMMA RAY FROM DENSITY LOG
NPHI_LS.DEC   : NEUTRON POROSITY LIMESTONE
DPO_LS .DEC   : HLDS DENSITY POROSITY
LCALD  .IN    : DENSITY CALIPER/LOWER CALIPER FROM DENSITY LOG
DRH    .G/C3  : BULK DENSITY CORRECTION
RHOB   .G/C3  : BULK DENSITY
AT20   .OHMM  : ARRAY INDUCTION TWO FOOT RESISTIVITY A20
AT60   .OHMM  : ARRAY INDUCTION TWO FOOT RESISTIVITY A60
TENR   .LB    : TENSION FROM RESISTIVITY LOG
AT10   .OHMM  : ARRAY INDUCTION TWO FOOT RESISTIVITY A10
AT30   .OHMM  : ARRAY INDUCTION TWO FOOT RESISTIVITY A30
AT90   .OHMM  : ARRAY INDUCTION TWO FOOT RESISTIVITY A90
SPR    .MV    : SPONTANEOUS POTENTIAL FROM RESISTIVITY LOG
GRS    .GAPI  : GAMMA RAY FROM SONIC LOG
SPHI_LS.DEC   : SONIC POROSITY [LIMESTONE]
DTCO   .US/F  : DELTA-T COMPRESSIONAL
DTSM   .US/F  : DELTA-T SHEAR
~Params ----------------------------------------------------
~Other -----------------------------------------------------
~ASCII -----------------------------------------------------
# ...
 9387.50000 3670.58130   92.42820    0.36310    0.07120    6.02350    0.08490    2.72840    1.76410    1.65760 3655.27930    1.77210    1.70830    1.63310   30.13450   84.07220   -9999.25  106.09460  198.04650
 9388.00000 3668.78000   84.34740    0.36200   -0.02090    6.02710    0.13100    2.87220    1.85730    1.72930 3654.24290    1.85710    1.71460    1.67540   29.97650   85.96780   -9999.25  107.33540  201.41790
 9388.50000 3664.42900   77.92440    0.36090   -0.05250    6.03080    0.13100    2.84780    1.79440    1.69110 3654.57470    1.91050    1.67880    1.67540   29.81850   87.41620   -9999.25  106.66210  203.82830
 9389.00000 3659.56270   77.94180    0.35980   -0.01250    6.09250    0.09210    2.70470    1.62590    1.55170 3654.93630    1.73770    1.55330    1.55800   29.74770   84.06400   -9999.25  104.21850  199.33210
 9389.50000 3654.69680   81.68290    0.35710    0.05820    6.13330    0.04050    2.58020    1.61010    1.48950 3655.79270    1.66450    1.53240    1.53640   29.74270   77.97100   -9999.25  105.58930  193.70860
 9390.00000 3668.41700   82.98280    0.35090    0.09310    6.15620    0.02800    2.56930    1.74770    1.65040 3667.47800    1.79840    1.65970    1.66410   29.79370   78.01060   -9999.25  110.82560  188.28530
 9390.50000 3689.91160   83.47930    0.34810    0.08120    6.13980    0.02940    2.58200    1.88760    1.75760 3681.05100    2.00530    1.66010    1.66430   29.82930   83.08600   -9999.25  111.41410  188.35710
 9391.00000 3687.33640   84.01410    0.35330    0.07070    6.15400    0.02330    2.53840    1.69990    1.54390 3694.62400    1.78590    1.54150    1.54550   29.73590   87.34720   -9999.25  109.05010  188.42890
 9391.50000 3692.65700   86.00620    0.35950    0.11430    6.18140    0.00850    2.46380    1.47120    1.38480 3708.19700    1.43380    1.43150    1.43530   29.66280   87.01300   -9999.25  106.68610  191.25890
 9392.00000 3700.52860   88.34390    0.36050    0.14610    6.20890    0.01440    2.43680    1.43430    1.38530 3721.77000    1.38730    1.39010    1.39210   29.62650   85.52710   -9999.25  108.26840  197.31930
 9392.50000 3732.48880   91.12240    0.36090    0.15560    6.23290    0.02050    2.43660    1.45040    1.40920 3735.34280    1.41070    1.41350    1.41560   29.69240   85.14540   -9999.25  110.45510  203.37980
 9393.00000 3751.90280   94.03330    0.36460    0.15560    6.24850    0.01890    2.43990    1.47820    1.43780 3745.28780    1.43450    1.43740    1.43940   29.66260   86.95480   -9999.25  110.80310  208.05210
 9393.50000 3755.70560   96.53790    0.37380    0.15700    6.26220    0.01730    2.44270    1.50660    1.46690 3739.74490    1.45870    1.46160    1.46370   29.66350   89.46570   -9999.25  109.73910  208.84810
 9394.00000 3756.27660   98.89990    0.36970    0.15850    6.26880    0.01810    2.45290    1.54710    1.51250 3736.44210    1.49830    1.50180    1.50420   29.74400   93.11600   -9999.25  108.67500  208.03040
 9394.50000 3770.91890   99.51670    0.36450    0.15530    6.26000    0.02470    2.46480    1.64790    1.59710 3750.05350    1.59530    1.60470    1.61120   29.76480   96.65460   -9999.25  107.61090  204.56160
 9395.00000 3785.56130   99.43260    0.35940    0.15170    6.25130    0.03120    2.45430    1.92500    1.79640 3773.29810    1.82940    1.83980    1.84740   29.63400   99.13330   -9999.25  105.88940  201.43670
 9395.50000 3798.76320   98.99180    0.35680    0.15580    6.24250    0.03780    2.44150    1.85070    1.76510 3794.70460    1.77980    1.78670    1.79160   29.51170   97.67730   -9999.25  104.03320  198.31180
 9396.00000 3786.61820   97.82410    0.36200    0.16110    6.25070    0.04290    2.42010    1.77090    1.71820 3782.05220    1.70590    1.71100    1.71500   29.45400   94.74150   -9999.25  102.17710  196.72310
 9396.50000 3792.39210   96.12660    0.36790    0.16360    6.24490    0.04740    2.41160    1.86490    1.80970 3775.03420    1.81230    1.81870    1.82360   29.40960   92.31730   -9999.25  101.77680  197.01800
 9397.00000 3761.94040   95.60340    0.35460    0.15670    6.24040    0.04640    2.41340    1.95030    1.90540 3758.73050    1.95300    1.95980    1.96500   29.57020   93.70500   -9999.25  104.79250  197.31290
 9397.50000 3779.36620   96.07440    0.33290    0.14180    6.22850    0.04790    2.42790    2.07920    2.04200 3755.79220    2.10460    2.11190    2.11750   29.79990   96.56420   -9999.25  105.20610  196.88890
 9398.00000 3800.76290   95.42680    0.31670    0.12230    6.21640    0.05010    2.45390    2.21020    2.25230 3780.18770    2.26800    2.27570    2.28180   30.02970   98.30160   -9999.25  102.56470  196.28400
 9398.50000 3809.69020   92.84870    0.30570    0.11680    6.20270    0.05330    2.47510    2.33390    2.48430 3808.98730    2.30650    2.45230    2.45880   29.79320   95.84030   -9999.25   99.43000  195.59050
 9399.00000 3815.24730   89.56210    0.30060    0.11960    6.20080    0.05650    2.49540    2.30820    2.53330 3818.67160    2.30510    2.52050    2.52390   29.56980   92.28050   -9999.25   95.58590  192.97350
 9399.50000 3824.22900   85.93260    0.27980    0.12880    6.23560    0.06690    2.50240    2.32610    2.46220 3814.37960    2.26190    2.43280    2.43830   29.34660   88.74390   -9999.25   91.74180  187.37680
 9400.00000 3820.34180   83.66120    0.28850    0.14200    6.23520    0.07000    2.48970    2.26710    2.21180 3813.94210    2.21630    2.29460    2.29980   29.12340   85.39630    0.29910   87.89770  177.30180
 9400.50000 3821.67680   83.20810    0.29980    0.15420    6.23270    0.06640    2.46820    2.20460    2.15480 3814.47510    2.17040    2.17090    2.17450   29.02040   82.01890    0.27670   93.17880  169.30260
 9401.00000 3809.96530   84.38940    0.32860    0.16410    6.23680    0.06190    2.45980    2.23590    2.19020 3795.21850    2.14180    2.24210    2.24580   29.01690   79.57820    0.29890  100.31480  180.26870
 9401.50000 3798.25390   84.46440    0.32930    0.15080    6.23820    0.05200    2.46690    2.26470    2.21620 3790.25930    2.14200    2.28670    2.29020   29.01340   79.63340    0.29910  107.45080  191.71990
 9402.00000 3796.76830   84.29650    0.33000    0.13560    6.18970    0.04250    2.48670    2.21730    2.18330 3786.02910    2.14220    2.24090    2.24430   29.10330   82.31990    0.29910  106.84350  199.42220
 9402.50000 3801.49580   84.07650    0.33060    0.09950    6.16050    0.03240    2.50840    2.27520    2.24230 3792.38090    2.24300    2.25960    2.26380   29.50950   86.35170    0.29910  104.30990  197.54000
 9403.00000 3803.71920   82.92240    0.30540    0.09200    6.18870    0.02130    2.53360    2.47500    2.40480 3793.43870    2.38980    2.39950    2.40640   29.76720   89.51830    0.29900  101.77620  194.48510
 9403.50000 3800.50200   77.78780    0.28010    0.08390    6.21940    0.00910    2.55990    2.82890    2.69840 3791.25240    2.73880    2.75210    2.76230   29.97460   90.89570    0.29900   99.38140  192.18690
 9404.00000 3780.44950   71.79910    0.23600    0.07100    6.19320    0.00610    2.59340    3.42670    3.32490 3768.23290    3.38680    3.41050    3.42670   30.18760   88.58300    0.29900   96.86500  189.72190
 9404.50000 3755.83980   67.91110    0.20970    0.05140    6.15420    0.00640    2.61710    3.97770    3.89480 3744.65800    4.04360    4.05750    4.06820   30.23880   81.22370    0.29880   90.88760  184.48240
 9405.00000 3741.91040   70.18070    0.20690    0.03200    6.12220    0.00560    2.60580    3.42670    3.15380 3724.65580    3.16720    3.20210    3.23330   30.30490   72.19580    0.29270   84.91030  179.24280
 9405.50000 3755.12230   78.28600    0.27820    0.05230    6.10500    0.00090    2.56520    2.54810    2.32220 3753.58570    2.32520    2.35290    2.37330   30.37100   65.65310    0.25160   85.81720  181.54430
 9406.00000 3801.29150   88.97680    0.29730    0.08360    6.08120    0.00040    2.52350    1.89470    1.82830 3822.35790    1.85620    1.86600    1.87290   30.36540   65.64730    0.29610   94.52640  189.89350
 9406.50000 3857.38820   97.24010    0.30920    0.12130    6.07640    0.00140    2.50100    1.80960    1.79590 3872.69140    1.78430    1.78760    1.79000   30.42120   71.33210    0.29880  101.40780  198.24260
