~Version ---------------------------------------------------
VERS.   2.0 : CWLS log ASCII Standard -VERSION 2.0
WRAP.    NO : One line per depth step
DLM . SPACE : Column Data Section Delimiter
~Well ------------------------------------------------------
STRT .F                 5858.0 : START DEPTH
STOP .F                 9695.0 : STOP DEPTH
STEP .F                    0.5 : STEP
NULL .                -9999.25 : NULL VALUE
COMP .                         : COMPANY
WELL .                         : WELL
FLD  .                         : FIELD
LOC  .                         : LOCATION
PROV .                         : PROVINCE
CNTY .                         : COUNTY
STAT .                         : STATE
CTRY .                         : COUNTRY
SRVC .                         : SERVICE COMPANY
DATE .                         : DATE
UWI  .                         : UNIQUE WELL ID
API  .                         : API NUMBER
SLAT .WGS84  6.099586948439203 : SURFACE LATITUDE
SLON .WGS84 2.9949352039792103 : SURFACE LONGITUDE
DATUM.F                1604.25 : DEPTH DATUM ELEV
~Curve Information -----------------------------------------
DEPT   .F     : 
TEND   .LB    : TENSION FROM DENSITY LOG
GRD    .GAPI  : GAMMA RAY FROM DENSITY LOG
NPHI_LS.DEC   : NEUTRON POROSITY LIMESTONE
DPO_LS .DEC   : HLDS DENSITY POROSITY
LCALD  .IN    : DENSITY CALIPER/LOWER CALIPER FROM DENSITY LOG
DRH    .G/C3  : BULK DENSITY CORRECTION
RHOB   .G/C3  : BULK DENSITY
AT20   .OHMM  : ARRAY INDUCTION TWO FOOT RESISTIVITY A20
AT60   .OHMM  : ARRAY INDUCTION TWO FOOT RESISTIVITY A60
TENR   .LB    : TENSION FROM RESISTIVITY LOG
AT10   .OHMM  : ARRAY INDUCTION TWO FOOT RESISTIVITY A10
AT30   .OHMM  : ARRAY INDUCTION TWO FOOT RESISTIVITY A30
AT90   .OHMM  : ARRAY INDUCTION TWO FOOT RESISTIVITY A90
SPR    .MV    : SPONTANEOUS POTENTIAL FROM RESISTIVITY LOG
GRS    .GAPI  : GAMMA RAY FROM SONIC LOG
SPHI_LS.DEC   : SONIC POROSITY [LIMESTONE]
DTCO   .US/F  : DELTA-T COMPRESSIONAL
DTSM   .US/F  : DELTA-T SHEAR
~Params ----------------------------------------------------
~Other -----------------------------------------------------
~ASCII -----------------------------------------------------
# ...
 9095.00000 3608.08520  104.06580    0.29590    0.07720    6.23220   -0.01090    2.57940    2.81310    2.78700 3607.33670    2.94660    2.77950    2.78380   26.86650  101.72470   -9999.25   99.74360  196.18710
 9095.50000 3607.53130  102.08330    0.29170    0.07540    6.23800   -0.01150    2.58090    2.85210    2.82370 3609.66480    2.99050    2.84090    2.84510   26.86940  100.54690   -9999.25   99.75450  195.23750
 9096.00000 3606.97730  102.83780    0.29090    0.07780    6.24380   -0.01300    2.57620    2.83510    2.79280 3602.43600    2.99000    2.80120    2.80510   26.86940   98.98400   -9999.25   99.76930  194.28790
 9096.50000 3606.93970  104.09120    0.29180    0.08150    6.25170   -0.01380    2.56950    2.81360    2.75670 3595.20730    2.98840    2.78300    2.78680   26.87540   97.97280   -9999.25   99.77440  193.33830
 9097.00000 3601.81670  104.20270    0.29250    0.08360    6.23410   -0.01370    2.56620    2.79240    2.75080 3587.97850    2.97580    2.78320    2.78700   26.91440   97.88120   -9999.25   99.98850  193.00670
 9097.50000 3587.01200  103.83900    0.28790    0.08550    6.24910   -0.01400    2.56260    2.76780    2.74490 3580.74980    2.96320    2.77310    2.77750   26.92570   98.25180   -9999.25  100.75280  193.19010
 9098.00000 3565.97710  104.63690    0.28220    0.08970    6.25820   -0.01450    2.55690    2.75960    2.73910 3573.52100    2.95070    2.74190    2.74570   26.87740   98.58120   -9999.25  101.60320  195.81300
 9098.50000 3564.59200  105.64080    0.28160    0.09140    6.26240   -0.01470    2.55210    2.78870    2.73620 3570.80200    2.89720    2.73290    2.73660   26.99160   98.90080   -9999.25  101.91760  195.88760
 9099.00000 3563.20730  104.99240    0.28260    0.09150    6.26670   -0.01440    2.55330    2.77430    2.72440 3576.12210    2.84850    2.72380    2.72750   27.05680   99.37000   -9999.25  102.07530  189.89080
 9099.50000 3566.39530  102.51750    0.28370    0.09170    6.27090   -0.01480    2.55270    2.74860    2.71900 3581.44240    2.84320    2.72420    2.72790   27.06600  100.44530   -9999.25  102.01960  188.03390
 9100.00000 3589.14940  101.09580    0.28440    0.09200    6.27450   -0.01370    2.55190    2.77520    2.73520 3586.76250    2.83780    2.75800    2.76180   27.13700  102.89830   -9999.25  101.87880  185.85680
 9100.50000 3604.47460  100.55480    0.28590    0.09180    6.27550   -0.01240    2.55230    2.80200    2.75150 3592.08250    2.83250    2.78520    2.78910   27.25700  105.35140   -9999.25  101.73810  180.31220
 9101.00000 3594.71730  101.36890    0.29340    0.08770    6.27470   -0.01070    2.55930    2.80770    2.76790 3598.70430    2.82720    2.81110    2.80570   27.25650  108.21780   -9999.25  101.73980  183.12640
 9101.50000 3595.77780  102.09900    0.30430    0.08020    6.26730   -0.00870    2.57350    2.70860    2.78010 3606.93480    2.82200    2.84070    2.80720   27.14760  109.10040   -9999.25  102.31600  186.68420
 9102.00000 3598.21440  101.31870    0.30740    0.07520    6.25530   -0.00770    2.58080    2.60700    2.80590 3615.16530    2.83480    2.87070    2.82040   27.07680  107.56360   -9999.25  103.24840  188.49600
 9102.50000 3600.65090   99.01550    0.30390    0.07590    6.24660   -0.00770    2.58080    2.52650    2.83700 3622.64480    2.84860    2.90090    2.82630   27.17450  104.36360   -9999.25  102.89760  187.19550
 9103.00000 3600.81980   97.14770    0.29680    0.07780    6.25440   -0.00740    2.57740    2.44860    2.86680 3609.51370    2.86240    2.93140    2.89660   27.27230  101.09490   -9999.25  100.87620  186.02920
 9103.50000 3594.52710   98.23440    0.29030    0.07760    6.25590   -0.00690    2.57670    2.48990    2.89670 3596.38260    2.87620    2.96230    2.90640   27.28890   98.44630   -9999.25   98.45260  187.47620
 9104.00000 3562.98050  101.62570    0.28360    0.08040    6.25610   -0.00670    2.57380    2.63730    2.90500 3554.40040    2.83520    2.99350    2.89730   27.19260   98.44340   -9999.25   97.58040  187.59460
 9104.50000 3507.26200  103.91170    0.28130    0.08620    6.25340   -0.00700    2.56470    2.83640    2.88190 3510.47580    2.76280    2.99820    2.88810   27.11280  101.78190   -9999.25   97.91690  184.53620
 9105.00000 3493.67330  104.16870    0.28310    0.09140    6.24460   -0.00950    2.55470    2.85960    2.80720 3502.59640    2.69220    2.97300    2.87900   27.23480  106.14180   -9999.25   99.07340  193.37290
 9105.50000 3481.16850  104.25880    0.28810    0.09160    6.23570   -0.00950    2.55250    2.79550    2.73440 3494.71700    2.64890    2.91600    2.77630   27.02310  109.63460   -9999.25  100.25570  203.99560
 9106.00000 3486.14920  105.72570    0.28750    0.08910    6.22000   -0.00790    2.55780    2.75960    2.66360 3486.83760    2.62770    2.86010    2.66560   26.85360  110.15200   -9999.25  101.31890  200.09240
 9106.50000 3483.08590  107.92540    0.28580    0.08660    6.19480   -0.00660    2.56160    2.83750    2.52200 3485.85910    2.45850    2.83660    2.45830   26.82510  108.76640   -9999.25  101.17600  195.17080
 9107.00000 3497.12870  110.28460    0.28730    0.08610    6.17840   -0.00430    2.56300    2.88650    2.56930 3492.57930    2.65100    2.84600    2.51400   26.54970  107.29450   -9999.25  100.97710  197.66370
 9107.50000 3500.81910  111.57860    0.29190    0.08090    6.16200   -0.00030    2.57060    2.88380    2.79780 3498.60180    2.92580    2.83620    2.76500   26.53510  106.99940   -9999.25  100.64230  201.03080
 9108.00000 3509.36670  111.40180    0.29080    0.07310    6.14560    0.00220    2.58680    2.82940    2.78440 3493.79350    3.18480    2.76540    2.75830   26.70230  108.39450   -9999.25  100.18380  204.39790
 9108.50000 3518.93650  110.63220    0.28360    0.06870    6.12920    0.00220    2.59220    2.77640    2.72610 3488.98540    3.28580    2.76410    2.68480   26.80150  111.35670   -9999.25   98.98500  198.79620
 9109.00000 3523.43900  108.99910    0.27340    0.07360    6.11280   -0.00130    2.58590    2.92120    2.80960 3496.12770    3.51180    2.86210    2.81960   26.81310  113.38730   -9999.25   97.71310  192.63470
 9109.50000 3543.98510  107.06310    0.26490    0.07970    6.09640   -0.00710    2.57410    3.14980    3.04530 3558.15010    3.61070    3.06050    3.06910   26.51930  114.49180   -9999.25   96.54770  190.51050
 9110.00000 3593.96340  104.49940    0.26240    0.07910    6.08000   -0.01000    2.57400    3.37290    3.31220 3625.61790    3.67940    3.28380    3.29000   26.46790  114.88000   -9999.25   95.44310  189.04700
 9110.50000 3631.09670  102.65220    0.26060    0.07430    6.06360   -0.01090    2.58350    3.43610    3.35220 3630.02860    3.64790    3.35910    3.36370   26.47830  113.64120   -9999.25   94.63780  188.39180
 9111.00000 3612.76250  103.88360    0.25960    0.06770    6.04730   -0.00950    2.59570    3.43550    3.35160 3614.19210    3.61290    3.33430    3.33890   26.84350  110.05120   -9999.25   93.83250  195.60450
 9111.50000 3594.18410  107.16180    0.26110    0.06910    6.03900   -0.00890    2.59240    3.42340    3.22220 3593.93290    3.59460    3.26930    3.27830   26.54120  105.73880   -9999.25   93.43710  215.38010
 9112.00000 3576.71900  111.22810    0.26800    0.07610    6.06460   -0.00860    2.57800    3.13000    2.94000 3573.67380    3.32830    2.99770    3.00660   26.73180  101.42640   -9999.25   93.87020  231.04640
 9112.50000 3560.47440  112.68540    0.27930    0.07840    6.09010   -0.00330    2.57510    2.81510    2.68250 3553.41480    3.12630    2.74860    2.75680   27.03220   99.78590   -9999.25   95.19450  221.10230
 9113.00000 3542.91820  111.07290    0.28760    0.07440    6.11570    0.00190    2.58260    2.71820    2.66160 3542.42160    2.95510    2.67720    2.68100   26.84840  101.66970   -9999.25   96.63700  203.13410
 9113.50000 3543.72190  108.31850    0.28670    0.07550    6.14130   -0.00130    2.58000    2.75530    2.70370 3558.97530    2.84590    2.71230    2.71620   26.47090  108.41910   -9999.25   99.23340  188.00020
 9114.00000 3596.88210  107.52870    0.28320    0.08190    6.16300   -0.00440    2.56810    2.79570    2.74660 3618.79470    2.90230    2.74790    2.75180   26.30280  113.36210   -9999.25  100.70550  177.09780
