~Version ---------------------------------------------------
VERS.   2.0 : CWLS log ASCII Standard -VERSION 2.0
WRAP.    NO : One line per depth step
DLM . SPACE : Column Data Section Delimiter
~Well ------------------------------------------------------
STRT .F                 5858.0 : START DEPTH
STOP .F                 9695.0 : STOP DEPTH
STEP .F                    0.5 : STEP
NULL .                -9999.25 : NULL VALUE
COMP .                         : COMPANY
WELL .                         : WELL
FLD  .                         : FIELD
LOC  .                         : LOCATION
PROV .                         : PROVINCE
CNTY .                         : COUNTY
STAT .                         : STATE
CTRY .                         : COUNTRY
SRVC .                         : SERVICE COMPANY
DATE .                         : DATE
UWI  .                         : UNIQUE WELL ID
API  .                         : API NUMBER
SLAT .WGS84  6.099586948439203 : SURFACE LATITUDE
SLON .WGS84 2.9949352039792103 : SURFACE LONGITUDE
DATUM.F                1604.25 : DEPTH DATUM ELEV
~Curve Information -----------------------------------------
DEPT   .F     : 
TEND   .LB    : TENSION FROM DENSITY LOG
GRD    .GAPI  : GAMMA RAY FROM DENSITY LOG
NPHI_LS.DEC   : NEUTRON POROSITY LIMESTONE
DPO_LS .DEC   : HLDS DENSITY POROSITY
LCALD  .IN    : DENSITY CALIPER/LOWER CALIPER FROM DENSITY LOG
DRH    .G/C3  : BULK DENSITY CORRECTION
RHOB   .G/C3  : BULK DENSITY
AT20   .OHMM  : ARRAY INDUCTION TWO FOOT RESISTIVITY A20
AT60   .OHMM  : ARRAY INDUCTION TWO FOOT RESISTIVITY A60
TENR   .LB    : TENSION FROM RESISTIVITY LOG
AT10   .OHMM  : ARRAY INDUCTION TWO FOOT RESISTIVITY A10
AT30   .OHMM  : ARRAY INDUCTION TWO FOOT RESISTIVITY A30
AT90   .OHMM  : ARRAY INDUCTION TWO FOOT RESISTIVITY A90
SPR    .MV    : SPONTANEOUS POTENTIAL FROM RESISTIVITY LOG
GRS    .GAPI  : GAMMA RAY FROM SONIC LOG
SPHI_LS.DEC   : SONIC POROSITY [LIMESTONE]
DTCO   .US/F  : DELTA-T COMPRESSIONAL
DTSM   .US/F  : DELTA-T SHEAR
~Params ----------------------------------------------------
~Other -----------------------------------------------------
~ASCII -----------------------------------------------------
# ...
 9056.00000 3587.95390   38.88410    0.16930    0.27840    6.22550   -0.01210    2.23630    1.61610    4.96600 3571.46680    0.71160    5.43140   10.68350   -2.24600   38.50150    0.20100   75.52340  130.65410
 9056.50000 3585.45730   42.04110    0.25680    0.30060    6.27620   -0.00160    2.08560    2.32030    2.93460 3572.89770    0.87160    4.59370    6.80190    0.44260   35.92710    0.19880   69.63060  114.30790
 9057.00000 3582.96070   44.76190    0.38540    0.30060    6.36310   -0.03090    2.00430    3.08920    4.01320 3574.32860    1.28790    3.24880    9.59710    3.01830   36.10110    0.16590   63.73780  100.65820
 9057.50000 3580.46390   46.93800    0.47060    0.30050    6.55690   -0.07820    2.00420    3.60690    3.00340 3575.28780    1.20650    3.52040    3.72090    5.51720   39.37130    0.14290   72.97280  119.48770
 9058.00000 3577.96730   49.34570    0.52090    0.30050    6.93690   -0.11530    2.00420    2.91450    1.95980 3576.19380    1.20470    1.87650    2.42060    9.58180   42.90830    0.17630   83.77270  138.31710
 9058.50000 3575.84180   53.34670    0.54840    0.30040    7.65550   -0.14540    2.00410    2.05220    1.43890 3577.09990    1.14950    1.41090    1.82320   12.54260   43.85850    0.25390   92.82570  155.71610
 9059.00000 3574.16770   61.32650    0.53280    0.30040    8.41720   -0.15850    2.03730    1.57450    1.38930 3578.00590    1.24550    1.64520    1.78720   15.59870   42.22000    0.29940  100.82180  181.27960
 9059.50000 3571.80790   70.48480    0.46420    0.29210    8.68120   -0.13610    2.20590    2.06750    1.90900 3578.91190    1.70740    2.49520    2.60170   17.70910   40.85290    0.29940  105.63310  162.33040
 9060.00000 3572.85960   72.62520    0.33090    0.14870    8.62470   -0.06860    2.40330    3.87850    3.17040 3579.81810    3.08960    4.76280    4.54640   19.52600   44.07370    0.23380   93.42610   81.46380
 9060.50000 3573.91140   67.20080    0.14000    0.04640    7.52730   -0.02140    2.58780    7.84530    6.43190 3580.72410    5.76080    9.51090    9.55480   20.91830   53.16460    0.12430   66.45970  109.52610
 9061.00000 3573.32860   56.05940    0.05560    0.00650    6.38970   -0.00800    2.69040   16.49750   13.04870 3581.63010   10.74140   26.35920   24.67120   22.51050   64.34370    0.17960   82.48190  137.58850
 9061.50000 3574.03200   49.84990    0.01520    0.00170    6.31770   -0.00760    2.70710   34.32830   22.35860 3582.53610   18.96280   51.55750   24.83470   23.57420   65.72350    0.26730   88.57670  140.43950
 9062.00000 3558.13090   49.54330    0.02160    0.00640    6.24570   -0.00920    2.70250   32.81510   21.50900 3567.55100   11.76890   31.19100   12.36370   24.78090   58.54400    0.29350   75.21870  143.91570
 9062.50000 3534.17800   52.07710    0.04070    0.01630    6.20750   -0.01020    2.68710   18.40440   17.59420 3547.06400    8.18250   17.63390    8.37410   25.86680   48.75980    0.28810   61.86060   88.85260
 9063.00000 3525.75370   56.96200    0.07890    0.03160    6.21290   -0.00990    2.66150   10.32210   12.02190 3526.57670    5.89910   10.69230    6.03560   26.81710   45.77940    0.12500   61.14980   86.76000
 9063.50000 3511.45210   64.39590    0.11740    0.05050    6.21840   -0.01190    2.62980    6.20820    5.42420 3506.08960    4.25290    6.48330    4.35010   27.47070   47.84800    0.13810   75.22990  113.42740
 9064.00000 3497.15060   71.04130    0.12870    0.06300    6.22380   -0.01330    2.60560    4.01430    3.64620 3498.08060    3.20670    3.93110    3.22420   27.83820   51.62380    0.24620   89.31010  139.23170
 9064.50000 3497.62870   72.06450    0.09880    0.05790    6.22920   -0.01350    2.60830    3.57730    3.48000 3500.08910    3.37680    3.67940    3.74350   27.73560   57.74290    0.29880   86.65220  134.04350
 9065.00000 3509.29490   67.45950    0.04190    0.03630    6.23460   -0.00970    2.64340    5.88940    5.47610 3502.09790    6.63570    6.55610    6.66940   27.40730   67.45520    0.28410   77.25320  118.01320
 9065.50000 3501.82930   63.15950    0.01590    0.01530    6.23350   -0.00610    2.68120   11.78220   14.13730 3504.10670   13.32270   11.71170   11.92130   26.97090   73.95770    0.19710   65.59310  101.98290
 9066.00000 3498.37960   65.21350    0.01020    0.00140    6.23180   -0.00810    2.70610   24.87170   30.10750 3506.11520   26.74830   21.09190   21.68530   26.60970   72.24980    0.09110   53.76020   86.22930
 9066.50000 3489.13530   69.69390    0.01010    0.00090    6.23020   -0.00960    2.70990   38.40690   43.33190 3508.12400   53.47430   37.40030   39.25360   26.33400   65.35570    0.05500   51.25510   75.54480
 9067.00000 3479.89090   71.08900    0.01140    0.00340    6.22850   -0.01050    2.70540   32.34550   48.16870 3510.13280  100.84930   49.27710   43.25670   26.13730   59.61000    0.02150   50.45230   69.31830
 9067.50000 3493.72340   62.78810    0.01280    0.00650    6.22690   -0.01140    2.70010   25.19090   55.50900 3512.14160   90.92520   59.02200   51.24030   25.95060   59.49910    0.02500   51.98260   71.75040
 9068.00000 3500.54640   52.31300    0.01230    0.00800    6.22520   -0.01230    2.69640   26.17390   79.30740 3514.15010   98.28210   91.49050   66.13880   25.68050   64.47660    0.03670   53.22370   74.18250
 9068.50000 3501.84810   42.33500    0.01110    0.00950    6.22360   -0.01300    2.69370   27.91660  129.38780 3516.15890  190.66660  141.82030   84.33580   25.20010   67.77980    0.04100   53.21960   75.56540
 9069.00000 3503.45730   38.07820    0.00990    0.01100    6.22190   -0.01330    2.69150   28.57480  158.98050 3518.16770  245.53160  162.17340  101.93130   24.78230   60.92800    0.03180   51.53450   72.60530
 9069.50000 3508.92410   40.03630    0.01130    0.01260    6.22030   -0.01140    2.69010   30.44920  163.91000 3520.17630  377.10540  168.30670  118.15960   24.37060   49.81890    0.02120   49.97820   69.64520
 9070.00000 3515.07370   42.53250    0.01270    0.01650    6.21860   -0.01060    2.68210   34.43840  180.84070 3525.38670  624.25770  170.95000  163.38350   23.95140   40.99200    0.01770   49.96340   69.61690
 9070.50000 3516.04810   43.30780    0.01420    0.02190    6.21700   -0.01040    2.67230   41.05680  180.45460 3535.63330 1026.31690  173.63480  216.77680   23.56520   37.72880    0.01980   50.42920   70.22230
 9071.00000 3518.83790   40.98520    0.01440    0.02530    6.21370   -0.00940    2.66720   48.00560  170.90580 3545.87960 1435.62990  158.89190  260.77040   23.27160   39.76110    0.02280   50.60550   70.82770
 9071.50000 3531.67550   38.66270    0.01410    0.02380    6.20970   -0.00850    2.66930   55.29530  140.93810 3556.12600 1245.52490  134.79630  235.41970   22.97960   42.43440    0.03160   51.09390   71.43310
 9072.00000 3544.08590   36.34010    0.01330    0.02110    6.20570   -0.00750    2.67460   63.43610  111.75660 3566.37230  668.02890  114.35480  149.14720   22.48390   45.38680    0.07040   56.34300   78.67370
 9072.50000 3552.33130   34.01750    0.01220    0.01680    6.20160   -0.00640    2.68270   64.72400   85.30060 3576.61890  220.36070   84.08960   85.55750   22.38260   49.42910    0.10890   60.71040   91.36720
 9073.00000 3558.37650   33.38400    0.00800    0.00900    6.19890   -0.00480    2.69400   63.76120   69.55460 3586.86520  100.19370   65.03410   65.48690   22.17420   53.76310    0.08160   56.80170   83.96170
 9073.50000 3564.42140   35.18860    0.00290    0.00460    6.19650   -0.00500    2.70240   40.66840   52.31950 3596.66700   51.63340   52.42660   52.79120   21.94920   51.66160    0.04390   51.33810   76.55620
 9074.00000 3574.94020   39.16720    0.00970    0.01270    6.19400   -0.00560    2.69450   23.38130   28.23430 3603.46480   26.38530   27.23800   27.93560   21.63410   45.09370    0.02300   50.60870   70.46400
 9074.50000 3591.80690   47.64660    0.02960    0.03640    6.19160   -0.00900    2.65650   13.44250   15.23670 3610.26270   12.82890   13.08950   13.30170   21.23710   37.98680    0.01980   49.87930   70.13650
 9075.00000 3613.33620   57.48950    0.06900    0.06430    6.18920   -0.01360    2.60520    7.72840    8.71270 3617.06080    7.39470    7.83060    7.95440   20.84000   36.89350    0.02130   53.12570   75.65610
