~Version ---------------------------------------------------
VERS.   2.0 : CWLS log ASCII Standard -VERSION 2.0
WRAP.    NO : One line per depth step
DLM . SPACE : Column Data Section Delimiter
~Well ------------------------------------------------------
STRT .F                 5858.0 : START DEPTH
STOP .F                 9695.0 : STOP DEPTH
STEP .F                    0.5 : STEP
NULL .                -9999.25 : NULL VALUE
COMP .                         : COMPANY
WELL .                         : WELL
FLD  .                         : FIELD
LOC  .                         : LOCATION
PROV .                         : PROVINCE
CNTY .                         : COUNTY
STAT .                         : STATE
CTRY .                         : COUNTRY
SRVC .                         : SERVICE COMPANY
DATE .                         : DATE
UWI  .                         : UNIQUE WELL ID
API  .                         : API NUMBER
SLAT .WGS84  6.099586948439203 : SURFACE LATITUDE
SLON .WGS84 2.9949352039792103 : SURFACE LONGITUDE
DATUM.F                1604.25 : DEPTH DATUM ELEV
~Curve Information -----------------------------------------
DEPT   .F     : 
TEND   .LB    : TENSION FROM DENSITY LOG
GRD    .GAPI  : GAMMA RAY FROM DENSITY LOG
NPHI_LS.DEC   : NEUTRON POROSITY LIMESTONE
DPO_LS .DEC   : HLDS DENSITY POROSITY
LCALD  .IN    : DENSITY CALIPER/LOWER CALIPER FROM DENSITY LOG
DRH    .G/C3  : BULK DENSITY CORRECTION
RHOB   .G/C3  : BULK DENSITY
AT20   .OHMM  : ARRAY INDUCTION TWO FOOT RESISTIVITY A20
AT60   .OHMM  : ARRAY INDUCTION TWO FOOT RESISTIVITY A60
TENR   .LB    : TENSION FROM RESISTIVITY LOG
AT10   .OHMM  : ARRAY INDUCTION TWO FOOT RESISTIVITY A10
AT30   .OHMM  : ARRAY INDUCTION TWO FOOT RESISTIVITY A30
AT90   .OHMM  : ARRAY INDUCTION TWO FOOT RESISTIVITY A90
SPR    .MV    : SPONTANEOUS POTENTIAL FROM RESISTIVITY LOG
GRS    .GAPI  : GAMMA RAY FROM SONIC LOG
SPHI_LS.DEC   : SONIC POROSITY [LIMESTONE]
DTCO   .US/F  : DELTA-T COMPRESSIONAL
DTSM   .US/F  : DELTA-T SHEAR
~Params ----------------------------------------------------
~Other -----------------------------------------------------
~ASCII -----------------------------------------------------
# ...
 9660.50000 3814.67900   55.24240    0.04490    0.05290    6.09410   -0.00750    2.61940    4.28190    4.21960 3805.73750    4.70050    4.16180    4.16750 -199.94970   -9999.25    0.22140   78.77130  153.74520
 9661.00000 3922.61940   55.24240    0.04500    0.05320    6.07870   -0.00860    2.61920    4.25980    4.18210 3955.36720    4.66960    4.12950    4.13520 -199.94960   -9999.25    0.22280   78.87420  153.14620
 9661.50000 3922.95800   55.24240    0.04480    0.05410    6.03740   -0.00960    2.61780    4.22740    4.14480 3907.78150    4.61360    4.09750    4.10310 -199.94950   -9999.25    0.22240   78.70240  153.73520
 9662.00000 3900.48100   55.24240    0.04480    0.05500    6.00720   -0.01000    2.61670    4.19530    4.11820 3860.19600    4.57550    4.06570    4.07130 -199.94930   -9999.25    0.21740   78.13300  154.99080
 9662.50000 3801.31100   55.24240    0.04480    0.05440    5.97710   -0.00990    2.61800    4.24840    4.20360 3811.24100    4.71410    4.25600    4.26530 -199.94920   -9999.25    0.21350   77.75870  156.24630
 9663.00000 3749.97490   55.24240    0.04480    0.05210    5.94700   -0.00920    2.62170    4.39230    4.53910 3750.34770    4.85780    4.51800    4.52780 -199.94910   -9999.25    0.21110   77.54000  157.50190
 9663.50000 3769.73120   55.24440    0.04480    0.05010    5.91680   -0.00900    2.62460    4.47600    4.60340 3766.95730    4.87740    4.57130    4.58220 -199.94900   -9999.25    0.21040   77.23770  157.98280
 9664.00000 3794.61160   55.24650    0.04480    0.05080    5.91620   -0.01020    2.62250    4.33450    4.39870 3788.81790    4.84690    4.29910    4.30950 -199.94880   -9999.25    0.21120   76.93530  157.67070
 9664.50000 3783.44950   55.24660    0.04480    0.05420    5.91720   -0.01100    2.61670    4.31970    4.42110 3792.22220    4.68300    4.32260    4.33040 -199.94870   -9999.25    0.21280   76.63300  157.35850
 9665.00000 3772.28740   55.24660    0.04480    0.05600    5.91790   -0.01070    2.61450    4.47190    4.58370 3785.04570    4.82830    4.51360    4.52180 -199.94860   -9999.25    0.21290   76.33060  155.62480
 9665.50000 3782.70730   55.23420    0.04480    0.05420    5.95850   -0.01020    2.61780    4.46310    4.67920 3777.86940    4.94940    4.62780    4.63400 -199.94850   -9999.25    0.20800   76.02830  153.47680
 9666.00000 3791.98900   55.17550    0.04480    0.05140    5.95120   -0.00920    2.62210    4.45040    4.71920 3815.02170    5.00070    4.64520    4.65150 -199.94830   -9999.25    0.20390   75.72590  150.78510
 9666.50000 3788.75930   55.20950    0.04480    0.05080    5.94390   -0.00850    2.62360    4.46060    4.78450 3780.75880    5.02080    4.73790    4.74570 -199.94820   -9999.25    0.20040   75.42360  149.55290
 9667.00000 3733.87570   55.24660    0.04490    0.05120    5.93790   -0.00890    2.62280    4.48550    4.85020 3743.44410    5.07720    4.89230    4.89900 -199.94810   -9999.25    0.19730   75.12120  149.15350
 9667.50000 3742.12570   55.24660    0.04490    0.05140    5.93690   -0.00850    2.62180    4.50200    4.89140 3732.39620    5.10340    4.87330    4.88000 -199.94620   -9999.25    0.19460   74.88910  148.75410
 9668.00000 3768.34670   55.24660    0.04490    0.05110    5.92650   -0.00780    2.62260    4.51850    4.86800 3737.83030    5.05490    4.89880    4.86100 -199.93910   -9999.25    0.19160   74.89160  148.35470
 9668.50000 3774.64500   55.24660    0.04490    0.05140    5.91610   -0.00710    2.62220    4.53510    4.85320 3743.64580    5.01200    4.93070    4.84210 -199.93610   -9999.25    0.19010   74.89380  147.90800
 9669.00000 3740.18380   55.24660    0.04490    0.05230    5.91910   -0.00650    2.62020    4.61760    4.89730 3738.99540    5.11290    4.97650    4.89640 -199.93610   -9999.25    0.19020   -9999.25  147.39050
 9669.50000 3742.62080   55.24660    0.04490    0.05310    5.92220   -0.00600    2.61900    4.73210    4.93360 3735.04470    5.21580    5.02620    4.98530 -199.93610   -9999.25    0.19040   -9999.25  146.87290
 9670.00000 3773.57980   55.24900    0.04500    0.05240    5.92000   -0.00510    2.62020    4.84940    5.04540 3776.51170    5.32080    5.07640    5.07590 -199.93660   -9999.25    0.19060   -9999.25  146.35540
 9670.50000 3821.98830   55.26640    0.04500    0.05070    5.91700   -0.00410    2.62340    4.95290    5.15410 3829.42310    5.41860    5.12710    5.16710 -199.94020   -9999.25    0.19160   -9999.25  145.79200
 9671.00000 3830.19750   55.30340    0.04480    0.04860    5.91720   -0.00310    2.62700    4.97830    5.25540 3865.36600    5.43260    5.18110    5.08710 -199.94370   -9999.25    0.19310   -9999.25  144.91300
 9671.50000 3838.40700   55.23440    0.04470    0.04740    5.93470   -0.00380    2.62800    4.94250    5.35860 3840.45140    5.44650    5.23810    5.00830 -199.94720   -9999.25    0.19290   -9999.25  144.53920
 9672.00000 3824.98320   55.30490    0.04470    0.04890    5.93580   -0.00470    2.62560    4.90700    5.31900 3819.59590    5.45500    5.29580    4.93070 -199.95070   -9999.25    0.19380   -9999.25  144.64370
 9672.50000 3819.99020   55.32290    0.04500    0.05080    5.93610   -0.00570    2.62210    4.84550    5.25730 3810.32130    5.44810    5.35410    4.85440 -199.95430   -9999.25    0.19430   -9999.25  144.74820
 9673.00000 3808.62110   55.23930    0.04560    0.05140    5.93510   -0.00630    2.62220    4.78220    5.23270 3804.33890    5.44130    5.36290    4.85240 -199.95780   -9999.25    0.19480   -9999.25  144.85270
 9673.50000 3808.32280   55.21020    0.04520    0.05010    5.91880   -0.00570    2.62430   -9999.25   -9999.25 3804.88770   -9999.25   -9999.25   -9999.25 -199.96130   -9999.25    0.19500   -9999.25  145.14290
 9674.00000 3810.84960   55.21240    0.04510    0.05070    5.91480   -0.00570    2.62340   -9999.25   -9999.25 3807.68410   -9999.25   -9999.25   -9999.25 -199.96480   -9999.25    0.19550   -9999.25  145.48800
 9674.50000 3803.95730   55.21080    0.04510    0.05300    5.91450   -0.00610    2.62030   -9999.25   -9999.25 3800.11960   -9999.25   -9999.25   -9999.25 -199.96830   -9999.25    0.19560   -9999.25  145.83320
 9675.00000 3796.91210   55.20150    0.04510    0.05590    5.92330   -0.00630    2.61490   -9999.25   -9999.25 3791.39010   -9999.25   -9999.25   -9999.25 -199.97190   -9999.25    0.19570   -9999.25  146.17840
 9675.50000 3774.31590   55.22340    0.04510    0.05790    5.83950    0.00070    2.61140   -9999.25   -9999.25 3767.75240   -9999.25   -9999.25   -9999.25 -199.97540   -9999.25    0.19540   -9999.25  146.52360
 9676.00000 3768.23850   55.22930    0.04510    0.05650    5.38320    0.01860    2.61460   -9999.25   -9999.25 3765.15720   -9999.25   -9999.25   -9999.25 -199.97890   -9999.25    0.19520   -9999.25  146.62040
 9676.50000 3778.85210   55.21950    0.04510    0.05010    4.03800    0.03860    2.62730   -9999.25   -9999.25 3771.77910   -9999.25   -9999.25   -9999.25 -199.98240   -9999.25    0.19510   -9999.25  146.67790
 9677.00000 3783.37380   55.20980    0.04520    0.03630    4.03590    0.06710    2.65200   -9999.25   -9999.25 3770.12260   -9999.25   -9999.25   -9999.25 -199.98590   -9999.25    0.19510   -9999.25  146.73540
 9677.50000 3774.31370   55.20010    0.04520    0.02150   -9999.25    0.09140    2.67650   -9999.25   -9999.25 3771.22140   -9999.25   -9999.25   -9999.25 -199.98950   -9999.25    0.19550   -9999.25  146.79290
 9678.00000 3768.59250   55.19030    0.04520    0.01330   -9999.25    0.10580    2.68740   -9999.25   -9999.25 3772.32030   -9999.25   -9999.25   -9999.25 -199.99300   -9999.25    0.19530   -9999.25  146.94100
 9678.50000 3767.52050   55.23530    0.04510    0.01120   -9999.25    0.11100    2.69160   -9999.25   -9999.25 3767.19580   -9999.25   -9999.25   -9999.25 -199.99650   -9999.25    0.19500   -9999.25  146.79200
 9679.00000 3762.29880   55.20760    0.04490    0.01080   -9999.25    0.11130    2.69180   -9999.25   -9999.25 3747.41870   -9999.25   -9999.25   -9999.25 -200.00000   -9999.25    0.19500   -9999.25  146.61100
 9679.50000 3723.86330   55.23980    0.04480    0.01080   -9999.25    0.11150    2.69190   -9999.25   -9999.25 3725.46310   -9999.25   -9999.25   -9999.25 -200.00350   -9999.25    0.19510   -9999.25  146.42990
