~Version ---------------------------------------------------
VERS.   2.0 : CWLS log ASCII Standard -VERSION 2.0
WRAP.    NO : One line per depth step
DLM . SPACE : Column Data Section Delimiter
~Well ------------------------------------------------------
STRT .F                 5858.0 : START DEPTH
STOP .F                 9695.0 : STOP DEPTH
STEP .F                    0.5 : STEP
NULL .                -9999.25 : NULL VALUE
COMP .                         : COMPANY
WELL .                         : WELL
FLD  .                         : FIELD
LOC  .                         : LOCATION
PROV .                         : PROVINCE
CNTY .                         : COUNTY
STAT .                         : STATE
CTRY .                         : COUNTRY
SRVC .                         : SERVICE COMPANY
DATE .                         : DATE
UWI  .                         : UNIQUE WELL ID
API  .                         : API NUMBER
SLAT .WGS84  6.099586948439203 : SURFACE LATITUDE
SLON .WGS84 2.9949352039792103 : SURFACE LONGITUDE
DATUM.F                1604.25 : DEPTH DATUM ELEV
~Curve Information -----------------------------------------
DEPT   .F     : 
TEND   .LB    : TENSION FROM DENSITY LOG
GRD    .GAPI  : GAMMA RAY FROM DENSITY LOG
NPHI_LS.DEC   : NEUTRON POROSITY LIMESTONE
DPO_LS .DEC   : HLDS DENSITY POROSITY
LCALD  .IN    : DENSITY CALIPER/LOWER CALIPER FROM DENSITY LOG
DRH    .G/C3  : BULK DENSITY CORRECTION
RHOB   .G/C3  : BULK DENSITY
AT20   .OHMM  : ARRAY INDUCTION TWO FOOT RESISTIVITY A20
AT60   .OHMM  : ARRAY INDUCTION TWO FOOT RESISTIVITY A60
TENR   .LB    : TENSION FROM RESISTIVITY LOG
AT10   .OHMM  : ARRAY INDUCTION TWO FOOT RESISTIVITY A10
AT30   .OHMM  : ARRAY INDUCTION TWO FOOT RESISTIVITY A30
AT90   .OHMM  : ARRAY INDUCTION TWO FOOT RESISTIVITY A90
SPR    .MV    : SPONTANEOUS POTENTIAL FROM RESISTIVITY LOG
GRS    .GAPI  : GAMMA RAY FROM SONIC LOG
SPHI_LS.DEC   : SONIC POROSITY [LIMESTONE]
DTCO   .US/F  : DELTA-T COMPRESSIONAL
DTSM   .US/F  : DELTA-T SHEAR
~Params ----------------------------------------------------
~Other -----------------------------------------------------
~ASCII -----------------------------------------------------
# ...
 9543.50000 3903.28690   47.62470    0.09890    0.01350    6.03740   -0.00420    2.67480    7.40010    8.18210 3902.95210   11.46480    7.92040    7.96830   77.08280   40.22350    0.13040   64.60710  123.67560
 9544.00000 3907.43820   46.10120    0.12050    0.01500    6.02170   -0.00590    2.67590    6.47430    6.67350 3911.89160    8.15590    6.55910    6.59890  105.46590   39.10450    0.10100   62.19620  125.43070
 9544.50000 3907.84860   43.97180    0.13990    0.01810    6.00600   -0.00680    2.67890    5.76280    5.52020 3920.83080    6.79160    5.60910    5.61690  118.00500   37.98060    0.12480   68.25420  132.75370
 9545.00000 3880.40600   41.78310    0.13510    0.01670    5.99030   -0.00750    2.68140    6.34230    5.93200 3882.29880    7.72590    6.06030    6.08520   58.69190   39.00240    0.17090   71.86700  138.85430
 9545.50000 3837.92380   38.41380    0.12040    0.01530    5.97460   -0.00780    2.68390    7.97710    7.15280 3849.70170    9.65710    6.94850    6.97750   91.03810   41.26600    0.17740   71.59140  144.95490
 9546.00000 3852.81960   36.14090    0.09510    0.01390    5.95830   -0.00710    2.68850    9.20550    8.14070 3852.82500   10.92780    7.96670    8.00060   98.88440   39.78930    0.15190   67.90450  138.11600
 9546.50000 3858.76980   36.41570    0.06810    0.01500    5.95640   -0.00650    2.69440    9.88610    8.77790 3857.76390   10.90330    8.99620    9.00850   86.45970   35.26060    0.12880   64.21770  127.73030
 9547.00000 3859.24610   39.26210    0.05690    0.01860    5.96430   -0.00700    2.69540    9.04400    9.13330 3866.78200   11.58790    8.80350    8.83300   76.26860   30.73200    0.10560   60.67500  120.12580
 9547.50000 3861.97220   43.93520    0.05200    0.02270    5.96920   -0.00820    2.68610    6.66680    7.89630 3877.89280    6.44230    6.66770    6.85910   68.21310   28.11400    0.09650   60.67930  119.91100
 9548.00000 3873.11840   43.63260    0.05180    0.02620    5.97170   -0.01210    2.66850    4.90620    5.13850 3881.23220    4.82940    4.79370    4.81480   61.16410   28.13440    0.10680   64.84770  122.35280
 9548.50000 3865.70040   42.43700    0.05170    0.02590    5.97420   -0.01530    2.64760    3.97160    4.33490 3862.07400    4.75370    4.37210    4.37800   59.50360   30.86840    0.12310   70.67720  128.28310
 9549.00000 3859.07860   41.24140    0.05250    0.02210    5.97670   -0.01470    2.64070    4.41970    5.02650 3864.32570    4.97210    4.84120    4.86050   57.86430   35.25910    0.16510   76.39800  144.94680
 9549.50000 3852.18990   40.04570    0.05400    0.01790    5.97920   -0.01240    2.64590    5.55090    6.46560 3855.41770    6.87630    6.21900    6.27420    1.92010   40.11490    0.19260   73.97140  147.91560
 9550.00000 3837.48490   39.95770    0.05400    0.01790    5.98170   -0.00880    2.65690    7.57490    8.58900 3848.38720   11.46210    8.27150    8.28670  -69.57270   42.17120    0.18680   71.18850  141.83990
 9550.50000 3822.78000   40.23190    0.06160    0.02670    5.98420   -0.00570    2.66910    7.62660    8.24810 3832.07980   12.46880    8.01700    8.04640 -132.43200   40.87250    0.16520   68.40560  135.14260
 9551.00000 3820.87010   40.50620    0.07450    0.02060    5.98670   -0.00410    2.67830    6.65610    7.11750 3815.77220    8.24250    6.70280    6.75890 -138.97090   36.62240    0.13980   66.04980  128.03570
 9551.50000 3827.31270   40.03170    0.07300    0.01630    5.98920   -0.00260    2.68480    6.42110    6.97070 3833.88160    6.94470    6.49900    6.50780 -139.81780   33.40370    0.12950   66.97240  130.60280
 9552.00000 3828.62230   37.97730    0.06140    0.01410    5.99170   -0.00300    2.68710    7.04050    7.59340 3832.25780    7.62240    7.69360    7.74330 -140.55050   33.30230    0.13440   67.31920  133.04460
 9552.50000 3819.72410   34.88930    0.04810    0.01630    5.99420   -0.00370    2.68500    8.36660   10.24980 3818.22120   11.29960    9.62390    9.68680 -141.28710   34.90860    0.13870   66.56210  131.49330
 9553.00000 3812.84620   32.35400    0.04460    0.02180    5.99680   -0.00660    2.67290   11.20720   12.43130 3813.48660   17.60400   12.03850   12.11810 -142.11860   35.86840    0.13300   65.14540  127.36170
 9553.50000 3805.96830   33.61900    0.05000    0.02730    6.00960   -0.00930    2.66040   10.38190   11.04920 3798.06300   16.67110   10.14850   10.32210 -142.74300   34.47550    0.12190   63.72880  123.23010
 9554.00000 3790.40330   36.12570    0.06570    0.03270    6.02250   -0.00910    2.65560    8.05170    8.37110 3779.90500    8.01570    8.02020    8.08890 -143.78190   31.01860    0.11160   62.31210  119.45640
 9554.50000 3760.08910   37.99640    0.08760    0.02910    6.03540   -0.00630    2.66290    6.05890    6.34210 3766.37600    6.19710    6.26040    6.30570 -146.66320   27.12800    0.10480   62.27680  121.97860
 9555.00000 3758.32930   38.53530    0.10110    0.01940    6.04820   -0.00160    2.68060    5.17260    5.38750 3765.16920    5.33250    5.71480    5.36740 -150.20450   26.62790    0.11160   63.72750  125.26550
 9555.50000 3782.39180   37.43370    0.09480    0.01120    6.06110    0.00190    2.69210    5.65410    5.40930 3798.70850    6.76630    5.80640    5.49560 -151.75520   30.09770    0.13300   65.95090  128.55240
 9556.00000 3790.17500   36.05470    0.08430    0.00950    6.07390    0.00270    2.69410    6.29190    5.60420 3795.32640    7.76370    6.01700    5.45980 -151.84990   34.16420    0.14400   68.20370  130.77930
 9556.50000 3785.63090   34.67560    0.07630    0.01180    6.08680    0.00030    2.69080    6.32050    5.43340 3790.53150    7.16240    6.23510    5.19490 -151.01900   34.10980    0.13520   67.21060  129.79050
 9557.00000 3782.62820   34.74930    0.07590    0.01410    6.09070   -0.00210    2.68670    6.39590    5.40240 3786.21070    7.35340    6.47570    4.99550 -151.53000   31.93600    0.12310   65.58820  125.87110
 9557.50000 3782.73900   34.84600    0.07370    0.01550    6.09070   -0.00100    2.68420    6.72430    5.71260 3779.47730    7.81420    6.83350    5.35630 -152.35230   30.33560    0.11100   63.96570  121.95170
 9558.00000 3782.52420   34.65240    0.06770    0.01570    6.09070    0.00190    2.68400    7.29320    5.69370 3779.57400    7.56430    7.21100    5.75110 -153.84630   30.48540    0.10390   62.49210  118.03220
 9558.50000 3793.66410   32.86120    0.05650    0.01560    6.06530    0.00760    2.68340    7.10640    6.14650 3801.42260    7.61670    6.88560    6.17510 -156.35840   32.40670    0.10590   64.33310  129.02690
 9559.00000 3820.78780   31.11550    0.05090    0.01830    6.03420    0.01750    2.67870    6.65180    6.53600 3813.39360    7.72740    6.78830    6.63020 -159.50320   33.98940    0.11110   64.43300  127.72140
 9559.50000 3813.39750   33.44440    0.06580    0.02560    6.00300    0.02380    2.66650    6.50400    6.82660 3803.41380    8.26990    6.94200    6.83690 -161.92620   32.99410    0.11510   63.98810  124.72310
 9560.00000 3802.94040   37.63680    0.10200    0.02910    5.97180    0.02520    2.66130    6.39270    7.00510 3800.43410    8.10420    7.09930    6.71120 -163.95040   29.69870    0.12060   63.96240  121.72480
 9560.50000 3798.18600   41.82930    0.13180    0.02810    5.96260    0.02610    2.66180    5.63630    7.35370 3797.45430    7.49350    7.16630    6.10850 -165.46250   29.09460    0.13980   67.49180  125.06290
 9561.00000 3798.36470   40.83610    0.12650    0.02550    6.01370    0.02030    2.66650    5.17080    6.79360 3804.96440    6.60050    6.66110    5.55990 -166.42390   32.77970    0.16810   71.02110  143.13430
 9561.50000 3801.28780   34.80510    0.09690    0.02310    6.05980    0.00960    2.67050    5.13320    6.27410 3806.17330    6.29060    6.21940    5.10820 -167.55370   38.97270    0.18350   72.78510  146.44090
 9562.00000 3810.98560   28.77400    0.06780    0.02180    6.08670    0.00060    2.67370    6.05600    6.69220 3816.24490    6.48670    6.60060    6.89390 -168.01900   42.26360    0.17520   70.20520  137.07640
 9562.50000 3843.43040   27.82910    0.05430    0.02150    6.11350   -0.00390    2.67390    7.68670    7.76110 3827.02250    7.92040    8.41970   10.99760 -168.14020   39.74590    0.14820   66.41480  125.45720
