~Version ---------------------------------------------------
VERS.   2.0 : CWLS log ASCII Standard -VERSION 2.0
WRAP.    NO : One line per depth step
DLM . SPACE : Column Data Section Delimiter
~Well ------------------------------------------------------
STRT .F                 5858.0 : START DEPTH
STOP .F                 9695.0 : STOP DEPTH
STEP .F                    0.5 : STEP
NULL .                -9999.25 : NULL VALUE
COMP .                         : COMPANY
WELL .                         : WELL
FLD  .                         : FIELD
LOC  .                         : LOCATION
PROV .                         : PROVINCE
CNTY .                         : COUNTY
STAT .                         : STATE
CTRY .                         : COUNTRY
SRVC .                         : SERVICE COMPANY
DATE .                         : DATE
UWI  .                         : UNIQUE WELL ID
API  .                         : API NUMBER
SLAT .WGS84  6.099586948439203 : SURFACE LATITUDE
SLON .WGS84 2.9949352039792103 : SURFACE LONGITUDE
DATUM.F                1604.25 : DEPTH DATUM ELEV
~Curve Information -----------------------------------------
DEPT   .F     : 
TEND   .LB    : TENSION FROM DENSITY LOG
GRD    .GAPI  : GAMMA RAY FROM DENSITY LOG
NPHI_LS.DEC   : NEUTRON POROSITY LIMESTONE
DPO_LS .DEC   : HLDS DENSITY POROSITY
LCALD  .IN    : DENSITY CALIPER/LOWER CALIPER FROM DENSITY LOG
DRH    .G/C3  : BULK DENSITY CORRECTION
RHOB   .G/C3  : BULK DENSITY
AT20   .OHMM  : ARRAY INDUCTION TWO FOOT RESISTIVITY A20
AT60   .OHMM  : ARRAY INDUCTION TWO FOOT RESISTIVITY A60
TENR   .LB    : TENSION FROM RESISTIVITY LOG
AT10   .OHMM  : ARRAY INDUCTION TWO FOOT RESISTIVITY A10
AT30   .OHMM  : ARRAY INDUCTION TWO FOOT RESISTIVITY A30
AT90   .OHMM  : ARRAY INDUCTION TWO FOOT RESISTIVITY A90
SPR    .MV    : SPONTANEOUS POTENTIAL FROM RESISTIVITY LOG
GRS    .GAPI  : GAMMA RAY FROM SONIC LOG
SPHI_LS.DEC   : SONIC POROSITY [LIMESTONE]
DTCO   .US/F  : DELTA-T COMPRESSIONAL
DTSM   .US/F  : DELTA-T SHEAR
~Params ----------------------------------------------------
~Other -----------------------------------------------------
~ASCII -----------------------------------------------------
# ...
 9329.00000 3630.12130   53.78240    0.13630    0.04310    6.18240   -0.01000    2.61550    8.51880   10.01750 3629.15260   11.60150    9.56930   11.78720   29.76780   45.77150    0.14140   68.71130  122.95230
 9329.50000 3646.09250   52.87010    0.13360    0.04060    6.16060   -0.00820    2.62800    8.52940    9.27930 3647.02000   10.94050    9.61990   11.04180   29.77590   48.86290    0.15250   69.66790  128.31700
 9330.00000 3655.91210   49.91650    0.12970    0.03840    6.15750   -0.00490    2.64160    9.43930   11.12770 3647.76050   12.26930   11.09450   12.08020   29.70450   49.37740    0.16170   70.07990  131.50900
 9330.50000 3684.91160   46.10460    0.12190    0.04260    6.15850   -0.00310    2.65200   10.66340   13.79550 3660.86770   15.31190   14.07760   14.36170   29.72660   48.15300    0.15950   69.80640  132.14230
 9331.00000 3710.18630   44.28240    0.11220    0.04520    6.16050   -0.00710    2.65000   13.08020   17.10280 3660.52220   20.34580   17.86280   18.05810   29.74880   46.18270    0.15340   68.52810  127.97160
 9331.50000 3694.34280   47.08420    0.09800    0.02790    6.16260   -0.01270    2.65180   15.21390   19.70430 3660.17680   20.72320   20.01440   20.16470   29.77090   43.61880    0.14530   67.09250  120.89100
 9332.00000 3661.88040   59.34390    0.07960    0.00830    6.15920   -0.01090    2.68760   16.07350   15.74860 3660.71190   15.79820   15.78540   15.90000   29.79310   40.83050    0.13660   65.66430  111.25640
 9332.50000 3658.03640   72.64540    0.09380   -0.01570    6.16020   -0.00410    2.73110   12.29880    9.45120 3666.90110   11.82170   10.23290   10.38340   29.81520   37.80820    0.12690   65.42710  101.62170
 9333.00000 3675.53080   86.52120    0.12710    0.00630    6.16860   -0.00390    2.73120    6.27210    4.69920 3673.09030    5.29870    5.38690    5.45870   29.83730   36.12520    0.11630   65.33970  100.74150
 9333.50000 3695.59060   93.25930    0.18450    0.02830    6.16390   -0.00450    2.66620    2.98600    2.76020 3679.27980    2.91630    2.94170    2.95990   29.85950   38.16700    0.12630   74.37950  118.00080
 9334.00000 3705.57420   95.55670    0.24860    0.10140    6.15960   -0.00700    2.57410    2.25390    2.00730 3690.61330    2.03690    2.05920    2.07640   29.88160   45.42030    0.18520   82.46330  135.26010
 9334.50000 3715.34840   95.43230    0.28380    0.12510    6.15820   -0.00510    2.50970    1.71050    1.67560 3704.95680    1.66180    1.66790    1.67280   29.90380   59.14210    0.27800   90.54700  183.29580
 9335.00000 3719.81080   94.37670    0.30090    0.12870    6.15660    0.01300    2.50240    1.60610    1.53640 3707.57760    1.55830    1.53210    1.53610   29.92590   73.07810    0.30000   99.50150  205.39850
 9335.50000 3700.63040   92.39110    0.31540    0.12850    6.14270    0.02620    2.50670    1.50800    1.44130 3692.04370    1.54420    1.48080    1.46620   29.93560   85.45480    0.30040  102.62340  210.53490
 9336.00000 3690.88350   91.68340    0.32920    0.12660    6.15090    0.02550    2.50740    1.45270    1.40870 3672.88350    1.53090    1.47110    1.42090   29.87010   90.93470   -9999.25  103.93570  210.31160
 9336.50000 3691.54420   92.53280    0.33120    0.12220    6.15780    0.01940    2.50700    1.45780    1.40930 3689.17630    1.52550    1.46150    1.40290   29.70050   92.63930   -9999.25  105.24810  205.37150
 9337.00000 3695.15800   95.69410    0.32610    0.11180    6.15670    0.01160    2.51360    1.48780    1.42430 3694.30710    1.52350    1.47530    1.40340   29.83160   92.30220   -9999.25  105.81090  198.65310
 9337.50000 3698.77150   98.01880    0.31800    0.10240    6.16140    0.00830    2.52350    1.52210    1.44700 3694.05300    1.56700    1.49990    1.42760   29.89620   90.76630   -9999.25  105.52740  191.93480
 9338.00000 3692.20580   96.75410    0.30990    0.10700    6.16600    0.00800    2.52630    1.55710    1.47020 3695.06980    1.61180    1.52480    1.45950   29.91330   89.13270   -9999.25  104.82230  188.47710
 9338.50000 3689.36380   93.17790    0.30420    0.11320    6.16650    0.01150    2.52400    1.55940    1.48090 3696.38180    1.65790    1.55020    1.47230   29.89550   87.61530   -9999.25  102.83040  187.96480
 9339.00000 3689.63260   91.14370    0.31840    0.11940    6.16150    0.01580    2.52070    1.54880    1.44520 3695.23050    1.60070    1.55010    1.45170   29.88710   87.55020   -9999.25  100.71230  187.45260
 9339.50000 3696.03660   92.87780    0.32740    0.12540    6.16000    0.02570    2.51490    1.52480    1.40500 3704.31930    1.51390    1.51690    1.42840   29.89540   88.30880   -9999.25   98.72940  187.50440
 9340.00000 3705.75560   95.92320    0.33740    0.13200    6.16170    0.03020    2.50960    1.43330    1.35140 3705.88330    1.43180    1.43960    1.33350   29.92090   88.46270   -9999.25  101.11430  188.30290
 9340.50000 3714.70870   98.47670    0.34230    0.13020    6.16330    0.03240    2.50400    1.33360    1.26230 3706.40360    1.36480    1.36630    1.28720   29.91390   88.13950   -9999.25  103.66210  192.71140
 9341.00000 3716.61430   98.75490    0.34770    0.13020    6.16490    0.03350    2.50510    1.29500    1.24860 3706.92380    1.36040    1.30920    1.26720   29.90690   87.47860   -9999.25  106.20990  198.91360
 9341.50000 3696.83330   97.40180    0.35320    0.13110    6.16660    0.03570    2.50540    1.29760    1.23500 3696.09030    1.35600    1.30600    1.25040   29.90000   87.57990   -9999.25  107.12810  209.01000
 9342.00000 3676.62130   95.87290    0.35830    0.13200    6.16820    0.03910    2.50100    1.30490    1.22160 3674.04080    1.35160    1.30280    1.23390   29.89300   88.22720   -9999.25  106.86670  214.78260
 9342.50000 3650.30050   94.98240    0.36110    0.12840    6.17450    0.04390    2.49970    1.31120    1.20830 3657.01540    1.34720    1.29870    1.21760   29.88600   89.08870   -9999.25  106.60530  214.72380
 9343.00000 3652.81620   93.53800    0.36210    0.11960    6.17340    0.04840    2.50010    1.28420    1.18490 3657.67290    1.33180    1.26640    1.20160   29.87900   90.93180   -9999.25  106.56170  214.66490
 9343.50000 3663.39430   93.38560    0.36300    0.11600    6.17800    0.04710    2.50980    1.25750    1.20410 3658.33060    1.30530    1.23500    1.17370   29.87210   92.20840   -9999.25  108.15890  216.99140
 9344.00000 3673.97270   94.42510    0.36240    0.11200    6.17450    0.04390    2.51750    1.26350    1.22990 3658.98830    1.27920    1.23430    1.15910   29.86510   92.20860   -9999.25  109.65960  219.80610
 9344.50000 3674.95780   95.46460    0.36020    0.10920    6.17080    0.03700    2.51710    1.30190    1.26340 3659.64600    1.29120    1.25300    1.18570   29.85810   92.34440   -9999.25  109.76020  219.49040
 9345.00000 3654.09330   95.67480    0.35290    0.11440    6.15950    0.02320    2.51120    1.34520    1.29780 3660.30370    1.37550    1.34210    1.27260   29.85110   94.29920   -9999.25  108.49530  216.05780
 9345.50000 3648.54200   92.56910    0.33380    0.11230    6.14650    0.01570    2.50920    1.41400    1.37930 3660.96140    1.46530    1.43750    1.36810   29.84420   96.12790   -9999.25  106.14160  212.62510
 9346.00000 3648.94240   89.29160    0.31660    0.10990    6.14780    0.01040    2.51700    1.53500    1.48570 3661.61910    1.56090    1.53970    1.47410   29.83720   94.92380   -9999.25  103.54360  209.19250
 9346.50000 3653.40430   85.60400    0.27700    0.10750    6.14910    0.00960    2.52830    1.69210    1.62460 3659.54880    1.72850    1.68690    1.59330   29.83020   92.61580   -9999.25  100.94570  201.73030
 9347.00000 3657.86600   80.87520    0.23750    0.10260    6.15030    0.00720    2.53800    1.88810    1.77620 3657.39040    2.01860    1.89890    1.88470   29.82320   90.24210   -9999.25   98.34770  189.35480
 9347.50000 3649.73540   74.64850    0.21310    0.09600    6.15160    0.01080    2.55540    2.34590    2.13180 3655.23220    2.42590    2.21850    2.22960   29.81020   87.59660   -9999.25   95.34410  180.32020
 9348.00000 3651.35030   65.74050    0.20090    0.08800    6.15290    0.01390    2.57840    3.21670    2.87620 3657.12600    3.54590    3.01970    3.04230   29.66410   83.52440   -9999.25   91.86620  171.28560
