~Version ---------------------------------------------------
VERS.   2.0 : CWLS log ASCII Standard -VERSION 2.0
WRAP.    NO : One line per depth step
DLM . SPACE : Column Data Section Delimiter
~Well ------------------------------------------------------
STRT .F                 5858.0 : START DEPTH
STOP .F                 9695.0 : STOP DEPTH
STEP .F                    0.5 : STEP
NULL .                -9999.25 : NULL VALUE
COMP .                         : COMPANY
WELL .                         : WELL
FLD  .                         : FIELD
LOC  .                         : LOCATION
PROV .                         : PROVINCE
CNTY .                         : COUNTY
STAT .                         : STATE
CTRY .                         : COUNTRY
SRVC .                         : SERVICE COMPANY
DATE .                         : DATE
UWI  .                         : UNIQUE WELL ID
API  .                         : API NUMBER
SLAT .WGS84  6.099586948439203 : SURFACE LATITUDE
SLON .WGS84 2.9949352039792103 : SURFACE LONGITUDE
DATUM.F                1604.25 : DEPTH DATUM ELEV
~Curve Information -----------------------------------------
DEPT   .F     : 
TEND   .LB    : TENSION FROM DENSITY LOG
GRD    .GAPI  : GAMMA RAY FROM DENSITY LOG
NPHI_LS.DEC   : NEUTRON POROSITY LIMESTONE
DPO_LS .DEC   : HLDS DENSITY POROSITY
LCALD  .IN    : DENSITY CALIPER/LOWER CALIPER FROM DENSITY LOG
DRH    .G/C3  : BULK DENSITY CORRECTION
RHOB   .G/C3  : BULK DENSITY
AT20   .OHMM  : ARRAY INDUCTION TWO FOOT RESISTIVITY A20
AT60   .OHMM  : ARRAY INDUCTION TWO FOOT RESISTIVITY A60
TENR   .LB    : TENSION FROM RESISTIVITY LOG
AT10   .OHMM  : ARRAY INDUCTION TWO FOOT RESISTIVITY A10
AT30   .OHMM  : ARRAY INDUCTION TWO FOOT RESISTIVITY A30
AT90   .OHMM  : ARRAY INDUCTION TWO FOOT RESISTIVITY A90
SPR    .MV    : SPONTANEOUS POTENTIAL FROM RESISTIVITY LOG
GRS    .GAPI  : GAMMA RAY FROM SONIC LOG
SPHI_LS.DEC   : SONIC POROSITY [LIMESTONE]
DTCO   .US/F  : DELTA-T COMPRESSIONAL
DTSM   .US/F  : DELTA-T SHEAR
~Params ----------------------------------------------------
~Other -----------------------------------------------------
~ASCII -----------------------------------------------------
# ...
 9212.00000 3678.69430   85.69030    0.32480    0.12810    6.11400    0.03150    2.48970    2.05820    2.05750 3691.64840    1.98740    2.01360    2.01980   22.18860   79.75320   -9999.25  110.17660  193.21710
 9212.50000 3739.36080   87.00600    0.32380    0.13210    6.04990    0.03200    2.48580    1.99100    1.95450 3754.02120    1.86930    1.95070    1.95350   22.43410   78.72750   -9999.25  105.29150  189.21010
 9213.00000 3796.75070   88.58280    0.31590    0.13560    6.05580    0.02060    2.47790    2.09490    1.98770 3862.65920    1.83070    2.02290    2.01820   22.73890   78.61630   -9999.25   98.32330  175.95860
 9213.50000 3777.98190   89.66570    0.29530    0.12740    6.10150    0.00910    2.49210    2.28430    2.12530 3819.61060    2.17700    2.11470    2.11410   23.10710   79.81620   -9999.25   95.91990  179.65400
 9214.00000 3759.21340   90.31500    0.28300    0.11030    6.14710    0.00580    2.52630    2.52110    2.21720 3762.04790    2.59240    2.25450    2.21470   23.23550   81.66230   -9999.25  101.93590  186.39520
 9214.50000 3721.90160   89.89880    0.27140    0.09240    6.18100    0.00450    2.55080    2.72980    2.31310 3727.59380    2.86610    2.43920    2.33320   23.21730   84.33800   -9999.25  103.68990  186.42710
 9215.00000 3716.33330   88.91710    0.27270    0.09290    6.15990    0.00310    2.55140    2.67510    2.41310 3727.82470    2.86610    2.61540    2.45850   23.17690   86.33590   -9999.25   99.87620  176.99950
 9215.50000 3726.38040   87.18000    0.27290    0.09990    6.13880    0.00170    2.53960    2.69260    2.56080 3737.26510    2.92100    2.72060    2.59050   23.19650   88.82830   -9999.25   96.06260  162.96580
 9216.00000 3730.76660   84.67610    0.26610    0.10070    6.11770    0.00740    2.53680    2.85770    2.74030 3742.67480    3.07750    2.83000    2.69840   23.28940   91.37720   -9999.25   95.81180  163.09510
 9216.50000 3721.45970   82.41770    0.25930    0.09700    6.09660    0.01550    2.54430    3.03300    2.96270 3738.60180    3.26630    2.94380    2.72180   23.43680   93.76450   -9999.25   97.45970  168.71510
 9217.00000 3712.15310   81.48750    0.25810    0.09440    6.07550    0.01880    2.54950    3.15620    3.02060 3732.61280    3.31920    3.04040    2.94510   23.57900   94.19310   -9999.25   96.75000  178.30850
 9217.50000 3716.37500   81.49290    0.26090    0.09540    6.05440    0.01820    2.54800    3.12190    3.00930 3731.30590    3.29840    3.09670    3.10880   23.58410   93.12740   -9999.25   94.79600  181.97150
 9218.00000 3746.25200   83.46580    0.26570    0.09810    6.03330    0.01490    2.54450    3.04530    2.94100 3762.36870    3.27770    3.01880    3.02480   23.37640   90.49620   -9999.25   92.84210  180.67220
 9218.50000 3784.35380   86.49390    0.27140    0.09920    6.02280    0.01300    2.54070    2.97070    2.90180 3801.34910    3.27910    2.88810    2.89380   23.33580   87.58780   -9999.25   91.25540  177.85400
 9219.00000 3767.37080   89.30770    0.27670    0.09870    6.02980    0.01570    2.54210    2.95260    2.91740 3781.92850    3.36260    2.86940    2.87590   23.41630   85.99030   -9999.25   91.51300  174.45720
 9219.50000 3745.92090   90.38400    0.28170    0.09780    6.06410    0.01180    2.54350    3.13900    3.05620 3768.64940    3.46270    3.06820    3.07510   23.56570   85.53410   -9999.25   91.73860  168.63560
 9220.00000 3724.47090   88.40320    0.27590    0.09610    6.09840    0.00690    2.54620    3.44740    3.30280 3743.95560    3.59270    3.29930    3.30850   23.63940   83.63770   -9999.25   91.70890  163.25860
 9220.50000 3705.90140   85.56720    0.26010    0.09060    6.13270    0.00120    2.55550    3.78030    3.56930 3718.41800    3.77220    3.59940    3.61040   23.66090   80.41320   -9999.25   91.67930  165.19300
 9221.00000 3690.63770   79.37850    0.24350    0.08130    6.15990   -0.00440    2.57210    4.14170    3.85720 3697.18020    4.02470    3.93450    3.87740   23.71250   77.70050   -9999.25   91.64970  167.12730
 9221.50000 3676.18070   72.01640    0.23470    0.07100    6.16450   -0.00590    2.59270    4.31420    4.44500 3682.64770    4.07490    4.30170    4.71080   23.64850   76.47490    0.29890   90.66600  168.57830
 9222.00000 3679.05440   68.47600    0.23820    0.06610    6.16910   -0.00650    2.59410    3.87840    4.49910 3692.03740    3.75210    4.00950    4.21300   23.62380   75.32680    0.28800   86.51040  164.78260
 9222.50000 3683.94870   69.05380    0.24160    0.07510    6.17370   -0.00720    2.57590    3.45860    3.59870 3689.97750    3.51270    3.52760    3.54670   23.77280   72.65010    0.26020   83.17320  160.64860
 9223.00000 3668.70410   74.20840    0.24270    0.09170    6.17830   -0.00800    2.54860    3.39010    3.18080 3674.88380    3.62250    3.26060    3.26670   23.88870   67.95550    0.22360   80.74560  157.48970
 9223.50000 3653.45950   77.83580    0.23880    0.10270    6.18290   -0.00470    2.53450    3.49070    3.39650 3665.18950    3.72730    3.34450    3.34920   23.77930   66.40020    0.24220   84.93230  159.91220
 9224.00000 3681.68530   79.44200    0.23490    0.10160    6.18750   -0.00040    2.53790    3.48750    3.42170 3671.55180    3.76430    3.38300    3.38770   23.74040   68.87120    0.27630   89.63620  165.68980
 9224.50000 3720.43600   80.33630    0.22730    0.09580    6.19020    0.00450    2.55090    3.49300    3.40540 3717.14820    3.80170    3.42200    3.42670   23.62120   73.88640    0.29950   90.40120  166.71180
 9225.00000 3798.03640   81.22330    0.22350    0.08280    6.19020    0.01340    2.57240    3.55300    3.47420 3789.78540    3.83940    3.48070    3.48600   23.45940   78.02150    0.30000   90.72320  164.40120
 9225.50000 3801.61010   81.34590    0.23070    0.07610    6.19020    0.02480    2.58080    3.61770    3.55210 3787.15840    3.72810    3.54930    3.54460   23.41300   78.68720    0.29990   93.03740  165.25890
 9226.00000 3746.25630   81.69940    0.24820    0.07950    6.19020    0.02300    2.57320    3.70050    3.55770 3720.84110    3.57260    3.59580    3.52250   23.39340   77.83650    0.29980   97.39330  166.94820
 9226.50000 3701.72850   82.39790    0.26600    0.08290    6.19020    0.02100    2.56820    3.64680    3.51190 3702.15380    3.49030    3.64300    3.50210   23.33710   77.28390    0.29970   95.56200  164.57370
 9227.00000 3690.25760   81.13300    0.25640    0.07290    6.19020    0.02880    2.59030    3.82520    3.60970 3683.46630    3.86750    3.75380    3.69650   23.37530   78.68780    0.29960   98.68050  167.73720
 9227.50000 3677.46020   76.91920    0.21830    0.05150    6.19020    0.03610    2.63070    4.11630    3.89260 3666.84160    4.40880    4.09120    4.02780   23.49190   81.72160    0.29950  100.83080  177.03140
 9228.00000 3661.43070   70.99550    0.17420    0.03470    6.19020    0.03560    2.64980    4.50910    4.32580 3664.64310    5.10570    4.45880    4.38880   23.20320   83.18200    0.29930   98.69030  174.54450
 9228.50000 3656.53030   65.07420    0.14090    0.03810    6.19000    0.03200    2.64510    4.83730    4.60710 3658.64430    5.91290    4.85950    4.68120   22.87060   79.95310    0.29930   90.61520  159.85190
 9229.00000 3668.30960   60.44490    0.11740    0.05630    6.18020    0.02930    2.61510    4.14260    3.83030 3665.42990    4.87930    4.80550    3.77310   22.69780   73.29450    0.22700   77.56860  130.52260
 9229.50000 3680.62040   60.62300    0.13000    0.08670    6.17050    0.02450    2.56260    3.13660    2.80210 3680.27220    3.07510    3.28880    2.86820   22.51830   64.40770    0.13410   67.59460  116.30580
 9230.00000 3692.93120   66.72240    0.17130    0.11280    6.16070    0.00870    2.51950    2.16270    1.97230 3694.90430    1.93800    2.25080    2.18760   22.68600   58.73430    0.17050   77.35120  127.44920
 9230.50000 3698.81790   72.58700    0.22470    0.11920    6.15090    0.00450    2.50510    1.86400    1.80400 3691.96020    1.76280    1.79620    1.79860   22.92560   54.97370    0.23060   87.96110  137.55920
 9231.00000 3699.97950   73.96660    0.23530    0.10170    6.14550    0.00530    2.53450    2.15520    2.04300 3702.60500    2.07410    2.08710    2.09800   22.89960   59.59630    0.27900   83.50270  129.27500
