~Version ---------------------------------------------------
VERS.   2.0 : CWLS log ASCII Standard -VERSION 2.0
WRAP.    NO : One line per depth step
DLM . SPACE : Column Data Section Delimiter
~Well ------------------------------------------------------
STRT .F                 5858.0 : START DEPTH
STOP .F                 9695.0 : STOP DEPTH
STEP .F                    0.5 : STEP
NULL .                -9999.25 : NULL VALUE
COMP .                         : COMPANY
WELL .                         : WELL
FLD  .                         : FIELD
LOC  .                         : LOCATION
PROV .                         : PROVINCE
CNTY .                         : COUNTY
STAT .                         : STATE
CTRY .                         : COUNTRY
SRVC .                         : SERVICE COMPANY
DATE .                         : DATE
UWI  .                         : UNIQUE WELL ID
API  .                         : API NUMBER
SLAT .WGS84  6.099586948439203 : SURFACE LATITUDE
SLON .WGS84 2.9949352039792103 : SURFACE LONGITUDE
DATUM.F                1604.25 : DEPTH DATUM ELEV
~Curve Information -----------------------------------------
DEPT   .F     : 
TEND   .LB    : TENSION FROM DENSITY LOG
GRD    .GAPI  : GAMMA RAY FROM DENSITY LOG
NPHI_LS.DEC   : NEUTRON POROSITY LIMESTONE
DPO_LS .DEC   : HLDS DENSITY POROSITY
LCALD  .IN    : DENSITY CALIPER/LOWER CALIPER FROM DENSITY LOG
DRH    .G/C3  : BULK DENSITY CORRECTION
RHOB   .G/C3  : BULK DENSITY
AT20   .OHMM  : ARRAY INDUCTION TWO FOOT RESISTIVITY A20
AT60   .OHMM  : ARRAY INDUCTION TWO FOOT RESISTIVITY A60
TENR   .LB    : TENSION FROM RESISTIVITY LOG
AT10   .OHMM  : ARRAY INDUCTION TWO FOOT RESISTIVITY A10
AT30   .OHMM  : ARRAY INDUCTION TWO FOOT RESISTIVITY A30
AT90   .OHMM  : ARRAY INDUCTION TWO FOOT RESISTIVITY A90
SPR    .MV    : SPONTANEOUS POTENTIAL FROM RESISTIVITY LOG
GRS    .GAPI  : GAMMA RAY FROM SONIC LOG
SPHI_LS.DEC   : SONIC POROSITY [LIMESTONE]
DTCO   .US/F  : DELTA-T COMPRESSIONAL
DTSM   .US/F  : DELTA-T SHEAR
~Params ----------------------------------------------------
~Other -----------------------------------------------------
~ASCII -----------------------------------------------------
# ...
 9173.00000 3612.61080   74.29580    0.35480    0.15750    6.64370    0.04040    2.44230    1.69950    1.52030 3614.72440    1.50010    1.57640    1.50080   22.98730   82.81260   -9999.25  108.66680  197.46030
 9173.50000 3654.54490   74.60110    0.33610    0.15930    6.70040    0.04070    2.43770    1.57540    1.48970 3675.22680    1.50420    1.57570    1.49360   23.17010   79.21510   -9999.25  106.66680  190.60170
 9174.00000 3754.81450   76.93730    0.33560    0.15560    6.75840    0.04490    2.44710    1.64320    1.56970 3797.08200    1.61890    1.61910    1.56800   23.20810   75.03280   -9999.25  102.50810  183.28790
 9174.50000 3848.67580   82.63890    0.33980    0.14480    6.76050    0.05030    2.46370    1.71800    1.67690 3823.30490    1.74240    1.70040    1.65460   22.97290   70.77190   -9999.25   98.34940  175.97410
 9175.00000 3846.00200   86.91110    0.33930    0.13100    6.71090    0.05730    2.48740    1.78970    1.73780 3849.52810    1.87530    1.78570    1.74600   22.85200   70.02050   -9999.25   97.96500  181.76070
 9175.50000 3774.73050   87.76890    0.33120    0.12050    6.64730    0.06250    2.50420    1.87510    1.80180 3776.68380    1.99430    1.87530    1.84150   22.83390   73.53220   -9999.25   99.42410  190.92740
 9176.00000 3707.50810   88.83110    0.32330    0.11420    6.61440    0.06370    2.51380    1.95900    1.82770 3714.89940    1.98610    1.94740    1.87020   22.78520   79.76130   -9999.25  100.88320  198.07770
 9176.50000 3661.98440   90.18100    0.32540    0.10970    6.61010    0.06360    2.52360    2.02230    1.88030 3666.86670    2.02500    1.95320    1.89930   22.60850   85.20960   -9999.25  102.34230  199.70850
 9177.00000 3639.82030   90.64890    0.33140    0.10370    6.58410    0.06170    2.53310    2.09250    1.94230 3644.55740    2.08470    1.95900    1.95360   22.43170   85.46970   -9999.25  102.79150  201.33930
 9177.50000 3662.82690   89.54980    0.32920    0.09950    6.54200    0.05900    2.54100    2.14910    2.04670 3665.78660    2.08840    2.07580    2.10080   22.40560   85.16130   -9999.25  102.56630  197.01770
 9178.00000 3685.83350   88.30450    0.32530    0.10170    6.50540    0.05420    2.53570    2.30060    2.14560 3705.43460    2.24580    2.09550    2.25910   22.22240   86.25850   -9999.25  102.34110  192.24140
 9178.50000 3739.96070   87.93740    0.32690    0.10910    6.53410    0.04930    2.52350    2.31330    2.06660 3758.41920    2.35730    2.06280    2.37210   22.20820   87.89000   -9999.25  102.50040  193.17180
 9179.00000 3816.42820   87.05210    0.34150    0.12010    6.57750    0.04410    2.50470    2.16430    1.92990 3824.27690    2.17980    1.97340    2.19380   22.48630   89.22770   -9999.25  101.75720  193.58500
 9179.50000 3793.12210   84.51260    0.35250    0.12460    6.62950    0.04960    2.49830    2.04440    1.84460 3797.26030    2.01580    1.88800    2.02890   22.72680   88.67960   -9999.25  100.54250  192.15090
 9180.00000 3742.39970   78.56510    0.35650    0.12620    6.65040    0.05680    2.49300    1.93110    1.81200 3707.77510    1.89780    1.80620    1.87650   22.88100   86.33200   -9999.25   99.32780  192.86040
 9180.50000 3696.38010   73.68980    0.35990    0.13170    6.64360    0.06290    2.48700    1.86180    1.85890 3634.55710    1.85300    1.79860    1.90380   22.81150   81.12550   -9999.25   99.67450  195.44660
 9181.00000 3650.36060   73.10150    0.36670    0.14440    6.54230    0.06060    2.46550    1.84390    2.16510 3641.45360    1.84550    1.79860    2.03590   22.55570   77.16470   -9999.25  102.35930  198.03280
 9181.50000 3661.27880   74.24560    0.37350    0.15350    6.44110    0.05670    2.44820    1.70450    1.97190 3648.34990    1.71560    1.71550    1.97300   22.20390   75.15230   -9999.25  105.08330  200.61890
 9182.00000 3712.87550   75.53350    0.37660    0.15730    6.33170    0.05220    2.44230    1.57080    1.83880 3706.20410    1.69330    1.67250    1.87830   22.06650   75.11510   -9999.25  108.65570  202.07300
 9182.50000 3734.79790   76.61120    0.37710    0.16090    6.24470    0.04700    2.43490    1.62520    1.97510 3736.38160    1.70240    1.76110    1.98010   22.27480   76.16140   -9999.25  112.61890  203.28560
 9183.00000 3685.18600   78.48690    0.37460    0.16800    6.20930    0.04150    2.42270    1.67060    2.11820 3696.70190    1.71720    1.85440    2.16600   22.42160   77.20770   -9999.25  116.18320  203.79010
 9183.50000 3669.62040   78.92610    0.36540    0.17190    6.27340    0.04060    2.41720    1.65570    2.10700 3667.52810    1.64490    1.87380    2.38190   22.43840   78.36540   -9999.25  116.45190  200.83500
 9184.00000 3717.13330   77.34570    0.34950    0.16520    6.32870    0.04430    2.42840    1.64760    2.04120 3666.94240    1.64680    1.81700    2.31320   22.67330   79.42420   -9999.25  115.80430  197.87990
 9184.50000 3743.20650   74.08540    0.33230    0.14800    6.38400    0.05610    2.45480    1.65790    1.97940 3669.56400    1.61580    1.76190    2.24640   22.90400   80.20300   -9999.25  114.15140  194.92470
 9185.00000 3688.58400   70.45330    0.30970    0.13360    6.43320    0.06690    2.47950    1.66940    1.95200 3678.31350    1.61100    1.73150    2.18160   22.91300   80.10180   -9999.25  111.30180  193.06960
 9185.50000 3612.07400   68.98660    0.30320    0.13250    6.46940    0.07560    2.48510    1.67570    1.94290 3611.70630    1.61540    1.71130    2.12660   22.84690   78.11570   -9999.25  106.49470  192.87550
 9186.00000 3592.48680   71.18800    0.31900    0.14210    6.49650    0.07120    2.46930    1.68580    1.88610 3602.93900    1.61610    1.69130    2.09150   22.82680   73.85150   -9999.25  100.69940  192.99490
 9186.50000 3599.02150   75.49540    0.33860    0.15560    6.51890    0.06480    2.44510    1.68880    1.82970 3596.61790    1.59960    1.67160    2.03980   22.73630   69.62770   -9999.25   97.70440  193.50650
 9187.00000 3583.86330   81.29090    0.35340    0.16650    6.56430    0.05950    2.42380    1.62010    1.74850 3583.56030    1.56160    1.64980    1.92260   22.43980   68.40510   -9999.25   98.01280  193.22900
 9187.50000 3568.70530   85.24210    0.36270    0.17820    6.61550    0.05500    2.40490    1.65050    1.76190 3591.26610    1.54220    1.69390    1.79530   22.05070   69.69950   -9999.25  101.99600  192.95160
 9188.00000 3545.73970   85.23810    0.36280    0.18200    6.62310    0.05580    2.40190    1.76920    1.88470 3598.97170    1.60130    1.82360    1.82780   21.80550   73.92700   -9999.25  105.82870  193.40670
 9188.50000 3719.22580   83.49270    0.36150    0.17460    6.58790    0.05780    2.41310    1.88660    1.92050 3691.03490    1.67220    1.92580    1.92970   21.56030   78.81740   -9999.25  108.31530  193.79850
 9189.00000 4093.71730   82.71430    0.35800    0.16400    6.54260    0.06330    2.42940    1.86490    1.80110 4012.71920    1.66280    1.82960    1.83340   21.24070   81.99630   -9999.25  109.93730  193.60700
 9189.50000 4280.43310   83.45660    0.35690    0.15840    6.57280    0.06120    2.43990    1.77260    1.73940 4297.69530    1.64570    1.73810    1.74180   21.37540   81.72100   -9999.25  111.36930  193.44170
 9190.00000 4248.70460   83.27650    0.35480    0.15560    6.58560    0.05820    2.44340    1.77090    1.73950 4260.37210    1.64780    1.71570    1.71800   21.70810   79.71000   -9999.25  112.45420  193.27650
 9190.50000 4168.82670   80.04560    0.35230    0.15590    6.56990    0.05430    2.44340    1.81050    1.74420 4167.75490    1.69580    1.71980    1.72230   21.97170   78.49360   -9999.25  112.42540  193.31740
 9191.00000 4093.37870   77.22880    0.35240    0.15940    6.55630    0.05050    2.43830    1.82150    1.74610 4091.88550    1.74580    1.75840    1.76110   22.00370   78.40040   -9999.25  112.13500  194.06990
 9191.50000 4017.93070   74.87300    0.35540    0.16600    6.66410    0.04870    2.42820    1.87080    1.80370 4016.68770    1.79430    1.79800    1.80100   22.01080   78.52440   -9999.25  111.21840  194.82240
 9192.00000 3938.54170   72.79120    0.35690    0.16940    6.79810    0.05050    2.41940    1.95520    1.89060 3942.95920    1.88830    1.89360    1.89740   22.10540   77.79850   -9999.25  109.83760  195.57500
