~Version ---------------------------------------------------
VERS.   2.0 : CWLS log ASCII Standard -VERSION 2.0
WRAP.    NO : One line per depth step
DLM . SPACE : Column Data Section Delimiter
~Well ------------------------------------------------------
STRT .F                 5858.0 : START DEPTH
STOP .F                 9695.0 : STOP DEPTH
STEP .F                    0.5 : STEP
NULL .                -9999.25 : NULL VALUE
COMP .                         : COMPANY
WELL .                         : WELL
FLD  .                         : FIELD
LOC  .                         : LOCATION
PROV .                         : PROVINCE
CNTY .                         : COUNTY
STAT .                         : STATE
CTRY .                         : COUNTRY
SRVC .                         : SERVICE COMPANY
DATE .                         : DATE
UWI  .                         : UNIQUE WELL ID
API  .                         : API NUMBER
SLAT .WGS84  6.099586948439203 : SURFACE LATITUDE
SLON .WGS84 2.9949352039792103 : SURFACE LONGITUDE
DATUM.F                1604.25 : DEPTH DATUM ELEV
~Curve Information -----------------------------------------
DEPT   .F     : 
TEND   .LB    : TENSION FROM DENSITY LOG
GRD    .GAPI  : GAMMA RAY FROM DENSITY LOG
NPHI_LS.DEC   : NEUTRON POROSITY LIMESTONE
DPO_LS .DEC   : HLDS DENSITY POROSITY
LCALD  .IN    : DENSITY CALIPER/LOWER CALIPER FROM DENSITY LOG
DRH    .G/C3  : BULK DENSITY CORRECTION
RHOB   .G/C3  : BULK DENSITY
AT20   .OHMM  : ARRAY INDUCTION TWO FOOT RESISTIVITY A20
AT60   .OHMM  : ARRAY INDUCTION TWO FOOT RESISTIVITY A60
TENR   .LB    : TENSION FROM RESISTIVITY LOG
AT10   .OHMM  : ARRAY INDUCTION TWO FOOT RESISTIVITY A10
AT30   .OHMM  : ARRAY INDUCTION TWO FOOT RESISTIVITY A30
AT90   .OHMM  : ARRAY INDUCTION TWO FOOT RESISTIVITY A90
SPR    .MV    : SPONTANEOUS POTENTIAL FROM RESISTIVITY LOG
GRS    .GAPI  : GAMMA RAY FROM SONIC LOG
SPHI_LS.DEC   : SONIC POROSITY [LIMESTONE]
DTCO   .US/F  : DELTA-T COMPRESSIONAL
DTSM   .US/F  : DELTA-T SHEAR
~Params ----------------------------------------------------
~Other -----------------------------------------------------
~ASCII -----------------------------------------------------
# ...
 9582.50000 3845.90770   42.55160    0.08720    0.01710    6.17320   -0.00860    2.68260    9.23710    3.34730 3831.32910    5.48930    4.57730    3.51930 -200.07460   51.08070    0.18250   70.80190  130.17680
 9583.00000 3804.06150   28.55590    0.03670    0.01540    6.19460   -0.01310    2.68350    5.15120    3.78030 3776.61080    6.94910    5.58040    3.13490 -200.01990   51.82500    0.13490   64.81650  115.36040
 9583.50000 4045.54790   18.48070    0.01080    0.01700    6.17650   -0.01800    2.68050   13.19660    4.62740 3932.91940   25.10320    9.47720    3.68940 -200.01510   42.96350    0.09310   60.92370  105.98460
 9584.00000 4394.68020   13.85670    0.00790    0.01550    6.17260   -0.01730    2.68360   15.36420    5.04050 4374.90670   36.15780    8.95350    4.01600 -200.01710   31.90320    0.05570   54.79690   99.33720
 9584.50000 4574.29440   12.33540    0.00900    0.01220    6.15020   -0.01630    2.68930    8.05400    4.68050 4568.16310   14.36070    5.45680    3.19760 -200.01910   20.81780    0.01260   52.52780   92.68970
 9585.00000 4490.39110   17.73370    0.01670    0.01550    6.15010   -0.01120    2.67980    4.18310    3.22260 4529.04440    7.58360    3.32560    2.16730 -200.02110   14.79030    0.00970   50.25870   94.33560
 9585.50000 4403.17380   32.32680    0.06290    0.04410    6.15390   -0.00820    2.62940    2.38690    2.21880 4398.11520    3.88620    2.19260    1.88800 -200.02310   13.91660    0.02300   56.28890   97.13880
 9586.00000 4315.95650   54.77650    0.12420    0.08890    6.15780   -0.00700    2.55030    1.84450    1.65730 4321.64840    2.30690    1.78120    1.65800 -200.03040   17.04630    0.08360   65.15590  106.08590
 9586.50000 4240.20560   76.72420    0.21500    0.12440    6.16160   -0.00150    2.49690    1.51840    1.45620 4238.39890    1.66770    1.45020    1.45600 -200.05540   29.54220    0.13520   74.02280  115.26980
 9587.00000 4179.97710   87.27010    0.27380    0.12980    6.16550    0.00940    2.48980    1.35140    1.28780 4191.57860    1.34640    1.27340    1.27860 -200.08030   42.73340    0.17200   82.88970  123.57980
 9587.50000 4092.12570   91.89990    0.31820    0.12020    6.16940    0.01720    2.50690    1.25840    1.22640 4097.21780    1.21020    1.21240    1.21410 -200.10530   58.74310    0.19280   91.75660  129.26840
 9588.00000 4063.89260   89.71400    0.31690    0.10180    6.13830    0.02470    2.53410    1.53700    1.33430 4022.67770    1.46050    1.47950    1.49350 -200.04610   76.44950    0.22560   95.62870  134.95710
 9588.50000 4035.65940   81.25000    0.28030    0.07610    6.10310    0.02580    2.58410    3.90890    2.92940 3928.25490    3.10850    3.21420    3.29590 -200.01910   83.84860    0.23100   85.82880  136.68220
 9589.00000 4027.56690   63.26800    0.19060    0.03230    6.08880    0.01830    2.65080    6.45090    6.28240 4003.46170    7.05760    6.25650    6.25640 -200.00630   86.67790    0.19890   76.02880  129.74450
 9589.50000 4081.55440   44.58620    0.09260    0.00080    6.07440    0.01080    2.70180    9.51540    8.70120 4080.24270   15.65900    9.48370    7.41430 -200.02460   81.87880    0.15940   67.83810  122.80680
 9590.00000 4135.31880   27.58220    0.03620   -0.01170    6.06010    0.00330    2.73190   10.97150   10.04670 4128.32570   19.93470   10.93220    7.89350 -200.02820   68.01680    0.11210   62.61560  115.86900
 9590.50000 4100.26810   19.46760    0.01380   -0.01600    6.04580   -0.00420    2.73680   12.99490   10.68800 4089.08980   24.86200   13.32160   13.53150 -200.05320   49.68090    0.06830   57.39310  108.93130
 9591.00000 4005.11740   16.21260    0.00940   -0.02030    6.03150   -0.00690    2.74200   24.78650   20.97290 4014.27290   67.74490   23.59260   22.67010 -200.04140   30.87830    0.03420   52.17060  101.99360
 9591.50000 3955.96680   14.32300    0.00740   -0.02590    6.02350   -0.00890    2.75280   47.27780   48.75870 3971.94510  554.20720   51.24250   32.52290 -200.02960   19.13110    0.02340   50.98380   95.05580
 9592.00000 3936.75020   12.84390    0.00620   -0.02780    6.02080   -0.01000    2.75470  195.82450  113.35610 3934.68310 1914.87740  165.15270   43.60920 -200.03830   14.95810    0.02170   50.64740   92.93010
 9592.50000 3911.68160   11.42150    0.00510   -0.01990    6.02940   -0.01100    2.74620  218.91040  125.18980 3897.42110 1690.53440  166.94300   40.86140 -200.14120   13.60790    0.02020   50.54020  101.03600
 9593.00000 3887.59960   10.98780    0.00460   -0.00790    6.03220   -0.01100    2.72780   99.75650   91.54990 3883.74880 1127.78690   93.40870   34.44680 -200.08910   11.83090    0.01870   50.43310  111.13330
 9593.50000 3892.48440   11.32300    0.00410   -0.00110    6.02780   -0.01080    2.71310   56.29660   82.51420 3890.25290  743.50680   78.05530   33.05330 -200.03710   10.28160    0.01680   50.00760  121.23060
 9594.00000 3891.05440   12.00470    0.00440   -0.00130    6.02570   -0.00900    2.71180   45.78320   74.37040 3892.03780  370.20020   72.19750   33.37360 -200.02320    9.71210    0.01260   49.52060  131.32790
 9594.50000 3860.00370   14.61850    0.00560   -0.00210    6.02590   -0.00740    2.71320   43.43610   61.79530 3852.55370  207.71010   58.64050   35.74270 -200.03160    9.63610    0.01400   49.03360  130.78990
 9595.00000 3860.27810   18.32650    0.00930   -0.00060    6.02500   -0.00700    2.71130   37.31600   48.92030 3854.90870  134.70380   47.62920   35.24070 -200.03190   10.60580    0.03140   60.08940  124.08080
 9595.50000 3861.56590   21.66650    0.01380    0.00130    6.03830   -0.00690    2.70860   24.77210   38.00660 3902.62080   88.57510   37.61270   32.04060 -200.03230   12.25150    0.09160   68.37450  117.37170
 9596.00000 3941.50980   23.58330    0.01900    0.00430    6.05190   -0.00550    2.70300   18.98390   29.52760 3950.33300   52.52500   27.32310   26.44450 -200.03260   14.56590    0.12630   63.39890  115.02490
 9596.50000 3971.28760   27.16170    0.02440    0.01180    6.03570   -0.00350    2.68930   16.90620   22.94030 3994.76880   44.36890   20.62660   20.81390 -200.03290   16.87660    0.11670   58.42340  121.07870
 9597.00000 3957.14990   33.80270    0.04200    0.02400    6.01340   -0.00250    2.67010   14.41010   18.25850 3948.17550   30.20200   15.27470   15.41230 -200.03330   17.72680    0.16220   60.55630  127.13250
 9597.50000 3887.59500   40.61740    0.06010    0.02850    5.99110    0.00170    2.66280   10.69280   13.23650 3890.10740   15.25180   11.31150   11.41250 -200.03360   18.52880    0.23970   79.79990  131.86240
 9598.00000 3861.22050   40.01220    0.05610    0.01930    5.96870    0.00610    2.67530    8.75030    9.70090 3849.62480   10.09670    9.98130    9.99790 -200.03190   22.87920    0.22560   75.01810  124.62560
 9598.50000 3851.22270   32.13610    0.03970    0.00620    5.99560    0.01080    2.69730   11.77350   14.50000 3840.29790   17.05590   15.70450   15.95210 -200.00290   30.35520    0.18210   69.01680  117.38890
 9599.00000 3846.99490   24.72170    0.02350   -0.00210    6.02240    0.01260    2.71060   27.10230   25.15500 3831.10790   40.67340   26.30710   26.71480 -199.97380   36.67720    0.13290   63.01550  110.15210
 9599.50000 3851.55000   20.78230    0.01610   -0.00340    6.08010    0.01130    2.71580   29.49940   34.19220 3837.25320   49.59950   33.12540   33.31000 -199.98130   36.09080    0.10250   58.21360  102.91540
 9600.00000 3851.52950   19.77760    0.01670   -0.00450    6.01920    0.00930    2.71720   23.41770   30.42610 3838.60720   47.34290   27.42500   27.56780 -200.00130   27.40880    0.03450   54.51210   95.67870
 9600.50000 3845.90090   19.68930    0.01770   -0.00590    5.95330    0.00730    2.71960   18.54660   22.66230 3838.54740   39.60380   22.31120   23.81290 -200.00150   18.72680    0.02050   50.81070  101.05070
 9601.00000 3835.19820   18.20170    0.01750   -0.00530    5.97060    0.00270    2.71860   15.55630   20.89630 3807.70780   30.69760   23.66540   26.58550 -200.00290   15.24230    0.02980   54.08370  118.47440
 9601.50000 3827.97360   15.64750    0.01690   -0.00280    6.03500   -0.00500    2.71440   22.04340   31.20520 3815.85250   47.56750   32.33530   34.42160 -199.99370   15.53190    0.05260   56.43500  135.89800
