~Version ---------------------------------------------------
VERS.   2.0 : CWLS log ASCII Standard -VERSION 2.0
WRAP.    NO : One line per depth step
DLM . SPACE : Column Data Section Delimiter
~Well ------------------------------------------------------
STRT .F                 5858.0 : START DEPTH
STOP .F                 9695.0 : STOP DEPTH
STEP .F                    0.5 : STEP
NULL .                -9999.25 : NULL VALUE
COMP .                         : COMPANY
WELL .                         : WELL
FLD  .                         : FIELD
LOC  .                         : LOCATION
PROV .                         : PROVINCE
CNTY .                         : COUNTY
STAT .                         : STATE
CTRY .                         : COUNTRY
SRVC .                         : SERVICE COMPANY
DATE .                         : DATE
UWI  .                         : UNIQUE WELL ID
API  .                         : API NUMBER
SLAT .WGS84  6.099586948439203 : SURFACE LATITUDE
SLON .WGS84 2.9949352039792103 : SURFACE LONGITUDE
DATUM.F                1604.25 : DEPTH DATUM ELEV
~Curve Information -----------------------------------------
DEPT   .F     : 
TEND   .LB    : TENSION FROM DENSITY LOG
GRD    .GAPI  : GAMMA RAY FROM DENSITY LOG
NPHI_LS.DEC   : NEUTRON POROSITY LIMESTONE
DPO_LS .DEC   : HLDS DENSITY POROSITY
LCALD  .IN    : DENSITY CALIPER/LOWER CALIPER FROM DENSITY LOG
DRH    .G/C3  : BULK DENSITY CORRECTION
RHOB   .G/C3  : BULK DENSITY
AT20   .OHMM  : ARRAY INDUCTION TWO FOOT RESISTIVITY A20
AT60   .OHMM  : ARRAY INDUCTION TWO FOOT RESISTIVITY A60
TENR   .LB    : TENSION FROM RESISTIVITY LOG
AT10   .OHMM  : ARRAY INDUCTION TWO FOOT RESISTIVITY A10
AT30   .OHMM  : ARRAY INDUCTION TWO FOOT RESISTIVITY A30
AT90   .OHMM  : ARRAY INDUCTION TWO FOOT RESISTIVITY A90
SPR    .MV    : SPONTANEOUS POTENTIAL FROM RESISTIVITY LOG
GRS    .GAPI  : GAMMA RAY FROM SONIC LOG
SPHI_LS.DEC   : SONIC POROSITY [LIMESTONE]
DTCO   .US/F  : DELTA-T COMPRESSIONAL
DTSM   .US/F  : DELTA-T SHEAR
~Params ----------------------------------------------------
~Other -----------------------------------------------------
~ASCII -----------------------------------------------------
# ...
 9134.00000 3611.22850  100.41080    0.31850    0.10230    6.29690    0.04380    2.53710    1.98710    1.93540 3633.18380    1.97300    1.95490    1.95760   24.65950   94.65820   -9999.25  103.07110  201.33030
 9134.50000 3611.26120   99.07030    0.32850    0.09690    6.30520    0.04310    2.54530    1.97070    1.92450 3628.57790    1.97110    1.92510    1.92790   24.37530   94.77610   -9999.25  102.89430  199.17070
 9135.00000 3611.33300   98.12340    0.33410    0.09430    6.31130    0.04110    2.55050    1.95190    1.91360 3623.45850    1.96920    1.89920    1.90190   24.42550   94.87810   -9999.25  103.28590  203.08400
 9135.50000 3637.87210   97.33480    0.33040    0.09780    6.32730    0.03880    2.54210    1.93330    1.90280 3646.94780    1.96740    1.88660    1.88920   24.44490   94.20050   -9999.25  103.67750  207.73020
 9136.00000 3651.14790   96.28330    0.31840    0.10440    6.34100    0.03840    2.52920    1.93290    1.89830 3654.85230    1.96710    1.89060    1.89320   24.40950   94.30740   -9999.25  103.07050  207.41890
 9136.50000 3651.87450   96.02290    0.30370    0.10990    6.33960    0.03980    2.52220    1.95200    1.90600 3666.74930    1.97000    1.90520    1.90780   24.29840   95.67620   -9999.25  102.43950  198.07420
 9137.00000 3651.39160   97.02910    0.29620    0.10830    6.32570    0.04510    2.52700    1.97310    1.93530 3678.64650    1.97300    1.91420    1.91730   24.18730   97.04490   -9999.25  101.80860  191.31140
 9137.50000 3672.15890   98.01770    0.29650    0.10020    6.31180    0.05350    2.54270    1.99420    1.96770 3685.97360    2.02480    1.96300    1.96580   24.08360   97.41830   -9999.25  101.38930  194.25880
 9138.00000 3659.22360   99.28300    0.29910    0.09320    6.28030    0.05400    2.54950    2.00270    1.97370 3662.06960    2.06600    1.98790    1.99070   24.07510   96.74540   -9999.25  101.61840  198.00120
 9138.50000 3644.02250  101.46820    0.29970    0.09650    6.23750    0.05160    2.54520    1.99100    1.96240 3646.21170    2.05930    1.97010    1.97170   24.23950   95.96310   -9999.25  101.84760  201.74370
 9139.00000 3642.37130  105.40740    0.30070    0.10390    6.21000    0.04490    2.53380    1.97070    1.94220 3654.42210    2.02220    1.96400    1.95290   24.32940   95.18070   -9999.25  102.26860  201.89280
 9139.50000 3650.98020  107.09900    0.30560    0.10730    6.20690    0.03670    2.52690    1.96230    1.94250 3665.38450    1.98730    1.95790    1.92870   24.33850   93.96590   -9999.25  103.02860  201.99580
 9140.00000 3659.58940  105.15890    0.30930    0.10970    6.20570    0.02890    2.52360    1.98020    1.95070 3656.90330    1.98590    1.95190    1.90490   24.39930   93.92370   -9999.25  103.78870  199.76500
 9140.50000 3639.02270  102.08500    0.30730    0.11180    6.20300    0.02090    2.52010    1.98940    1.95290 3651.22710    1.98450    1.94540    1.88130   24.46080   94.67730   -9999.25  103.68860  196.87280
 9141.00000 3602.06880  100.38770    0.30210    0.11210    6.20150    0.01560    2.51990    1.94580    1.89740 3620.32570    1.98310    1.90290    1.84630   24.49060   96.26200   -9999.25  103.31930  193.98060
 9141.50000 3599.60890  100.52480    0.29690    0.10800    6.18360    0.01650    2.52670    1.88260    1.83130 3612.48340    1.98170    1.86120    1.79600   24.49780   95.90130   -9999.25  102.95000  193.96620
 9142.00000 3602.21360  100.63950    0.29580    0.10450    6.17560    0.01710    2.53300    1.82820    1.76750 3614.70190    1.97940    1.82050    1.74710   24.43980   94.46330   -9999.25  102.58070  196.68370
 9142.50000 3605.36820   99.66790    0.29600    0.10570    6.17020    0.01730    2.53020    1.77730    1.72480 3618.83150    1.97670    1.78190    1.69950   24.39200   93.75040   -9999.25  102.56210  202.31640
 9143.00000 3608.52290   98.12590    0.29830    0.11180    6.17760    0.01600    2.51860    1.84300    1.74530 3611.78300    1.97390    1.78030    1.69910   24.34420   97.12830   -9999.25  102.89410  207.94910
 9143.50000 3602.86180   98.35340    0.30220    0.11640    6.19910    0.01600    2.50950    2.03440    1.88510 3604.73410    2.14600    1.94870    1.86760   24.31080  101.42160   -9999.25  103.65900  212.57360
 9144.00000 3578.56760   99.44250    0.31500    0.11700    6.22060    0.01830    2.50880    2.14820    2.02170 3589.60940    2.25690    2.12090    1.88850   24.05700  105.25000   -9999.25  104.46150  212.82920
 9144.50000 3558.25340   99.41220    0.31910    0.11580    6.24220    0.02080    2.51160    2.17820    2.12490 3577.79440    2.27880    2.13070    1.87450   23.78100  105.62230   -9999.25  105.26410  212.73200
 9145.00000 3569.34550   94.30330    0.30690    0.11070    6.26300    0.01650    2.52170    2.21780    2.17330 3579.29100    2.42100    2.16850    1.84860   23.74140  103.69950   -9999.25  106.06670  206.35860
 9145.50000 3590.73970   85.43480    0.27740    0.09750    6.23140    0.01130    2.54130    2.39250    2.30570 3580.22070    2.66840    2.32100    2.16390   23.73830  102.05130   -9999.25  105.17620  196.29550
 9146.00000 3592.56470   77.37270    0.25170    0.07260    6.22690    0.00660    2.58260    2.60830    2.48960 3581.32250    2.70380    2.50910    2.53300   23.79140  101.83640   -9999.25  101.35410  187.29460
 9146.50000 3589.77220   72.92690    0.23290    0.05310    6.22700    0.00440    2.61720    2.67410    2.61830 3583.56670    2.90200    2.56910    2.54240   23.92270  103.73900   -9999.25   97.53200  178.71730
 9147.00000 3584.72630   71.78950    0.23630    0.05370    6.22710   -0.00070    2.61790    2.46860    2.35730 3583.12720    2.71120    2.39750    2.33390   23.93170  105.16760    0.29910   93.62120  169.55670
 9147.50000 3589.60110   71.99810    0.24680    0.07220    6.22500   -0.00200    2.58870    2.18900    2.11910 3583.04350    2.36060    2.23740    2.15610   23.93470  103.46160    0.28930   89.54680  154.81080
 9148.00000 3606.96090   74.01580    0.25640    0.08900    6.22940    0.00340    2.56110    2.18020    2.11820 3598.83230    2.19020    2.13860    2.19790   23.85170   98.04540    0.26990   85.90370  143.09390
 9148.50000 3623.72680   75.85110    0.26400    0.09470    6.24610    0.01660    2.54830    2.26810    2.21030 3619.58250    2.23270    2.11030    2.24050   23.75690   89.59170    0.27680   88.32480  143.26000
 9149.00000 3611.93460   78.68450    0.26420    0.10060    6.29010    0.04320    2.53990    2.25660    2.19480 3629.43070    2.20010    2.08240    2.18420   23.70590   79.68900    0.29810   90.74580  154.62130
 9149.50000 3600.14230   79.54790    0.26360    0.10950    6.33050    0.06020    2.52450    2.07620    2.00950 3625.06200    2.07480    1.98570    1.99170   23.59100   75.21060    0.29910   92.35770  168.54300
 9150.00000 3610.71070   78.65390    0.26300    0.11210    6.37540    0.06590    2.51790    1.91030    1.84130 3620.69340    1.96330    1.85330    1.85600   23.37530   73.11740   -9999.25   93.22130  175.48140
 9150.50000 3640.20900   76.25680    0.25800    0.10730    6.42570    0.07200    2.52600    1.83390    1.80550 3656.02640    1.87080    1.81710    1.81980   23.16840   71.89470   -9999.25   98.01280  182.41980
 9151.00000 3744.95800   74.78470    0.24820    0.09520    6.52550    0.07190    2.54860    1.81350    1.79180 3764.72220    1.85040    1.80880    1.81120   23.32640   72.51200   -9999.25  104.52560  190.19920
 9151.50000 3836.95900   74.43590    0.24210    0.08190    6.52500    0.05780    2.57040    1.84270    1.80100 3842.69650    1.84890    1.82280    1.82530   23.68610   74.79090   -9999.25  105.78740  198.14850
 9152.00000 3813.94340   75.29370    0.23580    0.07520    6.42190    0.04390    2.58140    1.87230    1.83970 3812.67460    1.86840    1.83180    1.83460   23.89670   76.54040   -9999.25  103.88660  206.09770
 9152.50000 3747.31030   76.13230    0.22870    0.07450    6.31700    0.02490    2.58240    1.90240    1.88100 3755.07710    1.90760    1.86900    1.87170   24.12340   76.02870   -9999.25  101.43110  205.65230
 9153.00000 3687.17680   75.66450    0.22150    0.07570    6.21540    0.01780    2.58000    2.00070    1.95500 3697.48000    2.01000    1.98360    1.98760   24.13390   72.47510   -9999.25   98.97550  199.52510
