~Version ---------------------------------------------------
VERS.   2.0 : CWLS log ASCII Standard -VERSION 2.0
WRAP.    NO : One line per depth step
DLM . SPACE : Column Data Section Delimiter
~Well ------------------------------------------------------
STRT .F                 5858.0 : START DEPTH
STOP .F                 9695.0 : STOP DEPTH
STEP .F                    0.5 : STEP
NULL .                -9999.25 : NULL VALUE
COMP .                         : COMPANY
WELL .                         : WELL
FLD  .                         : FIELD
LOC  .                         : LOCATION
PROV .                         : PROVINCE
CNTY .                         : COUNTY
STAT .                         : STATE
CTRY .                         : COUNTRY
SRVC .                         : SERVICE COMPANY
DATE .                         : DATE
UWI  .                         : UNIQUE WELL ID
API  .                         : API NUMBER
SLAT .WGS84  6.099586948439203 : SURFACE LATITUDE
SLON .WGS84 2.9949352039792103 : SURFACE LONGITUDE
DATUM.F                1604.25 : DEPTH DATUM ELEV
~Curve Information -----------------------------------------
DEPT   .F     : 
TEND   .LB    : TENSION FROM DENSITY LOG
GRD    .GAPI  : GAMMA RAY FROM DENSITY LOG
NPHI_LS.DEC   : NEUTRON POROSITY LIMESTONE
DPO_LS .DEC   : HLDS DENSITY POROSITY
LCALD  .IN    : DENSITY CALIPER/LOWER CALIPER FROM DENSITY LOG
DRH    .G/C3  : BULK DENSITY CORRECTION
RHOB   .G/C3  : BULK DENSITY
AT20   .OHMM  : ARRAY INDUCTION TWO FOOT RESISTIVITY A20
AT60   .OHMM  : ARRAY INDUCTION TWO FOOT RESISTIVITY A60
TENR   .LB    : TENSION FROM RESISTIVITY LOG
AT10   .OHMM  : ARRAY INDUCTION TWO FOOT RESISTIVITY A10
AT30   .OHMM  : ARRAY INDUCTION TWO FOOT RESISTIVITY A30
AT90   .OHMM  : ARRAY INDUCTION TWO FOOT RESISTIVITY A90
SPR    .MV    : SPONTANEOUS POTENTIAL FROM RESISTIVITY LOG
GRS    .GAPI  : GAMMA RAY FROM SONIC LOG
SPHI_LS.DEC   : SONIC POROSITY [LIMESTONE]
DTCO   .US/F  : DELTA-T COMPRESSIONAL
DTSM   .US/F  : DELTA-T SHEAR
~Params ----------------------------------------------------
~Other -----------------------------------------------------
~ASCII -----------------------------------------------------
# ...
 9290.00000 3638.44460   86.47930    0.27990    0.11220    6.15930   -0.00180    2.51790    1.72210    1.68690 3626.80980    1.78620    1.69310    1.59830   29.90780   91.14610   -9999.25  101.02120  181.81080
 9290.50000 3647.74560   85.25450    0.28070    0.11370    6.15940   -0.00310    2.51440    1.73780    1.70210 3632.16430    1.79460    1.72400    1.60420   29.91780   89.16720   -9999.25  100.53210  184.00860
 9291.00000 3656.97140   84.28890    0.27670    0.11880    6.15950   -0.00470    2.50680    1.73360    1.69530 3649.73270    1.79750    1.71270    1.60790   29.92790   85.90520   -9999.25  100.04870  186.20640
 9291.50000 3664.19870   84.66330    0.27010    0.12100    6.15950   -0.00540    2.50210    1.72940    1.68860 3652.89600    1.80430    1.70070    1.61080   29.93800   83.90160   -9999.25   99.81390  183.83930
 9292.00000 3664.39310   85.57750    0.26540    0.12010    6.15960   -0.00560    2.50370    1.72270    1.68200 3631.97050    1.80730    1.68870    1.61540   29.94800   84.80970   -9999.25   99.61760  180.23860
 9292.50000 3664.28520   87.01340    0.26320    0.11580    6.15970   -0.00470    2.51000    1.70920    1.67420 3645.51780    1.78920    1.67690    1.61120   29.95810   86.85980   -9999.25  100.05420  180.68250
 9293.00000 3664.75420   88.27710    0.26890    0.11220    6.15970   -0.00390    2.51690    1.69580    1.66530 3659.06490    1.74060    1.66510    1.59530   29.96810   87.51570   -9999.25  100.65800  180.98520
 9293.50000 3675.27510   88.88840    0.27130    0.10920    6.16020   -0.00380    2.52250    1.69010    1.66020 3669.36820    1.75390    1.67440    1.60230   29.97820   87.70140   -9999.25  101.05510  177.69310
 9294.00000 3691.65530   89.06900    0.26770    0.10830    6.19290   -0.00450    2.52480    1.69310    1.65700 3686.16530    1.78520    1.68540    1.61470   29.98830   89.00250   -9999.25  101.02270  174.27400
 9294.50000 3704.00490   89.73630    0.26480    0.11160    6.20020   -0.00530    2.52130    1.69780    1.65390 3698.99150    1.80900    1.69640    1.62580   29.99830   91.46760   -9999.25  100.05410  173.41060
 9295.00000 3701.57130   90.64700    0.26600    0.11750    6.20040   -0.00620    2.51060    1.70100    1.65390 3696.97710    1.78840    1.67470    1.62060   30.00840   92.06540   -9999.25  102.74730  173.13690
 9295.50000 3695.49900   89.93570    0.27530    0.11830    6.19330   -0.00670    2.50630    1.67880    1.63830 3694.13940    1.75170    1.63510    1.61530   30.01850   91.01490   -9999.25  101.89990  172.86320
 9296.00000 3690.20830   88.34970    0.28280    0.11280    6.18630   -0.00440    2.51260    1.66610    1.60820 3697.76640    1.70510    1.61240    1.61460   30.02850   89.34200   -9999.25  101.05240  173.36480
 9296.50000 3697.47290   85.73440    0.28730    0.10560    6.17920   -0.00320    2.52510    1.70630    1.66600 3699.56880    1.72080    1.64840    1.65170   30.03860   89.80020   -9999.25  100.20500  179.61130
 9297.00000 3704.73750   85.82130    0.28240    0.10090    6.17210   -0.00310    2.53650    1.79240    1.73890 3699.91850    1.83050    1.73220    1.73560   30.04860   90.98360   -9999.25   99.24080  187.50910
 9297.50000 3706.62450   87.38780    0.27260    0.10100    6.16510   -0.00350    2.53860    1.88280    1.81490 3700.26810    1.96610    1.82030    1.82380   30.05870   90.93580   -9999.25   97.99230  195.37540
 9298.00000 3707.71920   88.18870    0.25430    0.10110    6.16120   -0.00380    2.53280    1.95020    1.88010 3701.28080    2.07050    1.91360    1.87530   30.06880   88.24710   -9999.25   97.05120  195.16640
 9298.50000 3716.61620   88.01070    0.25730   -9999.25    6.16390   -0.00360    2.52710    1.92250    1.85570 3713.32570    2.00110    1.90860    1.85070   29.98120   84.22380   -9999.25   96.19000  192.27670
 9299.00000 3725.51320   87.03640    0.26080   -9999.25    6.17030   -0.00350    2.53010    1.89750    1.83250 3726.21750    1.97800    1.89490    1.85070   29.77280   81.40030   -9999.25   95.96880  187.95430
 9299.50000 3740.09160   86.24480    0.25410   -9999.25    6.17660   -0.00240    2.54170    2.00230    1.93310 3739.10960    2.09560    1.96750    1.90890   29.44980   81.35740   -9999.25   96.23310  184.49640
 9300.00000 3739.06860   86.06710   -9999.25   -9999.25    6.17740   -0.00090    2.54840    2.09420    2.02270 3730.56250    2.22000    2.05020    2.01260   29.28330   81.93830   -9999.25   96.24260  183.55310
 9300.50000 3726.41110   85.62910    0.25060    0.09720    6.17110    0.00050    2.55060    2.06240    1.99880 3718.06590    2.20730    2.03370    2.01540   29.27290   81.97610   -9999.25   95.49490  182.60990
 9301.00000 3718.88230   84.09110    0.25400    0.10150    6.16480   -0.00170    2.54120    2.01260    1.95570 3711.67260    2.10720    1.97270    1.96080   29.25900   80.70280   -9999.25   95.15200  181.66670
 9301.50000 3708.61010   83.88290    0.25740    0.10600    6.15850   -0.00380    2.53100    1.96330    1.91170 3703.54540    2.05840    1.91800    1.92080   29.20800   78.91520   -9999.25   95.64520  184.21930
 9302.00000 3704.28740   86.31570    0.25970    0.10940    6.15220   -0.00310    2.52990    1.92050    1.88370 3696.77950    1.99070    1.87010    1.87310   29.15370   77.10890   -9999.25   96.27560  187.79600
 9302.50000 3702.31710   88.45180    0.26230    0.11680    6.14580   -0.00300    2.53120    1.93340    1.89530 3690.55300    2.01170    1.92260    1.92570   29.14240   76.70990   -9999.25   96.92290  188.83590
 9303.00000 3686.29350   89.20580    0.26480    0.11480    6.13950   -0.00290    2.53160    1.95460    1.92660 3676.20730    2.07610    1.94810    1.95080   29.13100   78.58870   -9999.25   97.07310  185.24340
 9303.50000 3682.36790   86.88590    0.26660    0.11070    6.13490   -0.00280    2.53100    1.95750    1.92090 3665.40330    2.07760    1.95370    1.95640   29.12040   81.84520   -9999.25   96.89280  177.26760
 9304.00000 3681.90140   84.32040    0.26660    0.10660    6.13510   -0.00340    2.53120    1.93560    1.91330 3667.08200    2.08010    1.94230    1.94510   29.28110   83.52880   -9999.25   96.22030  168.17460
 9304.50000 3676.72440   81.75500    0.26660    0.10240    6.13520   -0.00520    2.53260    2.00540    1.96320 3662.88620    2.10740    1.99260    1.99650   29.58670   83.14240   -9999.25   95.34080  167.44860
 9305.00000 3665.24680   79.18960    0.26270    0.10060    6.13540   -0.00690    2.53170    2.07780    2.03130 3656.23140    2.16980    2.04610    2.04910   29.87480   81.77120   -9999.25   94.25020  170.99250
 9305.50000 3656.15920   77.02590    0.25850    0.10110    6.13550   -0.00970    2.53030    2.08110    2.04440 3666.06790    2.18910    2.08750    2.09050   30.04520   81.64460   -9999.25   93.66430  174.48260
 9306.00000 3662.23540   75.90610    0.25440    0.10160    6.13560   -0.01010    2.53000    2.13910    2.09120 3673.55180    2.25310    2.12960    2.13280   30.16240   81.52460   -9999.25   93.62790  173.44000
 9306.50000 3663.85470   75.36720    0.25030    0.10080    6.13580   -0.01010    2.53200    2.22520    2.18370 3661.01830    2.37760    2.16340    2.16640   30.24220   81.09490   -9999.25   94.01380  172.39740
 9307.00000 3663.14750   75.20180    0.24620    0.10010    6.13590   -0.01060    2.53600    2.25010    2.20560 3658.29880    2.39780    2.15500    2.15790   30.08500   79.94220   -9999.25   93.93950  171.32670
 9307.50000 3662.53150   75.41040    0.24230    0.09930    6.13610   -0.01060    2.53560    2.21070    2.17530 3657.60890    2.36870    2.14560    2.14860   29.87650   79.39720   -9999.25   92.79820  167.41320
 9308.00000 3670.20630   75.64850    0.24450    0.10140    6.13620   -0.00930    2.52600    2.17210    2.12630 3657.20090    2.33660    2.13450    2.13740   29.61980   79.79350   -9999.25   92.04610  163.49970
 9308.50000 3678.25320   76.90690    0.26520    0.10990    6.13630   -0.00800    2.50760    2.09830    2.02200 3657.39770    2.20240    2.08780    2.09600   29.36300   81.47790   -9999.25   91.66580  162.78550
 9309.00000 3681.52200   78.64150    0.28190    0.11860    6.13650   -0.00810    2.49690    1.85900    1.77800 3657.59420    1.86070    1.84460    1.85060   29.30900   83.35410   -9999.25   94.90680  175.12780
