~Version ---------------------------------------------------
VERS.   2.0 : CWLS log ASCII Standard -VERSION 2.0
WRAP.    NO : One line per depth step
DLM . SPACE : Column Data Section Delimiter
~Well ------------------------------------------------------
STRT .F                 5858.0 : START DEPTH
STOP .F                 9695.0 : STOP DEPTH
STEP .F                    0.5 : STEP
NULL .                -9999.25 : NULL VALUE
COMP .                         : COMPANY
WELL .                         : WELL
FLD  .                         : FIELD
LOC  .                         : LOCATION
PROV .                         : PROVINCE
CNTY .                         : COUNTY
STAT .                         : STATE
CTRY .                         : COUNTRY
SRVC .                         : SERVICE COMPANY
DATE .                         : DATE
UWI  .                         : UNIQUE WELL ID
API  .                         : API NUMBER
SLAT .WGS84  6.099586948439203 : SURFACE LATITUDE
SLON .WGS84 2.9949352039792103 : SURFACE LONGITUDE
DATUM.F                1604.25 : DEPTH DATUM ELEV
~Curve Information -----------------------------------------
DEPT   .F     : 
TEND   .LB    : TENSION FROM DENSITY LOG
GRD    .GAPI  : GAMMA RAY FROM DENSITY LOG
NPHI_LS.DEC   : NEUTRON POROSITY LIMESTONE
DPO_LS .DEC   : HLDS DENSITY POROSITY
LCALD  .IN    : DENSITY CALIPER/LOWER CALIPER FROM DENSITY LOG
DRH    .G/C3  : BULK DENSITY CORRECTION
RHOB   .G/C3  : BULK DENSITY
AT20   .OHMM  : ARRAY INDUCTION TWO FOOT RESISTIVITY A20
AT60   .OHMM  : ARRAY INDUCTION TWO FOOT RESISTIVITY A60
TENR   .LB    : TENSION FROM RESISTIVITY LOG
AT10   .OHMM  : ARRAY INDUCTION TWO FOOT RESISTIVITY A10
AT30   .OHMM  : ARRAY INDUCTION TWO FOOT RESISTIVITY A30
AT90   .OHMM  : ARRAY INDUCTION TWO FOOT RESISTIVITY A90
SPR    .MV    : SPONTANEOUS POTENTIAL FROM RESISTIVITY LOG
GRS    .GAPI  : GAMMA RAY FROM SONIC LOG
SPHI_LS.DEC   : SONIC POROSITY [LIMESTONE]
DTCO   .US/F  : DELTA-T COMPRESSIONAL
DTSM   .US/F  : DELTA-T SHEAR
~Params ----------------------------------------------------
~Other -----------------------------------------------------
~ASCII -----------------------------------------------------
# ...
 9504.50000 3830.38530   93.74210    0.26100    0.17930    6.10830   -0.00730    2.40450    3.43990    3.80000 3851.07470    3.74820    3.35340    4.26570   30.45940   91.35430   -9999.25  107.79870  206.11430
 9505.00000 3833.34590   93.89190    0.29050    0.17860    6.09040   -0.00340    2.41100    3.06990    3.38650 3851.80740    3.25920    2.98990    3.60300   30.38530   92.15990   -9999.25  110.28200  206.30190
 9505.50000 3837.55030   94.04510    0.30200    0.17660    6.05960    0.00370    2.42170    2.72150    3.00280 3851.62700    2.83410    2.66160    3.04330   30.33380   92.44370   -9999.25  114.34370  200.37100
 9506.00000 3839.47830   96.44320    0.31370    0.17020    6.05970    0.00880    2.42980    2.42220    2.59110 3851.40190    2.46440    2.36940    2.57050   30.31800   93.10640   -9999.25  118.53830  194.44020
 9506.50000 3832.59720  100.05840    0.31650    0.16680    6.06130    0.01290    2.42770    2.11340    2.23590 3851.83030    2.14290    2.10920    2.17120   30.24740   95.09270   -9999.25  121.49890  194.57740
 9507.00000 3835.54760  102.33480    0.31940    0.16760    6.08310    0.01170    2.41620    1.83110    1.92940 3852.57810    1.86330    1.86450    1.87450   29.81150   97.18720   -9999.25  123.07980  202.69320
 9507.50000 3843.22850  102.39340    0.32520    0.16840    6.09300    0.00930    2.40580    1.59660    1.66490 3854.17290    1.61990    1.62970    1.63700   29.94270   99.82360   -9999.25  123.78480  213.13820
 9508.00000 3859.81100  102.28170    0.32840    0.16920    6.09810    0.00880    2.40270    1.49780    1.53560 3862.44600    1.51700    1.51990    1.52200   30.07380  101.73520   -9999.25  124.12480  219.35540
 9508.50000 3860.38500  103.47610    0.32740    0.17000    6.09510    0.01060    2.40340    1.57430    1.56500 3865.76710    1.53570    1.53980    1.54290   30.02530  102.52610   -9999.25  124.96120  218.88630
 9509.00000 3858.15550  106.52740    0.32640    0.17080    6.06420    0.01230    2.40440    1.74160    1.68120 3857.18070    1.66870    1.67360    1.67730   30.28500  102.22670   -9999.25  125.98730  217.71590
 9509.50000 3846.75630  110.75480    0.32590    0.17350    6.03330    0.01300    2.40190    1.94950    1.83060 3850.92330    1.85240    1.85790    1.86180   30.44020  101.83840   -9999.25  126.11320  212.89420
 9510.00000 3830.21460  114.29350    0.32620    0.18120    6.02240    0.01190    2.40020    2.07470    1.87680 3844.27030    2.10360    2.10820    2.11140   30.63830  102.96970   -9999.25  125.59070  207.60610
 9510.50000 3821.21700  115.10030    0.33130    0.18620    6.03140    0.01090    2.40110    1.90020    1.73130 3823.51590    1.83080    1.84230    1.85100   30.54280  105.43440   -9999.25  124.92590  203.10370
 9511.00000 3832.96610  111.45130    0.33640    0.18930    6.06830    0.01040    2.40920    1.74040    1.60890 3851.55300    1.73390    1.59840    1.60270   30.44700  108.85210   -9999.25  124.47580  204.07080
 9511.50000 3839.42140  106.73050    0.33800    0.18760    6.12000    0.00920    2.41650    1.73330    1.59530 3888.89060    1.71020    1.62490    1.63280   30.35660  111.66440   -9999.25  124.86680  208.59530
 9512.00000 3845.87670  103.92300    0.33610    0.18700    6.13530    0.00470    2.41290    2.02370    1.87220 3864.77930    1.99450    1.91280    1.92210   30.33530  111.64050   -9999.25  125.04380  213.11980
 9512.50000 3837.69240  103.31770    0.33420    0.18860    6.14640   -0.00010    2.39900    2.35250    2.21810 3840.66820    2.35240    2.25170    2.26280   30.42680  110.00780   -9999.25  124.41670  212.09230
 9513.00000 3820.05490  103.75850    0.33920    0.19170    6.15160   -0.00440    2.38020    2.19460    1.99980 3828.38940    2.54800    2.01650    2.02530   30.21740  107.84930   -9999.25  121.73650  210.47960
 9513.50000 3809.97090  105.36310    0.34630    0.19740    6.15070   -0.00390    2.37190    1.82580    1.68630 3815.41600    1.78610    1.77240    1.78250   30.00440  105.02730   -9999.25  121.22920  208.86700
 9514.00000 3816.21560  107.94660    0.35260    0.19970    6.17160   -0.00240    2.37610    1.53430    1.48470 3813.70190    1.57280    1.53650    1.54230   30.03650  102.46230   -9999.25  122.91950  207.25440
 9514.50000 3826.60860  110.36960    0.35590    0.19400    6.18400   -0.00020    2.38490    1.53060    1.50570 3839.44480    1.61180    1.54200    1.49400   30.04280  103.06160   -9999.25  125.13960  209.42560
 9515.00000 3818.46700  111.28110    0.35400    0.18840    6.14980    0.00190    2.39330    1.55260    1.52270 3839.57370    1.61660    1.59420    1.50730   30.15740  105.24250   -9999.25  126.99660  211.75070
 9515.50000 3814.53270  112.20090    0.34800    0.18490    6.15260    0.00190    2.39550    1.56000    1.52380 3825.19260    1.61660    1.62020    1.52270   30.28640  106.64460   -9999.25  128.49570  214.07580
 9516.00000 3819.77950  113.69140    0.34200    0.18270    6.15540   -0.00060    2.39320    1.71600    1.62250 3819.04130    1.79240    1.64060    1.64220   30.30280  107.39420   -9999.25  128.56760  216.40080
 9516.50000 3819.75730  115.63130    0.33790    0.18040    6.16830   -0.00310    2.38880    1.98960    1.89800 3819.72490    2.09570    1.92240    1.93150   30.30280  108.31440   -9999.25  127.94150  215.25730
 9517.00000 3820.92720  118.24850    0.33060    0.17860    6.18790   -0.00480    2.38390    2.24400    2.15400 3820.67600    2.45040    2.22080    2.22530   30.30280  109.93100   -9999.25  127.00390  212.37430
 9517.50000 3813.77980  119.08190    0.32330    0.17960    6.19970   -0.00560    2.37680    2.37730    2.32690 3821.62700    2.62900    2.33750    2.34070   30.30280  110.83390   -9999.25  126.22000  213.19660
 9518.00000 3815.81840  117.56000    0.32090    0.18640    6.20120   -0.00460    2.36900    2.36110    2.26930 3822.14180    2.60390    2.27230    2.27810   30.24510  111.63110   -9999.25  125.51640  214.26600
 9518.50000 3819.86380  115.40710    0.32080    0.19320    6.19010   -0.00370    2.36440    2.14900    2.04720 3820.43290    2.24320    2.07530    2.08080   30.14010  111.62350   -9999.25  125.09800  214.04980
 9519.00000 3817.71780  114.80910    0.32060    0.19860    6.17910   -0.00460    2.36190    1.95590    1.88540 3818.72410    1.99080    1.90390    1.90650   30.29640  110.82490   -9999.25  125.60980  214.48220
 9519.50000 3802.56370  114.85430    0.32020    0.20040    6.20730   -0.00420    2.36330    2.01450    1.95360 3812.69430    2.03980    1.98600    1.98900   30.45280  108.10200   -9999.25  126.13780  215.77290
 9520.00000 3791.28270  115.21230    0.32810    0.20090    6.22140   -0.00290    2.36880    1.98610    1.91000 3804.38530    1.95410    1.96390    1.96720   30.66280  104.80510   -9999.25  124.58600  217.06370
 9520.50000 3792.27910  116.00900    0.33560    0.19940    6.22170   -0.00150    2.38020    1.77420    1.68590 3808.63530    1.69670    1.70450    1.71010   30.72700  104.63610   -9999.25  124.07790  218.35440
 9521.00000 3796.41770  117.81770    0.34500    0.19610    6.20140   -0.00020    2.38420    1.54800    1.52400 3812.24290    1.55970    1.53590    1.53900   30.52720  107.36130   -9999.25  125.67550  219.64510
 9521.50000 3800.55640  118.20190    0.34290    0.19290    6.19780    0.00120    2.38850    1.52790    1.48490 3816.94800    1.56480    1.50170    1.50110   30.27920  112.66610   -9999.25  127.18110  220.14010
 9522.00000 3801.87430  115.94290    0.34100    0.18880    6.18500    0.00250    2.39380    1.53410    1.47420 3821.65280    1.56990    1.47820    1.46600   30.15590  116.46670   -9999.25  128.93300  217.45190
 9522.50000 3794.53080  114.34360    0.34530    0.18450    6.17220    0.00310    2.39710    1.48570    1.42860 3826.35770    1.54090    1.45500    1.42440   30.08910  118.73320   -9999.25  128.84650  213.64720
 9523.00000 3817.40040  114.95810    0.35320    0.18280    6.16480    0.00320    2.39620    1.43790    1.39200 3831.06250    1.49450    1.45080    1.38940   29.98050  117.31320   -9999.25  126.81480  208.26610
 9523.50000 3850.21510  115.29790    0.36110    0.18110    6.17170    0.00370    2.39850    1.49710    1.39750 3835.76730    1.51110    1.50460    1.39670   29.79020  113.85070   -9999.25  124.65510  202.88490
