~Version ---------------------------------------------------
VERS.   2.0 : CWLS log ASCII Standard -VERSION 2.0
WRAP.    NO : One line per depth step
DLM . SPACE : Column Data Section Delimiter
~Well ------------------------------------------------------
STRT .F                 5858.0 : START DEPTH
STOP .F                 9695.0 : STOP DEPTH
STEP .F                    0.5 : STEP
NULL .                -9999.25 : NULL VALUE
COMP .                         : COMPANY
WELL .                         : WELL
FLD  .                         : FIELD
LOC  .                         : LOCATION
PROV .                         : PROVINCE
CNTY .                         : COUNTY
STAT .                         : STATE
CTRY .                         : COUNTRY
SRVC .                         : SERVICE COMPANY
DATE .                         : DATE
UWI  .                         : UNIQUE WELL ID
API  .                         : API NUMBER
SLAT .WGS84  6.099586948439203 : SURFACE LATITUDE
SLON .WGS84 2.9949352039792103 : SURFACE LONGITUDE
DATUM.F                1604.25 : DEPTH DATUM ELEV
~Curve Information -----------------------------------------
DEPT   .F     : 
TEND   .LB    : TENSION FROM DENSITY LOG
GRD    .GAPI  : GAMMA RAY FROM DENSITY LOG
NPHI_LS.DEC   : NEUTRON POROSITY LIMESTONE
DPO_LS .DEC   : HLDS DENSITY POROSITY
LCALD  .IN    : DENSITY CALIPER/LOWER CALIPER FROM DENSITY LOG
DRH    .G/C3  : BULK DENSITY CORRECTION
RHOB   .G/C3  : BULK DENSITY
AT20   .OHMM  : ARRAY INDUCTION TWO FOOT RESISTIVITY A20
AT60   .OHMM  : ARRAY INDUCTION TWO FOOT RESISTIVITY A60
TENR   .LB    : TENSION FROM RESISTIVITY LOG
AT10   .OHMM  : ARRAY INDUCTION TWO FOOT RESISTIVITY A10
AT30   .OHMM  : ARRAY INDUCTION TWO FOOT RESISTIVITY A30
AT90   .OHMM  : ARRAY INDUCTION TWO FOOT RESISTIVITY A90
SPR    .MV    : SPONTANEOUS POTENTIAL FROM RESISTIVITY LOG
GRS    .GAPI  : GAMMA RAY FROM SONIC LOG
SPHI_LS.DEC   : SONIC POROSITY [LIMESTONE]
DTCO   .US/F  : DELTA-T COMPRESSIONAL
DTSM   .US/F  : DELTA-T SHEAR
~Params ----------------------------------------------------
~Other -----------------------------------------------------
~ASCII -----------------------------------------------------
# ...
 9251.00000 3650.65410   33.27870    0.06880    0.08620    6.05060   -0.00620    2.56080   74.25590   36.25210 3633.84280   36.19110   34.85730   18.99870    5.97670   30.51460    0.10940   62.86570  101.43750
 9251.50000 3663.06860   38.91380    0.08480    0.07150    6.07250   -0.00580    2.58560   34.77880   22.01530 3627.58910   26.31110   21.26080   14.42760    6.68760   27.63730    0.11540   63.48400  100.58540
 9252.00000 3680.50490   43.85540    0.10240    0.07000    6.09440   -0.00730    2.59250   15.33720   11.74420 3639.79860   19.70410   12.52590   10.44150    8.20650   27.99880    0.11880   70.43540  100.15490
 9252.50000 3689.73390   45.49120    0.11280    0.07520    6.11480   -0.00890    2.58140    9.77550    8.96740 3653.86720   14.94750    8.72490    8.75860   10.22420   31.80800    0.14120   79.91310  135.61600
 9253.00000 3670.39480   45.15960    0.11030    0.08230    6.11910   -0.00910    2.56980   10.92680   10.36260 3661.39840   12.06850    9.89420    9.93230   11.68150   37.32340    0.18010   76.83180  123.38460
 9253.50000 3654.07470   45.28420    0.10360    0.08500    6.11900   -0.00690    2.56480   12.23310   11.56610 3637.06350   11.70280   10.73340   10.78020   13.19950   41.58980    0.15860   71.03380  106.42260
 9254.00000 3660.10400   49.31740    0.10210    0.08720    6.11670   -0.00580    2.56200   10.33290    9.40010 3682.51760   10.95090    9.37480    9.41610   14.90860   43.48430    0.16650   80.89090  135.57320
 9254.50000 3794.90600   54.94250    0.10840    0.08980    6.11370   -0.00560    2.55710    8.10350    7.72670 3791.97580   10.18490    8.09380    8.22460   15.75350   44.74990    0.20990   79.55280  126.34820
 9255.00000 4060.36990   58.41700    0.11860    0.09110    6.11370   -0.00550    2.55450    7.14140    7.52470 4025.94070    9.67140    7.65290    8.21590   14.59310   46.22120    0.19550   75.49730  112.69300
 9255.50000 4154.22460   58.52600    0.12750    0.09440    6.12000   -0.00600    2.55010    6.99010    7.78360 4134.95210    9.23940    7.79400    8.39770   12.62190   50.15050    0.17640   72.62900  109.90290
 9256.00000 4115.96090   56.96230    0.13240    0.09910    6.11770   -0.00690    2.54230    6.94660    8.05140 4103.06540    8.96720    7.93770    8.63470   11.69460   55.21640    0.17630   73.90510  110.99240
 9256.50000 4024.66720   54.97890    0.13410    0.10550    6.12300   -0.00740    2.53160    6.99670    8.23500 4026.62720    8.98910    8.08400    8.93760   11.21170   58.75050    0.18400   75.18120  112.32350
 9257.00000 3947.41820   53.26460    0.13350    0.10830    6.13650   -0.00670    2.52510    7.08940    8.40840 3946.29130    9.10880    8.23300    9.25110   10.80510   60.04720    0.19320   75.49010  113.65450
 9257.50000 3864.59250   51.88970    0.13050    0.10980    6.12650   -0.00650    2.52350    7.18330    8.59390 3879.13130    9.16630    8.38480    9.57560   10.26420   59.84340    0.19870   75.26910  114.05260
 9258.00000 3814.38700   51.15350    0.12640    0.11240    6.11640   -0.00700    2.51890    7.23190    8.69790 3813.21530    8.88800    8.49890    9.90020    9.72330   58.59740    0.19800   74.89620  112.97000
 9258.50000 3771.67940   50.99920    0.12100    0.11630    6.12400   -0.00780    2.51150    7.05970    8.35650 3759.18040    8.10150    8.35880    9.79960    9.06270   56.78640    0.18610   73.94330  111.83180
 9259.00000 3809.11520   52.55550    0.12260    0.11840    6.14110   -0.00800    2.50650    6.55390    7.68900 3796.68360    7.38450    7.48280    8.94200    7.48300   54.26940    0.18060   73.00850  110.69360
 9259.50000 3881.71510   55.54270    0.12720    0.11900    6.15800   -0.00640    2.50540    5.93180    6.81290 3853.14920    6.79270    6.92510    8.04080    4.69570   52.07400    0.17720   72.56500  109.55540
 9260.00000 3855.23410   58.13520    0.12870    0.11690    6.16440   -0.00520    2.50970    6.90610    7.58270 3877.16720    7.95800    7.71990    9.07330    1.40140   52.45800    0.18150   73.12230  110.56350
 9260.50000 3813.59470   58.53910    0.11890    0.11400    6.15550   -0.00410    2.51460    8.23330    8.98680 3797.11650   10.68310    9.15860   10.88940    0.39950   55.06770    0.18980   74.19430  111.70520
 9261.00000 3755.66260   55.78630    0.10490    0.11170    6.14660   -0.00300    2.51890    9.90680   10.60170 3726.63230   14.71170   10.86540   13.06910   -0.60240   56.97570    0.19280   74.49550  112.63070
 9261.50000 3713.65090   51.66370    0.10040    0.11330    6.13550   -0.00380    2.51720    9.90680   12.50690 3707.31230   18.35250   12.64040   14.68410   -2.04610   55.43030    0.18580   73.15380  110.09760
 9262.00000 3709.28080   48.91780    0.10150    0.11760    6.12150   -0.00570    2.50970    9.60650   12.60640 3698.38480   17.04270   11.72760   12.73530   -5.76420   50.85400    0.16880   71.14140  107.56440
 9262.50000 3702.15770   44.74110    0.09670    0.12090    6.11410   -0.00760    2.50360    9.09410   11.23540 3697.65260   14.31250   10.17800   11.11540   -9.75560   48.01280    0.15880   70.22060  105.50940
 9263.00000 3688.08060   36.17540    0.08480    0.12340    6.08890   -0.00980    2.49840    9.41460   11.77130 3678.99830   15.95050   10.29610   11.72720  -15.21400   46.85100    0.16240   70.26000  105.12370
 9263.50000 3677.35770   28.33000    0.07270    0.12600    6.05520   -0.01250    2.49370   10.71080   13.44230 3651.90530   21.08250   11.25830   13.94970  -19.62530   45.09370    0.16000   69.99220  104.74580
 9264.00000 3669.02420   22.74000    0.07010    0.13000    6.02150   -0.01490    2.48670   13.05890   14.18080 3655.97880   22.55540   11.37650   14.03040  -23.50060   39.96050    0.15590   69.51160  104.39730
 9264.50000 3670.81010   21.59120    0.07170    0.13370    6.00480   -0.01690    2.48170   13.78550   14.04660 3660.63770   22.14340   11.49600   14.17580  -25.95870   33.69890    0.15260   69.73850  104.04880
 9265.00000 3683.23120   22.64160    0.07160    0.13140    6.00410   -0.01840    2.48490   13.24220   14.67570 3676.10400   23.32760   12.05890   14.81430  -27.60720   28.08580    0.16080   70.86870  106.56360
 9265.50000 3683.34740   24.49870    0.06730    0.12320    5.98620   -0.01740    2.49800   13.08750   16.78000 3670.09840   29.96650   13.58990   16.87960  -28.64340   26.08000    0.17080   71.99540  108.48990
 9266.00000 3662.92530   25.24210    0.06120    0.11440    5.98480   -0.01630    2.51400   15.88460   19.18610 3657.34500   39.54480   15.87750   19.52680  -29.27900   25.59700    0.16970   71.72490  107.47310
 9266.50000 3632.60720   25.73870    0.05930    0.10600    5.98470   -0.01510    2.52750   18.32050   21.93710 3611.82520   46.17810   18.55010   21.47760  -29.69070   25.23790    0.16600   70.33440  105.59340
 9267.00000 3603.19380   25.76810    0.06170    0.10640    5.98460   -0.01470    2.52850   18.65100   21.09370 3605.33590   47.72470   18.54710   21.18300  -29.36700   24.08540    0.15450   69.36160  103.71380
 9267.50000 3610.63160   25.80510    0.06430    0.10920    5.98450   -0.01470    2.52380   18.08060   21.09370 3598.84670   47.97080   18.85320   20.99910  -29.04340   22.28580    0.14960   78.17720  108.53870
 9268.00000 3610.12770   25.86570    0.06520    0.10660    5.98300   -0.01280    2.52920   17.80420   21.79330 3589.37010   47.62510   19.82340   21.56190  -28.45600   21.80440    0.14880   80.16000  128.32920
 9268.50000 3610.01370   26.19290    0.06540    0.09590    5.98420   -0.01050    2.54640   17.80420   23.34400 3592.24460   43.70840   20.84360   23.08740  -26.76360   22.35460    0.14890   68.92400  111.08670
 9269.00000 3609.87870   27.01900    0.06800    0.08860    6.00810   -0.00670    2.55990   17.64130   24.24760 3600.91460   39.52080   21.91620   22.86310  -24.84170   24.18770    0.14700   68.50560  102.02990
 9269.50000 3632.61080   28.78430    0.07590    0.09400    6.03400   -0.00590    2.54600   15.33960   20.13380 3613.98780   30.03670   19.05560   19.15900  -22.75130   25.21160    0.14490   67.89000  101.04620
 9270.00000 3655.65990   32.17730    0.08450    0.10580    6.05980   -0.00630    2.53020   12.41790   15.98760 3625.56050   23.49260   15.97550   16.67280  -21.27680   25.41660    0.14450   68.15390  101.10710
