~Version ---------------------------------------------------
VERS.   2.0 : CWLS log ASCII Standard -VERSION 2.0
WRAP.    NO : One line per depth step
DLM . SPACE : Column Data Section Delimiter
~Well ------------------------------------------------------
STRT .F                 5858.0 : START DEPTH
STOP .F                 9695.0 : STOP DEPTH
STEP .F                    0.5 : STEP
NULL .                -9999.25 : NULL VALUE
COMP .                         : COMPANY
WELL .                         : WELL
FLD  .                         : FIELD
LOC  .                         : LOCATION
PROV .                         : PROVINCE
CNTY .                         : COUNTY
STAT .                         : STATE
CTRY .                         : COUNTRY
SRVC .                         : SERVICE COMPANY
DATE .                         : DATE
UWI  .                         : UNIQUE WELL ID
API  .                         : API NUMBER
SLAT .WGS84  6.099586948439203 : SURFACE LATITUDE
SLON .WGS84 2.9949352039792103 : SURFACE LONGITUDE
DATUM.F                1604.25 : DEPTH DATUM ELEV
~Curve Information -----------------------------------------
DEPT   .F     : 
TEND   .LB    : TENSION FROM DENSITY LOG
GRD    .GAPI  : GAMMA RAY FROM DENSITY LOG
NPHI_LS.DEC   : NEUTRON POROSITY LIMESTONE
DPO_LS .DEC   : HLDS DENSITY POROSITY
LCALD  .IN    : DENSITY CALIPER/LOWER CALIPER FROM DENSITY LOG
DRH    .G/C3  : BULK DENSITY CORRECTION
RHOB   .G/C3  : BULK DENSITY
AT20   .OHMM  : ARRAY INDUCTION TWO FOOT RESISTIVITY A20
AT60   .OHMM  : ARRAY INDUCTION TWO FOOT RESISTIVITY A60
TENR   .LB    : TENSION FROM RESISTIVITY LOG
AT10   .OHMM  : ARRAY INDUCTION TWO FOOT RESISTIVITY A10
AT30   .OHMM  : ARRAY INDUCTION TWO FOOT RESISTIVITY A30
AT90   .OHMM  : ARRAY INDUCTION TWO FOOT RESISTIVITY A90
SPR    .MV    : SPONTANEOUS POTENTIAL FROM RESISTIVITY LOG
GRS    .GAPI  : GAMMA RAY FROM SONIC LOG
SPHI_LS.DEC   : SONIC POROSITY [LIMESTONE]
DTCO   .US/F  : DELTA-T COMPRESSIONAL
DTSM   .US/F  : DELTA-T SHEAR
~Params ----------------------------------------------------
~Other -----------------------------------------------------
~ASCII -----------------------------------------------------
# ...
 9465.50000 3832.61740   72.34040    0.19460    0.05630    6.10310   -0.01230    2.59680    4.90560    6.03030 3833.82320    5.54660    5.26710    5.30500   30.44750   69.78530    0.24660   81.12290  151.10140
 9466.00000 3837.38620   69.80820    0.16130    0.03090    6.09390   -0.00980    2.64600    8.69850    9.94400 3845.11890   11.09870    8.13120    8.75810   30.27420   68.53220    0.25010   77.57800  152.99570
 9466.50000 3833.57150   67.75070    0.11510    0.00110    6.10230   -0.00620    2.70580   14.08220   15.52750 3841.43310   23.48130   15.33020   15.45050   30.04090   67.00100    0.20880   73.45870  131.28760
 9467.00000 3827.88870   70.07280    0.07060   -0.04330    6.10110   -0.00420    2.76790   11.32750   13.43660 3828.30000   27.39100   12.81760   12.95130   29.84170   65.05910    0.16750   66.17490  106.84010
 9467.50000 3804.98190   75.86790    0.05840   -0.05540    6.07600   -0.00900    2.75140    6.34350    8.96160 3811.75420   10.62040    8.63270    8.76830   29.83980   63.29880    0.09690   58.42030   98.88570
 9468.00000 3792.84860   82.10880    0.08690   -0.03670    6.05340   -0.01390    2.66250    3.84310    5.32950 3797.48930    4.90090    5.12610    5.20930   29.86950   63.49930    0.07900   70.86760   92.74420
 9468.50000 3789.40280   86.79760    0.14300    0.03590    6.03940   -0.01930    2.53850    2.58570    3.11240 3785.88530    2.75150    2.95150    3.02720   29.87170   66.75130    0.16210   83.29880  120.58950
 9469.00000 3788.30880   90.03450    0.22640    0.09780    6.07020   -0.01970    2.44090    1.52810    1.87610 3774.28130    1.64790    1.68260    1.71860   29.91670   72.46270    0.29890   95.73010  175.93840
 9469.50000 3771.79150   92.21700    0.32810    0.18050    6.18790   -0.00530    2.40980    1.15140    1.19970 3780.21260    1.14680    1.15620    1.16320   29.97280   78.61100   -9999.25  108.16130  182.49230
 9470.00000 3786.34130   92.78190    0.34790    0.17360    6.24760    0.01440    2.41790    1.06170    1.09940 3796.55080    1.04540    1.04770    1.04930   29.92800   82.83750   -9999.25  120.59250  189.04630
 9470.50000 3805.51000   93.70110    0.36400    0.16630    6.30040    0.02620    2.42660    1.06600    1.10130 3808.19190    1.06710    1.06960    1.07140   29.90130   86.16270   -9999.25  124.62210  192.57810
 9471.00000 3805.87770   96.34610    0.35000    0.15910    6.24480    0.02290    2.42670    1.14600    1.19650 3802.16430    1.13680    1.14120    1.14410   29.91440   87.35840   -9999.25  125.17040  193.44310
 9471.50000 3798.75070   98.41760    0.34290    0.16190    6.16900    0.01930    2.42540    1.20850    1.26960 3777.96830    1.24130    1.24360    1.24530   29.96630   88.27930   -9999.25  125.66880  194.66820
 9472.00000 3791.62400   99.30420    0.34550    0.16550    6.11840    0.01680    2.41750    1.22560    1.24790 3766.03760    1.23770    1.24010    1.24180   30.02150   89.03540   -9999.25  125.47150  195.60830
 9472.50000 3782.11110   99.09640    0.34260    0.16920    6.10500    0.01520    2.41180    1.25450    1.23350 3776.06350    1.25150    1.25690    1.26070   30.34340   89.70450   -9999.25  122.61780  194.91710
 9473.00000 3801.97140   98.87060    0.33660    0.17230    6.08830    0.01790    2.41960    1.50800    1.44200 3800.24880    1.45530    1.44360    1.45320   30.39090   90.37360   -9999.25  119.76420  194.22600
 9473.50000 3804.61060   99.00560    0.30900    0.17090    6.06000    0.02090    2.43790    1.81270    1.72440 3805.53320    1.82640    1.68890    1.69510   30.43840   91.13420   -9999.25  120.40760  196.31440
 9474.00000 3813.26340   99.17070    0.28300    0.16950    5.98050    0.02400    2.45760    2.14920    2.05460 3791.45310    2.23800    2.03900    2.04170   30.48580   94.35060   -9999.25  121.95190  211.58800
 9474.50000 3830.02610   98.67910    0.29330    0.16840    5.87140    0.02860    2.48250    2.08140    1.97070 3812.60180    2.15720    2.02140    2.02540   30.49850   97.97850   -9999.25  119.26960  213.56710
 9475.00000 3846.78860   97.66970    0.30070    0.16810    5.73740    0.03610    2.51420    1.75050    1.62250 3826.46310    1.66270    1.67810    1.68890   30.49410   98.64730   -9999.25  116.98510  209.90400
 9475.50000 3854.65800   96.34070    0.30380    0.16770    5.68360    0.04550    2.54240    1.48880    1.39820 3840.32470    1.42880    1.43470    1.43930   30.35820   97.60890   -9999.25  117.58730  207.33890
 9476.00000 3857.97660   93.90380    0.31620    0.16440    5.71240    0.04850    2.56100    1.43040    1.39310 3851.20850    1.38590    1.39120    1.39490   30.38790   94.64180   -9999.25  118.18950  208.46010
 9476.50000 3873.01510   89.41120    0.30950    0.15720    5.78930    0.05080    2.56490    1.58700    1.51500 3865.37940    1.61980    1.53210    1.54010   30.53930   90.73040   -9999.25  118.57770  214.85160
 9477.00000 3898.37480   83.86300    0.29710    0.15280    5.84030    0.04670    2.56240    1.83830    1.68540 3895.27340    1.94770    1.71470    1.70340   30.56490   86.81110   -9999.25  116.94470  214.85410
 9477.50000 3881.30910   79.09820    0.27580    0.14870    5.88860    0.04160    2.55340    1.83290    1.73710 3870.90230    1.98740    1.69460    1.62470   30.58620   85.99080   -9999.25  109.79140  208.68040
 9478.00000 3862.98730   77.71230    0.28360    0.14460    5.94510    0.03610    2.53440    1.66020    1.58100 3856.22660    1.76060    1.61210    1.53720   30.65000   86.04650   -9999.25  101.48270  200.82480
 9478.50000 3852.79440   78.05800    0.29500    0.13830    6.00910    0.02860    2.51200    1.52710    1.47270 3842.56180    1.61190    1.53370    1.45450   30.72490   85.72280   -9999.25  102.13590  192.96920
 9479.00000 3856.53050   79.99160    0.30580    0.13080    6.04620    0.02280    2.48940    1.53670    1.48650 3856.23710    1.59210    1.50420    1.46120   30.64230   83.42040   -9999.25  109.68310  202.34680
 9479.50000 3856.58150   80.88450    0.31470    0.13590    6.05620    0.01780    2.47160    1.54470    1.50310 3857.80220    1.56860    1.50240    1.48030   30.55960   81.19930   -9999.25  115.77920  214.01750
 9480.00000 3860.93820   81.35000    0.32360    0.14190    6.07470    0.01540    2.46290    1.54780    1.50950 3860.31570    1.57470    1.50060    1.49970   30.48230   80.80420   -9999.25  116.51040  214.18330
 9480.50000 3869.59200   82.52560    0.33090    0.14690    6.12190    0.01410    2.45970    1.55090    1.51870 3882.69650    1.56870    1.51440    1.51650   30.44740   80.54740   -9999.25  117.24150  211.87600
 9481.00000 3869.45510   85.83570    0.33340    0.14960    6.14040    0.01230    2.45760    1.55510    1.53010 3883.61330    1.56230    1.51850    1.52060   30.41490   80.92760   -9999.25  116.43190  209.19990
 9481.50000 3869.31840   89.52550    0.33220    0.15290    6.11820    0.00830    2.44680    1.56290    1.54170 3883.88280    1.58810    1.52260    1.52470   30.35240   82.37290   -9999.25  114.60680  206.09590
 9482.00000 3869.47270   90.70750    0.32900    0.15960    6.10370    0.00220    2.42960    1.57080    1.70090 3884.15260    1.80480    1.65370    1.66290   30.29220   84.62990   -9999.25  112.78160  201.57000
 9482.50000 3877.51420   89.52770    0.31420    0.16610    6.10190   -0.00560    2.42030    1.87370    2.22440 3885.13550    2.31350    2.03010    2.04890   30.28430   85.65300   -9999.25  110.95650  196.78860
 9483.00000 3895.14650   85.90510    0.30050    0.15820    6.10970   -0.00820    2.42040    2.53460    2.93340 3889.76830    2.99750    2.70440    2.72910   30.28390   85.39390   -9999.25  109.13140  192.00710
 9483.50000 3867.83910   81.68300    0.27190    0.15080    6.12800   -0.01170    2.42210    3.41320    3.79200 3880.34060    3.88380    3.60270    3.63520   30.26310   83.58010   -9999.25  107.30630  196.71860
 9484.00000 3838.71510   80.80280    0.24520    0.15050    6.13740   -0.01360    2.42160    4.37550    4.77190 3859.10250    5.03200    4.79930    4.84220   30.25950   80.91240   -9999.25  107.04020  208.86670
 9484.50000 3814.66500   82.37650    0.24130    0.15640    6.14690   -0.01230    2.42100    4.42570    4.90970 3833.57420    5.13240    4.77610    4.85430   30.35320   78.50340   -9999.25  107.00950  219.66680
