~Version ---------------------------------------------------
VERS.   2.0 : CWLS log ASCII Standard -VERSION 2.0
WRAP.    NO : One line per depth step
DLM . SPACE : Column Data Section Delimiter
~Well ------------------------------------------------------
STRT .F                  97.0 : START DEPTH
STOP .F               12100.0 : STOP DEPTH
STEP .F                   0.5 : STEP
NULL .               -9999.25 : NULL VALUE
COMP .                        : COMPANY
WELL .                        : WELL
FLD  .                        : FIELD
LOC  .                        : LOCATION
PROV .                        : PROVINCE
CNTY .                        : COUNTY
STAT .                        : STATE
CTRY .                        : COUNTRY
SRVC .                        : SERVICE COMPANY
DATE .                        : DATE
UWI  .                        : UNIQUE WELL ID
API  .                        : API NUMBER
SLAT .WGS84 2.459228673666601 : SURFACE LATITUDE
SLON .WGS84 8.126912880497002 : SURFACE LONGITUDE
DATUM.F                   nan : DEPTH DATUM ELEV
~Curve Information -----------------------------------------
DEPT   .F     : 1 MEASURED DEPTH
RHOZ   .G/C3  : HRDD STANDARD RESOLUTION FORMATION DENSITY
RLA5   .OHMM  : APPARENT RESISTIVITY FROM COMPUTED FOCUSING MODE 5
RXOZ   .OHMM  : INVADED FORMATION RESISTIVITY FILTERED AT 18 INCHES
DTCO   .US/F  : DELTA-T COMPRESSIONAL
DTSM   .US/F  : DELTA-T SHEAR
SGRDD  .GAPI  : SPECTROSCOPY GAMMA RAY FROM DENSITY LOG
TNPH_LS.DEC   : THERMAL NEUTRON POROSITY [LIMESTONE]
HDRA   .G/C3  : HRDD SPINE AND RIBS DENSITY CORRECTION
PEFZ   .B/E   : HRDD STANDARD RESOLUTION FORMATION PHOTOELECTRIC FACTOR
~Params ----------------------------------------------------
~Other -----------------------------------------------------
~ASCII -----------------------------------------------------
# ...
 6083.00000    2.59990   14.05720   36.12470   66.76320  115.03470   93.00100    0.12450   -0.00200    3.12360
 6083.50000    2.59570   27.79930   40.96010   66.99690  115.95100  104.72770    0.13560   -0.00120    3.36240
 6084.00000    2.58910   40.73650   53.04950   69.78140  116.86740  121.95660    0.14900   -0.00040    3.46340
 6084.50000    2.57140   49.38770   62.37540   70.04200  118.97190  148.58040    0.17310   -0.00140    3.41900
 6085.00000    2.54190   29.26950   65.00330   70.15190  121.35020  168.17160    0.21100   -0.00250    3.33190
 6085.50000    2.51000   26.05040   37.33010   73.18770  123.10030  175.92750    0.24360   -0.00370    3.31960
 6086.00000    2.49060   28.83270   41.62320   74.63980  124.11080  164.97130    0.25470   -0.00480    3.31550
 6086.50000    2.48120   68.30520   60.18650   75.39420  125.30430  158.12850    0.23780   -0.00390    3.30910
 6087.00000    2.48200   80.25350   68.04410   76.51720  126.80860  158.72890    0.21870   -0.00280    3.30290
 6087.50000    2.48620   79.37840   59.39940   76.79930  127.56260  163.38820    0.22130   -0.00210    3.31140
 6088.00000    2.49930   63.72480   41.49730   76.61140  127.80080  160.22090    0.22530   -0.00140    3.32080
 6088.50000    2.51310   46.57050   35.63920   76.09560  127.73990  152.13240    0.22380   -0.00170    3.33940
 6089.00000    2.54100   40.50520   26.52140   75.66360  126.78390  146.77580    0.19440   -0.00280    3.28070
 6089.50000    2.55320   29.66690   22.15150   75.36420  125.36550  138.33150    0.18460   -0.00390    3.21700
 6090.00000    2.55630   20.58640   16.76860   72.88990  122.78050  130.26430    0.17060   -0.00330    3.10850
 6090.50000    2.54120   19.26600    9.00100   73.91900  121.75150  112.80110    0.16120   -0.00220    2.99680
 6091.00000    2.52380    8.99320    4.11860   72.19270  120.84210   94.37830    0.14310   -0.00110    2.83310
 6091.50000    2.50520    4.06830    3.63960   72.11640  119.82730   74.22280    0.13870   -0.00010    2.64610
 6092.00000    2.48890    3.53280    3.30380   72.22460  119.10230   64.91860    0.13980    0.00130    2.52320
 6092.50000    2.47560    3.56790    3.18030   70.39480  118.84020   60.81700    0.14000    0.00280    2.45190
 6093.00000    2.47410    3.43280    2.66460   70.34020  118.72160   57.64000    0.12990    0.00430    2.43920
 6093.50000    2.48840    3.38550    2.07600   70.20970  118.45070   50.29330    0.12440    0.00520    2.48250
 6094.00000    2.50640    5.12820    3.05480   68.33230  117.59410   44.92150    0.11590    0.00230    2.61490
 6094.50000    2.52140    8.68410    6.46090   67.76260  117.15230   42.77390    0.10110   -0.00070    2.73220
 6095.00000    2.50800    7.95310    5.34120   67.55430  117.00280   43.10730    0.09510   -0.00330    2.70790
 6095.50000    2.48720    3.80100    3.12820   67.52080  117.20200   44.07060    0.09600   -0.00510    2.54870
 6096.00000    2.45550    3.29980    2.31870   68.11590  117.52360   45.76740    0.11340   -0.00690    2.42050
 6096.50000    2.43290    2.42270    2.00170   67.95520  117.84510   48.52840    0.12380   -0.00870    2.39180
 6097.00000    2.41950    2.67790    1.93070   68.35720  118.43970   52.11200    0.13250   -0.01030    2.40090
 6097.50000    2.42420    2.66570    1.96030   68.73500  119.47720   52.16850    0.13530   -0.01010    2.41000
 6098.00000    2.43060    2.33780    2.14000   69.21120  120.05110   49.15150    0.12620   -0.01000    2.37960
 6098.50000    2.43360    3.24020    2.33370   69.78110  120.41880   45.88790    0.11890   -0.00980    2.35600
 6099.00000    2.42760    3.54400    2.44400   71.71790  121.87020   43.70830    0.11710   -0.00970    2.33030
 6099.50000    2.42190    2.82960    2.33370   70.56410  122.35130   43.24040    0.12400   -0.00910    2.30770
 6100.00000    2.42210    3.14110    2.28060   70.14760  122.40300   44.50590    0.12800   -0.00720    2.29330
 6100.50000    2.42980    3.82060    2.56590   69.74640  122.38830   46.25000    0.13040   -0.00530    2.29140
 6101.00000    2.43970    4.21810    3.53290   69.32790  121.69950   47.54120    0.12600   -0.00360    2.29650
 6101.50000    2.45180    4.57690    5.23690   69.09130  120.81470   47.61090    0.12210   -0.00300    2.28560
 6102.00000    2.46000    4.67060    4.87670   68.73870  120.09790   47.28270    0.11960   -0.00250    2.25800
 6102.50000    2.45990    4.30780    3.69630   68.59740  119.65410   46.24750    0.11820   -0.00190    2.20600
 6103.00000    2.44990    3.42040    2.64100   68.78530  119.46210   45.31670    0.12040   -0.00140    2.16040
 6103.50000    2.43910    2.81980    2.28880   69.44680  119.45570   45.07110    0.12540   -0.00220    2.15160
 6104.00000    2.42830    2.98820    2.17960   69.34820  119.03770   45.44710    0.12990   -0.00300    2.16950
 6104.50000    2.41760    3.41420    2.47470   68.95490  118.93140   46.89320    0.13280   -0.00410    2.20270
 6105.00000    2.41650    3.09330    2.58340   69.29020  118.87950   49.30100    0.12810   -0.00400    2.23190
 6105.50000    2.43120    3.15950    2.84150   69.86290  118.87950   51.65500    0.13570   -0.00360    2.21590
 6106.00000    2.44840    3.62230    3.35370   69.91400  118.69350   51.52820    0.13200   -0.00320    2.19890
 6106.50000    2.46300    4.19960    3.87480   69.38620  118.48020   49.98050    0.12700   -0.00280    2.20060
 6107.00000    2.47320    4.86890    3.74810   68.61620  118.26700   49.34190    0.11660   -0.00240    2.21480
 6107.50000    2.47100    4.59000    3.47340   68.67370  118.05380   48.40290    0.10910   -0.00210    2.22900
 6108.00000    2.46560    4.01370    3.41790   68.25550  117.88070   47.49930    0.10710   -0.00240    2.23950
 6108.50000    2.46680    4.16510    3.56300   67.88250  116.75590   46.45420    0.10470   -0.00270    2.25000
 6109.00000    2.47320    4.89480    3.99990   67.77420  116.53330   46.71470    0.10150   -0.00300    2.25740
 6109.50000    2.47770    4.98410    4.18880   67.49070  115.88020   47.74640    0.10190   -0.00320    2.27360
 6110.00000    2.47060    4.81580    4.21580   67.50880  115.74520   47.69170    0.10400   -0.00350    2.30020
 6110.50000    2.46410    4.51620    4.12900   67.63570  115.72670   47.65470    0.10850   -0.00380    2.29010
 6111.00000    2.45890    4.23520    3.72470   67.79720  116.03770   47.68250    0.10960   -0.00370    2.24990
 6111.50000    2.44920    3.76910    3.21920   68.08220  116.32340   48.03390    0.11560   -0.00330    2.22410
 6112.00000    2.44060    3.05620    2.83650   68.45090  116.71600   46.40590    0.11900   -0.00300    2.22590
 6112.50000    2.43900    3.20840    2.67520   68.32380  117.16470   44.26510    0.12000   -0.00270    2.24820
 6113.00000    2.44340    3.30270    2.72230   68.63860  117.60790   43.47070    0.11110   -0.00240    2.25510
 6113.50000    2.44880    3.18060    2.86530   68.73920  117.52980   43.04550    0.10750   -0.00220    2.25920
 6114.00000    2.45560    3.20520    3.01580   68.68940  118.15620   43.13880    0.11010   -0.00190    2.26330
 6114.50000    2.47000    4.18580    3.37290   68.56530  118.26520   42.21420    0.11340   -0.00160    2.27220
 6115.00000    2.48020    4.79280    4.21180   68.58350  118.06350   42.89740    0.11290   -0.00130    2.31660
 6115.50000    2.48710    4.74970    4.36890   68.38760  117.92200   44.40410    0.11250   -0.00110    2.36960
 6116.00000    2.48730    4.32920    3.83230   67.58390  118.22500   47.28240    0.11630   -0.00140    2.43650
 6116.50000    2.49300    4.34300    3.80450   67.38150  116.43380   48.53920    0.11250   -0.00170    2.50490
 6117.00000    2.51740    5.22970    4.31060   67.20590  115.10650   47.50710    0.09960   -0.00200    2.56780
 6117.50000    2.54560    7.73850    7.42630   66.40870  115.18290   47.23380    0.08640   -0.00230    2.62360
 6118.00000    2.55590    7.54110    9.24320   66.46150  115.25940   48.76680    0.08710   -0.00260    2.68020
 6118.50000    2.54510    4.48800    6.65330   67.65660  115.86120   55.54050    0.09020   -0.00280    2.73240
 6119.00000    2.53060    4.25430    4.78530   68.10700  115.99550   62.09320    0.10060   -0.00290    2.77020
