~Version ---------------------------------------------------
VERS.   2.0 : CWLS log ASCII Standard -VERSION 2.0
WRAP.    NO : One line per depth step
DLM . SPACE : Column Data Section Delimiter
~Well ------------------------------------------------------
STRT .F                  97.0 : START DEPTH
STOP .F               12100.0 : STOP DEPTH
STEP .F                   0.5 : STEP
NULL .               -9999.25 : NULL VALUE
COMP .                        : COMPANY
WELL .                        : WELL
FLD  .                        : FIELD
LOC  .                        : LOCATION
PROV .                        : PROVINCE
CNTY .                        : COUNTY
STAT .                        : STATE
CTRY .                        : COUNTRY
SRVC .                        : SERVICE COMPANY
DATE .                        : DATE
UWI  .                        : UNIQUE WELL ID
API  .                        : API NUMBER
SLAT .WGS84 2.459228673666601 : SURFACE LATITUDE
SLON .WGS84 8.126912880497002 : SURFACE LONGITUDE
DATUM.F                   nan : DEPTH DATUM ELEV
~Curve Information -----------------------------------------
DEPT   .F     : 1 MEASURED DEPTH
RHOZ   .G/C3  : HRDD STANDARD RESOLUTION FORMATION DENSITY
RLA5   .OHMM  : APPARENT RESISTIVITY FROM COMPUTED FOCUSING MODE 5
RXOZ   .OHMM  : INVADED FORMATION RESISTIVITY FILTERED AT 18 INCHES
DTCO   .US/F  : DELTA-T COMPRESSIONAL
DTSM   .US/F  : DELTA-T SHEAR
SGRDD  .GAPI  : SPECTROSCOPY GAMMA RAY FROM DENSITY LOG
TNPH_LS.DEC   : THERMAL NEUTRON POROSITY [LIMESTONE]
HDRA   .G/C3  : HRDD SPINE AND RIBS DENSITY CORRECTION
PEFZ   .B/E   : HRDD STANDARD RESOLUTION FORMATION PHOTOELECTRIC FACTOR
~Params ----------------------------------------------------
~Other -----------------------------------------------------
~ASCII -----------------------------------------------------
# ...
 6557.50000    2.45900    3.85890    3.14080   73.24960  131.44490   54.60520    0.15400   -0.00380    2.42700
 6558.00000    2.45450    3.67600    2.81630   73.13900  131.39310   56.00490    0.16120   -0.00290    2.41690
 6558.50000    2.45330    3.69080    3.00830   72.84660  131.26760   58.79420    0.16730   -0.00190    2.41450
 6559.00000    2.45440    3.92220    3.22290   72.75530  130.96930   60.23810    0.16320   -0.00100    2.41300
 6559.50000    2.45920    4.04990    3.35120   72.69150  130.15700   59.52470    0.15770   -0.00090    2.41210
 6560.00000    2.45980    3.59120    3.41700   72.23240  128.89300   59.34570    0.15630   -0.00220    2.42860
 6560.50000    2.46270    3.76490    3.51070   72.05280  128.56550   60.22820    0.15410   -0.00350    2.43620
 6561.00000    2.47130    4.11560    3.74110   71.81770  127.97050   60.24750    0.15260   -0.00480    2.44390
 6561.50000    2.47240    4.07640    3.87950   71.70200  127.27900   58.32310    0.15060   -0.00420    2.40920
 6562.00000    2.47010    3.95040    3.68490   71.50970  126.49400   54.19940    0.15540   -0.00340    2.36720
 6562.50000    2.46390    3.51650    3.25440   70.81190  125.56310   52.64790    0.15330   -0.00260    2.36220
 6563.00000    2.47550    3.48400    3.25350   70.33940  124.63910   53.14370    0.15040   -0.00180    2.36900
 6563.50000    2.49260    4.16040    3.63310   70.49170  124.09180   55.64900    0.14460   -0.00120    2.38660
 6564.00000    2.50670    4.66260    3.84320   70.57100  123.81700   56.01560    0.14140   -0.00150    2.40480
 6564.50000    2.48680    3.96130    3.73500   70.64080  124.15130   56.03730    0.14340   -0.00180    2.43930
 6565.00000    2.46360    3.66770    3.46920   71.60110  124.60060   56.53570    0.15350   -0.00210    2.44900
 6565.50000    2.44760    3.37040    3.18660   71.96310  125.96600   58.97830    0.16820   -0.00230    2.44920
 6566.00000    2.43980    3.11980    2.91510   72.50020  126.99660   62.55640    0.18810   -0.00260    2.44650
 6566.50000    2.43470    2.97270    2.86310   72.95700  128.02710   64.99270    0.20930   -0.00230    2.44290
 6567.00000    2.43990    2.96800    3.02510   72.82050  129.22100   65.65140    0.19240   -0.00180    2.44860
 6567.50000    2.46180    3.09620    3.28420   72.67020  129.20400   66.71670    0.17070   -0.00130    2.48220
 6568.00000    2.49150    3.47120    4.72940   72.30820  129.04420   71.00840    0.15110   -0.00080    2.52330
 6568.50000    2.52200    4.80980    9.27740   71.46510  128.02260   77.91090    0.13280   -0.00040    2.59390
 6569.00000    2.54340    9.04980    9.99890   71.11770  127.11140   84.24080    0.12580    0.00010    2.61420
 6569.50000    2.55760   13.26200    9.97390   70.92240  126.43560   87.34530    0.12900    0.00060    2.57160
 6570.00000    2.52720    8.25000    4.55090   70.77520  125.67340   84.91100    0.14410    0.00110    2.49270
 6570.50000    2.48980    4.18050    3.50450   70.93030  125.57630   75.72460    0.15610   -0.00160    2.41500
 6571.00000    2.44190    3.19420    2.74440   71.19700  125.89140   68.25360    0.16380   -0.00240    2.35630
 6571.50000    2.42330    2.65920    2.56200   71.71020  126.20650   63.19210    0.16330   -0.00250    2.33420
 6572.00000    2.42270    2.71500    2.60820   72.53890  127.02410   59.64360    0.16730   -0.00260    2.32560
 6572.50000    2.42880    2.95870    2.66650   73.34440  128.81590   56.22220    0.16740   -0.00260    2.31960
 6573.00000    2.43170    3.02450    2.72600   73.79370  129.29760   55.68560    0.16750   -0.00210    2.32310
 6573.50000    2.42510    2.98810    2.79780   74.33520  130.45180   56.56110    0.16960   -0.00160    2.34180
 6574.00000    2.41860    3.03710    2.86120   74.48020  132.97310   58.17670    0.16820   -0.00110    2.34800
 6574.50000    2.41430    3.01910    2.81130   74.53190  133.68560   58.88230    0.16550   -0.00060    2.33570
 6575.00000    2.41890    2.87070    2.73170   74.64240  133.97350   58.70330    0.16670   -0.00100    2.30860
 6575.50000    2.42030    2.89160    2.81610   74.76630  134.21800   57.91190    0.17050   -0.00240    2.32490
 6576.00000    2.42080    3.06580    2.96450   74.93960  134.31040   57.61450    0.17880   -0.00380    2.35340
 6576.50000    2.41350    3.12980    3.02060   75.16200  134.53060   57.29520    0.18240   -0.00520    2.37920
 6577.00000    2.40780    3.05080    2.93450   75.42910  135.24840   57.69610    0.18200   -0.00660    2.37930
 6577.50000    2.40340    2.92650    2.85090   75.46870  135.53990   58.47440    0.18620   -0.00780    2.37360
 6578.00000    2.40940    2.91640    2.78180   75.44130  135.55510   58.55520    0.18220   -0.00590    2.36050
 6578.50000    2.42220    3.12760    2.82690   75.43230  135.39860   58.14300    0.17590   -0.00410    2.35100
 6579.00000    2.42940    3.40390    2.96990   75.47190  135.19590   56.81610    0.17190   -0.00220    2.36420
 6579.50000    2.43310    3.53840    3.40950   75.31250  134.69150   58.39670    0.16630   -0.00150    2.38170
 6580.00000    2.43300    3.53650    3.33970   74.85600  134.08120   58.84070    0.15650   -0.00250    2.41330
 6580.50000    2.43430    3.31990    3.17460   74.60060  133.55280   59.74020    0.15610   -0.00350    2.45310
 6581.00000    2.43740    3.43540    3.20730   74.32720  132.89150   58.21860    0.15570   -0.00450    2.52740
 6581.50000    2.43840    4.15580    3.62740   73.89050  131.47000   60.51500    0.15630   -0.00550    2.60540
 6582.00000    2.44740    4.37250    3.86410   72.75720  130.20060   62.33090    0.15900   -0.00650    2.62210
 6582.50000    2.46100    4.88230    3.98240   72.33620  129.01450   65.86610    0.15900   -0.00740    2.58610
 6583.00000    2.47750    5.76130    4.69000   71.42130  127.38140   65.54250    0.15570   -0.00700    2.54250
 6583.50000    2.48930    6.29410    5.98060   71.23100  125.57950   63.40930    0.14780   -0.00660    2.54970
 6584.00000    2.49810    6.70590    7.04900   71.26850  125.31380   59.73210    0.14110   -0.00620    2.57060
 6584.50000    2.49080    6.67240    4.30320   71.51350  124.97490   58.27720    0.14180   -0.00570    2.56960
 6585.00000    2.46250    4.10940    2.77840   71.62450  124.63600   58.30170    0.15670   -0.00530    2.54840
 6585.50000    2.42600    3.21620    2.71750   72.02380  124.75340   58.90410    0.17300   -0.00490    2.48510
 6586.00000    2.40960    3.12730    2.72200   72.27690  124.87770   59.25230    0.17690   -0.00450    2.38910
 6586.50000    2.43290    3.21590    2.84910   72.43460  126.58000   61.21180    0.16710   -0.00360    2.29140
 6587.00000    2.47250    3.45790    3.06310   73.28350  127.25080   67.14930    0.15410   -0.00260    2.29360
 6587.50000    2.50470    3.80090    3.25050   73.36440  127.83880   79.57450    0.15640   -0.00160    2.45340
 6588.00000    2.52560    5.47400   14.10240   73.26680  127.93880   94.57600    0.16410   -0.00070    2.67580
 6588.50000    2.53980   10.87820   16.62530   73.07320  127.91730  111.50030    0.17780    0.00030    2.82580
 6589.00000    2.54500   24.99540   14.15610   72.96180  127.78940  116.31070    0.19620    0.00130    2.84390
 6589.50000    2.51710   14.26100    4.17200   72.75060  127.28180  104.25650    0.19580    0.00230    2.72090
 6590.00000    2.46380    3.30770    2.57210   72.77210  126.61740   86.07670    0.18120    0.00330    2.52010
 6590.50000    2.41770    2.40950    2.06340   72.96900  126.43020   62.65520    0.16680    0.00510    2.31940
 6591.00000    2.40090    2.19920    1.86260   73.34520  126.11640   50.78750    0.17080    0.00840    2.16510
 6591.50000    2.39750    2.13540    1.82370   73.41210  127.07000   45.03070    0.17150    0.01090    2.08870
 6592.00000    2.38540    2.07230    1.83350   73.72440  127.65450   42.51200    0.18100    0.00490    2.08460
 6592.50000    2.37140    1.72580    2.05670   73.89540  127.99950   41.35240    0.18520   -0.00330    2.09810
 6593.00000    2.36940    1.82350    2.28510   73.82940  128.21790   41.13090    0.18160   -0.00710    2.12400
 6593.50000    2.37650    2.00010    2.27910   74.08140  130.38700   40.69860    0.17560   -0.00580    2.15410
