~Version ---------------------------------------------------
VERS.   2.0 : CWLS log ASCII Standard -VERSION 2.0
WRAP.    NO : One line per depth step
DLM . SPACE : Column Data Section Delimiter
~Well ------------------------------------------------------
STRT .F                  97.0 : START DEPTH
STOP .F               12100.0 : STOP DEPTH
STEP .F                   0.5 : STEP
NULL .               -9999.25 : NULL VALUE
COMP .                        : COMPANY
WELL .                        : WELL
FLD  .                        : FIELD
LOC  .                        : LOCATION
PROV .                        : PROVINCE
CNTY .                        : COUNTY
STAT .                        : STATE
CTRY .                        : COUNTRY
SRVC .                        : SERVICE COMPANY
DATE .                        : DATE
UWI  .                        : UNIQUE WELL ID
API  .                        : API NUMBER
SLAT .WGS84 2.459228673666601 : SURFACE LATITUDE
SLON .WGS84 8.126912880497002 : SURFACE LONGITUDE
DATUM.F                   nan : DEPTH DATUM ELEV
~Curve Information -----------------------------------------
DEPT   .F     : 1 MEASURED DEPTH
RHOZ   .G/C3  : HRDD STANDARD RESOLUTION FORMATION DENSITY
RLA5   .OHMM  : APPARENT RESISTIVITY FROM COMPUTED FOCUSING MODE 5
RXOZ   .OHMM  : INVADED FORMATION RESISTIVITY FILTERED AT 18 INCHES
DTCO   .US/F  : DELTA-T COMPRESSIONAL
DTSM   .US/F  : DELTA-T SHEAR
SGRDD  .GAPI  : SPECTROSCOPY GAMMA RAY FROM DENSITY LOG
TNPH_LS.DEC   : THERMAL NEUTRON POROSITY [LIMESTONE]
HDRA   .G/C3  : HRDD SPINE AND RIBS DENSITY CORRECTION
PEFZ   .B/E   : HRDD STANDARD RESOLUTION FORMATION PHOTOELECTRIC FACTOR
~Params ----------------------------------------------------
~Other -----------------------------------------------------
~ASCII -----------------------------------------------------
# ...
 10240.00000    2.55160   36.85570   23.56320   73.96380  119.15010   80.59890    0.13450   -0.00960    3.31300
 10240.50000    2.54850   36.47220   19.54600   73.14740  119.13120   82.03900    0.14050   -0.00950    3.20070
 10241.00000    2.53830   38.85480   22.66030   72.65970  118.70470   82.30200    0.14320   -0.00930    3.23240
 10241.50000    2.53930   32.30050    4.92440   72.28200  117.48910   82.46080    0.14050   -0.00870    3.29910
 10242.00000    2.54560   24.37910    4.82530   71.62920  116.23220   82.49100    0.16210   -0.00760    3.49600
 10242.50000    2.55970   24.88890    5.07090   71.08060  115.01850   76.15040    0.18110   -0.00660    3.76820
 10243.00000    2.57260  119.36120   26.48630   69.71180  114.17580   64.01970    0.16240   -0.00550    3.98370
 10243.50000    2.56770  239.92050   85.48410   70.04370  113.83580   55.02070    0.13240   -0.00510    3.98530
 10244.00000    2.55220  105.43560   91.74370   70.61870  114.14860   60.58370    0.13070   -0.00510    3.63530
 10244.50000    2.53100   90.74830   87.79420   71.74410  114.50250   70.84050    0.13330   -0.00510    3.29910
 10245.00000    2.52190   69.38720   84.95870   71.86350  114.83770   79.83180    0.14430   -0.00510    3.08420
 10245.50000    2.52680   73.81750   79.33460   71.67940  115.16770   82.88190    0.13780   -0.00480    3.01710
 10246.00000    2.53570  104.78000   97.12780   71.91800  115.51580   84.41410    0.13810   -0.00440    3.00530
 10246.50000    2.54410   87.70640   66.07970   71.26020  115.92460   88.26960    0.14460   -0.00400    2.99360
 10247.00000    2.54760   58.42400   55.84900   70.74370  115.51340   92.25400    0.14940   -0.00360    2.98570
 10247.50000    2.54410   46.40750   86.32640   70.16990  115.83500   91.84160    0.14330   -0.00320    3.01100
 10248.00000    2.54050   83.57270  122.82960   69.86030  115.15550   89.38800    0.12390   -0.00320    3.20880
 10248.50000    2.53850  136.75870  131.07620   69.55290  113.43790   86.45950    0.10890   -0.00620    3.59370
 10249.00000    2.55260  178.69260  163.84230   69.08990  112.62330   85.74380    0.10790   -0.00760    3.95400
 10249.50000    2.56500  149.31500  286.38750   68.42080  112.03610   86.60650    0.10550   -0.00510    3.98560
 10250.00000    2.56620  141.16140  175.16840   68.59050  111.45080   89.74990    0.10320   -0.00170    3.64090
 10250.50000    2.54950  124.73140   97.54310   68.87130  110.98170   93.83380    0.10450   -0.00050    3.16540
 10251.00000    2.53290  104.40460   75.86160   69.34750  110.48590   94.15720    0.11150   -0.00170    2.75770
 10251.50000    2.52020   88.11330   65.43720   69.43200  110.92610   92.03850    0.11660   -0.00340    2.62200
 10252.00000    2.49260  115.82370   74.99250   69.53280  111.28470   90.62670    0.12460   -0.00570    2.73170
 10252.50000    2.46780  131.08760  108.10860   69.82880  111.41110   97.51630    0.13220   -0.00790    2.93810
 10253.00000    2.46080  122.66010  135.30900   70.22960  111.76270  106.01800    0.14320   -0.00900    3.13980
 10253.50000    2.48350   65.17300   92.84290   70.33720  112.13630  113.04100    0.14060   -0.00670    3.12330
 10254.00000    2.50770   41.82830   49.19370   69.92610  112.39720  109.86470    0.13700   -0.00390    2.98800
 10254.50000    2.52390   31.25740   40.16600   70.61900  112.40820  104.09970    0.13450   -0.00330    2.86670
 10255.00000    2.52520   31.90670   43.15930   70.48570  112.35880   97.28830    0.13450   -0.00890    2.92100
 10255.50000    2.52940   39.77160   83.11840   70.96010  112.30950   96.37790    0.12710   -0.01490    3.00340
 10256.00000    2.52250   51.59270   69.95320   70.52840  112.26010   93.13490    0.12620   -0.01410    3.05030
 10256.50000    2.51560   65.53210   71.28080   71.19330  112.56920   90.78510    0.12670   -0.00990    3.01850
 10257.00000    2.50500   71.56070   89.49170   71.36190  112.53850   94.34410    0.14150   -0.00560    2.98500
 10257.50000    2.50450   59.65550  106.01950   71.62080  112.76380  104.18150    0.14910   -0.00370    2.95940
 10258.00000    2.51340   40.52880   48.48860   71.39500  112.66820  106.89450    0.14970   -0.00270    2.89670
 10258.50000    2.52270   37.17890   32.07080   70.97740  112.63650  105.98050    0.14120   -0.00170    2.79540
 10259.00000    2.52650   36.32890   27.31120   70.54680  112.80390   99.74120    0.13660   -0.00300    2.69510
 10259.50000    2.52780   37.90160   27.46150   70.29630  112.63260   95.68460    0.13390   -0.00740    2.62320
 10260.00000    2.53340   36.43340   26.97720   69.62360  112.50490   86.34220    0.13140   -0.01980    2.58390
 10260.50000    2.53670   39.58390   27.18650   70.15040  112.13980   74.95580    0.12970   -0.02080    2.63570
 10261.00000    2.53950   40.97850   27.60850   70.91030  112.45410   66.70530    0.12810   -0.01420    2.85480
 10261.50000    2.54230  108.93540   31.81210   71.17070  113.28870   66.43170    0.12640   -0.01090    3.14130
 10262.00000    2.53680   70.83160   42.71930   71.00480  113.90930   72.01230    0.12520   -0.01120    3.27360
 10262.50000    2.52520   69.84420   86.39290   72.05830  114.67810   86.13380    0.13030   -0.00680    3.19690
 10263.00000    2.51020   67.56340   71.08550   73.42300  116.63210  103.57670    0.15280   -0.00360    2.94490
 10263.50000    2.51310   53.34300   63.13180   73.49450  117.67700  108.36470    0.17790   -0.00070    2.72990
 10264.00000    2.51720   92.99680   46.62120   73.44290  118.30640  103.03770    0.18300    0.00140    2.65450
 10264.50000    2.51670   99.75660   57.70160   74.66120  119.00420   91.48170    0.17110    0.00340    2.58720
 10265.00000    2.50940  100.43620   58.93440   75.36610  118.98840   93.33400    0.16340    0.00530    2.53080
 10265.50000    2.50360   78.25380   38.10220   75.32090  119.05050  101.33670    0.15630    0.00440    2.49890
 10266.00000    2.50730   36.87850   27.14410   75.30120  119.16210  110.96050    0.15660    0.00170    2.52970
 10266.50000    2.50730   40.92860   20.44390   75.07790  119.11870  116.26870    0.15870   -0.00110    2.74090
 10267.00000    2.50690   42.07090   24.33380   74.43660  118.75420  111.01140    0.16300   -0.00390    2.94660
 10267.50000    2.50550   63.50510   34.13520   73.88400  118.14640  101.13570    0.16890   -0.00660    3.03800
 10268.00000    2.51030   70.23080   48.77540   73.30940  117.64880   88.83200    0.15640   -0.00780    3.05300
 10268.50000    2.52040   60.92720   48.44030   72.96540  117.42010   85.50750    0.15370   -0.00930    3.07230
 10269.00000    2.53090   58.15790   39.55410   72.19780  115.11900   84.86900    0.14220   -0.01040    3.16340
 10269.50000    2.54120   41.86750   33.02760   71.56570  114.51950   82.53100    0.14110   -0.00820    3.22130
 10270.00000    2.55310  124.39660   33.00180   71.81970  114.39510   75.48630    0.13430   -0.00510    3.17700
 10270.50000    2.55890  153.20260   40.65380   71.96410  114.28900   71.38830    0.12890   -0.00210    3.06880
 10271.00000    2.55180  167.85480   61.56150   72.63300  114.33480   71.26720    0.12280   -0.00080    2.95210
 10271.50000    2.53430  140.99300  154.19400   73.19620  114.95230   76.36250    0.12310   -0.00190    2.91520
 10272.00000    2.51450  133.25660  150.47240   73.30550  115.08550   81.62430    0.13180   -0.00270    2.97290
 10272.50000    2.50450  127.53220  105.34330   73.42080  115.04780   83.86570    0.13590   -0.00340    3.06550
 10273.00000    2.50140  117.37300   52.80230   74.81960  115.34710   85.52540    0.14390   -0.00410    3.09910
 10273.50000    2.49870   72.09530   45.11080   75.84070  118.99400   87.31030    0.15520   -0.00470    3.02460
 10274.00000    2.49160   78.70980   52.64700   76.74260  119.70120   89.79380    0.16130   -0.00490    2.90860
 10274.50000    2.48590   81.32560   73.57080   75.80500  119.90440   93.17350    0.16290   -0.00430    2.79740
 10275.00000    2.48710   80.69750   65.47070   75.57670  120.06760   93.59280    0.17170   -0.00370    2.82270
 10275.50000    2.49470   85.50250   43.92550   75.39320  119.99710   89.70060    0.17290   -0.00310    3.01540
