~Version ---------------------------------------------------
VERS.   2.0 : CWLS log ASCII Standard -VERSION 2.0
WRAP.    NO : One line per depth step
DLM . SPACE : Column Data Section Delimiter
~Well ------------------------------------------------------
STRT .F                  97.0 : START DEPTH
STOP .F               12100.0 : STOP DEPTH
STEP .F                   0.5 : STEP
NULL .               -9999.25 : NULL VALUE
COMP .                        : COMPANY
WELL .                        : WELL
FLD  .                        : FIELD
LOC  .                        : LOCATION
PROV .                        : PROVINCE
CNTY .                        : COUNTY
STAT .                        : STATE
CTRY .                        : COUNTRY
SRVC .                        : SERVICE COMPANY
DATE .                        : DATE
UWI  .                        : UNIQUE WELL ID
API  .                        : API NUMBER
SLAT .WGS84 2.459228673666601 : SURFACE LATITUDE
SLON .WGS84 8.126912880497002 : SURFACE LONGITUDE
DATUM.F                   nan : DEPTH DATUM ELEV
~Curve Information -----------------------------------------
DEPT   .F     : 1 MEASURED DEPTH
RHOZ   .G/C3  : HRDD STANDARD RESOLUTION FORMATION DENSITY
RLA5   .OHMM  : APPARENT RESISTIVITY FROM COMPUTED FOCUSING MODE 5
RXOZ   .OHMM  : INVADED FORMATION RESISTIVITY FILTERED AT 18 INCHES
DTCO   .US/F  : DELTA-T COMPRESSIONAL
DTSM   .US/F  : DELTA-T SHEAR
SGRDD  .GAPI  : SPECTROSCOPY GAMMA RAY FROM DENSITY LOG
TNPH_LS.DEC   : THERMAL NEUTRON POROSITY [LIMESTONE]
HDRA   .G/C3  : HRDD SPINE AND RIBS DENSITY CORRECTION
PEFZ   .B/E   : HRDD STANDARD RESOLUTION FORMATION PHOTOELECTRIC FACTOR
~Params ----------------------------------------------------
~Other -----------------------------------------------------
~ASCII -----------------------------------------------------
# ...
 7032.00000    2.46880    4.78040    3.60680   67.54240  112.05590   67.70240    0.14250   -0.00490    2.49660
 7032.50000    2.46150   15.44760    5.57450   68.16610  112.86500   84.53050    0.16100   -0.00500    2.61490
 7033.00000    2.48050   90.81270   18.14480   68.83930  113.51400   98.70970    0.19630   -0.00460    2.72200
 7033.50000    2.50420   87.85270   51.57470   69.72040  114.49030  100.13090    0.20510   -0.00420    2.75520
 7034.00000    2.53080   85.05750   58.19520   69.83070  114.48560   96.43410    0.18220   -0.00380    2.69660
 7034.50000    2.54110   34.44540   17.40240   69.49120  114.14910   86.04850    0.15610   -0.00340    2.60200
 7035.00000    2.53300   13.09450    8.48580   69.43210  113.59580   75.37660    0.13370   -0.00300    2.51190
 7035.50000    2.51700    7.32010    6.40720   68.85400  113.17670   64.99380    0.11970   -0.00260    2.43200
 7036.00000    2.50690    6.35200    6.70590   68.14950  112.47990   65.32200    0.11430   -0.00220    2.41820
 7036.50000    2.51050    7.23600    9.26280   67.62470  111.66430   71.57890    0.11330   -0.00180    2.44460
 7037.00000    2.51920   10.51420   16.93560   67.35970  110.84860   80.60600    0.12430   -0.00140    2.54930
 7037.50000    2.52910   22.72720   26.04630   66.91150  110.51630   91.27980    0.13770   -0.00130    2.66420
 7038.00000    2.54180   26.93290   20.73520   66.94740  110.87050   94.84700    0.14860   -0.00130    2.74140
 7038.50000    2.56480   19.42600   14.53970   67.17930  111.10510   96.48120    0.14490   -0.00140    2.73230
 7039.00000    2.58080   13.82010   13.20490   67.14840  110.67450   95.07440    0.13960   -0.00150    2.68080
 7039.50000    2.58600   14.76950   13.14930   66.67690  110.66600   95.43210    0.13670   -0.00160    2.67560
 7040.00000    2.58240   18.24830   12.85080   66.57670  110.55470   90.77160    0.13650   -0.00160    2.69210
 7040.50000    2.57770   13.98780    9.90600   66.45400  110.40140   82.71090    0.13420   -0.00170    2.68710
 7041.00000    2.56910   11.25260    7.11530   66.08990  110.02140   71.59520    0.12940   -0.00180    2.66080
 7041.50000    2.55630    6.66570    5.74910   65.96780  109.98250   63.37870    0.11870   -0.00180    2.60290
 7042.00000    2.54490    6.13840    5.47740   65.86530  109.80740   61.37190    0.11260   -0.00190    2.54560
 7042.50000    2.53930    6.57140    5.73890   65.81620  109.49390   64.73560    0.10700   -0.00200    2.50120
 7043.00000    2.53350    7.05390    6.07430   65.75300  109.18040   66.93510    0.10760   -0.00220    2.49540
 7043.50000    2.53560    7.00500    6.43400   65.94150  110.05460   68.27820    0.10930   -0.00230    2.48830
 7044.00000    2.53590    6.75070    7.84940   66.29450  110.29910   68.29130    0.11220   -0.00250    2.48120
 7044.50000    2.53770    6.61100    7.91440   65.99520  110.61160   66.50420    0.11540   -0.00260    2.47410
 7045.00000    2.53330    6.48150    7.35550   66.10080  110.51930   65.34360    0.11940   -0.00280    2.47050
 7045.50000    2.53320    6.29530    7.32330   65.79850  110.21520   65.49340    0.12170   -0.00300    2.46490
 7046.00000    2.54530    6.38820    7.52660   65.36000  109.74700   67.76420    0.12050   -0.00310    2.46740
 7046.50000    2.56020    6.84670    7.60870   65.15020  109.53660   65.06700    0.11710   -0.00330    2.49830
 7047.00000    2.57490    8.34170    7.87740   64.90420  109.26470   59.76520    0.11350   -0.00340    2.52850
 7047.50000    2.57320    9.41010    8.82490   64.79390  108.54010   52.73730    0.10560   -0.00300    2.54900
 7048.00000    2.56480   10.19730    9.67860   64.75940  108.49450   53.20800    0.09830   -0.00250    2.53120
 7048.50000    2.55710    9.94950    9.50810   65.09030  108.44900   56.51940    0.10460   -0.00190    2.49530
 7049.00000    2.54880    7.93650    7.01890   65.28240  108.55520   62.34590    0.11800   -0.00140    2.45230
 7049.50000    2.54090    6.57390    6.34350   65.43140  109.04000   67.52130    0.13480   -0.00160    2.49380
 7050.00000    2.54020    6.16160    7.12170   65.65620  109.06130   75.53530    0.13440   -0.00220    2.60190
 7050.50000    2.54690    7.49450   10.93620   65.82500  109.21070   85.83030    0.13410   -0.00280    2.71180
 7051.00000    2.55980   10.23220   17.32350   65.98130  109.30080   91.30430    0.13590   -0.00340    2.74950
 7051.50000    2.57160   11.60030   16.95120   65.60470  109.11950   91.50050    0.13430   -0.00400    2.73160
 7052.00000    2.57830    9.92700   13.63280   65.42890  108.54070   83.95240    0.13160   -0.00460    2.71380
 7052.50000    2.59300   11.42740   11.53910   65.39650  107.94640   75.62680    0.12390   -0.00520    2.69730
 7053.00000    2.61020   13.25470   12.25760   62.71280  106.35010   69.38990    0.11430   -0.00600    2.70570
 7053.50000    2.62340   16.21910   14.35820   62.27490  104.28540   59.36790    0.10370   -0.00680    2.74670
 7054.00000    2.62710   15.74570   14.34680   61.82410  103.62450   49.17680    0.09400   -0.00760    2.79710
 7054.50000    2.61950   14.72450   13.85290   61.32750  102.97030   43.34160    0.08590   -0.00840    2.81190
 7055.00000    2.61260   12.17990   12.03440   60.29100  101.39430   44.84270    0.08020   -0.00920    2.79720
 7055.50000    2.60860   11.80750    8.52880   59.79810  100.13470   49.90860    0.07660   -0.01000    2.75070
 7056.00000    2.59820   12.24550   10.18950   59.66610   99.66940   52.32890    0.08400   -0.01020    2.74430
 7056.50000    2.59730   12.20110    9.67350   59.72700   99.43900   52.19390    0.09350   -0.00800    2.74690
 7057.00000    2.60040   12.00590    9.06860   59.74940   99.52010   49.13560    0.10390   -0.00570    2.74940
 7057.50000    2.59890   15.21550   12.12560   59.90110  100.35600   49.19930    0.10550   -0.00350    2.74930
 7058.00000    2.58330   17.85380   16.35040   60.62240  101.39020   53.66070    0.10360   -0.00140    2.70610
 7058.50000    2.55630   10.82910    4.39170   61.46730  101.75270   55.12650    0.10310   -0.00130    2.63720
 7059.00000    2.53700    6.37760    4.26500   61.97520  102.81540   53.69300    0.10270   -0.00130    2.55710
 7059.50000    2.52510    5.15110    4.85810   62.62030  104.08360   49.12500    0.10310   -0.00120    2.50560
 7060.00000    2.52030    5.65170    5.11650   63.33360  105.25330   50.44410    0.10400   -0.00160    2.47020
 7060.50000    2.52350    6.11540    4.31170   64.15650  106.55450   54.61330    0.10530   -0.00230    2.43380
 7061.00000    2.52370    6.12130    4.75050   64.99800  107.70260   57.89890    0.10770   -0.00300    2.42950
 7061.50000    2.52150    6.31940    6.07860   65.64860  109.02290   60.76180    0.11490   -0.00370    2.45740
 7062.00000    2.51460    5.75720    5.37490   65.99730  110.42730   62.39990    0.11930   -0.00440    2.48520
 7062.50000    2.50540    5.64680    5.27650   66.31660  111.81220   63.87520    0.11840   -0.00510    2.49210
 7063.00000    2.50140    5.28840    4.79100   66.92200  112.42120   64.33600    0.11670   -0.00580    2.46050
 7063.50000    2.50040    4.56190    4.12850   67.32520  113.53210   63.88240    0.11790   -0.00600    2.42780
 7064.00000    2.50030    4.19350    3.87970   67.53530  114.06260   63.29350    0.12610   -0.00520    2.38010
 7064.50000    2.50490    4.07320    3.83760   68.01110  115.51140   62.36140    0.13700   -0.00450    2.32630
 7065.00000    2.51200    4.16670    3.95110   68.05690  115.77260   62.43900    0.13600   -0.00370    2.29520
 7065.50000    2.51070    4.27030    4.07430   68.13310  116.15190   62.65970    0.13280   -0.00300    2.30490
 7066.00000    2.50320    4.49200    4.21280   68.08960  116.29600   64.47200    0.13420   -0.00220    2.31550
 7066.50000    2.49930    5.03950    4.33180   67.94520  116.33270   66.04340    0.13980   -0.00150    2.33290
 7067.00000    2.50230    5.15690    4.33050   67.89210  116.34760   66.48890    0.13820   -0.00140    2.34340
 7067.50000    2.50700    5.05780    4.29530   67.80280  116.19130   65.10900    0.13520   -0.00300    2.33610
 7068.00000    2.50250    4.95000    4.22110   67.78640  116.06830   64.62380    0.13470   -0.00470    2.36750
