~Version ---------------------------------------------------
VERS.   2.0 : CWLS log ASCII Standard -VERSION 2.0
WRAP.    NO : One line per depth step
DLM . SPACE : Column Data Section Delimiter
~Well ------------------------------------------------------
STRT .F                  97.0 : START DEPTH
STOP .F               12100.0 : STOP DEPTH
STEP .F                   0.5 : STEP
NULL .               -9999.25 : NULL VALUE
COMP .                        : COMPANY
WELL .                        : WELL
FLD  .                        : FIELD
LOC  .                        : LOCATION
PROV .                        : PROVINCE
CNTY .                        : COUNTY
STAT .                        : STATE
CTRY .                        : COUNTRY
SRVC .                        : SERVICE COMPANY
DATE .                        : DATE
UWI  .                        : UNIQUE WELL ID
API  .                        : API NUMBER
SLAT .WGS84 2.459228673666601 : SURFACE LATITUDE
SLON .WGS84 8.126912880497002 : SURFACE LONGITUDE
DATUM.F                   nan : DEPTH DATUM ELEV
~Curve Information -----------------------------------------
DEPT   .F     : 1 MEASURED DEPTH
RHOZ   .G/C3  : HRDD STANDARD RESOLUTION FORMATION DENSITY
RLA5   .OHMM  : APPARENT RESISTIVITY FROM COMPUTED FOCUSING MODE 5
RXOZ   .OHMM  : INVADED FORMATION RESISTIVITY FILTERED AT 18 INCHES
DTCO   .US/F  : DELTA-T COMPRESSIONAL
DTSM   .US/F  : DELTA-T SHEAR
SGRDD  .GAPI  : SPECTROSCOPY GAMMA RAY FROM DENSITY LOG
TNPH_LS.DEC   : THERMAL NEUTRON POROSITY [LIMESTONE]
HDRA   .G/C3  : HRDD SPINE AND RIBS DENSITY CORRECTION
PEFZ   .B/E   : HRDD STANDARD RESOLUTION FORMATION PHOTOELECTRIC FACTOR
~Params ----------------------------------------------------
~Other -----------------------------------------------------
~ASCII -----------------------------------------------------
# ...
 5170.50000    2.65850    9.38700   47.51960   62.71150  107.55000  113.84050    0.14090    0.00260    3.58200
 5171.00000    2.65920   11.06470   33.28310   63.16590  108.39160   95.39910    0.11380    0.00160    3.51000
 5171.50000    2.63360    6.31840   22.63930   64.47540  110.29080   94.32750    0.09910    0.00050    3.43790
 5172.00000    2.60840    6.33420   17.17900   64.81680  110.84910  113.60080    0.10830   -0.00050    3.40270
 5172.50000    2.58910    7.53240   16.74530   65.83680  111.40970  135.02690    0.13450   -0.00140    3.37530
 5173.00000    2.59340    7.21890   14.90480   66.05360  112.21370  133.22170    0.15570   -0.00200    3.34490
 5173.50000    2.60810    6.89900   13.69930   65.49400  112.60100  117.15890    0.14070   -0.00260    3.27000
 5174.00000    2.62240    8.06550   13.81290   65.85490  112.18890   97.58790    0.12600   -0.00340    3.19740
 5174.50000    2.62010    8.46960   15.76030   65.75350  111.82130   92.02420    0.12000   -0.00370    3.18320
 5175.00000    2.61370   10.35940   15.63370   66.30790  112.79890   94.97560    0.12890   -0.00360    3.18620
 5175.50000    2.61010   10.51390   13.61540   66.58710  113.71010   98.84620    0.14290   -0.00350    3.17960
 5176.00000    2.60950   10.72430   12.36060   66.81520  114.41560   96.92740    0.14990   -0.00350    3.12350
 5176.50000    2.60920   11.69890   11.51280   67.00380  114.51930   92.70740    0.14320   -0.00350    3.08480
 5177.00000    2.60540   12.01730   11.28670   66.77360  114.65890   87.24600    0.13260   -0.00430    3.09540
 5177.50000    2.60520   12.41560   11.36500   66.70280  114.71450   85.68590    0.12540   -0.00750    3.10590
 5178.00000    2.60860   15.14750   11.74360   66.75050  114.79700   84.99040    0.13060   -0.00720    3.13150
 5178.50000    2.61550   16.24060   12.36420   66.72410  114.86320   84.83920    0.13460   -0.00430    3.17510
 5179.00000    2.62280   19.75650   13.41240   66.71090  114.87820   84.65250    0.13430   -0.00150    3.22170
 5179.50000    2.62350   23.60150   14.33640   66.74420  115.05940   85.71360    0.13990   -0.00080    3.24880
 5180.00000    2.61500   23.77200   14.14500   66.84760  115.32790   92.94460    0.14850   -0.00120    3.26910
 5180.50000    2.61120   22.46760   12.75220   67.06870  115.68750   99.67480    0.16370   -0.00170    3.22810
 5181.00000    2.61220   20.04320   11.40070   67.55290  115.76920  105.83950    0.16390   -0.00220    3.14070
 5181.50000    2.61770   18.58480   10.40250   67.70720  116.15560  108.74440    0.18560   -0.00260    3.05060
 5182.00000    2.61880   17.19130   10.20920   67.92820  117.15440  108.03540    0.18110   -0.00310    3.01660
 5182.50000    2.61990   16.94660   10.44210   68.16360  116.82680  101.39360    0.16930   -0.00360    3.00250
 5183.00000    2.61940   17.34840   10.98560   68.28380  117.66560   93.36570    0.15050   -0.00490    3.02290
 5183.50000    2.61830   19.79690   11.73700   68.40410  118.66150   87.59900    0.14280   -0.00660    3.07730
 5184.00000    2.60890   20.82300   12.54090   68.44320  118.50870   89.13570    0.13810   -0.00830    3.21160
 5184.50000    2.60200   21.11080   13.46170   68.50450  119.25600   94.31630    0.14400   -0.00850    3.32430
 5185.00000    2.60390   25.21700   14.45000   69.05510  119.65280  105.86910    0.15440   -0.00660    3.41650
 5185.50000    2.60400   29.86940   15.51080   69.30240  119.72390  124.49590    0.16410   -0.00400    3.50130
 5186.00000    2.59430   27.80200   16.84070   69.53970  119.97830  140.82620    0.16690   -0.00260    3.61800
 5186.50000    2.59220   28.52090   18.57520   69.37980  120.02420  150.82640    0.17680   -0.00190    3.74250
 5187.00000    2.59990   30.15300   21.00610   68.89300  120.04580  138.97720    0.18150   -0.00150    3.89850
 5187.50000    2.62540   38.80180   53.34220   68.50950  119.63880  116.08730    0.14370   -0.00000    3.91140
 5188.00000    2.65610   44.46800   51.25460   68.04990  118.88060   93.04210    0.12260    0.00770    3.85700
 5188.50000    2.67010   31.08900   40.74220   67.29020  118.07540   86.15020    0.11080    0.01170    3.70530
 5189.00000    2.67070   35.03740   22.29140   66.29210  117.27030   85.39360    0.10290    0.01220    3.73780
 5189.50000    2.66410   53.85090   23.04650   63.62680  113.57220   73.37130    0.06580   -0.00040    3.98890
 5190.00000    2.67180   94.49780   54.81900   62.41880  110.46660   50.88470    0.04210   -0.00020    4.27990
 5190.50000    2.68690  139.78240  115.50050   57.78150  107.14010   32.15470    0.02350   -0.00040    4.51880
 5191.00000    2.69490  142.61800  128.31230   57.54180  105.28570   24.21900    0.02030    0.00440    4.58790
 5191.50000    2.69140  178.05570  147.00180   54.86820  102.77970   21.08290    0.01820    0.01870    4.46250
 5192.00000    2.68860  224.91520   99.30280   54.42640  100.44540   24.88640    0.02370    0.03290    4.06310
 5192.50000    2.67190   72.58290   29.16830   53.70050   99.62920   33.52960    0.03250    0.04590    3.60210
 5193.00000    2.63460   36.26260   11.80940   54.17220  100.28890   43.06410    0.06110    0.05330    3.10920
 5193.50000    2.58650   10.49310    6.88340   56.25590  101.57080   48.71120    0.09580    0.03760    2.83950
 5194.00000    2.53020    6.01330    4.76580   58.42470  104.21040   49.79540    0.13830    0.02100    2.69180
 5194.50000    2.49260    5.38920    3.43810   61.31880  107.49450   50.62720    0.17500    0.01190    2.59050
 5195.00000    2.45700    4.26240    2.82280   64.52870  113.92070   53.27810    0.18480    0.00550    2.55730
 5195.50000    2.43830    4.15150    2.70500   67.43150  117.81040   53.16630    0.17850   -0.00100    2.57920
 5196.00000    2.43530    4.29170    2.60590   70.24960  123.95150   54.10630    0.18140   -0.00300    2.64010
 5196.50000    2.44030    4.73420    2.82310   71.58170  125.74230   52.48680    0.17420   -0.00360    2.69710
 5197.00000    2.45360    5.58650    2.92240   73.09990  129.35910   52.27270    0.16470   -0.00350    2.70810
 5197.50000    2.46980    5.28150    3.27810   73.71530  130.65860   52.05800    0.15450   -0.00330    2.68170
 5198.00000    2.47910    5.61470    3.36480   74.18010  132.38770   53.60730    0.14810   -0.00320    2.66710
 5198.50000    2.49110    7.11260    4.08400   73.82500  131.92790   54.62140    0.13560   -0.00300    2.72790
 5199.00000    2.52700    9.84310    5.88550   72.35000  130.81050   54.24400    0.11760   -0.00200    2.90470
 5199.50000    2.56970   42.71590   10.41020   71.30450  127.68500   49.38780    0.09990    0.00560    3.30200
 5200.00000    2.63330   91.09610   30.33760   68.21440  123.36850   39.15890    0.06590    0.01420    3.80010
 5200.50000    2.69260  160.19940  109.40010   64.08630  115.85120   30.91270    0.03210    0.02180    4.22620
 5201.00000    2.72840  193.44840  159.29450   62.14840  113.04200   29.75550    0.01680    0.02340    4.41030
 5201.50000    2.72370  218.15670  178.67120   59.70330  109.53170   29.74560    0.01370    0.01960    4.46890
 5202.00000    2.71000  257.46430  210.96790   57.28090  107.01460   26.90410    0.01070    0.01320    4.54950
 5202.50000    2.70370  419.91910  289.85070   54.79420  101.42690   21.08020    0.00650    0.00690    4.67570
 5203.00000    2.70770  470.19830  297.93520   53.52530  100.10740   17.51330    0.00210    0.00310    4.78280
 5203.50000    2.71190  465.84510  314.65990   52.27410   96.03310   15.36080    0.00130    0.00280    4.78710
 5204.00000    2.71780  331.16800  248.65420   51.58110   95.09530   17.57680    0.00410    0.00250    4.67770
 5204.50000    2.70590  246.06680  149.60700   51.50190   94.53980   23.31090    0.01020    0.00280    4.48480
 5205.00000    2.68720  179.78710   86.51010   51.85340   94.78380   32.23710    0.02290    0.00310    4.17200
 5205.50000    2.65660   64.84520   24.57050   52.02730   96.30230   41.86030    0.04050    0.00540    3.77560
 5206.00000    2.61910   24.01390   13.06980   49.89640   98.73530   55.42760    0.05810    0.00830    3.38180
 5206.50000    2.57280   16.88360    7.54090   54.30660  101.40330   63.76340    0.07550    0.01000    3.02200
