~Version ---------------------------------------------------
VERS.   2.0 : CWLS log ASCII Standard -VERSION 2.0
WRAP.    NO : One line per depth step
DLM . SPACE : Column Data Section Delimiter
~Well ------------------------------------------------------
STRT .F                  97.0 : START DEPTH
STOP .F               12100.0 : STOP DEPTH
STEP .F                   0.5 : STEP
NULL .               -9999.25 : NULL VALUE
COMP .                        : COMPANY
WELL .                        : WELL
FLD  .                        : FIELD
LOC  .                        : LOCATION
PROV .                        : PROVINCE
CNTY .                        : COUNTY
STAT .                        : STATE
CTRY .                        : COUNTRY
SRVC .                        : SERVICE COMPANY
DATE .                        : DATE
UWI  .                        : UNIQUE WELL ID
API  .                        : API NUMBER
SLAT .WGS84 2.459228673666601 : SURFACE LATITUDE
SLON .WGS84 8.126912880497002 : SURFACE LONGITUDE
DATUM.F                   nan : DEPTH DATUM ELEV
~Curve Information -----------------------------------------
DEPT   .F     : 1 MEASURED DEPTH
RHOZ   .G/C3  : HRDD STANDARD RESOLUTION FORMATION DENSITY
RLA5   .OHMM  : APPARENT RESISTIVITY FROM COMPUTED FOCUSING MODE 5
RXOZ   .OHMM  : INVADED FORMATION RESISTIVITY FILTERED AT 18 INCHES
DTCO   .US/F  : DELTA-T COMPRESSIONAL
DTSM   .US/F  : DELTA-T SHEAR
SGRDD  .GAPI  : SPECTROSCOPY GAMMA RAY FROM DENSITY LOG
TNPH_LS.DEC   : THERMAL NEUTRON POROSITY [LIMESTONE]
HDRA   .G/C3  : HRDD SPINE AND RIBS DENSITY CORRECTION
PEFZ   .B/E   : HRDD STANDARD RESOLUTION FORMATION PHOTOELECTRIC FACTOR
~Params ----------------------------------------------------
~Other -----------------------------------------------------
~ASCII -----------------------------------------------------
# ...
 11608.00000    2.58570   12.23680   16.47080   66.83910  109.48010   70.31790    0.09530   -0.00310    2.81800
 11608.50000    2.58560   12.56720   16.99000   66.79720  109.86220   65.18390    0.09710   -0.00310    2.85120
 11609.00000    2.59690   17.37700   20.06950   66.56390  109.73340   60.38090    0.09260   -0.00310    2.88540
 11609.50000    2.60660   20.05680   21.27860   66.17040  109.43540   57.13010    0.09100   -0.00310    3.00970
 11610.00000    2.61770   20.76980   21.25260   66.04770  109.08060   56.06490    0.08910   -0.00310    3.11840
 11610.50000    2.62460   21.08660   21.73930   65.60320  108.67150   55.49900    0.08730   -0.00310    3.19960
 11611.00000    2.63340   21.00430   22.26830   65.33910  108.49990   55.62830    0.08750   -0.00310    3.19940
 11611.50000    2.63120   20.83140   22.02890   65.49050  108.50880   56.81740    0.08430   -0.00310    3.18710
 11612.00000    2.62590   20.65990   19.12890   66.26840  109.04040   58.12170    0.08700   -0.00360    3.16220
 11612.50000    2.62060   20.46900   17.57000   67.07600  109.53560   58.42710    0.09280   -0.00470    3.11340
 11613.00000    2.61520   16.54980   17.44230   67.92340  111.20700   59.97350    0.09860   -0.00590    3.06290
 11613.50000    2.59490   10.51710   17.20700   69.15660  112.74900   65.41060    0.10010   -0.00710    2.98270
 11614.00000    2.57260    7.51030   11.87150   69.87410  114.67230   74.11760    0.10470   -0.00820    2.87200
 11614.50000    2.55850    6.77000    7.05950   70.55830  116.75820   84.12530    0.11310   -0.00670    2.74350
 11615.00000    2.55780    6.47180    6.58310   71.67540  117.41440   86.14850    0.12230   -0.00380    2.63430
 11615.50000    2.55510    6.33120    6.17090   72.05880  118.49940   82.65820    0.12470   -0.00090    2.56200
 11616.00000    2.55060    6.19370    5.85730   72.39490  119.97340   80.17840    0.11640   -0.00010    2.50740
 11616.50000    2.55130    6.07270    5.65630   72.79480  120.67800   79.21400    0.11390   -0.00120    2.46290
 11617.00000    2.55310    6.07190    5.56330   73.00600  120.96550   77.48030    0.11140   -0.00260    2.41510
 11617.50000    2.55780    6.07120    5.67120   72.87180  121.25300   77.06750    0.11260   -0.00390    2.41380
 11618.00000    2.56250    6.07040    6.66930   72.20690  121.21590   74.62080    0.11880   -0.00520    2.48260
 11618.50000    2.56730    5.98530    7.27840   72.35060  121.11800   72.26180    0.11940   -0.00650    2.61620
 11619.00000    2.57280    5.81960    6.17600   72.51190  120.75790   72.00610    0.11810   -0.00780    2.78330
 11619.50000    2.57120    6.06430    6.52610   72.54350  120.31530   73.41180    0.11450   -0.00920    2.86390
 11620.00000    2.56420    6.14710    6.84880   72.56050  120.79160   76.03440    0.11010   -0.01050    2.83020
 11620.50000    2.55450    6.21030    6.44940   72.52010  121.06660   77.95070    0.10640   -0.01110    2.69690
 11621.00000    2.54530    6.21320    5.88080   72.33440  121.06980   77.55160    0.10780   -0.01110    2.54910
 11621.50000    2.55140    6.23390    5.53150   72.12330  120.81550   76.63570    0.11050   -0.01120    2.46420
 11622.00000    2.56730    6.28270    5.66230   71.87240  120.86020   74.86540    0.11360   -0.01120    2.43070
 11622.50000    2.58320    6.59000    6.41580   71.93220  120.94160   74.73370    0.11500   -0.01130    2.47480
 11623.00000    2.58870    6.94300    7.31940   72.28620  121.01960   75.37440    0.11470   -0.01130    2.63960
 11623.50000    2.58370    7.18140    7.98750   72.38390  121.09750   76.32660    0.11510   -0.01140    2.87870
 11624.00000    2.57770    7.07910    8.20900   72.38080  121.29970   77.93370    0.11530   -0.01140    3.04510
 11624.50000    2.57350    6.90220    6.97870   72.19900  121.42620   79.44930    0.12280   -0.00960    3.01970
 11625.00000    2.57880    6.87620    6.53940   72.09260  120.86360   81.05040    0.12360   -0.00760    2.87740
 11625.50000    2.58390    6.85030    6.80760   72.37760  121.49280   82.71970    0.12380   -0.00550    2.76280
 11626.00000    2.59000    6.81370    8.41550   72.17670  120.78440   83.00170    0.11920   -0.00350    2.72980
 11626.50000    2.59180    6.68490    8.35250   71.96410  120.44800   81.19720    0.11360   -0.00190    2.71410
 11627.00000    2.58870    6.46140    7.41270   71.83810  120.20510   76.28350    0.10880   -0.00220    2.69840
 11627.50000    2.58840    6.41620    6.85600   71.64330  119.98260   71.52990    0.10910   -0.00280    2.71100
 11628.00000    2.58800    6.51370    7.08690   71.48670  119.64330   70.61550    0.10930   -0.00360    2.78290
 11628.50000    2.58700    6.60020    7.21980   71.28710  119.31630   71.40500    0.10870   -0.00440    2.84300
 11629.00000    2.58060    6.61190    6.48070   70.71480  118.98930   76.03940    0.11330   -0.00530    2.85340
 11629.50000    2.57510    6.64000    6.23490   71.16160  118.74490   78.47630    0.12180   -0.00610    2.81560
 11630.00000    2.57710    6.66820    6.40730   70.75450  118.47680   77.53160    0.12370   -0.00680    2.81140
 11630.50000    2.58520    6.53020    7.22100   70.80180  118.19600   74.22750    0.11570   -0.00550    2.83470
 11631.00000    2.59620    6.45460    7.69820   71.31390  118.39870   70.62540    0.10770   -0.00420    2.84690
 11631.50000    2.59370    6.45460    6.90200   71.64920  118.54490   72.19710    0.10390   -0.00290    2.84860
 11632.00000    2.58940    6.45460    6.95990   71.68960  118.56580   74.52350    0.10410   -0.00150    2.81650
 11632.50000    2.57820    7.01010    7.63910   71.70810  118.60050   78.60630    0.10580   -0.00020    2.76560
 11633.00000    2.56880    7.96510    8.38460   72.02080  118.64200   78.54380    0.10930   -0.00290    2.73980
 11633.50000    2.56440    8.31010    8.78020   71.95670  118.98560   79.54610    0.11410   -0.00580    2.72050
 11634.00000    2.56050    8.09820    8.82640   71.84920  119.18270   79.85800    0.11480   -0.00720    2.69240
 11634.50000    2.56500    7.48510    8.77780   71.87930  119.19980   82.15380    0.11520   -0.00790    2.64950
 11635.00000    2.56980    6.85180    8.68850   71.83880  119.21690   83.05770    0.11540   -0.00870    2.62670
 11635.50000    2.57850    6.89320    7.98580   71.61320  119.05520   83.23470    0.11920   -0.00860    2.63190
 11636.00000    2.58550    7.97180   10.46000   71.53340  118.67850   82.95520    0.11470   -0.00750    2.69170
 11636.50000    2.58320    9.39470   10.50140   71.46950  118.29360   81.65450    0.11390   -0.00640    2.76730
 11637.00000    2.57840   10.17150   10.99750   71.40250  118.11970   79.11520    0.10820   -0.00530    2.80880
 11637.50000    2.57620    9.94590   11.36310   70.98510  117.50730   79.88280    0.11210   -0.00580    2.78630
 11638.00000    2.57390    9.29690   10.68940   70.77670  117.39250   82.84240    0.11610   -0.00630    2.75570
 11638.50000    2.57700    9.33250   10.43490   70.54740  117.34060   84.87630    0.11940   -0.00680    2.74780
 11639.00000    2.58990   10.09450   10.59050   70.05650  116.97800   82.29870    0.12010   -0.00580    2.78220
 11639.50000    2.60490   10.68370   11.21900   69.50640  116.47350   77.64790    0.11530   -0.00480    2.86330
 11640.00000    2.61990   10.76390   11.25020   69.20120  116.16430   74.19390    0.11090   -0.00380    2.94750
 11640.50000    2.62250   10.54340   11.10870   68.93600  115.98040   74.57350    0.11080   -0.00280    3.00800
 11641.00000    2.61680   10.18530   10.99500   68.82810  115.79650   76.77470    0.10910   -0.00240    3.04120
 11641.50000    2.60970   10.42070   12.06700   69.13600  115.83830   79.97740    0.10700   -0.00290    3.03410
 11642.00000    2.60340   13.80930   17.21440   69.50590  116.13070   81.02650    0.10590   -0.00330    2.98180
 11642.50000    2.61080   17.55410   24.03360   69.91860  116.69750   82.39690    0.10760   -0.00380    2.87000
 11643.00000    2.61240    8.76250   13.44140   70.09620  117.58210   82.74720    0.11440   -0.00430    2.74690
 11643.50000    2.60820    6.86230    8.61950   71.11120  118.39470   83.31630    0.12070   -0.00480    2.67740
