~Version ---------------------------------------------------
VERS.   2.0 : CWLS log ASCII Standard -VERSION 2.0
WRAP.    NO : One line per depth step
DLM . SPACE : Column Data Section Delimiter
~Well ------------------------------------------------------
STRT .F                  97.0 : START DEPTH
STOP .F               12100.0 : STOP DEPTH
STEP .F                   0.5 : STEP
NULL .               -9999.25 : NULL VALUE
COMP .                        : COMPANY
WELL .                        : WELL
FLD  .                        : FIELD
LOC  .                        : LOCATION
PROV .                        : PROVINCE
CNTY .                        : COUNTY
STAT .                        : STATE
CTRY .                        : COUNTRY
SRVC .                        : SERVICE COMPANY
DATE .                        : DATE
UWI  .                        : UNIQUE WELL ID
API  .                        : API NUMBER
SLAT .WGS84 2.459228673666601 : SURFACE LATITUDE
SLON .WGS84 8.126912880497002 : SURFACE LONGITUDE
DATUM.F                   nan : DEPTH DATUM ELEV
~Curve Information -----------------------------------------
DEPT   .F     : 1 MEASURED DEPTH
RHOZ   .G/C3  : HRDD STANDARD RESOLUTION FORMATION DENSITY
RLA5   .OHMM  : APPARENT RESISTIVITY FROM COMPUTED FOCUSING MODE 5
RXOZ   .OHMM  : INVADED FORMATION RESISTIVITY FILTERED AT 18 INCHES
DTCO   .US/F  : DELTA-T COMPRESSIONAL
DTSM   .US/F  : DELTA-T SHEAR
SGRDD  .GAPI  : SPECTROSCOPY GAMMA RAY FROM DENSITY LOG
TNPH_LS.DEC   : THERMAL NEUTRON POROSITY [LIMESTONE]
HDRA   .G/C3  : HRDD SPINE AND RIBS DENSITY CORRECTION
PEFZ   .B/E   : HRDD STANDARD RESOLUTION FORMATION PHOTOELECTRIC FACTOR
~Params ----------------------------------------------------
~Other -----------------------------------------------------
~ASCII -----------------------------------------------------
# ...
 8857.00000    2.60130   31.27350   31.88630   63.28560  103.76170   78.59250    0.07890   -0.00770    2.63450
 8857.50000    2.60070   29.39820   25.72110   62.98380  103.42860   75.40470    0.07290   -0.00670    2.51450
 8858.00000    2.60320   29.10570   24.12340   62.78540  102.24870   70.90390    0.07290   -0.00580    2.52430
 8858.50000    2.59920   29.12470   23.78670   61.77870  101.55570   67.21070    0.07240   -0.00490    2.57960
 8859.00000    2.60030   31.00730   27.10330   60.96650  100.84420   64.81860    0.06960   -0.00390    2.65080
 8859.50000    2.61080   35.21450   29.94000   61.42260  100.08950   62.76330    0.06780   -0.00300    2.67850
 8860.00000    2.63260   33.99400   30.44720   60.46270  100.22570   63.28740    0.06740   -0.00270    2.63970
 8860.50000    2.63020   36.08550   31.14650   61.40690  100.91850   64.68510    0.06910   -0.00400    2.59920
 8861.00000    2.61770   37.36240   32.20660   63.62380  101.60440   69.29670    0.07350   -0.00540    2.54470
 8861.50000    2.60020   47.96890   37.16640   64.95510  102.56930   73.73820    0.08290   -0.00670    2.55960
 8862.00000    2.59280   89.15050   46.52660   64.46970  104.12100   82.31360    0.10040   -0.00710    2.58400
 8862.50000    2.59350  118.10690   68.61900   65.00580  105.34450   96.14100    0.11750   -0.00610    2.60940
 8863.00000    2.59680  150.86600   11.11980   65.76940  107.02260  108.55500    0.13010   -0.00520    2.68500
 8863.50000    2.59420  179.59530    7.05130   66.53300  108.09610  113.02880    0.13130   -0.00420    2.90590
 8864.00000    2.58760  263.69710    7.32120   66.96970  108.44620  117.51380    0.13990   -0.00330    3.15930
 8864.50000    2.58280  268.72540   32.72770   66.99680  108.86400  125.69660    0.14070   -0.00540    3.39560
 8865.00000    2.60010  216.57370  416.11570   65.07690  107.98450  133.96880    0.13790   -0.00910    3.40960
 8865.50000    2.62180  130.54730  181.22150   64.47460  107.40580  127.92420    0.12530   -0.00500    3.27510
 8866.00000    2.64240   91.95090   87.18520   64.27580  105.91580  111.06360    0.11280   -0.00290    3.10250
 8866.50000    2.63950   88.46770   67.15210   62.28970  104.11350   93.82990    0.09970   -0.00290    3.03880
 8867.00000    2.62940   83.32980   45.63290   63.18280  102.07090   80.89690    0.08890   -0.00390    2.96430
 8867.50000    2.61320   32.59400   29.07120   63.00860  103.33200   69.77350    0.08180   -0.00400    2.85770
 8868.00000    2.60480   29.20390   22.10830   62.19220  102.52760   67.71730    0.08090   -0.00330    2.64080
 8868.50000    2.59150   26.16360   21.55450   62.35750  102.28870   67.78490    0.08530   -0.00260    2.51170
 8869.00000    2.57730   26.74290   21.26530   63.09520  102.04970   69.46850    0.08180   -0.00260    2.51660
 8869.50000    2.56080   27.71340   20.99380   63.22190  101.95830   68.62740    0.07820   -0.00400    2.55550
 8870.00000    2.55120   27.93530   20.72670   63.45810  102.38710   68.10680    0.07470   -0.00600    2.54820
 8870.50000    2.54950   27.80690   20.45300   63.84090  102.81580   68.08540    0.07310   -0.00850    2.51520
 8871.00000    2.55390   27.29640   20.12920   63.82550  103.10520   68.67460    0.07480   -0.00890    2.52090
 8871.50000    2.56360   26.79460   20.69660   63.68650  103.26380   68.11760    0.07680   -0.00900    2.52920
 8872.00000    2.57320   26.31190   20.72240   63.43310  103.19140   66.75090    0.07870   -0.00900    2.55180
 8872.50000    2.58040   25.83800   20.19750   63.32030  102.95860   65.23690    0.07830   -0.00900    2.60270
 8873.00000    2.57880   26.50870   19.99360   63.19760  102.85220   64.85750    0.07570   -0.00900    2.66830
 8873.50000    2.57710   35.70810   20.34190   63.09200  102.78490   64.09530    0.07000   -0.00920    2.70900
 8874.00000    2.57870   35.71910   19.17360   63.02140  102.70160   64.54780    0.06970   -0.00980    2.71930
 8874.50000    2.57960   35.25800   18.04270   63.13510  102.74120   68.80340    0.07170   -0.01030    2.72820
 8875.00000    2.57760   42.15540   20.03910   63.44550  102.71720   77.18700    0.07790   -0.01090    2.73450
 8875.50000    2.57480   48.13230   24.81540   63.29840  102.61230   86.69870    0.08690   -0.01080    2.73480
 8876.00000    2.56500   39.51110   24.60350   63.25470  102.49620   85.68960    0.08990   -0.00900    2.73500
 8876.50000    2.55940   27.66090   20.70500   63.34820  102.39700   79.54800    0.08980   -0.00730    2.67480
 8877.00000    2.56060   28.34350   19.05750   63.59060  101.74090   69.19770    0.08090   -0.00560    2.57480
 8877.50000    2.57550   29.45770   21.64250   63.61980  102.19940   68.22000    0.07310   -0.00420    2.52810
 8878.00000    2.58810   34.59080   22.80270   63.43190  101.92040   69.05430    0.07250   -0.00280    2.52530
 8878.50000    2.59340   32.78440   21.19680   63.40750  101.78650   72.44170    0.07340   -0.00130    2.52070
 8879.00000    2.59440   31.16530   19.73760   63.35750  101.56690   73.78460    0.07770    0.00000    2.47840
 8879.50000    2.59170   30.76280   18.43820   63.33770  101.80120   72.94760    0.08020    0.00040    2.46120
 8880.00000    2.58950   26.75150   16.37680   63.42060  101.61290   70.84120    0.08110    0.00070    2.45580
 8880.50000    2.58680   27.39810   15.63100   63.42560  100.88790   68.56510    0.08130   -0.00010    2.47010
 8881.00000    2.58190   30.29520   17.34600   63.19350  100.72650   67.20770    0.07940   -0.00090    2.52630
 8881.50000    2.57230   30.80610   20.73330   63.06630  100.77870   65.88440    0.07570   -0.00170    2.55680
 8882.00000    2.56850   27.32600   22.33350   62.97310  100.83100   63.97270    0.07280   -0.00220    2.52690
 8882.50000    2.56830   30.05980   22.44680   62.56040  101.00670   62.07170    0.07140   -0.00190    2.49860
 8883.00000    2.57900   31.39540   23.34000   62.49730  100.89370   60.04040    0.07260   -0.00170    2.47170
 8883.50000    2.59270   32.27890   25.13380   62.59700  100.62750   57.86830    0.06660   -0.00150    2.45770
 8884.00000    2.60650   42.16680   28.82050   62.45030  100.56020   57.88910    0.05720   -0.00120    2.41600
 8884.50000    2.60760   37.58170   30.65580   62.37230  100.62560   58.13190    0.05540   -0.00100    2.40620
 8885.00000    2.59090   34.19730   30.65580   62.45320  100.59140   57.84590    0.05870   -0.00100    2.39640
 8885.50000    2.57890   35.44700   31.92160   62.56640  101.46770   57.45420    0.06200   -0.00100    2.39820
 8886.00000    2.57280   35.42000   32.22300   62.89030  101.12690   57.72560    0.06230   -0.00100    2.41940
 8886.50000    2.57260   30.47600   28.19270   62.81900  100.93580   59.64290    0.06320   -0.00120    2.41170
 8887.00000    2.56700   30.01600   24.81340   62.89290  100.74460   60.66010    0.06860   -0.00240    2.42140
 8887.50000    2.56090   30.33010   24.59250   63.07830  101.37220   61.80230    0.07320   -0.00360    2.44510
 8888.00000    2.55720   30.92860   25.15340   63.01270  101.46810   63.18380    0.07550   -0.00480    2.47370
 8888.50000    2.55760   29.73730   24.82350   62.85590  101.60840   61.81220    0.07330   -0.00570    2.46600
 8889.00000    2.56310   28.55370   24.03070   62.68320  102.74990   60.56580    0.07410   -0.00570    2.42480
 8889.50000    2.56860   28.36670   24.34490   62.58750  101.80310   60.35600    0.07530   -0.00580    2.41210
 8890.00000    2.57110   28.80320   25.08730   62.74390  101.14400   61.83550    0.07620   -0.00650    2.47430
 8890.50000    2.57430   30.49900   25.55140   62.97590  101.93120   62.87200    0.07400   -0.00910    2.54520
 8891.00000    2.58520   39.12300   29.15910   62.89190  102.02380   63.80520    0.07120   -0.00920    2.54560
 8891.50000    2.59190   37.68230   33.40220   62.81940  101.76530   69.17220    0.06990   -0.00820    2.54460
 8892.00000    2.59670   39.05180   36.51930   62.25630  101.50680   76.98560    0.07270   -0.00620    2.60550
 8892.50000    2.60560   66.23450   48.89220   62.29220  101.24840   86.88450    0.07750   -0.00430    2.70460
 8893.00000    2.62100   94.22860   68.78770   62.29440  100.33550   92.36760    0.08550   -0.00230    2.74860
