~Version ---------------------------------------------------
VERS.   2.0 : CWLS log ASCII Standard -VERSION 2.0
WRAP.    NO : One line per depth step
DLM . SPACE : Column Data Section Delimiter
~Well ------------------------------------------------------
STRT .F                  97.0 : START DEPTH
STOP .F               12100.0 : STOP DEPTH
STEP .F                   0.5 : STEP
NULL .               -9999.25 : NULL VALUE
COMP .                        : COMPANY
WELL .                        : WELL
FLD  .                        : FIELD
LOC  .                        : LOCATION
PROV .                        : PROVINCE
CNTY .                        : COUNTY
STAT .                        : STATE
CTRY .                        : COUNTRY
SRVC .                        : SERVICE COMPANY
DATE .                        : DATE
UWI  .                        : UNIQUE WELL ID
API  .                        : API NUMBER
SLAT .WGS84 2.459228673666601 : SURFACE LATITUDE
SLON .WGS84 8.126912880497002 : SURFACE LONGITUDE
DATUM.F                   nan : DEPTH DATUM ELEV
~Curve Information -----------------------------------------
DEPT   .F     : 1 MEASURED DEPTH
RHOZ   .G/C3  : HRDD STANDARD RESOLUTION FORMATION DENSITY
RLA5   .OHMM  : APPARENT RESISTIVITY FROM COMPUTED FOCUSING MODE 5
RXOZ   .OHMM  : INVADED FORMATION RESISTIVITY FILTERED AT 18 INCHES
DTCO   .US/F  : DELTA-T COMPRESSIONAL
DTSM   .US/F  : DELTA-T SHEAR
SGRDD  .GAPI  : SPECTROSCOPY GAMMA RAY FROM DENSITY LOG
TNPH_LS.DEC   : THERMAL NEUTRON POROSITY [LIMESTONE]
HDRA   .G/C3  : HRDD SPINE AND RIBS DENSITY CORRECTION
PEFZ   .B/E   : HRDD STANDARD RESOLUTION FORMATION PHOTOELECTRIC FACTOR
~Params ----------------------------------------------------
~Other -----------------------------------------------------
~ASCII -----------------------------------------------------
# ...
 11176.00000    2.61350  486.55120  200.20690   57.97230  100.34920   28.89050    0.04800   -0.00170    4.44140
 11176.50000    2.61230  619.98480  295.24590   57.90600  100.18770   29.17610    0.05040   -0.00160    4.37170
 11177.00000    2.60950  634.72330  329.59550   57.34690   99.99970   29.24500    0.05350   -0.00160    4.35660
 11177.50000    2.60560  639.13280  363.83560   57.68230   99.72630   27.52780    0.04940   -0.00190    4.36530
 11178.00000    2.60170  974.92990  415.27580   57.64670   99.44020   26.05720    0.04370   -0.00230    4.40740
 11178.50000    2.60730 1865.20650  478.14270   57.54370   99.12650   23.10390    0.03670   -0.00260    4.47860
 11179.00000    2.60830 2284.12110  554.64760   57.56140   98.80070   22.30500    0.03490   -0.00290    4.54920
 11179.50000    2.61190 2207.09990  650.45920   57.35970   98.46090   21.90250    0.03400   -0.00280    4.57270
 11180.00000    2.61240 2208.48900  661.39340   56.98750   98.46690   22.33060    0.03310   -0.00230    4.57200
 11180.50000    2.61570 2664.66870  625.80730   56.45920   98.45980   22.43510    0.03170   -0.00180    4.56020
 11181.00000    2.62450 2231.35380  601.76060   55.98930   98.25040   22.72820    0.03060   -0.00140    4.55680
 11181.50000    2.63740 2417.29220  604.39000   56.31290   98.13080   22.44920    0.02900   -0.00090    4.55630
 11182.00000    2.65160 2630.51390  634.04490   55.66370   97.82270   21.90500    0.02650   -0.00040    4.55910
 11182.50000    2.66550 4286.96970  642.13910   55.26920   97.49370   19.95730    0.02320    0.00000    4.56190
 11183.00000    2.67700 3793.53100  638.09890   55.36340   96.90460   18.71860    0.02030    0.00050    4.60510
 11183.50000    2.68100 2665.44560  647.49000   55.73910   96.64120   16.82130    0.01750    0.00090    4.63820
 11184.00000    2.67630 2634.37260  684.36280   55.66540   96.62620   16.72150    0.01710    0.00110    4.60800
 11184.50000    2.66970 2677.61550  755.01930   55.69740   96.76750   17.31000    0.02100    0.00140    4.55160
 11185.00000    2.66030 2306.63920  678.81970   55.94680   96.86020   19.25560    0.02560    0.00130    4.49230
 11185.50000    2.64050 2734.22410  620.52790   56.35280   96.85440   21.15310    0.03640    0.00070    4.45450
 11186.00000    2.61800 2902.05000  575.05370   56.50660   97.17660   22.48800    0.03640    0.00000    4.43780
 11186.50000    2.60260 3031.16160  547.14380   56.54570   97.26110   23.37380    0.03630   -0.00060    4.52730
 11187.00000    2.60840 2374.59670  543.85440   56.80060   97.26650   24.99130    0.03710   -0.00130    4.65540
 11187.50000    2.61690 4117.78660  533.73300   56.35350   97.19410   24.30030    0.03890   -0.00200    4.72600
 11188.00000    2.62800 4202.99850  415.02610   56.30710   97.24550   22.66260    0.03930   -0.00260    4.68010
 11188.50000    2.63960 4193.88040  356.26420   56.33220   97.49580   20.54620    0.03780   -0.00330    4.58860
 11189.00000    2.65020 3693.40480  320.23660   56.25830   97.71240   19.51210    0.03760   -0.00390    4.54290
 11189.50000    2.65470 3163.05910  388.13690   56.18240   97.89170   19.39050    0.04080   -0.00440    4.58020
 11190.00000    2.65250 2945.19020  446.48540   56.19620   97.52760   21.26490    0.04190   -0.00360    4.61840
 11190.50000    2.64820 2760.25660  527.94890   56.21050   97.09060   24.97360    0.04130   -0.00290    4.64100
 11191.00000    2.64700 2418.85600  546.10040   55.87740   96.67920   27.86920    0.03950   -0.00210    4.60800
 11191.50000    2.64290 3130.95460  525.59980   55.76080   96.27700   27.54320    0.03870   -0.00140    4.56080
 11192.00000    2.63950 5328.12790  479.92440   54.81910   95.90080   24.69250    0.02480   -0.00060    4.49960
 11192.50000    2.64190 4748.40770  526.73070   54.46420   95.46010   22.54360    0.01500    0.00010    4.43710
 11193.00000    2.65340 5483.26760  613.87710   54.42540   95.27690   20.25220    0.01090    0.00090    4.41540
 11193.50000    2.66470 6869.33640  661.18570   54.21200   95.15660   18.76020    0.01340    0.00160    4.47690
 11194.00000    2.67340 4043.90580  636.21080   53.89880   94.55040   17.48100    0.01460    0.00220    4.58500
 11194.50000    2.67670 4758.10450  626.58660   53.09360   93.97200   17.30080    0.01550    0.00170    4.67360
 11195.00000    2.67610 5405.08940  642.26890   52.94580   93.39880   18.03890    0.01840    0.00130    4.70490
 11195.50000    2.67100 1262.24280  666.07670   53.29400   93.50380   19.64350    0.01960    0.00080    4.69320
 11196.00000    2.66590 2929.56130  702.56670   53.22080   94.27210   21.07680    0.02070    0.00040    4.65650
 11196.50000    2.66050 2711.34250  695.29260   53.16800   94.97750   21.94000    0.02240   -0.00010    4.61860
 11197.00000    2.65180 3023.56490  679.40500   54.31010   95.55740   21.92070    0.02540   -0.00060    4.59920
 11197.50000    2.64770 2165.17940  645.92220   54.51340   95.86270   22.26080    0.02650   -0.00100    4.56040
 11198.00000    2.64700 1306.79390  582.07750   54.46500   96.19600   22.41140    0.02880   -0.00150    4.50860
 11198.50000    2.65300  985.37400  518.54960   54.46120   96.55480   23.84330    0.03130   -0.00190    4.39540
 11199.00000    2.64720  980.08960  428.07660   55.10270   97.81130   24.55450    0.03360   -0.00240    4.32170
 11199.50000    2.62730 1320.51260  398.14270   55.35590   97.78740   26.59840    0.03410   -0.00280    4.25060
 11200.00000    2.60890  805.05730  399.49310   55.60030   97.69770   28.90750    0.03380   -0.00290    4.19140
 11200.50000    2.59920  567.26790  378.23540   55.82490   97.66920   31.01580    0.03500   -0.00250    4.22290
 11201.00000    2.61190  392.19540  362.30570   56.00750   97.49630   32.07640    0.04130   -0.00220    4.35470
 11201.50000    2.62960  394.98540  376.38360   54.72650   97.32350   29.71450    0.04550   -0.00190    4.51260
 11202.00000    2.64860  763.03850  453.84670   54.99920   97.15070   24.70670    0.04390   -0.00160    4.62080
 11202.50000    2.66490 95870.32810  599.26860   54.57290   96.98760   17.51480    0.03270   -0.00120    4.67380
 11203.00000    2.66520 7284.70900  605.65140   53.41120   96.07420   14.46130    0.02300   -0.00090    4.73420
 11203.50000    2.66180 8771.25200  605.39810   52.44010   94.64520   14.48490    0.01170   -0.00120    4.79060
 11204.00000    2.65880 6873.02930  620.53710   52.64830   93.53550   17.34630    0.01040   -0.00170    4.79390
 11204.50000    2.65180 5419.99370  600.56980   50.76300   93.41530   22.05110    0.01050   -0.00220    4.78140
 11205.00000    2.64520 4470.00880  541.22210   52.38290   93.37550   24.90870    0.01100   -0.00270    4.72620
 11205.50000    2.64690 4958.07910  429.49390   52.24700   93.42880   24.41330    0.01150   -0.00320    4.66980
 11206.00000    2.65240 5091.45800  397.36540   52.44260   93.66800   20.97680    0.01200   -0.00370    4.57800
 11206.50000    2.64170 6705.62700  426.60610   52.71650   93.96550   17.94250    0.01250   -0.00350    4.43630
 11207.00000    2.62460 3732.19040  466.56880   52.31290   94.26300   15.91210    0.01660   -0.00300    4.24570
 11207.50000    2.61600 1367.15050  465.22450   55.54750   95.26140   16.56650    0.02660   -0.00240    4.06370
 11208.00000    2.60660 1400.90380  331.63900   56.09350   96.83500   18.52550    0.05040   -0.00190    3.89120
 11208.50000    2.58090  882.93270  325.91940   56.61280   97.83520   20.45520    0.07010   -0.00130    3.87200
 11209.00000    2.54680 1358.54720  332.16160   57.36780   98.71720   21.38110    0.06560   -0.00070    3.93720
 11209.50000    2.52750 1441.41150  438.56800   57.87800   99.76910   21.50260    0.06170   -0.00020    4.02610
 11210.00000    2.54460 1167.49240  394.34940   58.14940  100.65580   22.14260    0.06090    0.00620    4.14520
 11210.50000    2.58960 1154.20970  296.70740   58.08660  101.36340   23.10180    0.06470    0.03430    4.28840
 11211.00000    2.63450  796.28790  278.53940   57.83220  102.01920   22.12620    0.06280    0.03460    4.45790
 11211.50000    2.66790 1816.48690  325.79340   56.88920  102.68630   20.75310    0.05630    0.02270    4.53490
