~Version ---------------------------------------------------
VERS.   2.0 : CWLS log ASCII Standard -VERSION 2.0
WRAP.    NO : One line per depth step
DLM . SPACE : Column Data Section Delimiter
~Well ------------------------------------------------------
STRT .F                  97.0 : START DEPTH
STOP .F               12100.0 : STOP DEPTH
STEP .F                   0.5 : STEP
NULL .               -9999.25 : NULL VALUE
COMP .                        : COMPANY
WELL .                        : WELL
FLD  .                        : FIELD
LOC  .                        : LOCATION
PROV .                        : PROVINCE
CNTY .                        : COUNTY
STAT .                        : STATE
CTRY .                        : COUNTRY
SRVC .                        : SERVICE COMPANY
DATE .                        : DATE
UWI  .                        : UNIQUE WELL ID
API  .                        : API NUMBER
SLAT .WGS84 2.459228673666601 : SURFACE LATITUDE
SLON .WGS84 8.126912880497002 : SURFACE LONGITUDE
DATUM.F                   nan : DEPTH DATUM ELEV
~Curve Information -----------------------------------------
DEPT   .F     : 1 MEASURED DEPTH
RHOZ   .G/C3  : HRDD STANDARD RESOLUTION FORMATION DENSITY
RLA5   .OHMM  : APPARENT RESISTIVITY FROM COMPUTED FOCUSING MODE 5
RXOZ   .OHMM  : INVADED FORMATION RESISTIVITY FILTERED AT 18 INCHES
DTCO   .US/F  : DELTA-T COMPRESSIONAL
DTSM   .US/F  : DELTA-T SHEAR
SGRDD  .GAPI  : SPECTROSCOPY GAMMA RAY FROM DENSITY LOG
TNPH_LS.DEC   : THERMAL NEUTRON POROSITY [LIMESTONE]
HDRA   .G/C3  : HRDD SPINE AND RIBS DENSITY CORRECTION
PEFZ   .B/E   : HRDD STANDARD RESOLUTION FORMATION PHOTOELECTRIC FACTOR
~Params ----------------------------------------------------
~Other -----------------------------------------------------
~ASCII -----------------------------------------------------
# ...
 9805.50000    2.58290 1039.55480  498.68540   57.89140   93.45860   27.49530    0.03570   -0.00400    3.23030
 9806.00000    2.57560  726.35930  529.41780   57.93470   93.71530   26.66100    0.03620   -0.00400    3.18550
 9806.50000    2.57770  901.02720  509.38400   57.87280   94.22630   27.16760    0.03770   -0.00390    3.15280
 9807.00000    2.57520  795.37870  464.26290   57.53310   94.67730   30.73130    0.04190   -0.00380    3.20270
 9807.50000    2.58510  670.16960  403.70720   57.35970   94.72520   33.82290    0.05100   -0.00360    3.34090
 9808.00000    2.60690  409.09710  360.08600   57.14670   94.38700   34.37240    0.05820   -0.00350    3.53640
 9808.50000    2.63260  393.40390  341.71100   56.95970   94.02670   33.03200    0.05500   -0.00340    3.72630
 9809.00000    2.64770  586.78800  350.49130   57.13560   93.83710   29.75270    0.04150   -0.00320    3.77520
 9809.50000    2.64010 1196.02220  390.87030   57.29590   93.62970   26.56230    0.03100   -0.00330    3.75510
 9810.00000    2.62150 1384.07470  472.69500   56.75300   92.91720   25.09540    0.02610   -0.00350    3.59370
 9810.50000    2.60300 1810.79280  561.81120   56.57440   93.11630   26.27500    0.02990   -0.00380    3.39600
 9811.00000    2.59820 2713.91430  647.40390   57.15200   92.84090   29.83630    0.03390   -0.00400    3.09380
 9811.50000    2.59120 4127.97410  589.68830   57.39950   92.44700   33.74210    0.03860   -0.00420    2.89870
 9812.00000    2.58140 2552.45510  535.71060   57.85490   92.51600   35.77000    0.04070   -0.00450    2.90490
 9812.50000    2.57100 2453.15620  507.38210   58.13430   95.01190   37.19420    0.04250   -0.00460    2.93660
 9813.00000    2.57010 2037.16410  520.41960   58.23120   92.62450   39.46560    0.04380   -0.00470    3.04400
 9813.50000    2.57420 1916.00040  541.96010   58.31230   93.65570   43.91890    0.04730   -0.00480    3.14220
 9814.00000    2.57680 1732.33810  547.38260   58.53830   94.21590   48.28850    0.05220   -0.00490    3.24130
 9814.50000    2.57770 1693.72440  540.28550   59.33060   94.73110   48.17060    0.05640   -0.00500    3.41920
 9815.00000    2.57930 1689.95170  559.69020   58.95660   95.20690   45.26600    0.05760   -0.00480    3.63000
 9815.50000    2.58100 1438.44400  563.09360   58.80390   95.68260   41.51130    0.05680   -0.00360    3.73200
 9816.00000    2.58660 1590.26380  554.89280   59.36020   96.31410   38.67470    0.05630   -0.00240    3.75010
 9816.50000    2.59790 1672.25270  546.81170   59.36410   97.03100   34.85080    0.05470   -0.00120    3.72440
 9817.00000    2.59850 1674.14860  526.06830   59.33510   97.07300   31.89880    0.05310    0.00000    3.73760
 9817.50000    2.59340 1213.29530  485.82170   59.35400   97.14350   31.12260    0.05030   -0.00100    3.68420
 9818.00000    2.58750  591.40880  318.61440   59.37650   97.70980   33.95840    0.05040   -0.00320    3.56390
 9818.50000    2.58190  318.49830  260.38120   60.37870   98.57610   38.84920    0.05080   -0.00490    3.46880
 9819.00000    2.58200  235.67980  267.00720   61.59390  100.02690   42.20750    0.05200   -0.00460    3.45840
 9819.50000    2.58960  283.67470  321.28910   62.99390  101.46490   44.45720    0.05350   -0.00330    3.48780
 9820.00000    2.59770  289.30040  348.09210   63.88080  102.89030   47.07270    0.06220   -0.00270    3.44730
 9820.50000    2.60470  198.57370  277.27830   65.88350  105.14650   52.83040    0.07070   -0.00230    3.34640
 9821.00000    2.58760  222.17670  189.57750   69.82730  108.29140   59.29480    0.08300   -0.00180    3.23570
 9821.50000    2.55950  207.36560  144.18220   71.34120  110.69680   68.16790    0.09610   -0.00140    3.13980
 9822.00000    2.52930  170.90080  118.27290   72.42800  113.10230   78.88300    0.11950   -0.00090    2.97850
 9822.50000    2.51830  167.90170   99.81440   72.45280  115.50770   88.67490    0.14610   -0.00130    2.80490
 9823.00000    2.51240  178.40520   86.93370   74.29740  117.91860   97.30860    0.16040   -0.00180    2.68220
 9823.50000    2.50340  199.54910   76.49880   75.74340  118.63180  102.05300    0.15820   -0.00230    2.65620
 9824.00000    2.49850  124.75970   67.25910   76.50750  119.88070  104.18020    0.16690   -0.00270    2.72410
 9824.50000    2.49970  140.53090   61.06740   76.46740  121.25570  104.85140    0.17440   -0.00310    2.78430
 9825.00000    2.50080  140.55260   65.68850   76.01190  122.18210  105.55620    0.17940   -0.00330    2.78970
 9825.50000    2.50020  165.38030   73.29230   75.49340  121.98500  107.70850    0.18090   -0.00360    2.77600
 9826.00000    2.49250  149.76450   79.54170   74.92340  121.47580  111.15390    0.18670   -0.00390    2.73840
 9826.50000    2.49020  142.25920   76.78100   74.34000  120.94200  114.70630    0.18520   -0.00410    2.68260
 9827.00000    2.49600  137.77670   70.40420   71.74200  119.21690  115.42460    0.18240   -0.00330    2.64180
 9827.50000    2.51710  118.35950   76.38740   71.44670  118.64070  110.56500    0.17640   -0.00240    2.67710
 9828.00000    2.54160  185.70940   90.61300   69.78030  118.27120   99.52940    0.15710   -0.00160    2.72830
 9828.50000    2.55530  230.33650  112.49910   68.86220  116.26090   87.45970    0.15440   -0.00090    2.83340
 9829.00000    2.55020  223.01220  133.26430   70.29610  115.96190   77.73610    0.14410   -0.00100    2.90460
 9829.50000    2.54110  199.53330  124.14530   69.42920  115.72030   75.62030    0.15010   -0.00110    2.91160
 9830.00000    2.53670  157.35200   91.77310   71.66310  115.50970   76.23550    0.15290   -0.00120    2.88390
 9830.50000    2.52110  118.52510   64.69810   69.94210  115.31200   77.78920    0.15840   -0.00130    2.84810
 9831.00000    2.50550  115.01820   59.22630   70.57070  115.42310   77.67140    0.16610   -0.00140    2.80270
 9831.50000    2.49340  129.63970   64.51460   70.66400  115.67640   77.51760    0.16220   -0.00150    2.76190
 9832.00000    2.49660  174.78150   76.54790   71.24240  116.53250   80.01670    0.16340   -0.00160    2.75250
 9832.50000    2.50070  176.56090   69.95230   72.07810  117.70900   84.21530    0.15640   -0.00170    2.87570
 9833.00000    2.50380  160.86120   63.58390   72.74560  117.91650   86.49390    0.16580   -0.00170    3.05420
 9833.50000    2.50540  131.90870   64.09770   73.12340  117.61820   88.84950    0.17940   -0.00170    3.16820
 9834.00000    2.50240  130.51110   71.12150   74.33050  117.52900   89.08380    0.18920   -0.00300    3.11490
 9834.50000    2.49790  141.41000   76.24610   75.48320  117.51800   88.52660    0.19030   -0.00480    3.04860
 9835.00000    2.49300  140.37050   81.39970   73.27020  117.43550   83.79370    0.18820   -0.00660    3.03290
 9835.50000    2.49670  141.19630   89.47020   71.75710  116.36560   76.44630    0.16440   -0.00840    3.11080
 9836.00000    2.51860  176.56090  105.34080   69.47000  114.67930   71.26500    0.14150   -0.00740    3.20330
 9836.50000    2.54440  153.72730  137.62800   68.76590  112.86650   67.86440    0.12320   -0.00600    3.28950
 9837.00000    2.57150  145.96320  123.36530   68.33390  110.28290   65.16900    0.10840   -0.00460    3.34850
 9837.50000    2.58690  304.26020  133.29310   67.39020  109.22130   58.23290    0.09190   -0.00320    3.42170
 9838.00000    2.60150  362.12170  173.78820   66.73330  108.55070   51.25350    0.07890   -0.00230    3.51760
 9838.50000    2.60690  282.59270  189.86720   66.36370  108.76270   49.70360    0.07300   -0.00180    3.65380
 9839.00000    2.60030  272.04700  153.60600   66.85270  109.29770   56.97150    0.08490   -0.00040    3.72300
 9839.50000    2.58530  179.00810  132.21340   67.47780  109.62930   67.63680    0.10730    0.00090    3.70950
 9840.00000    2.57330  215.94540  146.52550   68.27100  109.96090   73.77800    0.13510    0.00230    3.58670
 9840.50000    2.57230  265.40190  273.35490   68.25750  110.09590   78.47240    0.14520    0.00680    3.46350
 9841.00000    2.58990  266.21870  286.20500   68.08240  110.27570   78.75340    0.13690    0.01240    3.29960
 9841.50000    2.59190  247.59390  197.28450   68.43180  110.99600   79.46390    0.12740    0.01020    3.19300
