~Version ---------------------------------------------------
VERS.   2.0 : CWLS log ASCII Standard -VERSION 2.0
WRAP.    NO : One line per depth step
DLM . SPACE : Column Data Section Delimiter
~Well ------------------------------------------------------
STRT .F                  97.0 : START DEPTH
STOP .F               12100.0 : STOP DEPTH
STEP .F                   0.5 : STEP
NULL .               -9999.25 : NULL VALUE
COMP .                        : COMPANY
WELL .                        : WELL
FLD  .                        : FIELD
LOC  .                        : LOCATION
PROV .                        : PROVINCE
CNTY .                        : COUNTY
STAT .                        : STATE
CTRY .                        : COUNTRY
SRVC .                        : SERVICE COMPANY
DATE .                        : DATE
UWI  .                        : UNIQUE WELL ID
API  .                        : API NUMBER
SLAT .WGS84 2.459228673666601 : SURFACE LATITUDE
SLON .WGS84 8.126912880497002 : SURFACE LONGITUDE
DATUM.F                   nan : DEPTH DATUM ELEV
~Curve Information -----------------------------------------
DEPT   .F     : 1 MEASURED DEPTH
RHOZ   .G/C3  : HRDD STANDARD RESOLUTION FORMATION DENSITY
RLA5   .OHMM  : APPARENT RESISTIVITY FROM COMPUTED FOCUSING MODE 5
RXOZ   .OHMM  : INVADED FORMATION RESISTIVITY FILTERED AT 18 INCHES
DTCO   .US/F  : DELTA-T COMPRESSIONAL
DTSM   .US/F  : DELTA-T SHEAR
SGRDD  .GAPI  : SPECTROSCOPY GAMMA RAY FROM DENSITY LOG
TNPH_LS.DEC   : THERMAL NEUTRON POROSITY [LIMESTONE]
HDRA   .G/C3  : HRDD SPINE AND RIBS DENSITY CORRECTION
PEFZ   .B/E   : HRDD STANDARD RESOLUTION FORMATION PHOTOELECTRIC FACTOR
~Params ----------------------------------------------------
~Other -----------------------------------------------------
~ASCII -----------------------------------------------------
# ...
 9331.00000    2.63900 1805.20580  628.45000   52.97210   93.67640   17.47810    0.01410   -0.00400    4.91000
 9331.50000    2.64660 1892.71440  575.67380   53.56530   93.60220   18.52170    0.01400   -0.00470    4.86320
 9332.00000    2.65250 1937.14260  568.91650   53.07730   93.89860   18.55560    0.01390   -0.00480    4.82120
 9332.50000    2.65260 1965.24080  572.55980   52.90980   94.15060   18.21130    0.01370   -0.00380    4.81970
 9333.00000    2.65020 1749.47710  573.44120   52.87350   93.92960   17.85450    0.01350   -0.00290    4.81630
 9333.50000    2.65340 1730.73550  570.94330   52.61360   93.74750   18.18030    0.01310   -0.00190    4.78330
 9334.00000    2.65740 1774.08560  544.97160   52.92080   93.61070   18.75870    0.01290   -0.00090    4.75020
 9334.50000    2.65590 1903.77200  502.68990   52.74560   94.29770   19.36640    0.01310    0.00010    4.72800
 9335.00000    2.65440 1933.12270  500.75990   53.24370   94.30050   19.29500    0.01400    0.00050    4.73280
 9335.50000    2.65300 2026.52660  529.85480   53.09420   94.39280   19.15160    0.01500   -0.00150    4.73120
 9336.00000    2.64840 2119.93040  563.65610   53.23220   94.49960   19.25520    0.01610   -0.00360    4.72860
 9336.50000    2.64710 2172.55980  562.14620   53.15320   94.57280   19.21070    0.01660   -0.00490    4.72410
 9337.00000    2.64920 2149.70970  507.77360   53.08930   94.44540   18.86850    0.01650   -0.00370    4.71850
 9337.50000    2.65360 2124.17550  441.19360   53.14030   94.71400   18.83990    0.01650   -0.00250    4.71360
 9338.00000    2.65470 2124.30620  427.08530   53.19690   94.68580   19.26940    0.01620   -0.00130    4.73540
 9338.50000    2.65010 2136.19140  462.23250   53.26900   94.86150   19.53500    0.01660   -0.00010    4.77820
 9339.00000    2.64300 2173.58940  518.34440   53.28770   95.20140   19.38230    0.01700   -0.00100    4.82370
 9339.50000    2.63530 2236.38310  557.34700   53.30650   95.16430   18.68030    0.01810   -0.00240    4.86740
 9340.00000    2.63070 2255.49540  568.07760   53.33940   95.02830   19.08300    0.01830   -0.00380    4.87450
 9340.50000    2.63070 2262.20650  558.38190   53.37830   95.11210   19.70170    0.01840   -0.00490    4.85970
 9341.00000    2.63380 2268.57890  542.67460   53.39220   94.81280   20.70310    0.01910   -0.00440    4.80570
 9341.50000    2.63760 2216.40430  542.02730   53.57360   94.68760   21.11230    0.01860   -0.00390    4.74770
 9342.00000    2.64140 2101.43850  560.48130   53.99360   94.56200   20.30540    0.01810   -0.00340    4.72090
 9342.50000    2.64320 2223.27880  573.47240   54.45110   94.38920   20.13070    0.01770   -0.00300    4.72900
 9343.00000    2.64350 2457.96340  573.22940   54.81700   94.35330   19.91450    0.01820   -0.00280    4.75000
 9343.50000    2.65060 2506.90140  575.71300   55.00190   95.32370   19.97100    0.01910   -0.00260    4.67360
 9344.00000    2.65940 2530.98070  597.93410   54.86140   95.78340   19.94720    0.02230   -0.00250    4.55850
 9344.50000    2.65790 2534.93410  621.01320   57.03840   97.03350   19.83630    0.02460   -0.00230    4.43960
 9345.00000    2.63350 2780.52370  650.39700   59.89040   96.90650   20.86930    0.02780   -0.00210    4.35400
 9345.50000    2.60180 2959.17850  663.85530   61.53570   98.50320   23.40510    0.03510   -0.00260    4.27120
 9346.00000    2.58000 2524.90770  624.04150   64.99160  102.61530   30.52310    0.04430   -0.00320    4.13270
 9346.50000    2.56170 1501.82020  434.08970   66.55740  103.56070   43.03370    0.05400   -0.00370    3.84320
 9347.00000    2.54300  478.73270  348.43590   69.14360  106.39130   61.44830    0.05970   -0.00430    3.45710
 9347.50000    2.52500  209.96440  124.75170   71.92950  109.83130   81.69930    0.07860   -0.00530    3.04450
 9348.00000    2.50540  121.05750   65.02830   73.42740  112.61030   98.85350    0.14020   -0.00640    2.75010
 9348.50000    2.48180  109.93150   58.65700   75.26550  115.67640  115.68380    0.20110   -0.00750    2.71990
 9349.00000    2.44610  135.33920   63.96940   77.34200  117.36860  133.08710    0.20700   -0.00830    2.73830
 9349.50000    2.42380  116.16200   72.03690   77.50030  118.89160  145.63820    0.19500   -0.00890    2.75270
 9350.00000    2.42190  143.59750   63.75170   77.75970  120.05200  147.22730    0.19810   -0.00870    2.67380
 9350.50000    2.42730  182.10160   79.09920   78.28200  120.55520  138.00650    0.20600   -0.00850    2.61270
 9351.00000    2.43110  154.89580  103.16050   79.72740  120.92740  127.83740    0.21400   -0.00820    2.63220
 9351.50000    2.44600  152.88090   83.07180   78.40310  121.20630  122.26960    0.20540   -0.00700    2.69140
 9352.00000    2.46600  104.91060   55.48320   76.26010  121.22430  119.70760    0.19630   -0.00560    2.72290
 9352.50000    2.47950   79.07970   40.34250   75.97360  121.10070  117.07150    0.18840   -0.00580    2.71390
 9353.00000    2.47570   77.50930   36.03400   75.77600  120.53930  117.45380    0.19260   -0.00960    2.79290
 9353.50000    2.46730   83.69880   36.65450   75.40080  119.87460  118.22890    0.20350   -0.00550    2.91180
 9354.00000    2.49450  101.86680   50.10350   75.01280  119.36910  116.60950    0.19940    0.00230    2.95590
 9354.50000    2.55280   92.64360   73.28700   74.03780  118.86360  114.39630    0.19320    0.03960    3.00780
 9355.00000    2.60290  122.94340   95.83090   72.33810  118.16570  118.39180    0.18460    0.07190    3.00410
 9355.50000    2.60150  140.24230   85.83520   67.85790  115.63720  132.57740    0.20050    0.08920    2.98890
 9356.00000    2.55620  179.34780   61.74190   65.16120  114.54930  143.17990    0.21900    0.05270    3.00880
 9356.50000    2.53510  181.73360   58.64850   65.58150  112.27220  134.77130    0.23160    0.01550    3.24420
 9357.00000    2.54310  198.27310   84.75060   64.57430  108.40440  107.98810    0.15450   -0.00150    3.66320
 9357.50000    2.58820 1038.45900  170.79490   64.50140  107.33910   78.29230    0.07610   -0.00530    4.08210
 9358.00000    2.59910 1559.21970  364.34430   63.21620  107.05990   54.33940    0.03650   -0.00250    4.15350
 9358.50000    2.59860 1589.56640  520.80180   63.74890  106.91430   48.08200    0.03270    0.00550    3.88680
 9359.00000    2.57820 1321.11660  549.20070   64.08450  106.67570   51.36830    0.05380    0.00540    3.59300
 9359.50000    2.54320  992.37540  487.57390   65.46870  107.05240   60.69290    0.08240    0.00200    3.45400
 9360.00000    2.50700  926.07510  368.95280   69.50860  108.94140   66.66710    0.10810   -0.00280    3.29390
 9360.50000    2.47850  880.13510  302.97380   71.69410  110.72230   73.99980    0.11750   -0.00290    3.02360
 9361.00000    2.47130  505.67080  236.33590   71.83350  112.12710   86.95570    0.14750    0.00520    2.71100
 9361.50000    2.43950  274.56750  204.18730   73.61160  113.56390   98.34520    0.18520    0.01330    2.54800
 9362.00000    2.40430  262.62390  198.20880   75.53980  115.00080  105.88680    0.24240    0.01430    2.44480
 9362.50000    2.36300  318.19840  178.61320   75.13370  115.63640  100.66340    0.21970    0.00580    2.44180
 9363.00000    2.35750  235.89610  161.71530   75.02200  114.69040   88.78400    0.20020   -0.00270    2.47640
 9363.50000    2.38050  438.49620  167.90840   74.66570  113.75330   74.08530    0.19750    0.00030    2.52490
 9364.00000    2.45210  446.16950  242.54540   71.08620  111.83730   64.91410    0.18930    0.00810    2.65850
 9364.50000    2.53630  531.02660  344.66590   67.45460  109.06740   56.34830    0.15060    0.01530    2.93050
 9365.00000    2.59750  885.02870  401.90830   64.99770  105.05130   51.78770    0.09530    0.01290    3.26320
 9365.50000    2.59680 1267.79850  398.02320   63.14430  104.30610   47.82780    0.06890    0.00770    3.43420
 9366.00000    2.58540 1380.35050  389.36770   60.86210  103.47890   42.83630    0.06260    0.00240    3.36980
 9366.50000    2.57630 1493.77820  380.90030   58.34650   99.42400   39.10370    0.05600   -0.00060    3.27170
 9367.00000    2.57150  934.96100  383.65740   58.12430   98.51650   40.67930    0.04680   -0.00130    3.15660
