~Version ---------------------------------------------------
VERS.   2.0 : CWLS log ASCII Standard -VERSION 2.0
WRAP.    NO : One line per depth step
DLM . SPACE : Column Data Section Delimiter
~Well ------------------------------------------------------
STRT .F                  97.0 : START DEPTH
STOP .F               12100.0 : STOP DEPTH
STEP .F                   0.5 : STEP
NULL .               -9999.25 : NULL VALUE
COMP .                        : COMPANY
WELL .                        : WELL
FLD  .                        : FIELD
LOC  .                        : LOCATION
PROV .                        : PROVINCE
CNTY .                        : COUNTY
STAT .                        : STATE
CTRY .                        : COUNTRY
SRVC .                        : SERVICE COMPANY
DATE .                        : DATE
UWI  .                        : UNIQUE WELL ID
API  .                        : API NUMBER
SLAT .WGS84 2.459228673666601 : SURFACE LATITUDE
SLON .WGS84 8.126912880497002 : SURFACE LONGITUDE
DATUM.F                   nan : DEPTH DATUM ELEV
~Curve Information -----------------------------------------
DEPT   .F     : 1 MEASURED DEPTH
RHOZ   .G/C3  : HRDD STANDARD RESOLUTION FORMATION DENSITY
RLA5   .OHMM  : APPARENT RESISTIVITY FROM COMPUTED FOCUSING MODE 5
RXOZ   .OHMM  : INVADED FORMATION RESISTIVITY FILTERED AT 18 INCHES
DTCO   .US/F  : DELTA-T COMPRESSIONAL
DTSM   .US/F  : DELTA-T SHEAR
SGRDD  .GAPI  : SPECTROSCOPY GAMMA RAY FROM DENSITY LOG
TNPH_LS.DEC   : THERMAL NEUTRON POROSITY [LIMESTONE]
HDRA   .G/C3  : HRDD SPINE AND RIBS DENSITY CORRECTION
PEFZ   .B/E   : HRDD STANDARD RESOLUTION FORMATION PHOTOELECTRIC FACTOR
~Params ----------------------------------------------------
~Other -----------------------------------------------------
~ASCII -----------------------------------------------------
# ...
 7470.00000    2.61450   10.72440   12.92900   58.47150  101.58470   40.22240    0.04130   -0.00270    3.42380
 7470.50000    2.57190    9.36940    8.22220   58.56280  100.91620   46.34220    0.05330   -0.00280    2.98300
 7471.00000    2.55640    8.82390    7.83920   58.73980  100.97670   48.60560    0.06620   -0.00280    2.67160
 7471.50000    2.56280    8.00250    8.31460   59.60750  101.95280   47.02720    0.06590   -0.00280    2.56710
 7472.00000    2.56080    7.91590    8.86610   60.94410  102.42310   45.48790    0.05690   -0.00290    2.60750
 7472.50000    2.55800    7.82620    8.24180   61.17200  102.55940   44.82530    0.04990   -0.00290    2.66450
 7473.00000    2.55680    7.12490    7.68760   61.56870  103.43500   45.01670    0.04760   -0.00320    2.71760
 7473.50000    2.56320    7.00720    7.94530   61.61420  104.12550   44.35740    0.04540   -0.00360    2.75310
 7474.00000    2.56580    8.18140   11.70350   61.70980  104.31350   42.92150    0.04360   -0.00400    2.74200
 7474.50000    2.55590    9.66190   10.35340   61.82680  104.36550   42.13560    0.04520   -0.00440    2.70430
 7475.00000    2.53790    9.70820    8.02280   61.85600  104.72930   42.06690    0.05200   -0.00480    2.63230
 7475.50000    2.51600    8.90770    5.60340   61.81130  104.81310   42.78550    0.06440   -0.00520    2.55110
 7476.00000    2.50810    5.88390    5.21180   61.90250  105.03110   43.68840    0.07260   -0.00550    2.49270
 7476.50000    2.52360    5.98770    5.17650   61.97820  105.34040   43.66160    0.07410   -0.00580    2.43810
 7477.00000    2.54140    6.96310    5.62650   62.16800  105.64960   43.68890    0.07070   -0.00610    2.40320
 7477.50000    2.56030   10.86280    6.69010   62.83470  106.02380   42.88190    0.06700   -0.00640    2.39570
 7478.00000    2.55830   12.45590    8.70370   63.00200  106.13910   44.55550    0.06520   -0.00670    2.40950
 7478.50000    2.54460   12.44270    6.89950   63.06970  106.17980   46.71670    0.06810   -0.00700    2.41160
 7479.00000    2.53130    5.55490    4.86950   63.08690  106.62550   48.99280    0.07640   -0.00730    2.37700
 7479.50000    2.51760    4.60180    4.83480   63.15380  106.90820   49.70070    0.08510   -0.00760    2.40110
 7480.00000    2.51460    6.18600    5.28810   63.39600  106.85540   49.79360    0.08840   -0.00790    2.49090
 7480.50000    2.51870    8.62060    5.85890   63.54660  106.96790   49.66280    0.08600   -0.00820    2.57860
 7481.00000    2.51860    8.63660    6.07030   63.58270  107.31410   48.86290    0.08090   -0.00850    2.62200
 7481.50000    2.50930    6.74580    5.78640   63.61890  107.37030   47.47260    0.07940   -0.00880    2.60330
 7482.00000    2.50510    6.34740    5.44650   63.50890  107.56890   45.90950    0.07800   -0.00700    2.54700
 7482.50000    2.51700    6.83210    5.99310   63.23940  107.21710   44.62180    0.07270   -0.00510    2.49000
 7483.00000    2.53800    7.58900    6.76190   62.96740  106.86540   43.35810    0.06550   -0.00380    2.44680
 7483.50000    2.54940    8.83920    7.07080   62.81520  105.92820   43.17320    0.06210   -0.00380    2.44870
 7484.00000    2.55120    8.31650    7.44900   62.85600  105.36890   44.20340    0.06330   -0.00370    2.49490
 7484.50000    2.55220    8.67880    7.97540   62.83700  105.32440   45.01410    0.06180   -0.00360    2.53910
 7485.00000    2.54670    9.25440    8.31570   62.73980  105.55100   45.24790    0.06450   -0.00350    2.55910
 7485.50000    2.54370    7.71630    6.97990   62.64300  105.55210   43.96680    0.06810   -0.00340    2.52230
 7486.00000    2.53920    6.87000    6.16300   62.75350  105.31030   42.43980    0.07140   -0.00330    2.49570
 7486.50000    2.53560    6.45530    6.02120   62.89670  105.04870   42.32390    0.07240   -0.00320    2.47850
 7487.00000    2.53500    7.14930    6.53380   63.09370  105.80020   42.67600    0.06790   -0.00310    2.49400
 7487.50000    2.54320    7.49530    6.83080   63.37410  106.42040   43.35860    0.06420   -0.00290    2.49570
 7488.00000    2.54420    7.11270    6.35520   63.34150  106.40200   43.87240    0.06670   -0.00280    2.48320
 7488.50000    2.54060    6.07250    5.53710   63.12970  106.38360   44.15440    0.07170   -0.00270    2.45540
 7489.00000    2.53700    5.89440    5.43100   62.59910  106.76180   44.24680    0.07360   -0.00260    2.43490
 7489.50000    2.53520    6.64080    5.77060   62.32810  106.18370   44.05340    0.06840   -0.00240    2.44300
 7490.00000    2.54630    9.67790    6.69100   61.69780  105.29900   43.77650    0.06310   -0.00230    2.48550
 7490.50000    2.55790   10.13020    8.41390   61.47640  104.64460   43.60210    0.05770   -0.00320    2.53360
 7491.00000    2.56270   11.77310   10.53800   60.62070  104.71260   43.39990    0.05680   -0.00480    2.60230
 7491.50000    2.55680   12.59930   11.71640   60.48050  104.52890   43.21520    0.05510   -0.00590    2.66570
 7492.00000    2.55250    9.20540    8.42610   60.06470  103.91640   43.08990    0.05380   -0.00530    2.65440
 7492.50000    2.55520    8.84390    7.75300   60.83320  103.06410   42.32290    0.05340   -0.00400    2.59260
 7493.00000    2.55680   10.02650    8.79570   61.12460  103.64230   42.48940    0.05540   -0.00270    2.50640
 7493.50000    2.54810    7.97500    7.11670   61.12670  103.98880   42.77400    0.06010   -0.00140    2.41990
 7494.00000    2.52990    5.99410    5.19750   61.53790  104.28030   43.29930    0.06990   -0.00010    2.36560
 7494.50000    2.51520    5.04270    4.54330   61.85190  104.49560   43.61290    0.07910   -0.00050    2.31070
 7495.00000    2.51110    5.82700    4.59690   61.70090  104.63270   46.44810    0.07710   -0.00140    2.28680
 7495.50000    2.50840    6.02830    5.12840   61.53450  104.85660   45.46520    0.06980   -0.00220    2.32780
 7496.00000    2.52260    8.20540    5.90370   61.49940  104.94360   44.75870    0.06320   -0.00310    2.37400
 7496.50000    2.54510    9.58960    8.00450   61.75890  104.97910   43.01560    0.05630   -0.00390    2.44680
 7497.00000    2.56710    8.29810   11.35570   62.08380  105.10500   42.73110    0.05460   -0.00480    2.53160
 7497.50000    2.56980   10.31640    8.17690   62.13540  104.99760   42.90990    0.05730   -0.00560    2.61940
 7498.00000    2.54260    7.50850    5.54780   61.87500  106.43520   43.14380    0.06280   -0.00690    2.63170
 7498.50000    2.50770    4.82920    3.97110   62.36380  106.69920   44.36470    0.07270   -0.00850    2.58060
 7499.00000    2.49230    4.57740    3.68760   62.74810  106.85420   46.19140    0.08900   -0.00860    2.47250
 7499.50000    2.49460    4.80090    3.71400   64.15100  107.68950   47.58450    0.09400   -0.00800    2.38150
 7500.00000    2.49810    5.53570    3.79360   64.39710  108.28750   48.21860    0.09550   -0.00820    2.39940
 7500.50000    2.48610    5.32520    3.84720   65.50740  108.83850   48.35160    0.09740   -0.00840    2.42300
 7501.00000    2.47160    4.39160    3.50790   65.78930  110.43150   48.44300    0.09860   -0.00760    2.42510
 7501.50000    2.46940    4.10830    3.16950   65.61820  110.72520   47.34570    0.09700   -0.00570    2.41960
 7502.00000    2.48970    4.10830    3.36850   65.27330  110.47650   46.18630    0.09260   -0.00380    2.36010
 7502.50000    2.51750    5.52470    3.71640   65.01940  109.95650   43.40380    0.08800   -0.00190    2.35660
 7503.00000    2.54440    8.22230    4.94570   65.01230  109.68660   43.67250    0.07430   -0.00150    2.41460
 7503.50000    2.56280    9.00510    7.37670   64.82000  109.24100   43.84150    0.05990   -0.00150    2.44520
 7504.00000    2.57550   13.38710    9.95460   64.73680  108.74790   44.07980    0.05430   -0.00130    2.44420
 7504.50000    2.57540    8.73170    5.55950   64.63050  108.49520   42.83740    0.06580   -0.00110    2.40560
 7505.00000    2.55100    7.09040    4.57510   64.67770  108.94260   42.58090    0.08400   -0.00090    2.41550
 7505.50000    2.53370    6.38170    5.20380   65.05480  109.42730   42.58480    0.08750   -0.00080    2.44160
 7506.00000    2.52440    6.06400    3.93990   65.18060  110.30340   43.43500    0.09040   -0.00060    2.48350
