~Version ---------------------------------------------------
VERS.   2.0 : CWLS log ASCII Standard -VERSION 2.0
WRAP.    NO : One line per depth step
DLM . SPACE : Column Data Section Delimiter
~Well ------------------------------------------------------
STRT .F                  97.0 : START DEPTH
STOP .F               12100.0 : STOP DEPTH
STEP .F                   0.5 : STEP
NULL .               -9999.25 : NULL VALUE
COMP .                        : COMPANY
WELL .                        : WELL
FLD  .                        : FIELD
LOC  .                        : LOCATION
PROV .                        : PROVINCE
CNTY .                        : COUNTY
STAT .                        : STATE
CTRY .                        : COUNTRY
SRVC .                        : SERVICE COMPANY
DATE .                        : DATE
UWI  .                        : UNIQUE WELL ID
API  .                        : API NUMBER
SLAT .WGS84 2.459228673666601 : SURFACE LATITUDE
SLON .WGS84 8.126912880497002 : SURFACE LONGITUDE
DATUM.F                   nan : DEPTH DATUM ELEV
~Curve Information -----------------------------------------
DEPT   .F     : 1 MEASURED DEPTH
RHOZ   .G/C3  : HRDD STANDARD RESOLUTION FORMATION DENSITY
RLA5   .OHMM  : APPARENT RESISTIVITY FROM COMPUTED FOCUSING MODE 5
RXOZ   .OHMM  : INVADED FORMATION RESISTIVITY FILTERED AT 18 INCHES
DTCO   .US/F  : DELTA-T COMPRESSIONAL
DTSM   .US/F  : DELTA-T SHEAR
SGRDD  .GAPI  : SPECTROSCOPY GAMMA RAY FROM DENSITY LOG
TNPH_LS.DEC   : THERMAL NEUTRON POROSITY [LIMESTONE]
HDRA   .G/C3  : HRDD SPINE AND RIBS DENSITY CORRECTION
PEFZ   .B/E   : HRDD STANDARD RESOLUTION FORMATION PHOTOELECTRIC FACTOR
~Params ----------------------------------------------------
~Other -----------------------------------------------------
~ASCII -----------------------------------------------------
# ...
 12076.00000    2.67990 1710.16190  828.67970   60.06090  103.96470   -9999.25    0.12120   -0.00010    4.48810
 12076.50000    2.69440 6017.66160  730.35410   57.29560  103.76810   -9999.25    0.11940   -0.00130    4.42380
 12077.00000    2.68240 1465.38980  340.68080   59.20750  101.96680   -9999.25    0.12130   -0.00250    4.30970
 12077.50000    2.63120 1534.95610  151.75780   59.70760  101.06460   -9999.25    0.12370   -0.00370    4.14160
 12078.00000    2.57300 1458.52690   93.17250   60.89600  102.65570   -9999.25    0.12520   -0.00570    3.81660
 12078.50000    2.53170 1461.38980   86.67190   62.17160  104.41490   -9999.25    0.12800   -0.01090    3.74510
 12079.00000    2.52550  189.09860  107.54700   63.40600  106.31320   -9999.25    0.13690   -0.01040    3.68140
 12079.50000    2.53170  223.99520  119.64400   64.17670  107.10520   -9999.25    0.13400   -0.00770    3.67730
 12080.00000    2.54290  132.17320  121.90650   66.39030  108.92600   -9999.25    0.13110   -0.00490    3.65660
 12080.50000    2.55820  104.08030  130.76240   67.25870  110.53840   -9999.25    0.12890   -0.00240    3.66700
 12081.00000    2.57210  102.78540  210.93640   68.08470  110.86420   -9999.25    0.12790   -0.00250    3.79640
 12081.50000    2.58210  146.01160  275.42620   67.68750  111.45760   -9999.25    0.12900   -0.00270    3.85980
 12082.00000    2.57930 1039.60390  263.47080   66.92920  111.36380   -9999.25    0.12950   -0.00290    3.86100
 12082.50000    2.57620  641.47810  219.59210   64.99670  109.26470   -9999.25    0.13120   -0.00300    3.81960
 12083.00000    2.58100  690.29510  205.14020   63.25430  106.00800   -9999.25    0.13030   -0.00310    3.83310
 12083.50000    2.60170  690.29510  226.38460   62.38050  105.68580   -9999.25    0.12770   -0.00290    3.96080
 12084.00000    2.61920  767.10790  303.45550   61.84920  105.11890   -9999.25    0.12580   -0.00270    4.12080
 12084.50000    2.63660 1154.19320  336.70540   60.12790  103.66000   -9999.25    0.12440   -0.00260    4.15330
 12085.00000    2.64500 1447.22740  340.62230   58.38470  100.88660   -9999.25    0.12450   -0.00240    4.14600
 12085.50000    2.61190 1896.02660  144.19660   57.63740  100.33350   -9999.25    0.12560   -0.00220    3.98290
 12086.00000    2.57690 1753.02270  102.34230   57.55810  100.33620   -9999.25    0.12680   -0.00210    3.68360
 12086.50000    2.55050 1710.45200   65.66710   57.73820  100.38320   -9999.25    0.12800   -0.00190    3.43410
 12087.00000    2.54260 2785.16800   36.35840   58.02870  100.42180   -9999.25    0.12770   -0.00170    3.28770
 12087.50000    2.52680 1218.17740   22.92400   62.88400  103.08870   -9999.25    0.12460   -0.00240    3.32380
 12088.00000    2.50340  373.13690   18.74390   66.82360  109.73770   -9999.25    0.12600   -0.00770    3.40580
 12088.50000    2.49530  275.46070   17.93230   -9999.25   -9999.25   -9999.25    0.12960   -0.01300    3.46420
 12089.00000    2.49130  272.76610   17.36430   -9999.25   -9999.25   -9999.25    0.13210   -0.01510    3.51360
 12089.50000    2.48980  206.21720   16.84360   -9999.25   -9999.25   -9999.25    0.13040   -0.01460    3.54850
 12090.00000    2.49250   88.46180   16.53210   -9999.25   -9999.25   -9999.25    0.12840   -0.01390    3.54010
 12090.50000    2.49890   73.85300   16.00360   -9999.25   -9999.25   -9999.25    0.12680   -9999.25   -9999.25
 12091.00000    2.50700   75.67500   15.44530   -9999.25   -9999.25   -9999.25    0.12510   -9999.25   -9999.25
 12091.50000    2.51650   81.75790   15.01700   -9999.25   -9999.25   -9999.25    0.12570   -9999.25   -9999.25
 12092.00000    2.52490  124.97440   14.50680   -9999.25   -9999.25   -9999.25    0.12810   -9999.25   -9999.25
 12092.50000    2.52330  972.72090   14.17000   -9999.25   -9999.25   -9999.25    0.12950   -9999.25   -9999.25
 12093.00000    2.51090  302.96410   13.87210   -9999.25   -9999.25   -9999.25    0.12910   -9999.25   -9999.25
 12093.50000    2.49940  316.29430   13.66900   -9999.25   -9999.25   -9999.25    0.12900   -9999.25   -9999.25
 12094.00000    2.49230  328.63270   13.42020   -9999.25   -9999.25   -9999.25    0.12900   -9999.25   -9999.25
 12094.50000    2.49180  346.33600   13.18980   -9999.25   -9999.25   -9999.25   -9999.25   -9999.25   -9999.25
 12095.00000    2.49100   92.52450   12.87250   -9999.25   -9999.25   -9999.25   -9999.25   -9999.25   -9999.25
 12095.50000    2.49020  663.41420   12.61780   -9999.25   -9999.25   -9999.25   -9999.25   -9999.25   -9999.25
 12096.00000    2.48960  619.55750   12.24960   -9999.25   -9999.25   -9999.25   -9999.25   -9999.25   -9999.25
 12096.50000    2.48950  576.40390   11.99600   -9999.25   -9999.25   -9999.25   -9999.25   -9999.25   -9999.25
 12097.00000    2.49140  564.93520   11.78080   -9999.25   -9999.25   -9999.25   -9999.25   -9999.25   -9999.25
 12097.50000    2.49250  442.02760   11.53980   -9999.25   -9999.25   -9999.25   -9999.25   -9999.25   -9999.25
 12098.00000    2.48930  337.23320   11.20130   -9999.25   -9999.25   -9999.25   -9999.25   -9999.25   -9999.25
 12098.50000    2.48520 1332.87660   10.83580   -9999.25   -9999.25   -9999.25   -9999.25   -9999.25   -9999.25
 12099.00000    2.48930  842.18800   10.47850   -9999.25   -9999.25   -9999.25   -9999.25   -9999.25   -9999.25
 12099.50000    2.49580  809.76370   10.13310   -9999.25   -9999.25   -9999.25   -9999.25   -9999.25   -9999.25
 12100.00000    2.49990  400.64270    9.79900   -9999.25   -9999.25   -9999.25   -9999.25   -9999.25   -9999.25
