~Version ---------------------------------------------------
VERS.   2.0 : CWLS log ASCII Standard -VERSION 2.0
WRAP.    NO : One line per depth step
DLM . SPACE : Column Data Section Delimiter
~Well ------------------------------------------------------
STRT .F                  97.0 : START DEPTH
STOP .F               12100.0 : STOP DEPTH
STEP .F                   0.5 : STEP
NULL .               -9999.25 : NULL VALUE
COMP .                        : COMPANY
WELL .                        : WELL
FLD  .                        : FIELD
LOC  .                        : LOCATION
PROV .                        : PROVINCE
CNTY .                        : COUNTY
STAT .                        : STATE
CTRY .                        : COUNTRY
SRVC .                        : SERVICE COMPANY
DATE .                        : DATE
UWI  .                        : UNIQUE WELL ID
API  .                        : API NUMBER
SLAT .WGS84 2.459228673666601 : SURFACE LATITUDE
SLON .WGS84 8.126912880497002 : SURFACE LONGITUDE
DATUM.F                   nan : DEPTH DATUM ELEV
~Curve Information -----------------------------------------
DEPT   .F     : 1 MEASURED DEPTH
RHOZ   .G/C3  : HRDD STANDARD RESOLUTION FORMATION DENSITY
RLA5   .OHMM  : APPARENT RESISTIVITY FROM COMPUTED FOCUSING MODE 5
RXOZ   .OHMM  : INVADED FORMATION RESISTIVITY FILTERED AT 18 INCHES
DTCO   .US/F  : DELTA-T COMPRESSIONAL
DTSM   .US/F  : DELTA-T SHEAR
SGRDD  .GAPI  : SPECTROSCOPY GAMMA RAY FROM DENSITY LOG
TNPH_LS.DEC   : THERMAL NEUTRON POROSITY [LIMESTONE]
HDRA   .G/C3  : HRDD SPINE AND RIBS DENSITY CORRECTION
PEFZ   .B/E   : HRDD STANDARD RESOLUTION FORMATION PHOTOELECTRIC FACTOR
~Params ----------------------------------------------------
~Other -----------------------------------------------------
~ASCII -----------------------------------------------------
# ...
 8419.00000    2.60520   16.84400   30.24070   61.44410  103.11270   46.59380    0.04540    0.00040    2.49740
 8419.50000    2.59310    6.63060   21.06390   61.43010  103.59650   44.86760    0.04930   -0.00030    2.49330
 8420.00000    2.55190    5.09120    5.55070   62.26900  104.97760   42.12830    0.06020   -0.00070    2.42700
 8420.50000    2.52630    4.82200    4.19990   63.06680  106.21970   42.17120    0.07110   -0.00110    2.38360
 8421.00000    2.52140    4.79260    4.02940   63.22630  105.78890   42.88830    0.07650   -0.00170    2.36200
 8421.50000    2.53100    5.91220    4.71790   63.36280  106.41320   50.27480    0.07840   -0.00070    2.35320
 8422.00000    2.54230   12.34990    6.75560   63.56920  106.43910   58.99720    0.08220    0.00370    2.40260
 8422.50000    2.54580   11.97130   13.28110   63.59350  106.58930   69.09640    0.10610    0.01030    2.48840
 8423.00000    2.55690    6.97630   19.21870   63.59240  106.80170   69.13140    0.14110    0.01690    2.57290
 8423.50000    2.56770   10.76780    9.72430   63.53240  107.41110   59.35700    0.12130    0.02360    2.58680
 8424.00000    2.56840   10.96080    5.26470   63.78720  107.56550   47.64740    0.09460    0.02600    2.56080
 8424.50000    2.54140   10.59350    4.61780   63.75590  107.71980   44.32190    0.07660    0.01960    2.51060
 8425.00000    2.50860    8.05000    3.47610   63.74850  107.60550   45.97350    0.08660    0.01290    2.46180
 8425.50000    2.49440    3.87030    3.11950   63.81050  107.79680   49.01090    0.10300    0.00620    2.43060
 8426.00000    2.49860    3.69550    3.05180   63.55980  107.94700   49.67100    0.11260    0.00150    2.38690
 8426.50000    2.51370    3.69220    3.43980   63.55540  107.86480   49.25370    0.10760    0.00040    2.39070
 8427.00000    2.53240    5.84850    3.70870   63.74960  107.99290   47.82930    0.10060   -0.00050    2.45180
 8427.50000    2.54140   11.69250    5.05800   64.09760  108.40390   47.66960    0.09120   -0.00080    2.50420
 8428.00000    2.53660   11.74270    5.14130   64.19410  108.45310   48.24110    0.08030   -0.00120    2.51320
 8428.50000    2.52880    7.63940    7.07360   64.22230  108.65640   47.97830    0.08200   -0.00160    2.48300
 8429.00000    2.51230    5.01100    4.40760   63.63060  107.68410   47.65990    0.08530   -0.00190    2.38670
 8429.50000    2.50190    5.16800    4.23760   63.41220  107.40550   45.45520    0.08810   -0.00230    2.35000
 8430.00000    2.49290    5.27140    4.10120   63.31700  107.12700   44.74470    0.08710   -0.00260    2.35130
 8430.50000    2.50440    4.59650    4.15690   63.38780  106.38080   44.10950    0.08360   -0.00250    2.37290
 8431.00000    2.54200    6.82290    4.61650   63.60860  107.10740   43.63860    0.07860    0.00310    2.43730
 8431.50000    2.58900   14.24240    8.54590   63.71540  107.16900   43.45770    0.07090    0.01850    2.53090
 8432.00000    2.60590   28.17070   13.15230   63.85870  107.42370   44.12140    0.07340    0.03170    2.56330
 8432.50000    2.57680    6.82290    5.06570   64.05560  107.71110   45.06810    0.07910    0.01970    2.48120
 8433.00000    2.51930    4.40400    3.99970   64.21030  108.11660   46.04110    0.08710    0.00500    2.34340
 8433.50000    2.49710    4.36910    4.04480   64.34330  108.01140   44.94460    0.09300   -0.00080    2.27020
 8434.00000    2.49520    4.50730    4.13170   64.68880  108.20810   46.77850    0.09430   -0.00120    2.26240
 8434.50000    2.50300    4.27750    3.93660   65.11480  108.35320   45.96320    0.09080   -0.00120    2.25920
 8435.00000    2.51030    4.56210    4.09240   65.01790  108.45950   47.23890    0.08590   -0.00120    2.26660
 8435.50000    2.51790    4.95370    4.71180   64.18030  108.56580   50.14400    0.08190   -0.00120    2.31210
 8436.00000    2.51670    4.66200    3.94410   63.37410  108.23530   52.22690    0.08850   -0.00120    2.36510
 8436.50000    2.51470    4.43750    3.95760   62.58810  107.04960   52.66830    0.09180   -0.00120    2.46920
 8437.00000    2.51550   12.67070    6.63720   61.80720  105.84280   48.55670    0.09000   -0.00120    2.66080
 8437.50000    2.54560   14.30410    5.78330   61.26470  104.66420   46.39100    0.07480   -0.00360    2.78370
 8438.00000    2.58640   10.88400   10.05820   60.54090  103.76540   44.29460    0.06130   -0.00650    2.82450
 8438.50000    2.62440   36.02750   13.70330   60.35730  102.94710   44.53120    0.04890   -0.00620    2.84850
 8439.00000    2.61450   22.00710   13.20480   60.79840  103.36430   47.75580    0.04270   -0.00600    2.84910
 8439.50000    2.57160    9.43800    7.29290   61.37230  103.87780   50.87730    0.05220   -0.00580    2.77690
 8440.00000    2.52610    6.96690    4.98110   61.82380  104.04350   53.61970    0.06880   -0.00520    2.61020
 8440.50000    2.51770    4.94170    5.00210   62.19960  104.33250   52.21620    0.08630   -0.00440    2.44890
 8441.00000    2.51990    4.24440    5.33410   62.58680  104.70600   48.66030    0.08180   -0.00370    2.40730
 8441.50000    2.51500    4.06970    5.37680   63.70410  105.45420   46.77490    0.07720   -0.00300    2.36570
 8442.00000    2.51540    4.06220    4.92510   63.94610  106.75970   46.27070    0.07550   -0.00220    2.34790
 8442.50000    2.52190    4.14660    5.15810   64.15330  107.11000   46.53240    0.07570   -0.00150    2.30740
 8443.00000    2.52950    4.29680    5.02600   64.29790  107.86990   45.48350    0.07800   -0.00080    2.29270
 8443.50000    2.53590    4.52670    5.15770   64.15910  108.98850   44.72190    0.07650   -0.00000    2.31590
 8444.00000    2.53430    4.05690    6.82620   65.37680  109.07800   43.21170    0.07380    0.00000    2.36600
 8444.50000    2.51470    3.07830    9.19490   65.37680  109.64510   42.56710    0.06960   -0.00070    2.43200
 8445.00000    2.49260    2.33710    3.36490   65.96750  110.39350   42.86010    0.07100   -0.00140    2.44560
 8445.50000    2.48170    2.70950    2.71590   66.98420  111.34800   46.26940    0.08470   -0.00210    2.43230
 8446.00000    2.48380    4.14220    3.18290   67.29210  112.51750   50.41380    0.10590   -0.00290    2.41890
 8446.50000    2.48220    4.06380    3.36890   68.08880  113.01610   52.44370    0.12240   -0.00360    2.40560
 8447.00000    2.47190    2.74410    2.71310   68.17270  113.02960   50.53280    0.12060   -0.00410    2.42790
 8447.50000    2.46690    2.07050    2.48130   67.97060  113.28830   49.98990    0.11840   -0.00320    2.40720
 8448.00000    2.47530    2.14810    3.91720   67.31870  114.01400   52.55760    0.11390   -0.00230    2.36670
 8448.50000    2.49660    3.54300    6.33220   66.91140  113.33390   58.56050    0.10860   -0.00140    2.32980
 8449.00000    2.51570    5.73720    7.00300   66.64680  112.12830   61.91840    0.10590   -0.00050    2.31920
 8449.50000    2.53160    6.64430    5.63450   66.21410  111.28390   60.73600    0.09950   -0.00150    2.33590
 8450.00000    2.53370    7.37590    5.44340   65.56810  110.43940   58.93350    0.09580   -0.00280    2.38760
 8450.50000    2.52560    6.74070    5.62460   64.84800  109.59010   58.21190    0.09340   -0.00400    2.44490
 8451.00000    2.51860    5.90330    5.40060   64.64770  108.73980   58.25090    0.09200   -0.00640    2.48670
 8451.50000    2.51920    6.65880    5.61450   64.58960  108.30160   55.59200    0.09330   -0.00500    2.50320
 8452.00000    2.53670    9.54290    8.46580   64.44240  108.09740   49.65190    0.08580   -0.00350    2.53830
 8452.50000    2.54950   10.52800    9.64970   64.22840  107.63510   47.43550    0.07940   -0.00200    2.58890
 8453.00000    2.54710    7.45540    4.63150   63.98650  107.25910   47.29710    0.07440   -0.00390    2.61030
 8453.50000    2.54330    4.65350    4.66670   64.35700  107.11230   48.16500    0.07600   -0.00610    2.60380
 8454.00000    2.54290    5.21280    5.70040   64.51940  106.94470   47.51550    0.06540   -0.00820    2.62570
 8454.50000    2.54100    8.80560    4.93370   64.80290  107.16190   47.16150    0.05140   -0.00870    2.69570
 8455.00000    2.52570    5.83720    4.53300   64.92300  107.46740   47.96700    0.04830   -0.00660    2.70700
