~Version ---------------------------------------------------
VERS.   2.0 : CWLS log ASCII Standard -VERSION 2.0
WRAP.    NO : One line per depth step
DLM . SPACE : Column Data Section Delimiter
~Well ------------------------------------------------------
STRT .F                  97.0 : START DEPTH
STOP .F               12100.0 : STOP DEPTH
STEP .F                   0.5 : STEP
NULL .               -9999.25 : NULL VALUE
COMP .                        : COMPANY
WELL .                        : WELL
FLD  .                        : FIELD
LOC  .                        : LOCATION
PROV .                        : PROVINCE
CNTY .                        : COUNTY
STAT .                        : STATE
CTRY .                        : COUNTRY
SRVC .                        : SERVICE COMPANY
DATE .                        : DATE
UWI  .                        : UNIQUE WELL ID
API  .                        : API NUMBER
SLAT .WGS84 2.459228673666601 : SURFACE LATITUDE
SLON .WGS84 8.126912880497002 : SURFACE LONGITUDE
DATUM.F                   nan : DEPTH DATUM ELEV
~Curve Information -----------------------------------------
DEPT   .F     : 1 MEASURED DEPTH
RHOZ   .G/C3  : HRDD STANDARD RESOLUTION FORMATION DENSITY
RLA5   .OHMM  : APPARENT RESISTIVITY FROM COMPUTED FOCUSING MODE 5
RXOZ   .OHMM  : INVADED FORMATION RESISTIVITY FILTERED AT 18 INCHES
DTCO   .US/F  : DELTA-T COMPRESSIONAL
DTSM   .US/F  : DELTA-T SHEAR
SGRDD  .GAPI  : SPECTROSCOPY GAMMA RAY FROM DENSITY LOG
TNPH_LS.DEC   : THERMAL NEUTRON POROSITY [LIMESTONE]
HDRA   .G/C3  : HRDD SPINE AND RIBS DENSITY CORRECTION
PEFZ   .B/E   : HRDD STANDARD RESOLUTION FORMATION PHOTOELECTRIC FACTOR
~Params ----------------------------------------------------
~Other -----------------------------------------------------
~ASCII -----------------------------------------------------
# ...
 5645.00000    2.35130    1.28910    1.20640   83.34620  155.95120   41.29800    0.18880   -0.00040    2.24240
 5645.50000    2.36840    1.42550    1.29300   82.46840  154.61490   41.37990    0.18260   -0.00000    2.25080
 5646.00000    2.38250    1.54260    1.38920   81.27490  151.94240   41.51260    0.17970    0.00040    2.25750
 5646.50000    2.39840    1.86610    1.65760   80.07740  147.86050   41.31900    0.17060    0.00080    2.27820
 5647.00000    2.41010    2.19060    1.98930   79.11850  145.66450   41.16220    0.15970    0.00120    2.30540
 5647.50000    2.40400    2.17550    1.87150   78.51590  141.75600   41.39540    0.16600    0.00160    2.26710
 5648.00000    2.37300    1.55420    1.14580   77.96010  140.17160   42.14590    0.17840    0.00200    2.18880
 5648.50000    2.34220    1.19470    1.09110   77.87760  138.79260   43.80480    0.19620    0.00170    2.10360
 5649.00000    2.32690    1.21950    1.07150   77.79800  137.43540   49.42060    0.19920    0.00140    2.04450
 5649.50000    2.34090    1.47130    1.21770   77.76710  136.34770   83.06550    0.19240    0.00110    2.15930
 5650.00000    2.36010    2.33410    2.08970   77.06410  135.33250  151.79750    0.18600    0.00090    2.29540
 5650.50000    2.41150    4.01100   11.29510   77.20130  134.70030  188.00590    0.17980    0.00060    2.43050
 5651.00000    2.46120    8.42580   14.63410   77.15570  134.94970  220.24800    0.17240    0.00430    2.50540
 5651.50000    2.49500   12.12030   12.72680   76.75270  135.50750  227.13320    0.17030    0.00890    2.49150
 5652.00000    2.49710   13.46820   12.12120   76.21500  135.55140  222.12050    0.16790    0.00750    2.48540
 5652.50000    2.48690   21.52270   13.93190   75.67070  134.32250  204.17320    0.19420    0.00180    2.53420
 5653.00000    2.48270   26.57930   29.43780   74.18840  128.97920  164.45400    0.20720   -0.00260    2.59330
 5653.50000    2.47440    9.65250   20.23840   73.70320  128.42590  114.76040    0.18220   -0.00310    2.61060
 5654.00000    2.47240    4.26480    6.51620   72.46320  126.24960   85.94120    0.15570   -0.00320    2.59470
 5654.50000    2.47660    4.13780    5.12830   71.15610  122.41610   68.12330    0.12940   -0.00320    2.59100
 5655.00000    2.50570    5.14910    7.28220   69.81820  119.41670   57.42700    0.11290   -0.00320    2.63130
 5655.50000    2.54170   10.32720   11.51320   68.80490  116.76080   54.92720    0.10460   -0.00320    2.72440
 5656.00000    2.54980    7.45920   11.86420   68.06000  114.14130   55.30970    0.09850   -0.00320    2.82190
 5656.50000    2.52430    4.79270    7.07050   67.40120  113.17140   60.26630    0.10180   -0.00320    2.86400
 5657.00000    2.49270    4.23750    6.22500   67.29700  112.21380   70.99460    0.11930   -0.00320    2.81480
 5657.50000    2.47450    5.30710    8.02190   67.36980  112.92210   79.64920    0.13900   -0.00340    2.71910
 5658.00000    2.48550    5.78290    7.46120   68.52870  114.45320   85.92340    0.13830   -0.00360    2.59940
 5658.50000    2.49630    6.17590    7.47230   69.17110  115.26710   93.91220    0.14550   -0.00380    2.57800
 5659.00000    2.49680    7.65410   10.01430   70.13890  118.56160  109.23680    0.15800   -0.00400    2.59960
 5659.50000    2.48820    9.87890   15.06880   71.44890  119.70760  117.27160    0.17180   -0.00410    2.72420
 5660.00000    2.48310   14.18430   24.88510   72.23920  120.94750  119.70370    0.17710   -0.00430    2.89980
 5660.50000    2.48310   20.50640   24.78940   73.28250  122.53290  114.69320    0.18020   -0.00450    2.98880
 5661.00000    2.49380   21.68120   16.77800   73.48150  123.05030  111.30990    0.18290   -0.00460    2.98660
 5661.50000    2.50060   18.93980   13.82300   73.24240  123.27140  106.75590    0.18330   -0.00440    2.85230
 5662.00000    2.50780   17.01760   12.18210   72.61480  123.25080  105.34310    0.17720   -0.00420    2.78260
 5662.50000    2.52710   11.72200   10.55050   71.51910  121.20550   98.12770    0.17370   -0.00400    2.75690
 5663.00000    2.54610    9.95840    7.93990   70.51410  119.13640   84.73810    0.14740   -0.00370    2.74990
 5663.50000    2.55010   10.80270    7.36570   69.88030  117.25950   69.14270    0.12160   -0.00350    2.76160
 5664.00000    2.54070    7.82670    6.85930   68.64190  115.38260   62.80250    0.11390   -0.00330    2.76650
 5664.50000    2.53540    6.94410    6.64150   67.34790  114.06350   60.69710    0.11120   -0.00310    2.73260
 5665.00000    2.53940    7.11230    6.84970   66.68030  112.85690   58.47910    0.11770   -0.00290    2.65450
 5665.50000    2.53980    7.21720    7.00930   66.24770  111.62690   59.60030    0.11660   -0.00270    2.61940
 5666.00000    2.53980    6.48370    6.00630   65.90570  111.36730   60.62720    0.11310   -0.00240    2.60570
 5666.50000    2.54310    5.69640    5.32150   65.69780  111.31800   62.19010    0.11150   -0.00220    2.59200
 5667.00000    2.55330    7.12290    6.06430   65.58680  111.03420   64.01350    0.10930   -0.00200    2.59460
 5667.50000    2.56160    9.05630    7.15070   65.61520  110.92590   65.69470    0.10750   -0.00170    2.60760
 5668.00000    2.56300    9.49100    8.46640   65.86280  110.94820   62.55920    0.10470   -0.00150    2.59830
 5668.50000    2.54600    9.24100    5.43480   65.75310  111.48380   56.00380    0.10020   -0.00120    2.55970
 5669.00000    2.51910    5.38890    4.47320   65.87880  111.50310   51.54720    0.09850   -0.00100    2.50540
 5669.50000    2.49940    4.35720    4.65850   65.80930  111.62810   50.82700    0.09850   -0.00080    2.48960
 5670.00000    2.49380    4.97310    5.04260   65.63500  111.79980   51.49420    0.09890   -0.00050    2.50180
 5670.50000    2.49720    6.33200    5.85100   65.58240  111.85850   51.12740    0.09970   -0.00010    2.51100
 5671.00000    2.49940    7.46020    6.34320   65.59770  111.56660   49.73820    0.10220    0.00220    2.49040
 5671.50000    2.49990    6.72080    5.05600   65.54880  112.14390   49.72330    0.11040    0.00870    2.44950
 5672.00000    2.51100    7.31270    3.95570   65.72670  112.55900   53.85650    0.11920    0.01520    2.42970
 5672.50000    2.51110    7.92430    6.31600   66.06940  112.71280   55.34540    0.12440    0.01780    2.44070
 5673.00000    2.49440    6.19500    4.52280   66.47890  114.76680   53.01760    0.12720    0.01310    2.42880
 5673.50000    2.47810    4.25630    3.46770   66.76650  115.15930   47.80260    0.12950    0.00840    2.40870
 5674.00000    2.46910    3.27860    3.41050   67.07570  115.36840   46.86650    0.12200    0.00370    2.40420
 5674.50000    2.48240    3.59950    4.13220   67.27090  115.82570   46.80960    0.11390   -0.00100    2.45050
 5675.00000    2.49490    4.02300    4.71620   67.93990  116.29440   46.74890    0.11370   -0.00290    2.45390
 5675.50000    2.48370    4.35890    3.80780   69.00540  116.82430   46.28080    0.11700   -0.00210    2.44390
 5676.00000    2.45690    3.83320    2.95890   69.68680  118.95660   46.27000    0.12890   -0.00130    2.39650
 5676.50000    2.43860    2.67490    2.43420   69.82620  119.80540   47.43480    0.14180   -0.00060    2.37960
 5677.00000    2.45540    2.83530    2.45710   70.03830  120.20550   51.69260    0.14590    0.00020    2.36280
 5677.50000    2.48530    6.07140    3.52280   69.95030  120.64770   62.72570    0.13950    0.00100    2.47350
 5678.00000    2.51590   11.03090    7.28860   69.82340  120.79600   70.12560    0.12020    0.00060    2.66550
 5678.50000    2.53510   11.34980   10.22330   69.64100  120.49890   74.99990    0.10770   -0.00050    2.77010
 5679.00000    2.54650    9.47320    8.46850   69.24350  120.20080   69.91740    0.10280   -0.00160    2.76140
 5679.50000    2.54830    7.18700    6.22890   68.60210  119.85150   67.88500    0.10790   -0.00280    2.70220
 5680.00000    2.54520    7.03000    5.97940   68.33980  119.49370   67.59560    0.11420   -0.00280    2.63500
 5680.50000    2.53030    6.89510    4.56880   68.34690  119.14590   66.35020    0.12920   -0.00210    2.56720
 5681.00000    2.49670    3.94560    3.16590   68.58100  119.14710   57.96390    0.14000   -0.00130    2.47880
