~Version ---------------------------------------------------
VERS.   2.0 : CWLS log ASCII Standard -VERSION 2.0
WRAP.    NO : One line per depth step
DLM . SPACE : Column Data Section Delimiter
~Well ------------------------------------------------------
STRT .F                  97.0 : START DEPTH
STOP .F               12100.0 : STOP DEPTH
STEP .F                   0.5 : STEP
NULL .               -9999.25 : NULL VALUE
COMP .                        : COMPANY
WELL .                        : WELL
FLD  .                        : FIELD
LOC  .                        : LOCATION
PROV .                        : PROVINCE
CNTY .                        : COUNTY
STAT .                        : STATE
CTRY .                        : COUNTRY
SRVC .                        : SERVICE COMPANY
DATE .                        : DATE
UWI  .                        : UNIQUE WELL ID
API  .                        : API NUMBER
SLAT .WGS84 2.459228673666601 : SURFACE LATITUDE
SLON .WGS84 8.126912880497002 : SURFACE LONGITUDE
DATUM.F                   nan : DEPTH DATUM ELEV
~Curve Information -----------------------------------------
DEPT   .F     : 1 MEASURED DEPTH
RHOZ   .G/C3  : HRDD STANDARD RESOLUTION FORMATION DENSITY
RLA5   .OHMM  : APPARENT RESISTIVITY FROM COMPUTED FOCUSING MODE 5
RXOZ   .OHMM  : INVADED FORMATION RESISTIVITY FILTERED AT 18 INCHES
DTCO   .US/F  : DELTA-T COMPRESSIONAL
DTSM   .US/F  : DELTA-T SHEAR
SGRDD  .GAPI  : SPECTROSCOPY GAMMA RAY FROM DENSITY LOG
TNPH_LS.DEC   : THERMAL NEUTRON POROSITY [LIMESTONE]
HDRA   .G/C3  : HRDD SPINE AND RIBS DENSITY CORRECTION
PEFZ   .B/E   : HRDD STANDARD RESOLUTION FORMATION PHOTOELECTRIC FACTOR
~Params ----------------------------------------------------
~Other -----------------------------------------------------
~ASCII -----------------------------------------------------
# ...
 10708.00000    2.50520    6.24800    6.62440   72.07250  117.25470   83.70250    0.12370   -0.00230    2.47350
 10708.50000    2.50120    6.31940    6.62150   72.28850  118.05500   85.16390    0.12420   -0.00160    2.46860
 10709.00000    2.49960    6.55460    6.69990   72.53090  118.75140   84.90320    0.12760   -0.00220    2.46060
 10709.50000    2.49850    6.87180    8.11950   72.72400  119.15340   87.16800    0.12830   -0.00290    2.47560
 10710.00000    2.50560    7.35790   10.24370   73.02100  119.57280   90.77650    0.12920   -0.00360    2.54470
 10710.50000    2.52460    8.65610   10.11150   73.00020  119.58260   98.35880    0.13430   -0.00430    2.61960
 10711.00000    2.54550    9.33350    9.91010   72.71440  119.37550   98.12250    0.14150   -0.00500    2.67400
 10711.50000    2.55190    7.18780    9.49540   72.45300  118.92480   92.44640    0.14470   -0.00570    2.67230
 10712.00000    2.53490    6.52960    7.17060   71.81780  118.38060   82.44500    0.13060   -0.00640    2.63200
 10712.50000    2.51980    5.96430    6.62540   70.48820  116.15500   77.62100    0.12180   -0.00710    2.59300
 10713.00000    2.51360    5.88680    6.65960   69.62040  115.85720   74.42000    0.11000   -0.00780    2.54480
 10713.50000    2.52640    6.40910    7.20320   69.47580  115.88680   70.95960    0.09880   -0.00780    2.55910
 10714.00000    2.55480    7.89890    8.87780   68.03320  115.39060   67.67220    0.09300   -0.00660    2.62660
 10714.50000    2.58220    9.83680   10.57400   66.60010  111.45600   65.20800    0.09120   -0.00530    2.73450
 10715.00000    2.61260   10.68550   12.01750   66.53060  110.49040   64.73920    0.09360   -0.00410    2.78740
 10715.50000    2.62000   10.99340   12.46890   66.58750  110.33310   63.33820    0.08730   -0.00290    2.83280
 10716.00000    2.60680   10.84720   12.70480   67.15870  110.49090   63.37580    0.08570   -0.00240    2.81870
 10716.50000    2.57400    9.96490   12.56310   69.26320  111.60360   63.48960    0.08500   -0.00290    2.79370
 10717.00000    2.54450    9.01010    9.91950   70.01960  112.74630   64.76610    0.08770   -0.00330    2.75670
 10717.50000    2.52440    8.47430    9.08340   70.46530  113.77330   65.29660    0.10180   -0.00370    2.71750
 10718.00000    2.52260    8.54890    9.68840   72.36970  115.13580   71.84510    0.12160   -0.00380    2.70610
 10718.50000    2.51110    9.38670    9.88580   73.13610  116.61420   79.41470    0.13570   -0.00380    2.74780
 10719.00000    2.50090   11.45140   14.60240   73.58750  117.69110   91.39290    0.12970   -0.00390    2.82760
 10719.50000    2.50070   18.09520   23.71300   73.67920  119.00590   94.37830    0.12900   -0.00390    2.95170
 10720.00000    2.51390   26.53400   28.30720   73.59570  119.54240   92.69260    0.12830   -0.00390    3.07930
 10720.50000    2.53050   25.72640   29.11000   73.14920  119.37610   85.41610    0.12290   -0.00400    3.10590
 10721.00000    2.54160   18.51860   29.75090   72.55870  118.65650   80.38040    0.10950   -0.00400    3.10260
 10721.50000    2.54590   16.93520   21.07150   71.51910  117.23990   80.05530    0.10760   -0.00410    3.07880
 10722.00000    2.53660   22.31920   28.06020   70.69880  115.86540   81.04040    0.11280   -0.00410    3.11790
 10722.50000    2.53290   25.35850   28.78270   69.95490  114.60190   82.17900    0.10770   -0.00410    3.16760
 10723.00000    2.54490   23.13350   28.81460   69.55780  112.90530   80.80100    0.09890   -0.00420    3.13450
 10723.50000    2.56090   15.37660   22.11070   70.23140  112.94010   79.58990    0.08980   -0.00420    3.01350
 10724.00000    2.57260   12.62860   16.17680   71.18640  114.06370   78.89320    0.09030   -0.00420    2.90940
 10724.50000    2.57390   12.63620   14.30030   71.50730  116.57890   78.72140    0.10230   -0.00430    2.84840
 10725.00000    2.56490   12.63930   13.65910   72.60170  117.60060   79.44770    0.12010   -0.00430    2.83510
 10725.50000    2.55050   12.35250   14.37430   73.27940  118.62230   83.07920    0.14350   -0.00440    2.87430
 10726.00000    2.53730   13.18800   15.09190   74.32180  120.15830   89.87900    0.16880   -0.00440    2.98420
 10726.50000    2.53320   14.15210   15.32640   76.15400  121.84800   98.09700    0.16440   -0.00440    3.11050
 10727.00000    2.54000   14.50970   15.56460   76.51180  123.15410  102.38150    0.16200   -0.00450    3.18290
 10727.50000    2.54680   14.38780   15.45530   76.58940  124.42000  105.07360    0.16890   -0.00450    3.20970
 10728.00000    2.54770   12.21330   13.51500   75.91670  124.61960  106.10980    0.17550   -0.00450    3.23120
 10728.50000    2.54050   13.29540   11.63640   75.88670  124.51390  107.17700    0.18120   -0.00460    3.26110
 10729.00000    2.53600   14.58110   11.27280   75.41640  123.93980  105.77340    0.18310   -0.00460    3.27910
 10729.50000    2.54330   16.29300   11.43730   74.50360  123.02780  103.69500    0.16570   -0.00460    3.19970
 10730.00000    2.54810   12.14810   11.52410   74.16570  122.00940   99.94310    0.13650   -0.00460    3.09320
 10730.50000    2.54970   10.26280   13.35730   73.28680  120.80400   95.97590    0.12120   -0.00460    2.97670
 10731.00000    2.54890    9.01540   12.11260   72.25480  119.76230   94.05280    0.11350   -0.00460    2.89510
 10731.50000    2.55600    8.29480   11.18720   72.10310  119.52450   93.07710    0.11340   -0.00460    2.81890
 10732.00000    2.56480    8.35550    9.94760   71.46720  118.41710   88.82050    0.10730   -0.00470    2.82030
 10732.50000    2.57680   10.22220   12.01510   70.86900  117.15920   83.71890    0.10870   -0.00390    2.86530
 10733.00000    2.57980   13.24400   21.22470   71.12820  116.75110   78.35230    0.11380   -0.00270    2.96590
 10733.50000    2.58080   14.91210  216.56890   71.28870  117.04790   79.19290    0.11930   -0.00140    2.99210
 10734.00000    2.58000   14.64830   66.65960   71.34460  117.76410   83.19340    0.12700   -0.00020    2.91900
 10734.50000    2.57830   10.19520   17.53840   72.06220  118.34420   89.80440    0.13460    0.00110    2.84360
 10735.00000    2.56820    8.30680   11.09390   72.29000  118.54490   92.76570    0.14360    0.00230    2.75370
 10735.50000    2.55360    7.84530   10.88250   72.41770  118.71850   93.66890    0.14210    0.00270    2.69350
 10736.00000    2.54760    7.89260   10.93740   72.62930  119.18720   93.58230    0.14290    0.00010    2.64250
 10736.50000    2.55030    9.32620   10.62260   72.80030  119.77830   94.79270    0.14810   -0.00060    2.60730
 10737.00000    2.55430    9.46880   11.47950   72.79310  119.88400  100.10320    0.15230   -0.00130    2.63290
 10737.50000    2.55610   10.00030   11.62660   72.67770  119.92770  106.12650    0.15400   -0.00200    2.66000
 10738.00000    2.55800   10.08410   12.26910   72.22070  119.76610  106.42900    0.14630   -0.00270    2.67610
 10738.50000    2.55860    9.63490   10.84330   71.74820  118.04180  102.75490    0.13270   -0.00340    2.68520
 10739.00000    2.55470    8.83960    9.36620   71.27220  117.37790   95.48200    0.11910   -0.00410    2.65740
 10739.50000    2.55580    8.46060    9.00820   71.29440  116.71400   86.99510    0.11500   -0.00470    2.65290
 10740.00000    2.56480    8.32470    8.77760   70.67280  115.95040   77.81450    0.11710   -0.00450    2.66820
 10740.50000    2.56870    8.33010    8.72410   69.79360  114.69270   71.32350    0.11670   -0.00440    2.69430
 10741.00000    2.56580    8.23490    8.73180   69.27320  114.40580   70.52650    0.11110   -0.00430    2.74120
 10741.50000    2.55670    8.12010    8.73950   69.47820  114.14840   71.90480    0.10420   -0.00420    2.77420
 10742.00000    2.55900    7.32440    8.46210   69.24160  113.79490   72.31540    0.10640   -0.00410    2.78710
 10742.50000    2.56300    6.97730    7.71200   68.92430  113.61890   72.93880    0.10730   -0.00400    2.76810
 10743.00000    2.56010    6.73640    7.06080   68.98140  113.84980   72.81800    0.10840   -0.00380    2.77980
 10743.50000    2.56030    6.72880    7.26470   69.03240  114.12850   74.17820    0.10340   -0.00370    2.79150
