~Version ---------------------------------------------------
VERS.   2.0 : CWLS log ASCII Standard -VERSION 2.0
WRAP.    NO : One line per depth step
DLM . SPACE : Column Data Section Delimiter
~Well ------------------------------------------------------
STRT .F                  97.0 : START DEPTH
STOP .F               12100.0 : STOP DEPTH
STEP .F                   0.5 : STEP
NULL .               -9999.25 : NULL VALUE
COMP .                        : COMPANY
WELL .                        : WELL
FLD  .                        : FIELD
LOC  .                        : LOCATION
PROV .                        : PROVINCE
CNTY .                        : COUNTY
STAT .                        : STATE
CTRY .                        : COUNTRY
SRVC .                        : SERVICE COMPANY
DATE .                        : DATE
UWI  .                        : UNIQUE WELL ID
API  .                        : API NUMBER
SLAT .WGS84 2.459228673666601 : SURFACE LATITUDE
SLON .WGS84 8.126912880497002 : SURFACE LONGITUDE
DATUM.F                   nan : DEPTH DATUM ELEV
~Curve Information -----------------------------------------
DEPT   .F     : 1 MEASURED DEPTH
RHOZ   .G/C3  : HRDD STANDARD RESOLUTION FORMATION DENSITY
RLA5   .OHMM  : APPARENT RESISTIVITY FROM COMPUTED FOCUSING MODE 5
RXOZ   .OHMM  : INVADED FORMATION RESISTIVITY FILTERED AT 18 INCHES
DTCO   .US/F  : DELTA-T COMPRESSIONAL
DTSM   .US/F  : DELTA-T SHEAR
SGRDD  .GAPI  : SPECTROSCOPY GAMMA RAY FROM DENSITY LOG
TNPH_LS.DEC   : THERMAL NEUTRON POROSITY [LIMESTONE]
HDRA   .G/C3  : HRDD SPINE AND RIBS DENSITY CORRECTION
PEFZ   .B/E   : HRDD STANDARD RESOLUTION FORMATION PHOTOELECTRIC FACTOR
~Params ----------------------------------------------------
~Other -----------------------------------------------------
~ASCII -----------------------------------------------------
# ...
 7944.50000    2.63300   48.62320   27.30650   59.78070  100.15540   41.60240    0.02830   -0.00380    2.97010
 7945.00000    2.64640   70.15820   77.14050   59.76900  100.19040   38.80530    0.02500   -0.00410    3.05100
 7945.50000    2.64100   42.11420   84.42480   59.78180  100.39200   39.24990    0.03140   -0.00430    3.02810
 7946.00000    2.59980   13.19280   17.94620   59.79450  101.29520   44.82340    0.04110   -0.00460    2.93520
 7946.50000    2.56490   11.53470    6.15470   60.34510  102.77680   52.90260    0.05430   -0.00510    2.71620
 7947.00000    2.53420    7.93650    4.89270   61.28260  105.35850   56.94540    0.07090   -0.00560    2.55650
 7947.50000    2.52900    6.45770    4.89340   61.70730  105.53130   58.90830    0.09300   -0.00600    2.47020
 7948.00000    2.52940    5.56210    5.32950   61.88140  105.71710   60.94550    0.09880   -0.00490    2.41990
 7948.50000    2.53140    6.26180    5.54150   61.89820  105.64050   61.90600    0.10400   -0.00390    2.38940
 7949.00000    2.52920    7.26090    5.33760   61.93330  105.96620   59.78770    0.11170   -0.00280    2.35840
 7949.50000    2.51370    6.00060    4.65380   62.76180  110.38630   52.79040    0.11930   -0.00170    2.36070
 7950.00000    2.49790    5.39100    3.68360   66.75600  112.26440   47.96330    0.11960   -0.00060    2.36150
 7950.50000    2.48460    4.22330    3.07090   67.12890  113.30730   43.39210    0.11470   -0.00100    2.35570
 7951.00000    2.49260    3.33300    2.81100   67.20380  113.24660   42.82960    0.10900   -0.00210    2.36940
 7951.50000    2.51050    3.28220    2.85710   67.28820  113.04170   43.07230    0.09890   -0.00460    2.38750
 7952.00000    2.53000    5.61470    3.35040   67.56590  113.11990   43.38450    0.08410   -0.00820    2.45460
 7952.50000    2.52730    8.48880    4.68070   66.71410  113.04380   43.09540    0.07100   -0.01170    2.56770
 7953.00000    2.51030    7.66700    4.43340   68.05430  113.14230   41.63060    0.07430   -0.01210    2.58820
 7953.50000    2.49230    6.29420    3.37060   67.60020  113.07910   40.96510    0.08850   -0.00910    2.51190
 7954.00000    2.48450    4.06590    3.32140   67.03720  113.05040   41.21320    0.10000   -0.00610    2.41040
 7954.50000    2.48060    3.88950    3.28350   66.09550  112.96740   41.96330    0.10460   -0.00310    2.33440
 7955.00000    2.48180    3.78970    3.13030   64.42550  112.69800   42.66920    0.09230   -0.00200    2.33540
 7955.50000    2.50770    4.64170    3.91150   65.33390  112.40240   43.14340    0.08640   -0.00140    2.37110
 7956.00000    2.55060    9.67260    6.68060   65.36060  112.10680   42.07020    0.06700   -0.00110    2.44890
 7956.50000    2.58080   35.14120    8.76300   65.36330  112.04920   40.81000    0.05750   -0.00150    2.48950
 7957.00000    2.58060   13.70590    9.93100   65.26910  112.00070   41.95860    0.05850   -0.00200    2.48840
 7957.50000    2.55640    8.00960    6.61040   65.01060  111.49670   48.34310    0.06670   -0.00250    2.44240
 7958.00000    2.52840    7.07060    6.45930   65.06120  111.02200   55.46440    0.08670   -0.00300    2.41050
 7958.50000    2.50440    7.02770    6.64890   65.15240  110.51220   61.39930    0.10730   -0.00330    2.39160
 7959.00000    2.50140    7.45490    6.84250   65.09090  109.87600   63.40000    0.12310   -0.00320    2.39870
 7959.50000    2.50930    7.90610    6.87590   65.11440  108.77970   64.74550    0.11120   -0.00310    2.42270
 7960.00000    2.52430    8.08100    7.00360   64.35610  108.39130   62.54730    0.10360   -0.00300    2.44670
 7960.50000    2.54470    8.50520    7.23200   63.43570  107.70580   59.55220    0.09090   -0.00280    2.50770
 7961.00000    2.57300    9.94130    8.14120   62.82830  106.61430   51.76790    0.07380   -0.00270    2.65110
 7961.50000    2.60500   16.35090    9.96000   62.60270  105.60740   44.34610    0.05560   -0.00260    2.85580
 7962.00000    2.61090   51.81930   25.19140   62.35590  104.43580   43.14580    0.03940   -0.00250    3.08410
 7962.50000    2.57990   40.04400   11.59240   62.15370  103.39890   50.38500    0.04980   -0.00280    3.06900
 7963.00000    2.54600    8.84360    7.77590   61.58750  103.43010   59.51950    0.08050   -0.00420    2.82770
 7963.50000    2.53230    8.66420    7.68050   60.79320  102.06180   66.50530    0.10930   -0.00550    2.55620
 7964.00000    2.55000    9.85680   10.86610   59.69930   99.97460   69.29040    0.11790   -0.00460    2.49300
 7964.50000    2.56260   12.75580   29.87550   59.09700   97.91050   67.04710    0.08390   -0.00120    2.71860
 7965.00000    2.58400   24.23140   38.05260   58.44020   99.24800   56.46160    0.06460   -0.00160    3.09050
 7965.50000    2.60500   40.27860  138.04880   57.85250   98.49280   41.76300    0.04270   -0.00540    3.36260
 7966.00000    2.61800   94.81810  164.36460   57.63840   98.14820   32.32650    0.02880   -0.00760    3.37940
 7966.50000    2.61220  140.19730   44.06010   56.27380   98.04900   27.87510    0.02330   -0.00710    3.26600
 7967.00000    2.57590   22.20330   10.61340   56.49590   97.92210   27.49380    0.02120   -0.00670    3.05150
 7967.50000    2.53970    8.74120    6.10830   57.16550   98.41160   28.82600    0.03260   -0.00610    2.87110
 7968.00000    2.50930    6.31180    5.14200   59.00750  100.93470   29.97910    0.04580   -0.00290    2.75290
 7968.50000    2.51740    5.90800    4.48890   62.02520  103.45910   30.55740    0.05960    0.00020    2.66380
 7969.00000    2.56380    7.96520    3.39070   62.77330  105.02990   31.01210    0.06410    0.00210    2.68680
 7969.50000    2.59850    9.37110    2.43420   64.42310  107.45410   31.99130    0.06560    0.00080    2.76540
 7970.00000    2.60030   10.83320    1.98790   67.98450  111.75290   33.75660    0.06890   -0.00110    2.90400
 7970.50000    2.55860    3.15640    1.85040   68.68490  113.08470   42.68760    0.08680   -0.00310    2.96940
 7971.00000    2.51210    2.08630    2.11630   69.08240  114.41260   57.74280    0.11830   -0.00510    2.86140
 7971.50000    2.48510    2.07590    6.12280   69.04330  114.95570   68.82910    0.14910   -0.00700    2.70990
 7972.00000    2.48050    2.93120    2.63100   67.56470  114.80350   67.81100    0.13890   -0.00900    2.63850
 7972.50000    2.49150    2.15430    2.39800   66.63400  113.74160   59.95500    0.11490   -0.01170    2.85440
 7973.00000    2.53270    2.60930   17.08840   65.21990  111.81530   52.71710    0.09070   -0.01350    3.09410
 7973.50000    2.60380    5.44900   25.40440   64.30530  109.34600   46.82800    0.05520   -0.01080    3.29870
 7974.00000    2.64850   94.72970   40.70800   62.16330  107.16900   40.94680    0.04460   -0.00650    3.32860
 7974.50000    2.66620   70.35340   37.03170   60.24000  104.80460   42.39660    0.03300   -0.00250    3.24250
 7975.00000    2.63590   26.28110   19.36490   59.83930  102.18640   52.08140    0.03870   -0.00290    3.12750
 7975.50000    2.60970   16.87210   19.84950   59.65380  101.60050   58.88520    0.05320   -0.00520    3.11870
 7976.00000    2.59190   16.60850   30.40860   59.90450   99.98630   58.20120    0.06340   -0.00750    3.20110
 7976.50000    2.58850   22.77040   33.29660   60.10910  100.72050   52.68900    0.05870   -0.00700    3.25890
 7977.00000    2.58720   15.67730   28.56530   60.29740   99.92250   51.42840    0.05890   -0.00610    3.13670
 7977.50000    2.57720   10.69900   13.28410   60.33710   99.87570   55.05820    0.06520   -0.00510    2.92680
 7978.00000    2.57120   10.87830   11.77790   60.27440   99.82880   56.46350    0.07220   -0.00420    2.83300
 7978.50000    2.58850   14.08640   16.96880   59.79170   99.97640   54.32010    0.05760   -0.00330    2.97180
 7979.00000    2.60910   20.75740   44.81630   58.85260   99.78110   49.17300    0.04020   -0.00420    3.29690
 7979.50000    2.62770   33.39170   74.78790   58.76290   99.29270   44.66400    0.02780   -0.00510    3.54840
 7980.00000    2.63390   59.91000   42.84270   58.59370   98.58120   41.90890    0.02590   -0.00590    3.57150
 7980.50000    2.64360   97.23540   47.67520   58.25710   97.53870   39.96830    0.02610   -0.00680    3.38630
