~Version ---------------------------------------------------
VERS.   2.0 : CWLS log ASCII Standard -VERSION 2.0
WRAP.    NO : One line per depth step
DLM . SPACE : Column Data Section Delimiter
~Well ------------------------------------------------------
STRT .F                 365.0 : START DEPTH
STOP .F                5061.0 : STOP DEPTH
STEP .F                   0.5 : STEP
NULL .               -9999.25 : NULL VALUE
COMP .                        : COMPANY
WELL .                        : WELL
FLD  .                        : FIELD
LOC  .                        : LOCATION
PROV .                        : PROVINCE
CNTY .                        : COUNTY
STAT .                        : STATE
CTRY .                        : COUNTRY
SRVC .                        : SERVICE COMPANY
DATE .                        : DATE
UWI  .                        : UNIQUE WELL ID
API  .                        : API NUMBER
SLAT .WGS84 3.194787725756399 : SURFACE LATITUDE
SLON .WGS84 7.462121860158007 : SURFACE LONGITUDE
DATUM.F               3570.09 : DEPTH DATUM ELEV
~Curve Information -----------------------------------------
DEPT.F     : 1 MEASURED DEPTH
GRS .GAPI  : GAMMA RAY FROM SONIC LOG
DT  .US/F  : DELTA-T (INTERVAL TRANSIT TIME)
DTCO.US/F  : DELTA-T COMPRESSIONAL
DTSM.US/F  : DELTA-T SHEAR
~Params ----------------------------------------------------
~Other -----------------------------------------------------
~ASCII -----------------------------------------------------
# ...
 5012.50000   27.36680   56.63760   54.97410   95.89470
 5013.00000   26.74590   57.37890   56.93220   99.15100
 5013.50000   26.57850   58.00200   57.41940  101.25930
 5014.00000   28.31750   58.01280   57.37430  102.33570
 5014.50000   32.01890   57.26270   57.18420  103.20720
 5015.00000   36.17500   55.96160   56.51810  103.60530
 5015.50000   39.29130   54.84330   54.37320  101.11900
 5016.00000   38.79920   53.87480   52.26070   97.89690
 5016.50000   35.32570   53.55330   51.43580   97.21930
 5017.00000   31.79700   53.57160   50.92440   96.37290
 5017.50000   28.87250   54.59100   50.95980   95.52650
 5018.00000   26.40550   56.67960   51.17830   95.93680
 5018.50000   24.33940   58.76810   52.82140   99.11180
 5019.00000   23.88660   60.85670   54.63450  103.99170
 5019.50000   25.00710   63.16060   57.42460  109.49380
 5020.00000   28.19820   62.92950   60.54690  115.34390
 5020.50000   32.16970   62.33090   61.47650  115.07570
 5021.00000   35.69920   61.00380   61.84060  113.94020
 5021.50000   36.55800   59.45480   61.42980  112.99710
 5022.00000   34.26680   58.46830   60.76850  112.22590
 5022.50000   30.51650   58.55820   59.86100  110.42190
 5023.00000   26.40310   58.92880   58.78770  107.55050
 5023.50000   24.33340   59.81860   58.37510  106.63270
 5024.00000   24.20100   60.74430   58.27580  106.30000
 5024.50000   25.38310   61.55800   58.27770  106.68130
 5025.00000   27.28080   62.32080   58.35530  106.45840
 5025.50000   29.46400   64.14150   58.86500  105.68030
 5026.00000   33.81500   63.47800   59.43980  104.23080
 5026.50000   40.34800   62.34750   59.53360  100.63690
 5027.00000   44.72610   60.87980   59.36700   95.76580
 5027.50000   44.87240   59.55820   59.28620   99.15080
 5028.00000   41.64300   59.17460   59.44390  104.25070
 5028.50000   36.19920   58.93870   59.22830  106.51970
 5029.00000   33.39760   58.99920   59.12910  107.62930
 5029.50000   32.26650   58.98780   59.92170  106.39810
 5030.00000   32.68670   57.98200   60.13980  104.65410
 5030.50000   33.69150   56.47700   60.11630  101.83780
 5031.00000   34.21570   55.13880   59.42510   98.16070
 5031.50000   33.51440   54.49030   57.46080   96.07550
 5032.00000   31.97880   53.95830   55.49780   94.81340
 5032.50000   30.70490   55.02260   54.16700   93.42760
 5033.00000   30.35790   56.11150   53.61460   92.29430
 5033.50000   -9999.25   57.17870   54.21820   91.53930
 5034.00000   -9999.25   57.49810   54.89810   91.77790
 5034.50000   -9999.25   57.61930   55.16660   93.32570
 5035.00000   -9999.25   57.20120   55.46040   94.81490
 5035.50000   -9999.25   56.66750   55.81570   94.52390
 5036.00000   -9999.25   55.88870   55.66460   93.64200
 5036.50000   -9999.25   55.65670   54.02230   92.07200
 5037.00000   -9999.25   56.10580   52.06250   90.61940
 5037.50000   -9999.25   56.67870   50.97260   89.72180
 5038.00000   -9999.25   60.13020   50.12400   90.11890
 5038.50000   -9999.25   64.77980   52.50820   91.25750
 5039.00000   -9999.25   68.71850   54.91760   91.81280
 5039.50000   -9999.25   70.68190   58.41350   92.29030
 5040.00000   -9999.25   71.86490   61.77140   92.49580
 5040.50000   -9999.25   71.74070   65.10870   94.00330
 5041.00000   -9999.25   71.24720   68.44610   96.18110
 5041.50000   -9999.25   70.98250   71.78180   99.58910
 5042.00000   -9999.25   69.97750   74.27660  103.61120
 5042.50000   -9999.25   68.50740   72.97130  107.31740
 5043.00000   -9999.25   66.24110   71.06500  110.07570
 5043.50000   -9999.25   63.94290   67.26990  107.81760
 5044.00000   -9999.25   61.91410   62.35080  105.67930
 5044.50000   -9999.25   59.35720   60.86030  104.58760
 5045.00000   -9999.25   58.68040   59.74770  104.73750
 5045.50000   -9999.25   58.23670   58.29860  103.96870
 5046.00000   -9999.25   58.97500   57.06310  103.79700
 5046.50000   -9999.25   59.33480   57.29160  103.85000
 5047.00000   -9999.25   59.51790   57.75640  104.13010
 5047.50000   -9999.25   59.07090   57.91640  106.24140
 5048.00000   -9999.25   58.58580   57.98220  108.68550
 5048.50000   -9999.25   58.03770   57.78680  111.07470
 5049.00000   -9999.25   57.64840   57.48090  113.07270
 5049.50000   -9999.25   57.89630   57.45020  110.37520
 5050.00000   -9999.25   58.34450   57.57680  106.42820
 5050.50000   -9999.25   58.68930   57.87070  103.83780
 5051.00000   -9999.25   58.96970   58.48050  101.91810
 5051.50000   -9999.25   58.97580   58.66760  100.15910
 5052.00000   -9999.25   58.83350   58.58910   98.89670
 5052.50000   -9999.25   58.89440   57.85370  100.28050
 5053.00000   -9999.25   59.04060   56.99510  102.40460
 5053.50000   -9999.25   58.70720   56.70890  103.57730
 5054.00000   -9999.25   58.07450   56.47910  104.17710
 5054.50000   -9999.25   57.63110   56.20700  102.35920
 5055.00000   -9999.25   57.30050   55.91490  100.55100
 5055.50000   -9999.25   57.43280   56.36530  100.08180
 5056.00000   -9999.25   57.68230   56.97020  102.43920
 5056.50000   -9999.25   57.94620   57.40480  104.52370
 5057.00000   -9999.25   58.22490   57.73410  106.20180
 5057.50000   -9999.25   58.24260   57.78450  106.80380
 5058.00000   -9999.25   58.21910   57.71910  107.40580
 5058.50000   -9999.25   58.25440   57.49510  107.91370
 5059.00000   -9999.25   58.24030   57.27320  108.26260
 5059.50000   -9999.25   57.73780   57.06610  108.43100
 5060.00000   -9999.25   57.03260   57.19960  108.51780
 5060.50000   -9999.25   56.20900   57.60290  108.60150
 5061.00000   -9999.25   55.49360   58.10560  108.68510
