~Version ---------------------------------------------------
VERS.   2.0 : CWLS log ASCII Standard -VERSION 2.0
WRAP.    NO : One line per depth step
DLM . SPACE : Column Data Section Delimiter
~Well ------------------------------------------------------
STRT .F                 365.0 : START DEPTH
STOP .F                5061.0 : STOP DEPTH
STEP .F                   0.5 : STEP
NULL .               -9999.25 : NULL VALUE
COMP .                        : COMPANY
WELL .                        : WELL
FLD  .                        : FIELD
LOC  .                        : LOCATION
PROV .                        : PROVINCE
CNTY .                        : COUNTY
STAT .                        : STATE
CTRY .                        : COUNTRY
SRVC .                        : SERVICE COMPANY
DATE .                        : DATE
UWI  .                        : UNIQUE WELL ID
API  .                        : API NUMBER
SLAT .WGS84 3.194787725756399 : SURFACE LATITUDE
SLON .WGS84 7.462121860158007 : SURFACE LONGITUDE
DATUM.F               3570.09 : DEPTH DATUM ELEV
~Curve Information -----------------------------------------
DEPT.F     : 1 MEASURED DEPTH
GRS .GAPI  : GAMMA RAY FROM SONIC LOG
DT  .US/F  : DELTA-T (INTERVAL TRANSIT TIME)
DTCO.US/F  : DELTA-T COMPRESSIONAL
DTSM.US/F  : DELTA-T SHEAR
~Params ----------------------------------------------------
~Other -----------------------------------------------------
~ASCII -----------------------------------------------------
# ...
 4941.00000   51.92760   55.49360   56.34020  104.63940
 4941.50000   52.34630   54.36770   55.11750  102.83740
 4942.00000   51.95060   53.75090   54.66760  100.94050
 4942.50000   49.70780   53.18050   54.36730   98.97990
 4943.00000   44.81550   53.22980   53.84770   97.38940
 4943.50000   39.77540   53.33270   53.32810   96.15010
 4944.00000   39.12480   53.52360   52.65150   94.91410
 4944.50000   43.15130   53.68580   51.64190   94.04260
 4945.00000   48.22390   54.09220   51.51060   94.06800
 4945.50000   51.13200   54.52420   51.57380   94.35760
 4946.00000   51.52810   55.23930   51.79010   95.35370
 4946.50000   45.02420   55.97730   52.09710   97.82870
 4947.00000   37.70600   56.51400   53.14880   99.53250
 4947.50000   33.02600   57.08010   54.22150  100.72340
 4948.00000   31.62720   55.95930   55.15210   99.61900
 4948.50000   34.31920   54.71080   55.62670   98.60960
 4949.00000   39.00690   53.53660   54.90490   96.98570
 4949.50000   39.08910   52.56910   53.85060   95.29360
 4950.00000   33.87250   52.76360   52.63050   93.74570
 4950.50000   27.72410   53.03260   51.65310   92.19280
 4951.00000   24.29340   53.20620   51.63500   92.31840
 4951.50000   25.15800   53.30190   51.56940   92.39930
 4952.00000   29.41950   53.08540   50.86670   91.06400
 4952.50000   38.00490   52.91100   50.35330   89.60900
 4953.00000   44.05640   52.85140   50.33480   90.33610
 4953.50000   45.61800   52.88980   50.46380   90.96090
 4954.00000   42.04590   53.16770   50.64300   89.17320
 4954.50000   36.11070   53.57900   50.82230   87.63530
 4955.00000   31.12880   54.31830   51.34460   90.53220
 4955.50000   29.11570   55.12470   52.13380   93.23870
 4956.00000   27.93290   56.25430   52.96530   93.91620
 4956.50000   27.46630   57.47170   53.77050   93.80620
 4957.00000   28.16260   58.62920   54.09700   93.56690
 4957.50000   30.63160   59.66280   54.32750   92.82480
 4958.00000   35.35530   59.59600   54.53920   93.35110
 4958.50000   37.52850   59.04480   54.69150   94.22670
 4959.00000   36.26790   58.19850   54.00180   97.32060
 4959.50000   33.56600   57.26140   53.14190  100.82370
 4960.00000   32.23170   57.35040   52.17930  101.04600
 4960.50000   31.43630   57.71830   51.27840  101.26820
 4961.00000   30.44570   58.26640   51.81540  103.74800
 4961.50000   29.75400   59.06470   52.81000  107.95850
 4962.00000   30.91520   60.96860   55.12340  113.28180
 4962.50000   33.25590   62.95850   57.57180  117.83960
 4963.00000   38.63710   63.22280   59.86340  119.92840
 4963.50000   43.79790   62.99150   62.33240  121.61060
 4964.00000   45.59130   61.93690   63.23330  123.20890
 4964.50000   42.38680   60.80770   63.87870  124.08830
 4965.00000   36.61590   61.48220   63.91070  121.94290
 4965.50000   33.40090   62.48160   63.57750  119.18240
 4966.00000   32.39310   62.44480   62.27120  116.90490
 4966.50000   31.21470   62.19630   60.68250  115.41840
 4967.00000   29.73150   61.10450   61.51710  113.80930
 4967.50000   30.22760   59.78840   63.07630  112.06890
 4968.00000   32.13340   58.44450   62.59070  110.46530
 4968.50000   33.19460   57.21030   61.69730  107.89940
 4969.00000   32.28500   56.40180   60.48230  105.62800
 4969.50000   30.38120   55.61990   59.12830  103.16490
 4970.00000   29.89100   53.96920   56.41260  100.96550
 4970.50000   33.28580   52.59090   53.06600   98.59650
 4971.00000   37.17490   51.78390   51.91430   96.54000
 4971.50000   39.29190   51.11420   51.29980   94.85510
 4972.00000   38.32180   52.50210   51.45420   95.41580
 4972.50000   32.25140   53.88550   52.08310   95.97640
 4973.00000   28.96960   54.48570   52.82540   97.12920
 4973.50000   28.19320   54.84970   53.62830   98.31710
 4974.00000   28.68870   54.84070   54.25810   98.76600
 4974.50000   29.62970   54.86240   54.76990   99.14400
 4975.00000   30.18300   55.55530   54.96840   99.52190
 4975.50000   30.61710   56.06380   55.12470  100.23160
 4976.00000   31.34150   55.98450   55.42500  101.35180
 4976.50000   32.08420   55.91950   55.82590  102.49860
 4977.00000   33.64130   55.77210   55.69270  102.67240
 4977.50000   35.92110   55.58220   55.62300  102.80340
 4978.00000   37.23720   55.29270   55.35240  102.93440
 4978.50000   35.62780   54.95660   55.11070  102.97680
 4979.00000   31.66320   54.85390   54.89000  102.79310
 4979.50000   28.84590   54.81790   54.78040  102.58200
 4980.00000   29.36080   55.06350   54.72450  101.72980
 4980.50000   31.05260   55.32140   54.72970  100.65890
 4981.00000   32.51610   55.73640   54.51470   99.90620
 4981.50000   32.19770   56.18480   54.69040  100.19120
 4982.00000   32.33290   57.21660   56.07880  102.33220
 4982.50000   34.38070   58.48050   57.69700  104.92150
 4983.00000   37.37700   59.69780   58.59010  107.32110
 4983.50000   39.02540   60.97610   59.36930  109.05440
 4984.00000   38.59010   61.22540   60.20350  110.09000
 4984.50000   38.24630   61.03400   60.93860  110.95370
 4985.00000   39.06280   59.77170   60.08090  109.46490
 4985.50000   41.49970   57.99620   58.64410  107.19520
 4986.00000   43.26450   56.50190   56.76470  104.35310
 4986.50000   43.47080   55.25030   54.92720  101.51910
 4987.00000   41.43130   54.96940   53.50100   99.09550
 4987.50000   36.48580   54.78390   52.32520   96.20740
 4988.00000   33.41070   54.30510   52.25900   95.35960
 4988.50000   33.38820   53.49750   52.35090   94.76930
 4989.00000   35.91660   53.10180   52.33960   94.16420
 4989.50000   37.65700   52.90960   52.32620   93.40040
 4990.00000   38.24920   53.52140   51.89190   92.32680
 4990.50000   38.14040   54.40840   51.47110   91.77620
 4991.00000   37.26210   55.38920   51.79480   92.40200
 4991.50000   36.37710   56.38940   52.31830   93.37270
 4992.00000   36.73680   55.89730   52.43220   94.34340
 4992.50000   38.48730   55.33440   52.36760   95.27240
 4993.00000   39.34870   55.05530   52.55940   95.93610
 4993.50000   38.33620   54.95700   52.63470   96.70950
 4994.00000   37.11640   55.66260   52.42000   97.14950
 4994.50000   36.61450   56.04340   52.24990   98.00810
 4995.00000   38.37900   56.25420   53.33160   99.36180
 4995.50000   41.21980   55.54350   54.69410  100.92120
 4996.00000   41.85500   54.75360   54.39260  100.75880
 4996.50000   38.87110   53.92850   53.35510   98.96680
 4997.00000   34.58820   53.20410   52.35420   98.01430
 4997.50000   33.38470   52.96530   51.33420   97.25930
 4998.00000   35.28980   53.04960   50.68390   96.46150
 4998.50000   38.82610   53.15910   50.19840   95.28820
 4999.00000   39.22390   53.38260   49.91020   94.83210
 4999.50000   35.28180   53.63320   49.73570   94.43180
 5000.00000   30.98550   54.59730   50.36780   94.10090
 5000.50000   28.35070   55.71220   51.16000   93.92560
 5001.00000   28.53300   56.49670   52.39070   94.08970
 5001.50000   30.06290   57.13980   53.11270   97.71320
 5002.00000   32.49030   57.35730   53.67370  101.41610
 5002.50000   33.72000   57.46700   54.51660  102.85500
 5003.00000   31.72930   57.07090   55.35060  102.61590
 5003.50000   27.04030   55.99030   55.42170  102.37690
 5004.00000   24.58220   55.62250   55.21880  101.80350
 5004.50000   25.62360   55.31970   55.18130  100.78480
 5005.00000   28.45850   55.07860   55.37380   99.87630
 5005.50000   30.07050   54.85250   55.30870   98.97050
 5006.00000   31.37170   53.99170   55.19890   98.04920
 5006.50000   34.86900   52.87630   54.78940   97.28000
 5007.00000   37.31520   51.95570   53.84060   96.83870
 5007.50000   36.70700   51.61810   52.89180   95.40550
 5008.00000   35.32400   51.52360   51.94310   93.42170
 5008.50000   36.03760   51.86340   50.99430   92.27640
 5009.00000   38.50380   52.36120   50.23800   91.83140
 5009.50000   39.16870   52.99610   50.28730   91.30080
 5010.00000   34.48360   53.07320   50.25120   90.44500
 5010.50000   31.39400   53.25490   49.86730   89.43460
 5011.00000   28.44930   53.80830   49.61210   88.42410
 5011.50000   28.05260   54.48170   50.95800   90.20210
 5012.00000   27.83590   55.66830   52.85800   92.57570
