~Version ---------------------------------------------------
VERS.   2.0 : CWLS log ASCII Standard -VERSION 2.0
WRAP.    NO : One line per depth step
DLM . SPACE : Column Data Section Delimiter
~Well ------------------------------------------------------
STRT .F                 365.0 : START DEPTH
STOP .F                5061.0 : STOP DEPTH
STEP .F                   0.5 : STEP
NULL .               -9999.25 : NULL VALUE
COMP .                        : COMPANY
WELL .                        : WELL
FLD  .                        : FIELD
LOC  .                        : LOCATION
PROV .                        : PROVINCE
CNTY .                        : COUNTY
STAT .                        : STATE
CTRY .                        : COUNTRY
SRVC .                        : SERVICE COMPANY
DATE .                        : DATE
UWI  .                        : UNIQUE WELL ID
API  .                        : API NUMBER
SLAT .WGS84 3.194787725756399 : SURFACE LATITUDE
SLON .WGS84 7.462121860158007 : SURFACE LONGITUDE
DATUM.F               3570.09 : DEPTH DATUM ELEV
~Curve Information -----------------------------------------
DEPT.F     : 1 MEASURED DEPTH
GRS .GAPI  : GAMMA RAY FROM SONIC LOG
DT  .US/F  : DELTA-T (INTERVAL TRANSIT TIME)
DTCO.US/F  : DELTA-T COMPRESSIONAL
DTSM.US/F  : DELTA-T SHEAR
~Params ----------------------------------------------------
~Other -----------------------------------------------------
~ASCII -----------------------------------------------------
# ...
 4869.50000   27.07350   -9999.25   -9999.25   -9999.25
 4870.00000   28.12880   -9999.25   -9999.25   -9999.25
 4870.50000   31.26130   -9999.25   -9999.25   -9999.25
 4871.00000   35.24270   -9999.25   -9999.25   -9999.25
 4871.50000   38.98010   -9999.25   -9999.25   -9999.25
 4872.00000   38.44170   -9999.25   -9999.25   -9999.25
 4872.50000   35.02350   -9999.25   -9999.25   -9999.25
 4873.00000   30.16200   -9999.25   -9999.25   -9999.25
 4873.50000   25.83790   -9999.25   -9999.25   -9999.25
 4874.00000   23.73000   -9999.25   -9999.25   -9999.25
 4874.50000   23.06280   -9999.25   -9999.25   -9999.25
 4875.00000   24.53780   -9999.25   -9999.25   -9999.25
 4875.50000   27.14520   -9999.25   -9999.25   -9999.25
 4876.00000   27.33110   -9999.25   -9999.25   -9999.25
 4876.50000   25.00780   -9999.25   -9999.25   -9999.25
 4877.00000   22.09330   -9999.25   -9999.25   -9999.25
 4877.50000   19.66310   -9999.25   -9999.25   -9999.25
 4878.00000   19.24790   -9999.25   -9999.25   -9999.25
 4878.50000   21.57590   -9999.25   -9999.25   -9999.25
 4879.00000   25.11920   -9999.25   -9999.25   -9999.25
 4879.50000   27.26990   -9999.25   -9999.25   -9999.25
 4880.00000   27.61050   -9999.25   -9999.25   -9999.25
 4880.50000   28.08790   -9999.25   -9999.25   -9999.25
 4881.00000   29.61510   -9999.25   -9999.25   -9999.25
 4881.50000   31.61970   -9999.25   -9999.25   -9999.25
 4882.00000   33.19970   -9999.25   -9999.25   -9999.25
 4882.50000   34.73530   -9999.25   -9999.25   -9999.25
 4883.00000   34.53450   -9999.25   -9999.25   -9999.25
 4883.50000   32.49550   -9999.25   -9999.25   -9999.25
 4884.00000   29.42650   -9999.25   -9999.25   -9999.25
 4884.50000   27.82920   -9999.25   -9999.25   -9999.25
 4885.00000   29.16660   -9999.25   -9999.25   -9999.25
 4885.50000   31.40360   -9999.25   -9999.25   -9999.25
 4886.00000   32.03030   -9999.25   -9999.25   -9999.25
 4886.50000   30.15480   -9999.25   -9999.25   -9999.25
 4887.00000   26.63750   -9999.25   -9999.25   -9999.25
 4887.50000   24.72640   -9999.25   -9999.25   -9999.25
 4888.00000   24.53510   -9999.25   -9999.25   -9999.25
 4888.50000   24.94790   -9999.25   -9999.25   -9999.25
 4889.00000   25.28840   -9999.25   -9999.25   -9999.25
 4889.50000   24.89640   -9999.25   -9999.25   -9999.25
 4890.00000   24.53030   -9999.25   -9999.25   -9999.25
 4890.50000   24.25910   -9999.25   -9999.25   -9999.25
 4891.00000   24.00950   -9999.25   -9999.25   -9999.25
 4891.50000   23.99930   -9999.25   -9999.25   -9999.25
 4892.00000   24.38960   -9999.25   -9999.25   -9999.25
 4892.50000   25.31580   -9999.25   -9999.25   -9999.25
 4893.00000   25.72860   -9999.25   -9999.25   -9999.25
 4893.50000   25.11130   -9999.25   -9999.25   -9999.25
 4894.00000   23.80930   -9999.25   -9999.25   -9999.25
 4894.50000   23.19330   -9999.25   -9999.25   -9999.25
 4895.00000   25.97790   -9999.25   -9999.25   -9999.25
 4895.50000   32.28700   -9999.25   -9999.25   -9999.25
 4896.00000   38.68950   -9999.25   -9999.25   -9999.25
 4896.50000   40.06420   -9999.25   -9999.25   -9999.25
 4897.00000   38.42870   -9999.25   -9999.25   -9999.25
 4897.50000   34.87170   -9999.25   -9999.25   -9999.25
 4898.00000   31.59310   -9999.25   -9999.25   -9999.25
 4898.50000   29.40660   -9999.25   -9999.25   -9999.25
 4899.00000   26.70860   -9999.25   -9999.25   -9999.25
 4899.50000   25.24780   -9999.25   -9999.25   -9999.25
 4900.00000   24.66050   -9999.25   -9999.25   -9999.25
 4900.50000   24.47650   -9999.25   -9999.25   -9999.25
 4901.00000   23.74390   -9999.25   -9999.25   -9999.25
 4901.50000   22.77450   -9999.25   -9999.25   -9999.25
 4902.00000   22.59640   -9999.25   -9999.25   -9999.25
 4902.50000   23.28550   -9999.25   -9999.25   -9999.25
 4903.00000   26.58780   -9999.25   -9999.25   -9999.25
 4903.50000   30.23690   -9999.25   -9999.25   -9999.25
 4904.00000   30.99050   -9999.25   -9999.25   -9999.25
 4904.50000   29.40960   -9999.25   -9999.25   -9999.25
 4905.00000   25.08390   -9999.25   -9999.25   -9999.25
 4905.50000   23.58540   -9999.25   -9999.25   -9999.25
 4906.00000   24.79570   -9999.25   -9999.25   -9999.25
 4906.50000   27.28240   -9999.25   -9999.25   -9999.25
 4907.00000   28.71910   -9999.25   -9999.25   -9999.25
 4907.50000   29.27760   -9999.25   -9999.25   -9999.25
 4908.00000   29.27900   -9999.25   -9999.25   -9999.25
 4908.50000   28.47000   -9999.25   -9999.25   -9999.25
 4909.00000   26.52130   -9999.25   -9999.25   -9999.25
 4909.50000   24.72650   -9999.25   -9999.25   -9999.25
 4910.00000   26.27460   -9999.25   -9999.25   -9999.25
 4910.50000   30.48750   -9999.25   -9999.25   -9999.25
 4911.00000   33.28870   -9999.25   -9999.25   -9999.25
 4911.50000   32.90600   -9999.25   -9999.25   -9999.25
 4912.00000   31.14830   -9999.25   -9999.25   -9999.25
 4912.50000   30.40170   -9999.25   -9999.25   -9999.25
 4913.00000   30.48910   -9999.25   -9999.25   -9999.25
 4913.50000   29.85200   -9999.25   -9999.25   -9999.25
 4914.00000   28.75560   -9999.25   -9999.25   -9999.25
 4914.50000   28.23450   -9999.25   -9999.25   -9999.25
 4915.00000   30.35920   57.92320   57.94650  104.62700
 4915.50000   34.93840   57.73110   57.56430  104.33580
 4916.00000   38.21940   56.79440   57.46580  104.90390
 4916.50000   38.18380   55.48390   57.69450  106.11250
 4917.00000   37.07450   54.31090   57.69840  105.52970
 4917.50000   37.21540   53.26640   57.65990  103.31160
 4918.00000   38.15660   53.71620   57.74210  104.25990
 4918.50000   38.85810   54.26640   58.03520  106.47090
 4919.00000   38.48760   54.07970   57.21570  106.60710
 4919.50000   38.21030   53.79550   56.05170  104.73200
 4920.00000   38.68120   53.35870   55.36580  102.50640
 4920.50000   39.31030   53.27110   54.75720   99.42780
 4921.00000   38.28220   55.04000   53.27700   96.67390
 4921.50000   35.85260   56.48000   51.60570   95.77790
 4922.00000   34.37760   58.81490   51.29480   96.63480
 4922.50000   35.25520   61.11770   53.12790  101.68500
 4923.00000   37.43710   61.81350   54.67860  104.65070
 4923.50000   40.35460   62.51140   56.54930  106.99310
 4924.00000   43.08180   63.64580   57.76750  109.16140
 4924.50000   45.19640   64.94560   58.76260  111.26100
 4925.00000   45.68770   65.49600   59.84610  113.41050
 4925.50000   45.18420   65.93930   60.81840  115.23350
 4926.00000   43.50000   63.88470   62.35490  116.03040
 4926.50000   39.81420   62.13250   64.09720  116.05530
 4927.00000   35.30490   60.57100   63.52350  115.39640
 4927.50000   31.97720   59.04950   61.72830  113.47310
 4928.00000   30.96720   59.05240   60.67200  111.61470
 4928.50000   32.70950   59.23760   59.24840  109.84540
 4929.00000   36.85740   58.51280   58.11460  107.76090
 4929.50000   42.36490   57.60250   57.20530  105.88380
 4930.00000   48.12150   56.42940   56.19580  104.01770
 4930.50000   49.06240   55.47290   55.27150  102.45890
 4931.00000   45.24360   55.89420   54.39770  100.99540
 4931.50000   39.92440   56.45910   53.28400  100.09190
 4932.00000   36.10330   57.57150   53.74620  101.08330
 4932.50000   36.33440   58.76550   55.48130  102.47000
 4933.00000   38.39130   59.25790   56.58140  104.10190
 4933.50000   42.50420   59.55540   57.58370  105.64300
 4934.00000   46.15420   59.53130   58.27240  107.14370
 4934.50000   49.14490   59.50500   58.75090  108.13100
 4935.00000   50.99180   59.57780   58.94730  108.26510
 4935.50000   49.42730   59.61010   59.37190  108.09590
 4936.00000   43.56930   59.54030   59.08060  108.02440
 4936.50000   37.71980   59.46710   58.98030  107.92160
 4937.00000   32.75240   60.00030   59.11690  107.81880
 4937.50000   29.96840   60.69760   59.40270  107.90960
 4938.00000   30.20400   61.19690   59.63610  108.59230
 4938.50000   31.93900   61.39530   59.80630  109.19750
 4939.00000   35.20640   60.54970   59.71010  109.61000
 4939.50000   39.79670   59.55890   59.39200  109.43610
 4940.00000   46.22350   58.28350   58.68040  107.91720
 4940.50000   50.13890   56.79500   57.50040  106.38600
