~Version ---------------------------------------------------
VERS.   2.0 : CWLS log ASCII Standard -VERSION 2.0
WRAP.    NO : One line per depth step
DLM . SPACE : Column Data Section Delimiter
~Well ------------------------------------------------------
STRT .F                   33.0 : START DEPTH
STOP .F                 8286.0 : STOP DEPTH
STEP .F                    0.5 : STEP
NULL .                -9999.25 : NULL VALUE
COMP .                         : COMPANY
WELL .                         : WELL
FLD  .                         : FIELD
LOC  .                         : LOCATION
PROV .                         : PROVINCE
CNTY .                         : COUNTY
STAT .                         : STATE
CTRY .                         : COUNTRY
SRVC .                         : SERVICE COMPANY
DATE .                         : DATE
UWI  .                         : UNIQUE WELL ID
API  .                         : API NUMBER
SLAT .WGS84 1.3521474851533988 : SURFACE LATITUDE
SLON .WGS84  6.484241745599007 : SURFACE LONGITUDE
DATUM.F                    nan : DEPTH DATUM ELEV
~Curve Information -----------------------------------------
DEPT   .F     : 1 MEASURED DEPTH
DT     .US/F  : DELTA-T (INTERVAL TRANSIT TIME)
RLA3   .OHMM  : APPARENT RESISTIVITY FROM COMPUTED FOCUSING MODE 3
RLA5   .OHMM  : APPARENT RESISTIVITY FROM COMPUTED FOCUSING MODE 5
RXOZ   .OHMM  : INVADED FORMATION RESISTIVITY FILTERED AT 18 INCHES
HDRA   .G/C3  : HRDD SPINE AND RIBS DENSITY CORRECTION
PEFZ   .B/E   : HRDD STANDARD RESOLUTION FORMATION PHOTOELECTRIC FACTOR
DPHZ_LS.DEC   : HGRD STANDARD RESOLUTION DENSITY POROSITY
CALD   .IN    : CALIPER FROM DENSITY LOG
RHOZ   .G/C3  : HRDD STANDARD RESOLUTION FORMATION DENSITY
SGRDD  .GAPI  : SPECTROSCOPY GAMMA RAY FROM DENSITY LOG
TNPH_LS.DEC   : THERMAL NEUTRON POROSITY [LIMESTONE]
DTCO   .US/F  : DELTA-T COMPRESSIONAL
DTSM   .US/F  : DELTA-T SHEAR
~Params ----------------------------------------------------
~Other -----------------------------------------------------
~ASCII -----------------------------------------------------
# ...
 3283.00000   62.86030   42.32330   36.29270   15.07220    0.00060    3.35290    0.00900   12.86890    2.69830   25.89780    0.23620   -9999.25   -9999.25
 3283.50000   62.88000   44.64120   34.68570   14.51780   -0.00010    3.37320    0.00420   12.87730    2.70610   21.95880    0.22090   -9999.25   -9999.25
 3284.00000   62.72990   49.69230   38.39810   15.45630   -0.00070    3.38130    0.00040   12.86750    2.71120   15.30670    0.17640   -9999.25   -9999.25
 3284.50000   62.45780   56.40130   43.03500   17.64360   -0.00130    3.40170   -0.00070   12.84120    2.71060   11.43740    0.13800   -9999.25   -9999.25
 3285.00000   62.44450   52.12000   44.30050   18.95740   -0.00190    3.45760    0.00450   12.81480    2.69720   16.10410    0.14200   -9999.25   -9999.25
 3285.50000   63.02240   36.93490   38.68010   17.87080   -0.00260    3.54370    0.01370   12.78840    2.68700   22.20980    0.18150   -9999.25   -9999.25
 3286.00000   63.39470   24.55960   31.47150   14.35600   -0.00260    3.66850    0.00830   12.79670    2.71490   25.71520    0.23520   -9999.25   -9999.25
 3286.50000   60.50200   25.04940   32.34380   16.45510   -0.00410    3.84580   -0.02890   12.77680    2.80390   25.88890    0.28700   -9999.25   -9999.25
 3287.00000   57.56430   48.82720  101.20250   25.76770   -0.00670    4.14230   -0.08510   12.76600    2.86300   24.91840    0.27140   -9999.25   -9999.25
 3287.50000   55.11860  115.85960  225.21050  105.62700   -0.01240    4.33870   -0.09970   12.75910    2.90240   25.58210    0.26260   -9999.25   -9999.25
 3288.00000   56.12670   63.26960   96.45440   43.25340   -0.01140    4.28800   -0.09970   12.77140    2.84550   26.05310    0.27010   -9999.25   -9999.25
 3288.50000   61.29710   39.92450   31.52450   16.30550   -0.00550    3.96260   -0.04950   12.78360    2.74910   22.59700    0.26500   -9999.25   -9999.25
 3289.00000   65.41170   32.45760   26.24840   10.51430    0.00490    3.54000    0.00130   12.78320    2.69110   15.72430    0.21550   -9999.25   -9999.25
 3289.50000   67.54570   35.31620   29.08990   10.94790    0.00030    3.42310    0.02400   12.78750    2.67220    9.79340    0.13080   -9999.25   -9999.25
 3290.00000   66.53970   45.63560   35.84970   13.90050   -0.00200    3.50010    0.01840   12.77060    2.68450    7.07390    0.10090   -9999.25   -9999.25
 3290.50000   65.64840   48.84710   38.15350   17.00630   -0.00410    3.61330    0.01370   12.76220    2.68460    6.47310    0.07720   -9999.25   -9999.25
 3291.00000   66.04160   44.04790   33.06630   14.16320   -0.00480    3.77220    0.01660   12.76660    2.68780    6.46940    0.07500   -9999.25   -9999.25
 3291.50000   63.69500   40.68610   29.68470   13.24910   -0.00560    3.98950    0.00180   12.76480    2.72510    7.17690    0.07590   -9999.25   -9999.25
 3292.00000   60.21990   67.87560   64.52640   19.00520   -0.00630    4.34070   -0.04260   12.76290    2.81080    8.12550    0.07900   -9999.25   -9999.25
 3292.50000   55.83910  140.01490  254.81370   53.74080   -0.00610    4.76580   -0.10000   12.75260    2.91420    9.33890    0.08640   -9999.25   -9999.25
 3293.00000   51.98030  198.10690  631.23030  334.54500   -0.00360    5.06520   -0.10010   12.73850    2.97820   11.67030    0.10070   -9999.25   -9999.25
 3293.50000   50.64730  224.06660 1331.58220  328.69690    0.00060    5.22200   -0.10010   12.73490    3.00350   15.71880    0.12060   -9999.25   -9999.25
 3294.00000   50.64160  260.84100 3301.12700  349.29350    0.00340    5.21900   -0.10010   12.73010    3.00830   19.43430    0.13750   -9999.25   -9999.25
 3294.50000   50.50430  242.97240 5405.69480  357.43700   -0.00430    5.15500   -0.10010   12.72380    3.00870   23.62980    0.15230   -9999.25   -9999.25
 3295.00000   50.46580  238.56800 2796.06490  349.61880   -0.01780    5.09100   -0.10010   12.71750    2.97280   24.65530    0.15950   -9999.25   -9999.25
 3295.50000   51.11270  208.54900 1489.51510  356.31850   -0.02020    4.86960   -0.10020   12.71970    2.89710   24.76770    0.17280   -9999.25   -9999.25
 3296.00000   53.92150  198.52610  351.62800   94.93340   -0.01610    4.56440   -0.08200   12.73630    2.81590   24.24620    0.18000   -9999.25   -9999.25
 3296.50000   56.08380  122.80860  166.19070   51.08510    0.00130    4.13850   -0.01320   12.75450    2.69120   23.25780    0.17760   -9999.25   -9999.25
 3297.00000   58.16950  127.42580  179.86450   43.97920   -0.00010    3.83250    0.04960   12.80540    2.60760   22.05710    0.17310   -9999.25   -9999.25
 3297.50000   60.64970  118.99420  188.93120   53.09670   -0.00420    3.60580    0.11230   12.85220    2.49650   20.39130    0.16920   -9999.25   -9999.25
 3298.00000   60.87080  123.37440  188.57020   59.94530   -0.00560    3.47730    0.15310   13.14690    2.46070   20.09000    0.17630   -9999.25   -9999.25
 3298.50000   61.04620  120.65180  186.54640   60.18120   -0.00360    3.37130    0.16650   13.22950    2.44480   20.04100    0.17920   -9999.25   -9999.25
 3299.00000   61.44930  123.21180  197.15250   59.36160   -0.00030    3.29120    0.16160   13.28270    2.44940   18.59630    0.16220   -9999.25   -9999.25
 3299.50000   61.40590  124.99120  217.34130   56.85350    0.00290    3.25530    0.16460   13.34930    2.44500   19.60780    0.14730   -9999.25   -9999.25
 3300.00000   61.18230  127.66070  244.42200   48.55360    0.00340    3.23100    0.17200   13.41490    2.43280   18.91050    0.14540   -9999.25   -9999.25
 3300.50000   60.85920  131.21880  277.44200   48.75440    0.00390    3.20490    0.17990   13.46570    2.41690   21.69450    0.17460   -9999.25   -9999.25
 3301.00000   60.85260  135.01840  273.04160   42.73870    0.00430    3.17870    0.18020   13.47490    2.42340   21.95280    0.18700   -9999.25   -9999.25
 3301.50000   60.04480  123.48050  250.33880   39.12490    0.00990    3.15480    0.17670   13.47070    2.42430   22.54630    0.19320   -9999.25   -9999.25
 3302.00000   59.57590  145.46220  364.36370   38.23430    0.01390    3.12520    0.18270   13.49970    2.41810   23.10290    0.17030   -9999.25   -9999.25
 3302.50000   59.23900  159.11980  434.73620   29.15610    0.01780    3.12140    0.18440   13.71640    2.41040   25.27850    0.17950   -9999.25   -9999.25
 3303.00000   59.69830  166.78030  369.61840   20.24550    0.01810    3.13860    0.18940   13.69880    2.40340   25.57410    0.18590   -9999.25   -9999.25
 3303.50000   60.81010  129.11720  184.94400   18.94340    0.01450    3.18800    0.18640   13.63390    2.41080   24.69040    0.19480   -9999.25   -9999.25
 3304.00000   61.80470  109.95850  148.76290   24.52370    0.00990    3.23610    0.18320   13.21580    2.41830   22.49180    0.19990   -9999.25   -9999.25
 3304.50000   62.47390  115.10830  160.04640   41.24300    0.00590    3.29000    0.16960   13.13380    2.44440   21.15440    0.20050   -9999.25   -9999.25
 3305.00000   62.24000  116.63950  179.79440   45.86800    0.00540    3.38060    0.14670   13.00230    2.48250   23.03170    0.21510   -9999.25   -9999.25
 3305.50000   62.10260  110.12140  170.84040   42.41690    0.01070    3.40620    0.12530   12.91390    2.51090   27.34900    0.22520   -9999.25   -9999.25
 3306.00000   61.86490  105.20780  150.86150   41.65510    0.01320    3.37660    0.12080   12.97530    2.52000   31.09180    0.24240   -9999.25   -9999.25
 3306.50000   61.86210  112.37550  148.16350   42.45710    0.01070    3.30640    0.12110   13.04490    2.51450   32.91140    0.22480   -9999.25   -9999.25
 3307.00000   61.96180  113.92260  146.77080   44.21340    0.00460    3.24770    0.13100   13.04470    2.49780   30.17690    0.21320   -9999.25   -9999.25
 3307.50000   61.82980  109.22820  143.55640   27.88390    0.00110    3.24610    0.13820   13.04430    2.48440   26.78900    0.20300   -9999.25   -9999.25
 3308.00000   62.90090  102.56260  105.20800   22.08710    0.00110    3.24700    0.15070   13.13730    2.46620   25.12310    0.19540   -9999.25   -9999.25
 3308.50000   63.84440   76.44130   71.04770   20.08570    0.00110    3.22480    0.15290   13.15090    2.46320   25.14460    0.18940   -9999.25   -9999.25
