~Version ---------------------------------------------------
VERS.   2.0 : CWLS log ASCII Standard -VERSION 2.0
WRAP.    NO : One line per depth step
DLM . SPACE : Column Data Section Delimiter
~Well ------------------------------------------------------
STRT .F                   33.0 : START DEPTH
STOP .F                 8286.0 : STOP DEPTH
STEP .F                    0.5 : STEP
NULL .                -9999.25 : NULL VALUE
COMP .                         : COMPANY
WELL .                         : WELL
FLD  .                         : FIELD
LOC  .                         : LOCATION
PROV .                         : PROVINCE
CNTY .                         : COUNTY
STAT .                         : STATE
CTRY .                         : COUNTRY
SRVC .                         : SERVICE COMPANY
DATE .                         : DATE
UWI  .                         : UNIQUE WELL ID
API  .                         : API NUMBER
SLAT .WGS84 1.3521474851533988 : SURFACE LATITUDE
SLON .WGS84  6.484241745599007 : SURFACE LONGITUDE
DATUM.F                    nan : DEPTH DATUM ELEV
~Curve Information -----------------------------------------
DEPT   .F     : 1 MEASURED DEPTH
DT     .US/F  : DELTA-T (INTERVAL TRANSIT TIME)
RLA3   .OHMM  : APPARENT RESISTIVITY FROM COMPUTED FOCUSING MODE 3
RLA5   .OHMM  : APPARENT RESISTIVITY FROM COMPUTED FOCUSING MODE 5
RXOZ   .OHMM  : INVADED FORMATION RESISTIVITY FILTERED AT 18 INCHES
HDRA   .G/C3  : HRDD SPINE AND RIBS DENSITY CORRECTION
PEFZ   .B/E   : HRDD STANDARD RESOLUTION FORMATION PHOTOELECTRIC FACTOR
DPHZ_LS.DEC   : HGRD STANDARD RESOLUTION DENSITY POROSITY
CALD   .IN    : CALIPER FROM DENSITY LOG
RHOZ   .G/C3  : HRDD STANDARD RESOLUTION FORMATION DENSITY
SGRDD  .GAPI  : SPECTROSCOPY GAMMA RAY FROM DENSITY LOG
TNPH_LS.DEC   : THERMAL NEUTRON POROSITY [LIMESTONE]
DTCO   .US/F  : DELTA-T COMPRESSIONAL
DTSM   .US/F  : DELTA-T SHEAR
~Params ----------------------------------------------------
~Other -----------------------------------------------------
~ASCII -----------------------------------------------------
# ...
 3777.00000   69.17170   19.17860   19.44410   10.51870   -0.00260    3.14300    0.05930   12.90270    2.61480   23.31520    0.15750   -9999.25   -9999.25
 3777.50000   69.54950   16.60540   14.87030    8.31230    0.00040    3.06980    0.06310   12.91340    2.60770   23.32350    0.15750   -9999.25   -9999.25
 3778.00000   69.74970   17.00160   15.59970    8.27060    0.00350    3.07120    0.05990   12.92400    2.61880   23.46530    0.15490   -9999.25   -9999.25
 3778.50000   68.44340   20.29140   22.62250    9.17170    0.00260    3.14140    0.04670   12.93980    2.63840   24.48420    0.14640   -9999.25   -9999.25
 3779.00000   66.58580   36.29340   32.22000   15.62400   -0.00100    3.26000    0.02830   12.93700    2.66920   23.97040    0.14890   -9999.25   -9999.25
 3779.50000   63.90780   35.15780   39.92470   16.89640   -0.00450    3.36090    0.01970   12.92400    2.67880   21.90630    0.13930   -9999.25   -9999.25
 3780.00000   63.49880   33.62120   40.42380   17.26790   -0.00540    3.45050    0.01880   12.90680    2.67960   15.55100    0.11080   -9999.25   -9999.25
 3780.50000   63.07470   32.47900   40.62210   18.45940   -0.00550    3.53530    0.01810   12.88560    2.68160    8.99940    0.07460   -9999.25   -9999.25
 3781.00000   63.08870   37.13790   51.95520   20.96450   -0.00550    3.66100    0.01400   12.85200    2.68950    5.66930    0.04890   -9999.25   -9999.25
 3781.50000   63.19630   35.07550   52.02840   23.50620   -0.00580    3.81020    0.00840   12.82910    2.69780    5.08380    0.03860   -9999.25   -9999.25
 3782.00000   63.26490   31.92870   49.76190   23.22120   -0.00360    4.02060    0.00040   12.81930    2.71830    6.33990    0.03970   -9999.25   -9999.25
 3782.50000   61.21500   27.36340   50.27760   22.46050    0.00020    4.28580   -0.02220   12.80940    2.78000    7.72900    0.04280   -9999.25   -9999.25
 3783.00000   57.17330   91.46810  317.42810   30.45220    0.00730    4.61740   -0.08310   12.79910    2.85080    8.70230    0.05130   -9999.25   -9999.25
 3783.50000   54.53210  209.69870  396.34920   95.11200    0.01040    4.98740   -0.10000   12.76440    2.94910    8.38250    0.05910   -9999.25   -9999.25
 3784.00000   52.88280  282.04680  934.49610  341.09420    0.01090    5.32620   -0.10050   12.74480    2.97720    7.68150    0.06380   -9999.25   -9999.25
 3784.50000   50.84580  383.55340 3299.44020  255.79080    0.00410    5.49630   -9999.25   12.75470    3.00530    7.21410    0.05770   -9999.25   -9999.25
 3785.00000   50.83700  406.70020 3492.81200  201.37980    0.00300    5.57340   -9999.25   12.75880    3.00860    7.51370    0.05620   -9999.25   -9999.25
 3785.50000   50.91240  394.31070 2987.97270  189.64210    0.00310    5.60300   -9999.25   12.75260    3.00680    8.10830    0.05780   -9999.25   -9999.25
 3786.00000   51.45800  301.26680  508.78400  151.13580    0.00410    5.59910   -9999.25   12.74630    3.00150    8.50670    0.06180   -9999.25   -9999.25
 3786.50000   51.83010  238.52040  217.76480  141.96610    0.00500    5.54530   -9999.25   12.74010    2.99620    8.07590    0.06230   -9999.25   -9999.25
 3787.00000   51.89330  306.43330  280.39090  143.65140    0.00430    5.44730   -9999.25   12.69490    3.00390    7.94800    0.06420   -9999.25   -9999.25
 3787.50000   51.62020  385.57550 1226.00680  242.70120    0.00320    5.34780   -9999.25   12.65680    3.00930    8.97200    0.06960   -9999.25   -9999.25
 3788.00000   50.95460  326.69410 1315.60820  255.18300    0.00210    5.35060   -9999.25   12.62610    2.98570   11.23120    0.08840   -9999.25   -9999.25
 3788.50000   50.98690  327.81630 1157.10520  271.78220   -0.00080    5.37470   -9999.25   12.62540    2.95220   13.77370    0.11300   -9999.25   -9999.25
 3789.00000   51.39670  308.06450 1212.40310  261.04840   -0.00240    5.39520   -9999.25   12.61980    2.93600   12.39350    0.14410   -9999.25   -9999.25
 3789.50000   52.20220  263.72850  527.20540  210.76070   -0.00400    5.38460   -9999.25   12.61760    2.94490    9.75400    0.13280   -9999.25   -9999.25
 3790.00000   52.59120  265.48180  605.02830  145.69740   -0.00360    5.37440   -9999.25   12.64860    2.95610    7.05460    0.11120   -9999.25   -9999.25
 3790.50000   53.18490  264.77710  577.90890  124.19870   -0.00250    5.36750   -9999.25   12.72370    2.96410    7.53530    0.09100   -9999.25   -9999.25
 3791.00000   55.36590  152.96510  158.93410   58.65460   -0.00130    5.38780   -9999.25   12.73620    2.93780    7.58010    0.08350   -9999.25   -9999.25
 3791.50000   58.06250   53.83990   33.66460   30.03410    0.00210    5.42710   -9999.25   12.72960    2.90270    8.25550    0.07670   -9999.25   -9999.25
 3792.00000   58.08270   63.47270   33.58280   30.00200    0.00680    5.41720   -9999.25   12.69990    2.88410    8.03260    0.07150   -9999.25   -9999.25
 3792.50000   57.22180  135.23620  192.31070   83.37250    0.01140    5.39010   -9999.25   12.67020    2.90740    9.02350    0.06610   -9999.25   -9999.25
 3793.00000   53.66110  201.34040  173.86040  105.66400    0.01010    5.35840   -9999.25   12.64320    2.93420   11.40910    0.06700   -9999.25   -9999.25
 3793.50000   52.64540  209.43960  169.25750   88.01920   -0.00170    5.31930   -9999.25   12.62020    2.94290   15.25980    0.07920   -9999.25   -9999.25
 3794.00000   52.68410  239.09650  213.05920   82.81540   -0.00100    5.32940   -9999.25   12.59240    2.93860   16.06430    0.10300   -9999.25   -9999.25
 3794.50000   52.92500  208.08880  155.23410   99.03940   -0.00030    5.36370   -9999.25   12.60490    2.93550   14.21630    0.10690   -9999.25   -9999.25
 3795.00000   52.49310  275.93580  253.79490  149.23150    0.00040    5.37820   -9999.25   12.61730    2.96520   11.39600    0.08930   -9999.25   -9999.25
 3795.50000   52.11990  290.86630  674.02870  213.74970   -0.00100    5.44410   -9999.25   12.64120    2.95750    8.79600    0.06620   -9999.25   -9999.25
 3796.00000   51.16070  262.05710 1017.57780  231.31190   -0.00470    5.47370   -9999.25   12.64880    2.92950    7.18240    0.04910   -9999.25   -9999.25
 3796.50000   51.53830  222.24580  252.01230  119.34430   -0.00640    5.34510   -9999.25   12.63650    2.89410    6.02880    0.03840   -9999.25   -9999.25
 3797.00000   51.85160  191.11460  209.93050   94.43560    0.00940    5.11430   -9999.25   12.61450    2.91080    5.84360    0.03770   -9999.25   -9999.25
 3797.50000   52.60770  197.57170  206.10970   66.89650    0.03140    4.96390   -9999.25   12.64220    2.94920    5.33740    0.03770   -9999.25   -9999.25
 3798.00000   52.88710  245.22370 1021.06290   77.57470    0.04610    5.08010   -9999.25   12.65060    2.99250    5.68110    0.03750   -9999.25   -9999.25
 3798.50000   52.69940  296.13750 1598.91880   97.65780    0.03450    5.28710   -9999.25   12.63470    3.00420    6.36330    0.03770   -9999.25   -9999.25
 3799.00000   51.90590  299.49640 3412.14060  233.77820    0.01550    5.49610   -9999.25   12.62600    2.99210    7.38550    0.04030   -9999.25   -9999.25
 3799.50000   51.20060  304.85680 22661.39260  297.00340    0.00210    5.56350   -9999.25   12.62280    2.98010    7.50560    0.04170   -9999.25   -9999.25
 3800.00000   51.16840  310.31320 46256.42970  335.10510   -0.00340    5.54060   -9999.25   12.62030    2.97990    7.60270    0.04350   -9999.25   -9999.25
 3800.50000   51.21290  315.05030 21169.25200  330.69910   -0.00270    5.45560   -9999.25   12.62010    2.98930   10.33780    0.04660   -9999.25   -9999.25
 3801.00000   51.27980  314.67800 16551.69530  292.72980   -0.00250    5.37060   -9999.25   12.61990    2.99890   14.13060    0.05910   -9999.25   -9999.25
 3801.50000   51.28680  313.87440 55262.39840  228.69850   -0.00230    5.34340   -9999.25   12.61560    2.99400   16.84780    0.08000   -9999.25   -9999.25
 3802.00000   51.26520  312.29190 81596.52340  199.50730   -0.00220    5.33140   -9999.25   12.62020    2.99230   15.11280    0.09090   -9999.25   -9999.25
 3802.50000   51.20380  288.16720 18422.83790  205.90700   -0.00220    5.25200   -9999.25   12.62100    2.99970   11.68420    0.08910   -9999.25   -9999.25
