~Version ---------------------------------------------------
VERS.   2.0 : CWLS log ASCII Standard -VERSION 2.0
WRAP.    NO : One line per depth step
DLM . SPACE : Column Data Section Delimiter
~Well ------------------------------------------------------
STRT .F                   33.0 : START DEPTH
STOP .F                 8286.0 : STOP DEPTH
STEP .F                    0.5 : STEP
NULL .                -9999.25 : NULL VALUE
COMP .                         : COMPANY
WELL .                         : WELL
FLD  .                         : FIELD
LOC  .                         : LOCATION
PROV .                         : PROVINCE
CNTY .                         : COUNTY
STAT .                         : STATE
CTRY .                         : COUNTRY
SRVC .                         : SERVICE COMPANY
DATE .                         : DATE
UWI  .                         : UNIQUE WELL ID
API  .                         : API NUMBER
SLAT .WGS84 1.3521474851533988 : SURFACE LATITUDE
SLON .WGS84  6.484241745599007 : SURFACE LONGITUDE
DATUM.F                    nan : DEPTH DATUM ELEV
~Curve Information -----------------------------------------
DEPT   .F     : 1 MEASURED DEPTH
DT     .US/F  : DELTA-T (INTERVAL TRANSIT TIME)
RLA3   .OHMM  : APPARENT RESISTIVITY FROM COMPUTED FOCUSING MODE 3
RLA5   .OHMM  : APPARENT RESISTIVITY FROM COMPUTED FOCUSING MODE 5
RXOZ   .OHMM  : INVADED FORMATION RESISTIVITY FILTERED AT 18 INCHES
HDRA   .G/C3  : HRDD SPINE AND RIBS DENSITY CORRECTION
PEFZ   .B/E   : HRDD STANDARD RESOLUTION FORMATION PHOTOELECTRIC FACTOR
DPHZ_LS.DEC   : HGRD STANDARD RESOLUTION DENSITY POROSITY
CALD   .IN    : CALIPER FROM DENSITY LOG
RHOZ   .G/C3  : HRDD STANDARD RESOLUTION FORMATION DENSITY
SGRDD  .GAPI  : SPECTROSCOPY GAMMA RAY FROM DENSITY LOG
TNPH_LS.DEC   : THERMAL NEUTRON POROSITY [LIMESTONE]
DTCO   .US/F  : DELTA-T COMPRESSIONAL
DTSM   .US/F  : DELTA-T SHEAR
~Params ----------------------------------------------------
~Other -----------------------------------------------------
~ASCII -----------------------------------------------------
# ...
 8223.00000   -9999.25 1959.15580 2192.78860  337.88230   -0.00010    4.74730    0.01990    8.73390    2.67590   33.80850    0.02330   50.97680   96.56680
 8223.50000   -9999.25 4751.06980 5921.39110  492.85320    0.00190    4.63370    0.01690    8.74730    2.68090   33.91710    0.02280   51.11920   96.56500
 8224.00000   -9999.25 1495.47580 1902.62680  549.33250    0.00360    4.57730    0.01150    8.75000    2.69320   38.95710    0.02520   51.26680   96.14730
 8224.50000   -9999.25 1137.69290 1250.84780  600.88010    0.00340    4.52090    0.01120    8.75220    2.69170   43.92270    0.02920   51.37050   96.96810
 8225.00000   -9999.25 1677.56910 1671.62390  621.26520    0.00300    4.56130    0.01140    8.75350    2.69090   43.27840    0.02960   51.41020   96.76290
 8225.50000   -9999.25 1274.87770 1264.82800  772.04750    0.00440    4.66320    0.01000    8.75480    2.69300   36.90360    0.02780   51.60940   97.42710
 8226.00000   -9999.25 1827.59790 1848.62180  680.80890    0.00760    4.73140    0.00530    8.75610    2.70140   31.32020    0.02530   51.94190   98.03740
 8226.50000   -9999.25 1791.84300 1759.75290  661.00100    0.01530    4.77110   -0.00140    8.75650    2.71240   28.19180    0.02350   52.11510   98.14800
 8227.00000   -9999.25 2174.03810 2298.15160  618.84630    0.02140    4.68830    0.00060    8.75420    2.71100   27.29640    0.02370   52.25010   99.34570
 8227.50000   -9999.25 1000.60790  638.98270   88.99250    0.02030    4.48230    0.01350    8.75180    2.68600   28.45400    0.02750   52.78980  100.70230
 8228.00000   -9999.25  182.66740  149.96140   57.43630    0.01250    4.28090    0.03550    8.74950    2.65490   37.74580    0.03990   53.68340  101.72210
 8228.50000   -9999.25  256.77170  188.78780   59.19060    0.00200    4.28140    0.04900    8.74720    2.62660   47.89990    0.05280   53.84810  102.46400
 8229.00000   -9999.25  386.25050  527.87620  138.42020   -0.00140    4.43980    0.04970    8.74700    2.62490   57.42480    0.06730   54.17010  102.13010
 8229.50000   -9999.25  274.28780  307.45680  183.76850    0.00050    4.61130    0.03940    8.74890    2.63930   60.14510    0.06930   54.26250   99.32700
 8230.00000   -9999.25  566.15010  503.95760  180.82250    0.00320    4.69030    0.02730    8.75330    2.66430   61.40430    0.05520   54.06170   97.94190
 8230.50000   -9999.25 1180.24490 1182.72720  202.49880    0.00550    4.70560    0.01680    8.74210    2.68020   61.56980    0.04090   53.81330   97.63320
 8231.00000   -9999.25 1194.23030 1165.00630  238.38530    0.00530    4.73730    0.01280    8.73080    2.68930   61.35990    0.02890   53.53610   97.37960
 8231.50000   -9999.25 1224.22580 1233.52080  326.51120    0.00480    4.75940    0.01170    8.74780    2.68960   62.06140    0.02350   52.99110   97.13040
 8232.00000   -9999.25 1548.05940 1603.62450  629.83010    0.00390    4.82660    0.01340    8.74590    2.68710   62.31370    0.02250   51.81060   95.31590
 8232.50000   -9999.25 1796.09660 2216.01880  669.04660    0.00170    4.88180    0.01590    8.74280    2.68290   61.65510    0.02060   51.58260   95.99590
 8233.00000   -9999.25 1706.59240 2181.24800  804.06880   -0.00030    4.86830    0.02030    8.74970    2.67440   62.34420    0.01980   51.59480   96.33900
 8233.50000   -9999.25 1862.22850 2643.00170  862.89590    0.00030    4.82920    0.02150    8.74820    2.67300   -9999.25   -9999.25   51.70850   94.70020
 8234.00000   -9999.25 2017.86470 2396.11840  655.96360    0.00590    4.81820    0.02000    8.74670    2.67780   -9999.25   -9999.25   51.85180   94.75000
 8234.50000   -9999.25  932.91020 1165.27250  514.90450    0.01150    4.78970    0.01440    8.74430    2.68500   -9999.25   -9999.25   51.92520   95.26590
 8235.00000   -9999.25  787.23790 1005.70360  511.84490    0.01560    4.80440    0.00660    8.73680    2.69770   -9999.25   -9999.25   51.98090   95.68200
 8235.50000   -9999.25 1655.94310 2450.94580  628.22810    0.01060    4.82100    0.00660    8.74360    2.69820   -9999.25   -9999.25   51.97920   95.49370
 8236.00000   -9999.25 3001.75680 4589.36620  758.69400    0.01060    4.87670    0.00080    8.73610    2.70840   -9999.25   -9999.25   51.95960   94.99010
 8236.50000   -9999.25 3819.82450 6413.69290  722.28150    0.01050    4.88640   -0.00330    8.73710    2.71510   -9999.25   -9999.25   51.76410   94.39420
 8237.00000   -9999.25 2990.28810 4433.07570  600.81780    0.01140    4.84300   -0.00450    8.73810    2.71810   -9999.25   -9999.25   51.46170   94.35440
 8237.50000   -9999.25 2089.64110 2987.82180  483.58980    0.00920    4.75850   -0.00220    8.73390    2.71350   -9999.25   -9999.25   51.15880   94.28700
 8238.00000   -9999.25 1502.97880 2136.74610  534.45660    0.00420    4.64230    0.00460    8.73260    2.70270   -9999.25   -9999.25   52.50890   94.28690
 8238.50000   -9999.25 3657.92920 3342.74800  690.32960    0.00820    4.56310    0.00210    8.74750    2.70720   -9999.25   -9999.25   53.71870   94.51530
 8239.00000   -9999.25 1877.94750 2097.41040  915.68370    0.01010    4.35430    0.00630    8.72950    2.69980   -9999.25   -9999.25   55.55090   94.84050
 8239.50000   -9999.25   97.96580  213.57490  159.13310    0.02490    4.02210    0.00740    8.73380    2.69840   -9999.25   -9999.25   55.49330   95.29490
 8240.00000   -9999.25   31.75870   41.60460   56.46240    0.02120    3.59290    0.02940    8.73800    2.65400   -9999.25   -9999.25   55.48080   95.40340
 8240.50000   -9999.25   42.87920   54.88570   38.54550    0.01650    3.31410    0.05700    8.74060    2.61790   -9999.25   -9999.25   55.51660   95.51190
 8241.00000   -9999.25   33.37020   44.51010   18.00020    0.00050    3.32080    0.07120    8.73170    2.59080   -9999.25   -9999.25   55.66240   95.38220
 8241.50000   -9999.25   14.99250   20.72370   13.06690   -0.00480    3.55600    0.06300    8.75580    2.60220   -9999.25   -9999.25   55.69580   95.35130
 8242.00000   -9999.25   21.05550   30.27330   12.56300   -0.00300    3.70920    0.04470    8.74640    2.63560   -9999.25   -9999.25   55.60210   95.50140
 8242.50000   -9999.25   22.74440   30.77320   15.70560   -0.00250    3.70120    0.04390    8.73810    2.63610   -9999.25   -9999.25   55.41430   96.00510
 8243.00000   -9999.25   60.16830   81.05390   23.42760   -0.00040    3.41950    0.05250    8.73840    2.62350   -9999.25   -9999.25   55.48640   96.07000
 8243.50000   -9999.25   42.81160   54.25090   68.44680    0.00000    3.18520    0.06580    8.74090    2.59670   -9999.25   -9999.25   55.58810   95.95760
 8244.00000   -9999.25   31.68370   39.10960   99.63350   -0.00010    3.01220    0.06840    8.73520    2.59360   -9999.25   -9999.25   57.28780   95.87370
 8244.50000   -9999.25   30.91550   35.42950   -9999.25    0.00010    3.00510    0.06760    8.73450    2.59420   -9999.25   -9999.25   56.13300   95.80080
 8245.00000   -9999.25   32.41640   35.29120   -9999.25   -0.00100    3.05620    0.07100    8.75020    2.59010   -9999.25   -9999.25   55.80680   94.70080
 8245.50000   -9999.25   31.65100   35.32160   -9999.25   -0.00250    3.12530    0.07640    8.73240    2.57920   -9999.25   -9999.25   57.88770   95.43410
 8246.00000   -9999.25   30.70980   34.90430   -9999.25   -0.00380    3.19800    0.07930    8.72380    2.57380   -9999.25   -9999.25   56.64630   95.87210
 8246.50000   -9999.25   22.95130   24.87920   -9999.25   -0.00350    3.31890    0.07170    8.72900    2.58880   -9999.25   -9999.25   57.88530   95.92350
 8247.00000   -9999.25   10.86130   12.50170   -9999.25   -0.00170    3.46420    0.05430    8.73800    2.61980   -9999.25   -9999.25   56.68750   96.25660
 8247.50000   -9999.25   13.32940   14.21870   -9999.25    0.00130    3.59390    0.03390    8.74150    2.65330   -9999.25   -9999.25   52.68390   96.64840
 8248.00000   -9999.25   10.28570   11.37300   -9999.25    0.00580    3.60470    0.02180    8.74560    2.67110   -9999.25   -9999.25   52.65010   97.44900
 8248.50000   -9999.25   12.23250   13.92610   -9999.25    0.01200    3.50300    0.02720    8.73790    2.66510   -9999.25   -9999.25   52.69550   96.64950
