~Version ---------------------------------------------------
VERS.   2.0 : CWLS log ASCII Standard -VERSION 2.0
WRAP.    NO : One line per depth step
DLM . SPACE : Column Data Section Delimiter
~Well ------------------------------------------------------
STRT .F                   33.0 : START DEPTH
STOP .F                 8286.0 : STOP DEPTH
STEP .F                    0.5 : STEP
NULL .                -9999.25 : NULL VALUE
COMP .                         : COMPANY
WELL .                         : WELL
FLD  .                         : FIELD
LOC  .                         : LOCATION
PROV .                         : PROVINCE
CNTY .                         : COUNTY
STAT .                         : STATE
CTRY .                         : COUNTRY
SRVC .                         : SERVICE COMPANY
DATE .                         : DATE
UWI  .                         : UNIQUE WELL ID
API  .                         : API NUMBER
SLAT .WGS84 1.3521474851533988 : SURFACE LATITUDE
SLON .WGS84  6.484241745599007 : SURFACE LONGITUDE
DATUM.F                    nan : DEPTH DATUM ELEV
~Curve Information -----------------------------------------
DEPT   .F     : 1 MEASURED DEPTH
DT     .US/F  : DELTA-T (INTERVAL TRANSIT TIME)
RLA3   .OHMM  : APPARENT RESISTIVITY FROM COMPUTED FOCUSING MODE 3
RLA5   .OHMM  : APPARENT RESISTIVITY FROM COMPUTED FOCUSING MODE 5
RXOZ   .OHMM  : INVADED FORMATION RESISTIVITY FILTERED AT 18 INCHES
HDRA   .G/C3  : HRDD SPINE AND RIBS DENSITY CORRECTION
PEFZ   .B/E   : HRDD STANDARD RESOLUTION FORMATION PHOTOELECTRIC FACTOR
DPHZ_LS.DEC   : HGRD STANDARD RESOLUTION DENSITY POROSITY
CALD   .IN    : CALIPER FROM DENSITY LOG
RHOZ   .G/C3  : HRDD STANDARD RESOLUTION FORMATION DENSITY
SGRDD  .GAPI  : SPECTROSCOPY GAMMA RAY FROM DENSITY LOG
TNPH_LS.DEC   : THERMAL NEUTRON POROSITY [LIMESTONE]
DTCO   .US/F  : DELTA-T COMPRESSIONAL
DTSM   .US/F  : DELTA-T SHEAR
~Params ----------------------------------------------------
~Other -----------------------------------------------------
~ASCII -----------------------------------------------------
# ...
 1801.00000   69.20630   30.54880  382.09470    0.46690    0.13100    4.38810   -9999.25   13.42370    2.06310   10.07970    0.15720   -9999.25   -9999.25
 1801.50000   69.46760   33.08640  944.28410    0.85370    0.10970    4.48620   -9999.25   15.62430    2.05480   10.32230    0.13760   -9999.25   -9999.25
 1802.00000   71.71170   36.54270 1110.22090    3.31420    0.08020    4.61220   -9999.25   16.26080    2.05420    9.94650    0.13100   -9999.25   -9999.25
 1802.50000   70.17680   35.63300 1414.48010   23.73190    0.05510    4.74700   -9999.25   16.38190    2.06710    9.78400    0.14330   -9999.25   -9999.25
 1803.00000   69.58920   38.01530 2967.76170   39.83910    0.03680    4.84220   -9999.25   16.44380    2.05790    9.85670    0.16300   -9999.25   -9999.25
 1803.50000   70.55050   35.25000 1882.27040   37.66540    0.01970    4.86090   -9999.25   16.35880    2.04440   10.17180    0.19700   -9999.25   -9999.25
 1804.00000   71.00860   37.83940  796.77900   40.83740    0.00890    4.81850   -9999.25   16.30680    2.03690   10.03130    0.24590   -9999.25   -9999.25
 1804.50000   70.37360   40.79230 1000.23770   51.21130    0.00670    4.77110   -9999.25   16.53820    2.03760    8.99250    0.29600   -9999.25   -9999.25
 1805.00000   70.11850   37.03460 97847.78120   61.00700    0.00690    4.75900   -9999.25   16.41160    2.03710    8.47000    0.31960   -9999.25   -9999.25
 1805.50000   68.98210   33.01990 100218.28910   44.91630    0.00800    4.76300   -9999.25   16.39510    2.03120    9.94480    0.33190   -9999.25   -9999.25
 1806.00000   68.86860   32.12230 68986.05470   32.25730    0.01520    4.77580   -9999.25   16.36000    2.02450   11.13680    0.31250   -9999.25   -9999.25
 1806.50000   69.88030   40.91170 1187.09190   12.12330    0.02330    4.76180   -9999.25   16.07070    2.01760   12.14060    0.25790   -9999.25   -9999.25
 1807.00000   71.34280   30.39130  729.56110    7.68440    0.02920    4.71090   -9999.25   15.93340    2.02340   11.61260    0.19700   -9999.25   -9999.25
 1807.50000   72.41360   32.83580  449.01740    7.07470    0.03450    4.63550   -9999.25   15.59470    2.03030   10.88720    0.15620   -9999.25   -9999.25
 1808.00000   74.55500   39.02310  448.55550   12.76110    0.02910    4.56000   -9999.25   15.91910    2.03240   10.97870    0.15890   -9999.25   -9999.25
 1808.50000   72.61290   36.41700  291.05690   23.05820    0.02310    4.51960   -9999.25   16.01280    2.02660   10.98020    0.18570   -9999.25   -9999.25
 1809.00000   73.78140   37.67580  325.00690    8.02510    0.02340    4.52520   -9999.25   16.25340    2.01420   11.57490    0.24130   -9999.25   -9999.25
 1809.50000   74.12390   39.76450  314.23120    4.37160    0.03630    4.55080   -9999.25   16.26760    2.00520   11.07070    0.26170   -9999.25   -9999.25
 1810.00000   72.43160   37.28600  415.46990    2.43370    0.05300    4.59220   -9999.25   15.80850    1.99620   10.24580    0.23550   -9999.25   -9999.25
 1810.50000   71.04750   32.54290  932.11150    2.48390    0.06560    4.65450   -9999.25   15.69080    2.01510    9.51380    0.20170   -9999.25   -9999.25
 1811.00000   69.10950   40.28820 7412.60400    4.81960    0.07040    4.72850   -9999.25   16.17730    2.04510    9.90830    0.16580   -9999.25   -9999.25
 1811.50000   67.95900   47.20720 8553.58590   15.16190    0.05560    4.77820   -9999.25   16.40540    2.05490   10.26830    0.15230   -9999.25   -9999.25
 1812.00000   68.44120   36.10500 21129.49800   30.31100    0.03600    4.77300   -9999.25   16.48730    2.04930   12.15160    0.15590   -9999.25   -9999.25
 1812.50000   69.75440   35.33400 1481.32060   16.03990    0.02630    4.75150   -9999.25   16.38660    2.03390   14.25560    0.16650   -9999.25   -9999.25
 1813.00000   70.90680   40.22640  668.25890   15.02490    0.02110    4.75490   -9999.25   16.54610    2.02440   15.89480    0.17220   -9999.25   -9999.25
 1813.50000   71.58750   41.55360  962.21230   15.45450    0.02060    4.75820   -9999.25   16.04890    2.02340   15.95660    0.17570   -9999.25   -9999.25
 1814.00000   71.54250   40.26220 2022.86250   27.55750    0.01470    4.75370   -9999.25   16.34740    2.03130   15.13920    0.19320   -9999.25   -9999.25
 1814.50000   70.72560   44.46660 2012.80200   30.81940    0.00800    4.72970   -9999.25   16.67120    2.03190   14.38990    0.22560   -9999.25   -9999.25
 1815.00000   69.72260   60.73600 100605.48440    8.80040    0.00780    4.63660   -9999.25   16.62660    2.02300   13.17330    0.24290   -9999.25   -9999.25
 1815.50000   68.61780   48.80450 100134.36720    1.20750    0.01770    4.52620   -9999.25   16.75580    2.00520   13.43020    0.25810   -9999.25   -9999.25
 1816.00000   66.12910   66.17220 100011.64060    0.44080    0.04270    4.36600   -9999.25   16.45930    1.98730   13.63740    0.23230   -9999.25   -9999.25
 1816.50000   67.17630   81.83150 100172.96880    0.21680    0.07860    4.20060   -9999.25   15.82570    1.96670   13.73490    0.21360   -9999.25   -9999.25
 1817.00000   67.65080   43.12030 99912.96880    0.20090    0.11370    4.11710   -9999.25   14.47020    1.97190   14.57520    0.18110   -9999.25   -9999.25
 1817.50000   69.66420   54.25920 15780.80570    0.23590    0.12730    4.13240   -9999.25   14.47850    1.96870   15.38990    0.17400   -9999.25   -9999.25
 1818.00000   71.76860   43.39150 2693.41990    0.43890    0.11700    4.20240   -9999.25   15.35260    1.98150   16.48920    0.17230   -9999.25   -9999.25
 1818.50000   70.61460   44.43750 2897.48290    0.87330    0.09420    4.27920   -9999.25   15.65690    2.00230   17.54980    0.19300   -9999.25   -9999.25
 1819.00000   71.05460   54.22530 6730.97610    1.59440    0.07820    4.39840   -9999.25   15.68160    2.02240   18.29380    0.22260   -9999.25   -9999.25
 1819.50000   71.01860   63.90550 96640.65620    1.93710    0.07090    4.48000   -9999.25   16.07760    2.03960   17.28880    0.25310   -9999.25   -9999.25
 1820.00000   69.98050   74.69640 100551.37500    2.30180    0.06430    4.49910   -9999.25   16.01330    2.04040   15.95450    0.30840   -9999.25   -9999.25
 1820.50000   70.34120   49.78060 100128.32030    2.67850    0.05720    4.47570   -9999.25   15.81580    2.03680   14.65510    0.29680   -9999.25   -9999.25
 1821.00000   70.59330   47.24600 100128.32030    2.16190    0.05520    4.39730   -9999.25   15.48680    2.02940   13.25940    0.25880   -9999.25   -9999.25
 1821.50000   69.92970   53.61150 100532.16410    1.46440    0.05440    4.31120   -9999.25   15.63150    2.00870   12.14110    0.20910   -9999.25   -9999.25
 1822.00000   69.52790   44.69780 99811.98440    0.57460    0.06730    4.24850   -9999.25   16.02100    1.99790   12.78830    0.20630   -9999.25   -9999.25
 1822.50000   66.82200   40.38860 5169.94530    0.38090    0.08650    4.17810   -9999.25   16.00870    1.98400   13.69730    0.20790   -9999.25   -9999.25
 1823.00000   70.16000   46.18610  287.08120    0.37690    0.11510    4.10400   -9999.25   15.16930    2.02050   14.95700    0.23800   -9999.25   -9999.25
 1823.50000   71.30070   44.93460  161.57880    0.47120    0.13130    4.10740   -9999.25   13.47190    2.06850   16.32220    0.22910   -9999.25   -9999.25
 1824.00000   74.26010   46.16330  211.11510    0.79360    0.11710    4.23100   -9999.25   15.25750    2.08380   15.63290    0.22110   -9999.25   -9999.25
 1824.50000   73.42700   46.42160  294.06360    1.84210    0.08110    4.40550   -9999.25   15.63120    2.06230   14.40280    0.19280   -9999.25   -9999.25
 1825.00000   70.47690   39.72230  851.39050    5.28650    0.05630    4.55960   -9999.25   16.36020    2.04970   11.17830    0.19070   -9999.25   -9999.25
 1825.50000   70.19570   42.50610 1149.38010   10.38050    0.05920    4.65880   -9999.25   16.22270    2.05080   12.70880    0.21330   -9999.25   -9999.25
 1826.00000   70.00100   46.67940 1638.84580    7.53150    0.06150    4.67180   -9999.25   16.25200    2.06170   13.64580    0.28320   -9999.25   -9999.25
 1826.50000   69.65890   48.85120 1509.42920    4.91210    0.06140    4.63380   -9999.25   16.22450    2.06280   15.21470    0.35300   -9999.25   -9999.25
