~Version ---------------------------------------------------
VERS.   2.0 : CWLS log ASCII Standard -VERSION 2.0
WRAP.    NO : One line per depth step
DLM . SPACE : Column Data Section Delimiter
~Well ------------------------------------------------------
STRT .F                   33.0 : START DEPTH
STOP .F                 8286.0 : STOP DEPTH
STEP .F                    0.5 : STEP
NULL .                -9999.25 : NULL VALUE
COMP .                         : COMPANY
WELL .                         : WELL
FLD  .                         : FIELD
LOC  .                         : LOCATION
PROV .                         : PROVINCE
CNTY .                         : COUNTY
STAT .                         : STATE
CTRY .                         : COUNTRY
SRVC .                         : SERVICE COMPANY
DATE .                         : DATE
UWI  .                         : UNIQUE WELL ID
API  .                         : API NUMBER
SLAT .WGS84 1.3521474851533988 : SURFACE LATITUDE
SLON .WGS84  6.484241745599007 : SURFACE LONGITUDE
DATUM.F                    nan : DEPTH DATUM ELEV
~Curve Information -----------------------------------------
DEPT   .F     : 1 MEASURED DEPTH
DT     .US/F  : DELTA-T (INTERVAL TRANSIT TIME)
RLA3   .OHMM  : APPARENT RESISTIVITY FROM COMPUTED FOCUSING MODE 3
RLA5   .OHMM  : APPARENT RESISTIVITY FROM COMPUTED FOCUSING MODE 5
RXOZ   .OHMM  : INVADED FORMATION RESISTIVITY FILTERED AT 18 INCHES
HDRA   .G/C3  : HRDD SPINE AND RIBS DENSITY CORRECTION
PEFZ   .B/E   : HRDD STANDARD RESOLUTION FORMATION PHOTOELECTRIC FACTOR
DPHZ_LS.DEC   : HGRD STANDARD RESOLUTION DENSITY POROSITY
CALD   .IN    : CALIPER FROM DENSITY LOG
RHOZ   .G/C3  : HRDD STANDARD RESOLUTION FORMATION DENSITY
SGRDD  .GAPI  : SPECTROSCOPY GAMMA RAY FROM DENSITY LOG
TNPH_LS.DEC   : THERMAL NEUTRON POROSITY [LIMESTONE]
DTCO   .US/F  : DELTA-T COMPRESSIONAL
DTSM   .US/F  : DELTA-T SHEAR
~Params ----------------------------------------------------
~Other -----------------------------------------------------
~ASCII -----------------------------------------------------
# ...
 6741.00000   -9999.25  118.19000  119.94830   68.95820    0.00240    2.89250    0.08800    8.83920    2.56030   75.88510    0.14890   69.09560  112.62910
 6741.50000   -9999.25   63.43450   60.82070   72.24530    0.00250    2.97170    0.08550    8.83920    2.56420   74.26490    0.15070   68.95590  113.30750
 6742.00000   -9999.25   66.36550   60.76540   76.90330    0.00190    3.08690    0.08140    8.83920    2.57150   70.45570    0.14840   69.70140  113.24820
 6742.50000   -9999.25  177.30390  212.41530   95.33650    0.00060    3.17290    0.07750    8.83760    2.57810   68.13170    0.13860   70.14970  112.96510
 6743.00000   -9999.25   91.38110   76.58350   84.25640   -0.00020    3.14200    0.08380    8.83690    2.56760   76.01760    0.13230   70.31680  112.83610
 6743.50000   -9999.25   52.31560   52.87010   49.25250    0.00060    2.95010    0.09220    8.83610    2.55330   88.17670    0.13830   70.41820  111.85140
 6744.00000   -9999.25   36.99250   43.56090   37.83110    0.00180    2.74470    0.09660    8.83530    2.54440  104.13800    0.14770   70.56070  113.35570
 6744.50000   -9999.25   48.63740   52.14010   40.83870    0.00320    2.58040    0.10010    8.83440    2.54020  108.19900    0.15650   70.78440  116.57620
 6745.00000   -9999.25   67.61550   72.28340   47.69920    0.00310    2.52450    0.10600    8.82840    2.52890  110.19390    0.15920   70.93440  118.22760
 6745.50000   -9999.25   61.73890   67.25510   51.82660    0.00210    2.52930    0.10930    8.83000    2.52300  103.33200    0.16150   71.91030  114.38180
 6746.00000   -9999.25   65.62310   72.17580   51.61100    0.00130    2.53680    0.10150    8.83160    2.53450   97.05810    0.15720   72.12720  113.94770
 6746.50000   -9999.25   60.59590   66.55290   47.06190    0.00310    2.59170    0.08640    8.83320    2.56310   93.45170    0.14970   72.22100  115.52890
 6747.00000   -9999.25   42.75360   44.85230   38.34570    0.00310    2.62360    0.08200    8.83480    2.56990   97.87290    0.14710   72.53550  117.80600
 6747.50000   -9999.25   39.65650   41.97080   34.77760    0.00220    2.60820    0.09110    8.83630    2.55790  109.46020    0.15650   72.12200  117.42620
 6748.00000   -9999.25   51.83290   53.18320   38.47570    0.00140    2.53910    0.10370    8.83790    2.53450  115.57730    0.17630   72.11330  116.87560
 6748.50000   -9999.25   49.51930   52.97690   42.22670    0.00250    2.49390    0.10360    8.83950    2.53160  115.62000    0.18030   72.19410  116.52800
 6749.00000   -9999.25   43.88120   45.26480   37.94740    0.00440    2.48530    0.09660    8.82840    2.54310  111.53750    0.17150   72.30650  115.48180
 6749.50000   -9999.25   49.10620   51.23130   39.90010    0.00620    2.49350    0.09060    8.83170    2.55350  106.37030    0.16550   72.39990  115.59010
 6750.00000   -9999.25   52.50510   55.50580   38.94060    0.00450    2.52750    0.08660    8.83510    2.56080  102.40500    0.15930   72.24500  116.15270
 6750.50000   -9999.25   34.15650   34.66210   33.00750    0.00200    2.64390    0.08270    8.84030    2.56750   97.44240    0.15360   71.88130  115.29400
 6751.00000   -9999.25   33.85330   38.32920   39.31700   -0.00290    2.86270    0.07910    8.84610    2.57290   99.58750    0.16170   70.83060  115.01830
 6751.50000   -9999.25   58.09760   58.86570   50.57560   -0.00210    2.99280    0.07280    8.84480    2.58430   97.79340    0.16240   70.32920  114.99130
 6752.00000   -9999.25   41.61350   42.88670   48.85240   -0.00220    3.00860    0.07540    8.84260    2.58020   91.78410    0.16070   69.84130  114.23260
 6752.50000   -9999.25   37.11780   36.59240   30.90320   -0.00030    2.83800    0.07860    8.84050    2.57470   85.17980    0.14440   69.48350  113.22420
 6753.00000   -9999.25   31.48320   31.15280   24.63250   -0.00020    2.71010    0.08210    8.83840    2.57070   83.69740    0.14130   68.61660  112.61660
 6753.50000   -9999.25   26.81080   27.22290   22.89650    0.00000    2.66680    0.08410    8.83620    2.56800   83.69450    0.13850   68.35920  110.99990
 6754.00000   -9999.25   34.98360   35.82630   28.85610   -0.00130    2.76490    0.08870    8.83410    2.55950   80.49650    0.14400   68.33640  104.28680
 6754.50000   -9999.25   87.37150   81.84520   51.45170   -0.00250    2.94550    0.09640    8.83200    2.54400   72.58920    0.14660   67.54340  111.19600
 6755.00000   -9999.25  419.92160  463.31560  212.80740   -0.00210    3.05270    0.10150    8.82980    2.53740   68.05220    0.13480   67.53390  110.81200
 6755.50000   -9999.25  307.86980  361.94580  350.84880   -0.00160    3.08440    0.10800    8.82770    2.52580   73.33500    0.12550   67.54060  110.32890
 6756.00000   -9999.25  229.03770  226.21150  278.10210   -0.00150    3.10170    0.11530    8.82560    2.51200   80.46870    0.14000   67.85540  110.22540
 6756.50000   -9999.25  267.57240  258.02520  247.97290   -0.00150    3.17390    0.11420    8.82340    2.51400   78.46930    0.15610   68.11160  109.88230
 6757.00000   -9999.25  415.92110  411.48720  295.12230   -0.00150    3.24660    0.10470    8.82130    2.53030   70.90770    0.14850   68.08150  109.69900
 6757.50000   -9999.25  458.86250  424.85530  324.66590   -0.00010    3.26710    0.09300    8.81930    2.55230   74.32600    0.12990   68.30410  110.62550
 6758.00000   -9999.25  309.64570  308.40230  305.10460    0.00150    3.15270    0.09130    8.81790    2.55450   79.15110    0.13230   68.48600  109.45100
 6758.50000   -9999.25  338.32500  342.89570  299.40080    0.00250    3.04800    0.09460    8.81650    2.54910   83.47690    0.13700   68.42360  109.37270
 6759.00000   -9999.25  279.15710  267.03390  258.10250    0.00260    2.95690    0.09930    8.81520    2.54010   80.22760    0.14050   68.50170  109.67040
 6759.50000   -9999.25  283.55620  274.56830  245.63640    0.00310    2.92770    0.10470    8.81380    2.53070   84.21080    0.13720   68.82530  110.08920
 6760.00000   -9999.25  309.00490  294.24400  229.09800    0.00330    2.95600    0.10390    8.81240    2.53250   87.34050    0.14250   68.73930  111.09850
 6760.50000   -9999.25  290.94490  261.60770  273.66520    0.00300    3.03730    0.10270    8.81100    2.53530   85.64970    0.14850   68.83280  109.64220
 6761.00000   -9999.25  389.78350  413.83370  277.62840    0.00250    3.12820    0.10060    8.80540    2.54010   82.01780    0.13820   68.99320  109.58970
 6761.50000   -9999.25  374.55300  338.52410  341.38720    0.00020    3.12930    0.10400    8.79950    2.53160   77.74570    0.13990   69.02690  110.53020
 6762.00000   -9999.25  440.86530  412.75050  312.42770   -0.00040    3.05460    0.10840    8.79930    2.52430   76.77620    0.12350   69.03080  110.59500
 6762.50000   -9999.25  359.28870  335.79200  321.26710    0.00040    2.96610    0.11310    8.79920    2.51750   76.16540    0.12790   69.17970  109.94600
 6763.00000   -9999.25  348.45920  319.26800  275.83460    0.00000    2.87750    0.11830    8.79900    2.50740   77.25230    0.12990   68.14410  108.85870
 6763.50000   -9999.25  303.63050  281.68490  254.68600   -0.00020    2.82320    0.11890    8.79890    2.50690   80.02750    0.13710   67.45570  110.16190
 6764.00000   -9999.25  233.86460  212.84570  197.05470   -0.00020    2.84760    0.11270    8.80180    2.51860   80.16260    0.13080   67.11260  110.57190
 6764.50000   -9999.25  163.44360  155.58040  140.73980   -0.00020    2.96260    0.10250    8.80450    2.53800   78.88860    0.12790   66.40730  108.99770
 6765.00000   -9999.25  123.05280  114.29600  103.67600   -0.00140    3.19480    0.08980    8.79900    2.55830   71.33940    0.12580   65.61200  111.53890
 6765.50000   -9999.25  140.41320  128.44600  127.47380   -0.00260    3.43150    0.08120    8.80070    2.57260   60.04360    0.12100   65.21800  110.12700
 6766.00000   -9999.25  377.16020  452.81790  178.59450   -0.00150    3.55240    0.07220    8.80250    2.58570   56.54640    0.10150   64.87580  108.66390
 6766.50000   -9999.25  163.02370  171.08810  226.64950    0.00040    3.49250    0.07760    8.80430    2.57700   58.41820    0.10260   65.21410  107.31680
