~Version ---------------------------------------------------
VERS.   2.0 : CWLS log ASCII Standard -VERSION 2.0
WRAP.    NO : One line per depth step
DLM . SPACE : Column Data Section Delimiter
~Well ------------------------------------------------------
STRT .F                   33.0 : START DEPTH
STOP .F                 8286.0 : STOP DEPTH
STEP .F                    0.5 : STEP
NULL .                -9999.25 : NULL VALUE
COMP .                         : COMPANY
WELL .                         : WELL
FLD  .                         : FIELD
LOC  .                         : LOCATION
PROV .                         : PROVINCE
CNTY .                         : COUNTY
STAT .                         : STATE
CTRY .                         : COUNTRY
SRVC .                         : SERVICE COMPANY
DATE .                         : DATE
UWI  .                         : UNIQUE WELL ID
API  .                         : API NUMBER
SLAT .WGS84 1.3521474851533988 : SURFACE LATITUDE
SLON .WGS84  6.484241745599007 : SURFACE LONGITUDE
DATUM.F                    nan : DEPTH DATUM ELEV
~Curve Information -----------------------------------------
DEPT   .F     : 1 MEASURED DEPTH
DT     .US/F  : DELTA-T (INTERVAL TRANSIT TIME)
RLA3   .OHMM  : APPARENT RESISTIVITY FROM COMPUTED FOCUSING MODE 3
RLA5   .OHMM  : APPARENT RESISTIVITY FROM COMPUTED FOCUSING MODE 5
RXOZ   .OHMM  : INVADED FORMATION RESISTIVITY FILTERED AT 18 INCHES
HDRA   .G/C3  : HRDD SPINE AND RIBS DENSITY CORRECTION
PEFZ   .B/E   : HRDD STANDARD RESOLUTION FORMATION PHOTOELECTRIC FACTOR
DPHZ_LS.DEC   : HGRD STANDARD RESOLUTION DENSITY POROSITY
CALD   .IN    : CALIPER FROM DENSITY LOG
RHOZ   .G/C3  : HRDD STANDARD RESOLUTION FORMATION DENSITY
SGRDD  .GAPI  : SPECTROSCOPY GAMMA RAY FROM DENSITY LOG
TNPH_LS.DEC   : THERMAL NEUTRON POROSITY [LIMESTONE]
DTCO   .US/F  : DELTA-T COMPRESSIONAL
DTSM   .US/F  : DELTA-T SHEAR
~Params ----------------------------------------------------
~Other -----------------------------------------------------
~ASCII -----------------------------------------------------
# ...
 5233.00000   65.26860   19.65660   20.73970   17.29960   -0.00540    3.25640    0.07440   12.34780    2.59050   28.94790    0.30910   -9999.25   -9999.25
 5233.50000   64.82740   19.64020   20.27860   15.60110   -0.00910    3.48130    0.07850   12.32710    2.58450   31.31760    0.29160   -9999.25   -9999.25
 5234.00000   64.33120   21.13900   20.70510   19.45900   -0.01110    3.64950    0.08160   12.30090    2.57770   31.59470    0.28010   -9999.25   -9999.25
 5234.50000   66.03980   21.62960   21.24440   25.23430   -0.01180    3.69980    0.08010   12.31010    2.58110   32.19210    0.26600   -9999.25   -9999.25
 5235.00000   67.68360   18.06540   17.84920   26.27610   -0.01010    3.63840    0.07680   12.32390    2.58710   33.03100    0.27530   -9999.25   -9999.25
 5235.50000   68.18930   16.90870   17.49590   18.56640   -0.00390    3.48280    0.06800   12.33700    2.60030   33.80070    0.28360   -9999.25   -9999.25
 5236.00000   69.17570   16.55460   16.65730   17.77020    0.00040    3.28630    0.06640   12.33810    2.60420   34.55670    0.29680   -9999.25   -9999.25
 5236.50000   69.22520   14.82350   16.08760   17.36810    0.00200    3.13140    0.06820   12.33330    2.59890   35.33690    0.31020   -9999.25   -9999.25
 5237.00000   69.21560   14.58950   15.77520   13.95410    0.00000    3.00020    0.07750   12.32960    2.58710   36.47240    0.32260   -9999.25   -9999.25
 5237.50000   69.19890   14.43830   15.63050   13.64380   -0.00210    2.94690    0.08420   12.32530    2.57410   37.59840    0.32720   -9999.25   -9999.25
 5238.00000   68.99070   14.74120   16.69350   13.82440   -0.00420    2.98780    0.09360   12.32850    2.56000   38.79830    0.33460   -9999.25   -9999.25
 5238.50000   69.39650   15.35990   17.26020   13.99980   -0.00600    3.09830    0.10350   12.33590    2.54410   39.88450    0.36040   -9999.25   -9999.25
 5239.00000   69.08090   15.57890   17.22990   12.54800   -0.00720    3.24490    0.10960   12.34110    2.53360   40.44620    0.36620   -9999.25   -9999.25
 5239.50000   69.08160   15.73590   17.30970   11.97880   -0.00840    3.37870    0.11450   12.33560    2.52640   37.75470    0.35900   -9999.25   -9999.25
 5240.00000   69.24950   15.89450   17.85100   11.30440   -0.00830    3.43220    0.12120   12.34580    2.51270   37.05980    0.34080   -9999.25   -9999.25
 5240.50000   69.55700   16.43760   18.67540   10.90220   -0.00730    3.37430    0.12710   12.37420    2.50420   35.68250    0.32150   -9999.25   -9999.25
 5241.00000   71.12210   16.76210   18.88460   11.09410   -0.00630    3.24250    0.12630   12.33700    2.50960   35.71470    0.31390   -9999.25   -9999.25
 5241.50000   71.21230   14.80190   17.97120   11.97560   -0.00450    3.09190    0.11440   12.33150    2.52610   36.76110    0.31500   -9999.25   -9999.25
 5242.00000   71.14890   12.76120   14.57160   12.14400   -0.00340    2.94090    0.09990   12.32600    2.55300   37.59710    0.31450   -9999.25   -9999.25
 5242.50000   71.95390   11.41850   13.18290   11.67350   -0.00340    2.88650    0.09160   12.32380    2.56180   38.87820    0.31020   -9999.25   -9999.25
 5243.00000   71.38940   11.27100   12.64390   10.64810   -0.00340    2.88060    0.09600   12.33510    2.55490   38.80580    0.29780   -9999.25   -9999.25
 5243.50000   71.55800   11.12700   11.39240    9.83920   -0.00550    2.88020    0.10140   12.34570    2.54630   39.59490    0.29370   -9999.25   -9999.25
 5244.00000   71.71900   10.66930   10.71150    9.49310   -0.00570    2.87200    0.10360   12.36460    2.54480   39.80500    0.28780   -9999.25   -9999.25
 5244.50000   72.03000   10.19450   10.40800    9.30330   -0.00580    2.83840    0.09950   12.36790    2.55380   39.89620    0.29280   -9999.25   -9999.25
 5245.00000   72.49650    9.63200    9.96710    8.84820   -0.00600    2.81910    0.09950   12.37100    2.55030   40.09390    0.27960   -9999.25   -9999.25
 5245.50000   72.20970    9.09550    9.13660    8.39750   -0.00370    2.80480    0.10550   12.37410    2.54050   39.97940    0.28120   -9999.25   -9999.25
 5246.00000   72.00780    8.91250    9.03380    8.32750    0.00300    2.79060    0.10700   12.38110    2.53800   42.39060    0.27310   -9999.25   -9999.25
 5246.50000   71.89720    8.89010    9.01000    8.23740    0.00810    2.77640    0.10750   12.40590    2.53770   43.92270    0.26550   -9999.25   -9999.25
 5247.00000   71.91950    8.90510    9.01000    8.18320    0.00770    2.75460    0.10650   12.57470    2.53760   45.66440    0.24530   -9999.25   -9999.25
 5247.50000   71.85540    8.92020    9.04970    8.18830    0.00630    2.73150    0.10880   12.72130    2.53610   44.78930    0.24380   -9999.25   -9999.25
 5248.00000   71.58610    8.93530    9.09560    8.19330    0.00560    2.72130    0.10840   12.74230    2.53450   43.76490    0.24880   -9999.25   -9999.25
 5248.50000   71.27630    9.06430    9.14170    8.21770    0.00390    2.73090    0.11010   12.73490    2.53250   43.60380    0.25520   -9999.25   -9999.25
 5249.00000   71.06580    9.14760    9.56130    8.89170    0.00040    2.75050    0.11200   12.57520    2.52970   44.39780    0.26410   -9999.25   -9999.25
 5249.50000   70.96790    9.19560   10.08190   10.19540   -0.00300    2.76900    0.11420   12.51100    2.52840   44.17450    0.26130   -9999.25   -9999.25
 5250.00000   70.61180    9.37480   10.40290   10.37670   -0.00390    2.79330    0.11240   12.46090    2.52870   42.74520    0.24650   -9999.25   -9999.25
 5250.50000   69.29890    9.43150   10.92910   10.72890   -0.00420    2.81700    0.11230   12.43820    2.52900   38.49110    0.22680   -9999.25   -9999.25
 5251.00000   68.68470    9.14400   10.47730   10.28850   -0.00440    2.80420    0.11040   12.44990    2.53330   38.80410    0.20840   -9999.25   -9999.25
 5251.50000   68.82780    8.88910    9.89240    9.90050   -0.00040    2.83170    0.10380   12.43920    2.54430   40.66530    0.20780   -9999.25   -9999.25
 5252.00000   69.01630    8.70630    9.85450    9.69850    0.00020    2.88660    0.09250   12.44510    2.56170   44.64230    0.22460   -9999.25   -9999.25
 5252.50000   69.96080    8.74200   10.48890    9.98580    0.00070    2.96120    0.07540   12.39570    2.58920   48.47910    0.24680   -9999.25   -9999.25
 5253.00000   66.14600   13.51250   15.24300   14.99620   -0.00370    3.30650    0.06770   12.33560    2.60510   50.49080    0.27430   -9999.25   -9999.25
 5253.50000   65.70650   14.61440   16.74030   15.82630   -0.00730    3.55470    0.06070   12.33440    2.61410   51.11320    0.29130   -9999.25   -9999.25
 5254.00000   65.74020   11.85770    9.39820    8.88770   -0.01020    3.55230    0.08060   12.33780    2.57650   47.60900    0.30610   -9999.25   -9999.25
 5254.50000   66.08920    6.76890    7.82870    7.91810   -0.01020    3.26830    0.10440   12.36850    2.54140   42.49750    0.31810   -9999.25   -9999.25
 5255.00000   71.84490    7.65870    8.63990    8.59140   -0.00850    2.97750    0.12810   12.49620    2.50190   36.61790    0.31570   -9999.25   -9999.25
 5255.50000   72.20230    8.27590    9.18620    9.23540   -0.00610    2.78700    0.13370   12.69940    2.49460   34.54040    0.28520   -9999.25   -9999.25
 5256.00000   72.25290    9.43090   10.77740   10.91410   -0.00400    2.74450    0.12530   12.53420    2.50810   35.87210    0.27870   -9999.25   -9999.25
 5256.50000   72.32620   12.16290   12.45120   11.38640   -0.00530    2.76250    0.11760   12.38840    2.52190   41.79600    0.26620   -9999.25   -9999.25
 5257.00000   71.98520   11.91640   11.75720   10.97310   -0.00850    2.77860    0.11020   12.35850    2.53350   48.66670    0.27350   -9999.25   -9999.25
 5257.50000   71.81380    7.84850    9.43230    8.55660   -9999.25   -9999.25    0.11430   12.35350    2.52670   51.81920    0.25690   -9999.25   -9999.25
 5258.00000   71.58970    7.39110    8.12730    8.04580   -9999.25   -9999.25    0.12430   12.35630    2.50890   54.22600    0.27820   -9999.25   -9999.25
 5258.50000   71.10040    7.19010    8.01490    7.98440   -9999.25   -9999.25    0.13200   12.34960    2.48980   52.68380    0.26930   -9999.25   -9999.25
