~Version ---------------------------------------------------
VERS.   2.0 : CWLS log ASCII Standard -VERSION 2.0
WRAP.    NO : One line per depth step
DLM . SPACE : Column Data Section Delimiter
~Well ------------------------------------------------------
STRT .F                   33.0 : START DEPTH
STOP .F                 8286.0 : STOP DEPTH
STEP .F                    0.5 : STEP
NULL .                -9999.25 : NULL VALUE
COMP .                         : COMPANY
WELL .                         : WELL
FLD  .                         : FIELD
LOC  .                         : LOCATION
PROV .                         : PROVINCE
CNTY .                         : COUNTY
STAT .                         : STATE
CTRY .                         : COUNTRY
SRVC .                         : SERVICE COMPANY
DATE .                         : DATE
UWI  .                         : UNIQUE WELL ID
API  .                         : API NUMBER
SLAT .WGS84 1.3521474851533988 : SURFACE LATITUDE
SLON .WGS84  6.484241745599007 : SURFACE LONGITUDE
DATUM.F                    nan : DEPTH DATUM ELEV
~Curve Information -----------------------------------------
DEPT   .F     : 1 MEASURED DEPTH
DT     .US/F  : DELTA-T (INTERVAL TRANSIT TIME)
RLA3   .OHMM  : APPARENT RESISTIVITY FROM COMPUTED FOCUSING MODE 3
RLA5   .OHMM  : APPARENT RESISTIVITY FROM COMPUTED FOCUSING MODE 5
RXOZ   .OHMM  : INVADED FORMATION RESISTIVITY FILTERED AT 18 INCHES
HDRA   .G/C3  : HRDD SPINE AND RIBS DENSITY CORRECTION
PEFZ   .B/E   : HRDD STANDARD RESOLUTION FORMATION PHOTOELECTRIC FACTOR
DPHZ_LS.DEC   : HGRD STANDARD RESOLUTION DENSITY POROSITY
CALD   .IN    : CALIPER FROM DENSITY LOG
RHOZ   .G/C3  : HRDD STANDARD RESOLUTION FORMATION DENSITY
SGRDD  .GAPI  : SPECTROSCOPY GAMMA RAY FROM DENSITY LOG
TNPH_LS.DEC   : THERMAL NEUTRON POROSITY [LIMESTONE]
DTCO   .US/F  : DELTA-T COMPRESSIONAL
DTSM   .US/F  : DELTA-T SHEAR
~Params ----------------------------------------------------
~Other -----------------------------------------------------
~ASCII -----------------------------------------------------
# ...
 7235.00000   -9999.25 7541.03860 7640.89360 1665.93480    0.00240    3.71420    0.09000    8.80820    2.55250   52.04940    0.08490   60.04390  100.91740
 7235.50000   -9999.25 8074.48340 8899.83200 1474.90530    0.00030    3.85080    0.08560    8.81200    2.56210   54.67060    0.08480   60.08120  101.42650
 7236.00000   -9999.25 3800.13430 3698.92410 1240.93160   -0.00020    3.96420    0.07260    8.80910    2.58590   50.01690    0.08000   60.90790  101.82680
 7236.50000   -9999.25 2689.20610 2687.61210 1195.75500    0.00180    4.04700    0.06240    8.79470    2.60490   44.99790    0.07520   60.91870  102.39760
 7237.00000   -9999.25 6951.30810 6772.47070 1281.59800    0.00250    3.99860    0.05650    8.78420    2.61300   36.37410    0.07520   61.06670  104.13860
 7237.50000   -9999.25 14867.83980 16555.51370 1438.18880    0.00250    3.90650    0.06160    8.79220    2.60540   34.58570    0.07560   61.22300  102.64950
 7238.00000   -9999.25 17099.67580 17925.95700 1522.14750    0.00280    3.80750    0.06990    8.77850    2.59080   42.86290    0.08200   61.55590  105.38470
 7238.50000   -9999.25 7084.46390 6777.48440 1517.76840    0.00240    3.79670    0.07820    8.77940    2.57640   53.40920    0.09320   61.93110  105.86770
 7239.00000   -9999.25 2353.64310 1977.03370 1326.31030    0.00070    3.85870    0.07860    8.78030    2.57590   58.70940    0.10460   62.46690  105.54920
 7239.50000   -9999.25 1826.69910 1639.38660 1024.18490    0.00050    3.96890    0.07430    8.78130    2.58380   54.09970    0.10250   64.50600  106.27580
 7240.00000   -9999.25 1520.87870 1509.12180  909.06520    0.00090    4.01810    0.06990    8.77740    2.59320   48.63970    0.09820   64.96000  107.55560
 7240.50000   -9999.25 1586.58400 1688.70620  956.33310    0.00210    3.98450    0.07160    8.77300    2.58670   44.43850    0.09440   65.46340  108.61040
 7241.00000   -9999.25 1990.47790 1011.31870  641.60800    0.00210    3.86410    0.08770    8.77830    2.56150   52.97290    0.11080   65.77010  109.60840
 7241.50000   -9999.25  341.47680  249.85620  330.42710   -0.00040    3.77630    0.10500    8.78500    2.52860   68.81570    0.13750   65.70600  110.47450
 7242.00000   -9999.25  193.61010  164.11820  234.58180   -0.00230    3.75130    0.10920    8.78790    2.52120   78.53980    0.16660   65.89650  109.83750
 7242.50000   -9999.25  256.48920  254.09840  275.53060   -0.00240    3.78700    0.09640    8.78750    2.54590   73.92040    0.15010   67.20490  109.49770
 7243.00000   -9999.25  884.78580  797.87720  491.91570   -0.00010    3.83650    0.07300    8.78710    2.58230   60.32960    0.11630   68.05670  110.48010
 7243.50000   -9999.25 1088.34840 1005.07390  698.50050    0.00440    3.82460    0.06560    8.78590    2.60110   51.35070    0.10580   68.23180  112.47790
 7244.00000   -9999.25  735.54750  688.46560  601.32860    0.00900    3.68810    0.07480    8.78460    2.58140   54.90790    0.11750   68.38670  112.65920
 7244.50000   -9999.25  513.20390  442.02760  347.51240    0.00780    3.44450    0.09950    8.78320    2.54160   69.19210    0.15230   68.47760  111.14010
 7245.00000   -9999.25  368.63150  324.61480  318.53230    0.00370    3.24370    0.11630    8.78180    2.51320   73.76960    0.18290   68.40130  111.54780
 7245.50000   -9999.25  887.75860  801.88240  395.84540    0.00240    3.13990    0.11290    8.78040    2.51520   76.03440    0.18230   68.33610  112.77630
 7246.00000   -9999.25  527.82460  496.61100  379.93000    0.00250    3.09770    0.10580    8.77900    2.52970   76.55020    0.15140   68.32960  112.64760
 7246.50000   -9999.25  272.16190  251.61390  307.04640    0.00240    3.11040    0.10450    8.78350    2.53210   80.44870    0.14980   68.36630  113.49670
 7247.00000   -9999.25  501.82680  458.46950  256.48650    0.00300    3.23020    0.10000    8.78820    2.53880   82.78250    0.14410   68.59510  112.79000
 7247.50000   -9999.25  347.93600  331.30950  336.16240    0.00340    3.43530    0.08700    8.79280    2.55860   76.10060    0.13280   69.35960  113.95710
 7248.00000   -9999.25  353.38630  337.11470  318.05180    0.00390    3.63660    0.07200    8.79740    2.58480   67.45440    0.12180   69.79560  115.84620
 7248.50000   -9999.25  534.02950  527.77070  383.40220    0.00300    3.74220    0.07080    8.80210    2.58900   60.60320    0.12050   70.35440  116.62690
 7249.00000   -9999.25  423.35150  432.62840  326.76820    0.00210    3.66080    0.08800    8.80670    2.56430   63.60350    0.12710   71.12940  117.02690
 7249.50000   -9999.25  234.23720  238.26540  210.03920    0.00120    3.44410    0.10910    8.81130    2.52860   83.28620    0.15060   73.75890  119.87490
 7250.00000   -9999.25  141.11070   97.42250  112.54430    0.00020    3.19530    0.12500    8.81600    2.49770   99.20890    0.17600   74.92360  121.79410
 7250.50000   -9999.25   84.89130   83.61480   69.46990   -0.00020    2.94470    0.12410    8.82270    2.49650  110.55910    0.19360   75.53210  123.56460
 7251.00000   -9999.25   71.32180   72.03390   55.88830   -0.00010    2.85040    0.11590    8.82960    2.51120  106.60530    0.19850   76.58110  123.27080
 7251.50000   -9999.25   81.82040   80.93680   57.79910    0.00030    2.82720    0.10670    8.83660    2.52730  107.47040    0.19150   77.60140  126.14930
 7252.00000   -9999.25   74.89930   71.02340   50.12290    0.00070    2.83250    0.10150    8.83650    2.53670  107.80790    0.19500   78.28840  127.73490
 7252.50000   -9999.25   49.37440   46.70690   42.11210    0.00110    2.85820    0.09980    8.83790    2.53860  109.18040    0.20670   78.30840  129.77060
 7253.00000   -9999.25   72.14450   68.01090   41.89040    0.00240    2.89640    0.09950    8.84670    2.54010  111.98260    0.22040   78.01950  133.50060
 7253.50000   -9999.25   48.54190   46.32570   38.47030    0.00240    2.95030    0.09860    8.84480    2.53960  113.27260    0.23690   77.83900  127.79060
 7254.00000   -9999.25   42.40830   39.39360   42.63740    0.00240    2.97510    0.09450    8.83940    2.54860  114.53380    0.23290   77.62150  125.29450
 7254.50000   -9999.25   49.12500   48.31870   34.85820    0.00060    2.99090    0.08960    8.83410    2.55700  114.10190    0.22920   77.57070  126.74060
 7255.00000   -9999.25   37.36690   40.00270   38.05360   -0.00130    2.97860    0.08900    8.84150    2.56040  112.88940    0.21250   77.72230  126.23430
 7255.50000   -9999.25   44.23700   44.92510   30.23920   -0.00240    2.94450    0.08970    8.88090    2.55740  107.71810    0.19930   77.50870  125.18280
 7256.00000   -9999.25   43.48260   40.06060   33.31720   -0.00210    2.90510    0.08950    8.89510    2.55700  102.15970    0.18820   76.44360  124.43210
 7256.50000   -9999.25   76.29260   78.79530   38.41410   -0.00090    2.86780    0.09130    8.89770    2.55400  101.40310    0.17850   75.46940  123.16520
 7257.00000   -9999.25   52.17850   52.73640   40.42440   -0.00000    2.90890    0.09240    8.89610    2.55160  104.81880    0.17340   74.82990  122.79360
 7257.50000   -9999.25   41.32760   40.38120   43.63110    0.00040    3.05240    0.08900    8.89160    2.55840  100.64140    0.18400   73.76990  121.44540
 7258.00000   -9999.25  102.54250  105.92120   53.32320   -0.00050    3.38350    0.08100    8.88710    2.57250   88.37770    0.18380   73.02070  119.62100
 7258.50000   -9999.25  180.98570  185.53050  118.62430   -0.00140    3.69310    0.06980    8.88260    2.59130   76.20480    0.16400   71.96810  120.12600
 7259.00000   -9999.25   88.73540   87.36930   96.36390   -0.00060    3.88430    0.06060    8.87810    2.60780   76.64740    0.15500   71.79620  117.70250
 7259.50000   -9999.25   55.79100   55.45930   84.09240    0.00230    3.79270    0.05190    8.87360    2.62190   81.21840    0.16330   71.07940  118.24520
 7260.00000   -9999.25   49.11760   49.93360   49.81300    0.01400    3.59700    0.04190    8.88640    2.63760   87.01540    0.17210   70.77290  118.48450
 7260.50000   -9999.25   47.96340   46.89250   55.80350    0.01740    3.36030    0.04860    8.89440    2.62720   90.61400    0.17690   71.01370  118.53670
