~Version ---------------------------------------------------
VERS.   2.0 : CWLS log ASCII Standard -VERSION 2.0
WRAP.    NO : One line per depth step
DLM . SPACE : Column Data Section Delimiter
~Well ------------------------------------------------------
STRT .F                   33.0 : START DEPTH
STOP .F                 8286.0 : STOP DEPTH
STEP .F                    0.5 : STEP
NULL .                -9999.25 : NULL VALUE
COMP .                         : COMPANY
WELL .                         : WELL
FLD  .                         : FIELD
LOC  .                         : LOCATION
PROV .                         : PROVINCE
CNTY .                         : COUNTY
STAT .                         : STATE
CTRY .                         : COUNTRY
SRVC .                         : SERVICE COMPANY
DATE .                         : DATE
UWI  .                         : UNIQUE WELL ID
API  .                         : API NUMBER
SLAT .WGS84 1.3521474851533988 : SURFACE LATITUDE
SLON .WGS84  6.484241745599007 : SURFACE LONGITUDE
DATUM.F                    nan : DEPTH DATUM ELEV
~Curve Information -----------------------------------------
DEPT   .F     : 1 MEASURED DEPTH
DT     .US/F  : DELTA-T (INTERVAL TRANSIT TIME)
RLA3   .OHMM  : APPARENT RESISTIVITY FROM COMPUTED FOCUSING MODE 3
RLA5   .OHMM  : APPARENT RESISTIVITY FROM COMPUTED FOCUSING MODE 5
RXOZ   .OHMM  : INVADED FORMATION RESISTIVITY FILTERED AT 18 INCHES
HDRA   .G/C3  : HRDD SPINE AND RIBS DENSITY CORRECTION
PEFZ   .B/E   : HRDD STANDARD RESOLUTION FORMATION PHOTOELECTRIC FACTOR
DPHZ_LS.DEC   : HGRD STANDARD RESOLUTION DENSITY POROSITY
CALD   .IN    : CALIPER FROM DENSITY LOG
RHOZ   .G/C3  : HRDD STANDARD RESOLUTION FORMATION DENSITY
SGRDD  .GAPI  : SPECTROSCOPY GAMMA RAY FROM DENSITY LOG
TNPH_LS.DEC   : THERMAL NEUTRON POROSITY [LIMESTONE]
DTCO   .US/F  : DELTA-T COMPRESSIONAL
DTSM   .US/F  : DELTA-T SHEAR
~Params ----------------------------------------------------
~Other -----------------------------------------------------
~ASCII -----------------------------------------------------
# ...
 6247.00000   -9999.25   44.26270   40.92760   54.02530    0.00130    2.97890    0.11830    8.90070    2.50640  121.34700    0.26640   81.24120  136.58830
 6247.50000   -9999.25   50.70270   45.07370   46.50680    0.00170    3.04930    0.09080    8.89960    2.55270  108.42130    0.22750   79.08910  134.55010
 6248.00000   -9999.25   32.32630   29.70060   38.71160   -0.00010    3.11970    0.08240    8.89880    2.56890  103.33640    0.21170   77.97770  131.72870
 6248.50000   -9999.25   32.09860   29.41930   31.52380   -0.00420    3.12660    0.09850    8.89870    2.54710  110.65720    0.21240   76.13150  130.68690
 6249.00000   -9999.25   35.02950   33.34310   34.91700   -0.00710    3.13410    0.11200    8.89850    2.51930  116.49460    0.23570   74.70660  129.39830
 6249.50000   -9999.25   29.95220   27.71540   33.70190   -0.00650    3.18890    0.11070    8.89790    2.51820  109.43480    0.23640   74.08230  126.55500
 6250.00000   -9999.25   31.68790   32.32620   29.84910   -0.00390    3.26170    0.09610    8.89830    2.54420   94.81580    0.21460   74.13200  126.24980
 6250.50000   -9999.25   35.91150   34.70350   34.13330   -0.00240    3.38260    0.08440    8.89470    2.56540   82.08630    0.19080   75.10450  126.01060
 6251.00000   -9999.25   53.26260   59.35070   43.89850   -0.00090    3.52430    0.07890    8.89230    2.57750   74.93280    0.18630   75.47440  125.77750
 6251.50000   -9999.25   95.33660  102.40730   53.90220    0.00060    3.58930    0.07750    8.88380    2.57780   76.84600    0.17570   75.61480  126.78970
 6252.00000   -9999.25   43.19140   36.96790   39.38760    0.00200    3.40670    0.08330    8.88040    2.56850   88.09340    0.18850   76.27690  128.62830
 6252.50000   -9999.25   26.73090   27.15860   32.27750    0.00330    3.18650    0.09940    8.89730    2.54430  105.37930    0.21050   77.59990  129.47650
 6253.00000   -9999.25   31.27060   37.50700   31.78220    0.00320    2.96810    0.10950    8.91420    2.52350  117.76780    0.25470   78.41570  129.14440
 6253.50000   -9999.25   35.16330   35.87330   34.67580    0.00260    2.86870    0.11280    8.91860    2.51790  124.49380    0.27230   79.57270  128.84670
 6254.00000   -9999.25   32.59530   31.67330   34.86760    0.00230    2.84650    0.11300    8.93180    2.51760  123.86510    0.25770   80.14180  131.04780
 6254.50000   -9999.25   43.98770   43.85760   37.56040    0.00140    2.84590    0.11310    8.93540    2.51740  122.72680    0.26040   81.11030  131.93010
 6255.00000   -9999.25   42.64690   44.82880   43.65080    0.00060    2.84670    0.11500    8.93340    2.51420  124.63360    0.25110   81.03190  132.54240
 6255.50000   -9999.25   41.07100   43.36040   41.96860    0.00040    2.83360    0.11910    8.93140    2.50670  127.90500    0.24960   80.71160  131.97940
 6256.00000   -9999.25   39.00250   39.76650   38.19680    0.00000    2.80250    0.12270    8.92940    2.50020  124.06120    0.23220   80.36320  131.28570
 6256.50000   -9999.25   37.97680   38.54020   36.95640   -0.00150    2.77130    0.12740    8.92470    2.49210  115.79180    0.22090   80.11700  131.09360
 6257.00000   -9999.25   43.19550   44.02330   40.72330   -0.00330    2.74100    0.13270    8.93270    2.48320  109.70530    0.21770   80.00670  130.72750
 6257.50000   -9999.25   42.39280   43.15700   43.08840   -0.00500    2.77120    0.13620    8.92430    2.47740  107.80780    0.22810   80.33870  130.34860
 6258.00000   -9999.25   34.63800   35.39440   41.34690   -0.00620    2.79530    0.13420    8.91910    2.48060  105.94270    0.22760   80.09320  128.92680
 6258.50000   -9999.25   39.00230   39.77910   36.93550   -0.00350    2.76920    0.12710    8.92630    2.49300  103.07140    0.22820   79.73600  128.43640
 6259.00000   -9999.25   42.05620   40.77470   38.15870   -0.00180    2.73580    0.12310    8.93360    2.50100   98.87030    0.23030   79.64980  128.25320
 6259.50000   -9999.25   41.81720   40.15020   41.10110   -0.00030    2.72720    0.12370    8.94020    2.49950  102.05740    0.23230   79.59980  128.91700
 6260.00000   -9999.25   40.14300   41.16890   42.27470    0.00110    2.73380    0.12520    8.93160    2.49430  102.65910    0.23940   79.24870  129.39970
 6260.50000   -9999.25   38.97210   39.38580   42.28010    0.00250    2.76730    0.12480    8.93770    2.49450  104.38680    0.24440   78.91770  128.42170
 6261.00000   -9999.25   39.96740   38.41010   43.61050    0.00350    2.85040    0.11890    8.94330    2.50760  104.13070    0.24850   78.88400  128.96290
 6261.50000   -9999.25   42.43500   41.13630   49.14660    0.00440    2.93640    0.11140    8.94790    2.52050  103.94500    0.23460   79.04450  129.31120
 6262.00000   -9999.25   42.61480   40.03550   45.86440    0.00490    2.95530    0.10960    8.93660    2.52300  104.90230    0.21840   79.39880  130.22430
 6262.50000   -9999.25   38.98010   37.77330   39.76800    0.00340    2.93380    0.11250    8.93800    2.51720  102.40270    0.21270   79.50180  130.40840
 6263.00000   -9999.25   35.82670   36.35330   34.59460    0.00250    2.85370    0.11350    8.91550    2.51620  100.58450    0.20890   79.73650  130.85730
 6263.50000   -9999.25   37.05240   38.62920   37.43040    0.00250    2.79190    0.11580    8.90790    2.51170  102.20400    0.20170   80.09000  131.17930
 6264.00000   -9999.25   42.44860   42.89280   41.37530    0.00210    2.76650    0.12360    8.92070    2.50070  108.74640    0.21340   80.39100  131.19920
 6264.50000   -9999.25   45.73350   47.34980   44.63070    0.00040    2.77890    0.13270    8.92090    2.48350  114.81150    0.22990   81.33480  131.37080
 6265.00000   -9999.25   30.46100   28.84810   33.69910   -0.00020    2.77730    0.13120    8.91950    2.48700  111.56160    0.23280   81.78200  132.39430
 6265.50000   -9999.25   35.53450   30.94380   34.60200   -0.00010    2.76780    0.12730    8.91560    2.49510  107.68180    0.22890   81.87710  132.75080
 6266.00000   -9999.25   50.46310   38.74520   43.98900    0.00000    2.76080    0.13250    8.89970    2.48170  103.98220    0.23420   82.02780  132.63500
 6266.50000   -9999.25   55.46760   52.75220   56.57510    0.00000    2.73900    0.14490    8.90790    2.46090  107.11930    0.26480   82.61650  132.50220
 6267.00000   -9999.25   60.26410   63.22580   58.94280   -0.00010    2.72740    0.15100    8.90510    2.45170  107.12760    0.27640   82.56620  131.90750
 6267.50000   -9999.25   52.06910   53.07600   48.91760   -0.00010    2.73380    0.14600    8.90230    2.46180  107.81230    0.26110   82.10930  131.62410
 6268.00000   -9999.25   46.30380   47.57670   44.91590    0.00250    2.77020    0.13900    8.89950    2.47160  101.87790    0.23020   80.99010  128.28150
 6268.50000   -9999.25   54.66040   50.83700   54.22360    0.00250    2.81800    0.14250    8.89980    2.46440   96.80440    0.21330   81.85100  125.48690
 6269.00000   -9999.25   58.98970   57.21360   58.94570    0.00240    2.93140    0.14430    8.89600    2.46590   86.54890    0.22270   75.66070  124.19010
 6269.50000   -9999.25   56.74560   59.35310   59.78170   -0.00140    3.18040    0.13520    8.88320    2.48100   72.18330    0.22930   71.26260  121.10200
 6270.00000   -9999.25   77.64370   84.23670   85.42510   -0.00460    3.64920    0.10800    8.87050    2.53730   51.32820    0.15850   69.85620  117.06210
 6270.50000   -9999.25  670.91840  739.47850  155.27360   -0.00630    4.12680    0.05420    8.85770    2.60990   34.36010    0.09390   68.92020  115.11450
 6271.00000   -9999.25  533.52260  538.54400  719.16520   -0.01360    4.49520    0.02280    8.85800    2.67630   34.24840    0.06910   68.56050  115.09960
 6271.50000   -9999.25  164.68070  191.79840  346.47160   -0.01550    4.51540   -0.00250    8.86070    2.71300   58.80550    0.07720   68.48990  114.69460
 6272.00000   -9999.25   62.72480   61.29300   86.83780   -0.01300    4.16690    0.01220    8.86900    2.68710   85.28360    0.11320   68.58200  114.44170
 6272.50000   -9999.25   36.07510   34.73430   51.41320   -0.00450    3.72760    0.04220    8.88940    2.63060  101.77230    0.15240   68.92020  114.28870
