~Version ---------------------------------------------------
VERS.   2.0 : CWLS log ASCII Standard -VERSION 2.0
WRAP.    NO : One line per depth step
DLM . SPACE : Column Data Section Delimiter
~Well ------------------------------------------------------
STRT .F                   33.0 : START DEPTH
STOP .F                 8286.0 : STOP DEPTH
STEP .F                    0.5 : STEP
NULL .                -9999.25 : NULL VALUE
COMP .                         : COMPANY
WELL .                         : WELL
FLD  .                         : FIELD
LOC  .                         : LOCATION
PROV .                         : PROVINCE
CNTY .                         : COUNTY
STAT .                         : STATE
CTRY .                         : COUNTRY
SRVC .                         : SERVICE COMPANY
DATE .                         : DATE
UWI  .                         : UNIQUE WELL ID
API  .                         : API NUMBER
SLAT .WGS84 1.3521474851533988 : SURFACE LATITUDE
SLON .WGS84  6.484241745599007 : SURFACE LONGITUDE
DATUM.F                    nan : DEPTH DATUM ELEV
~Curve Information -----------------------------------------
DEPT   .F     : 1 MEASURED DEPTH
DT     .US/F  : DELTA-T (INTERVAL TRANSIT TIME)
RLA3   .OHMM  : APPARENT RESISTIVITY FROM COMPUTED FOCUSING MODE 3
RLA5   .OHMM  : APPARENT RESISTIVITY FROM COMPUTED FOCUSING MODE 5
RXOZ   .OHMM  : INVADED FORMATION RESISTIVITY FILTERED AT 18 INCHES
HDRA   .G/C3  : HRDD SPINE AND RIBS DENSITY CORRECTION
PEFZ   .B/E   : HRDD STANDARD RESOLUTION FORMATION PHOTOELECTRIC FACTOR
DPHZ_LS.DEC   : HGRD STANDARD RESOLUTION DENSITY POROSITY
CALD   .IN    : CALIPER FROM DENSITY LOG
RHOZ   .G/C3  : HRDD STANDARD RESOLUTION FORMATION DENSITY
SGRDD  .GAPI  : SPECTROSCOPY GAMMA RAY FROM DENSITY LOG
TNPH_LS.DEC   : THERMAL NEUTRON POROSITY [LIMESTONE]
DTCO   .US/F  : DELTA-T COMPRESSIONAL
DTSM   .US/F  : DELTA-T SHEAR
~Params ----------------------------------------------------
~Other -----------------------------------------------------
~ASCII -----------------------------------------------------
# ...
  813.00000   98.50040   10.63650   12.30120    2.60330   -0.00610    2.31390    0.23740   17.98210    2.32490   26.26300    0.51100   -9999.25   -9999.25
  813.50000   98.60820   10.04950   12.13710    2.01390   -0.01150    2.25320    0.25320   18.03240    2.30410   25.31790    0.52940   -9999.25   -9999.25
  814.00000   98.64750    9.17170   11.13520    1.77580   -0.01730    2.21300    0.25730   17.97400    2.29550   27.46700    0.55120   -9999.25   -9999.25
  814.50000   97.95840    8.17460    9.33540    1.84620   -0.01870    2.21260    0.25170   17.92300    2.30630   26.70180    0.70000   -9999.25   -9999.25
  815.00000   96.87740    8.29060    9.94630    2.11640   -0.01180    2.21520    0.24190   17.91510    2.32170   26.59230    0.61000   -9999.25   -9999.25
  815.50000   97.01130    9.32980   11.70950    3.03500   -0.00030    2.22710    0.22970   17.91410    2.34170   25.28470    0.68780   -9999.25   -9999.25
  816.00000   95.94710   10.58310   12.90870    4.00990    0.02070    2.25360    0.21980   18.00810    2.35700   25.40280    0.53480   -9999.25   -9999.25
  816.50000   94.15580   11.10110   14.11840    4.60610    0.03950    2.29250    0.21460   17.91500    2.36510   26.58110    0.53270   -9999.25   -9999.25
  817.00000   93.67370   12.02820   14.15790    4.70290    0.04350    2.34140    0.20990   17.97140    2.37320   27.40870    0.47320   -9999.25   -9999.25
  817.50000   93.19630   12.57940   13.94030    5.00000    0.05370    2.37640    0.20180   17.94980    2.38810   28.61490    0.42120   -9999.25   -9999.25
  818.00000   92.49420   13.05750   13.86540    5.27850    0.06440    2.37430    0.19790   17.92350    2.39000   28.44920    0.37860   -9999.25   -9999.25
  818.50000   93.47310   13.05330   12.93840    5.55740    0.08040    2.35020    0.20240   17.98850    2.38360   28.49500    0.33900   -9999.25   -9999.25
  819.00000   94.80340   12.76250   11.42140    5.01170    0.09830    2.33820    0.20960   18.01810    2.37000   29.19280    0.32290   -9999.25   -9999.25
  819.50000   97.65840   12.51540   10.77710    3.48210    0.09650    2.33670    0.22600   18.04370    2.33470   30.41330    0.34720   -9999.25   -9999.25
  820.00000  101.39500   12.27900    9.88820    1.26100    0.07780    2.46240    0.25920   18.09060    2.29310   31.56290    0.34840   -9999.25   -9999.25
  820.50000   99.22450   12.04710    9.02640    0.70980    0.08040    2.60320    0.26410   18.19650    2.28620   32.13800    0.35670   -9999.25   -9999.25
  821.00000   97.05400   13.63150   10.59880    0.83600    0.08330    2.71580    0.23880   17.72350    2.33530   30.84330    0.34340   -9999.25   -9999.25
  821.50000   93.75380   17.32360   12.71770    1.38920    0.06070    2.78630    0.19520   17.17700    2.40960   29.38510    0.36210   -9999.25   -9999.25
  822.00000   88.55630   17.31490   11.78930    6.08970    0.03570    2.75900    0.17090   13.78150    2.43720   26.95360    0.36490   -9999.25   -9999.25
  822.50000   87.64850   15.88550   11.75500    8.02670    0.01440    2.70970    0.16550   13.65780    2.44500   28.44470    0.38770   -9999.25   -9999.25
  823.00000   87.99240   12.37170   12.26660    8.80280    0.00150    2.64960    0.17500   13.53230    2.42680   30.57580    0.41010   -9999.25   -9999.25
  823.50000   88.72400    9.94050   12.03500    8.56530   -0.00100    2.58430    0.18170   13.47090    2.41630   30.55520    0.41030   -9999.25   -9999.25
  824.00000   90.08240    9.15940   10.44090    7.55560   -0.00240    2.51890    0.18390   13.44940    2.41500   29.26750    0.40030   -9999.25   -9999.25
  824.50000   92.37120    8.96790    9.98800    7.19080   -0.00200    2.46350    0.18110   13.44110    2.41800   27.32850    0.37290   -9999.25   -9999.25
  825.00000   93.75110    8.91600    9.76180    7.52380   -0.00230    2.47660    0.17970   13.43270    2.42150   27.52430    0.31450   -9999.25   -9999.25
  825.50000   93.55940    8.97930    9.33300    7.23230   -0.00260    2.49920    0.18050   13.43800    2.41860   26.24220    0.26400   -9999.25   -9999.25
  826.00000   93.26010    9.23730    9.33570    6.92910   -0.00420    2.54290    0.18960   13.52070    2.40360   26.98690    0.25600   -9999.25   -9999.25
  826.50000   93.49660    9.66340    9.92020    7.09820   -0.00590    2.59860    0.19570   13.55790    2.39450   27.63120    0.29750   -9999.25   -9999.25
  827.00000   93.94520    9.95340   10.37950    7.23770   -0.00740    2.63830    0.19370   13.58730    2.39670   28.00480    0.33070   -9999.25   -9999.25
  827.50000   94.07170    9.90420    9.86690    7.14580   -0.00880    2.65840    0.18680   13.60850    2.41030   27.47990    0.36140   -9999.25   -9999.25
  828.00000   93.69260   10.18760   10.24080    7.01950   -0.00890    2.64260    0.18100   13.60990    2.41910   26.03540    0.38890   -9999.25   -9999.25
  828.50000   92.39920   10.95740   10.62250    7.37880   -0.00800    2.61400    0.18030   13.60850    2.42030   25.60900    0.40650   -9999.25   -9999.25
  829.00000   87.78860   11.78550   12.63160    8.42620   -0.00700    2.55550    0.16980   13.55670    2.43690   25.39080    0.41200   -9999.25   -9999.25
  829.50000   84.53440   14.93870   17.15380   11.28260   -0.00440    2.45830    0.15490   13.50890    2.46520   23.75150    0.38930   -9999.25   -9999.25
  830.00000   84.81050   15.26920   14.90540   11.38200   -0.00320    2.44890    0.14530   13.46100    2.47320   22.65520    0.40480   -9999.25   -9999.25
  830.50000   87.44760    8.79390    9.63620    6.03780   -0.00210    2.49960    0.15050   13.45220    2.47680   21.74500    0.38370   -9999.25   -9999.25
  831.00000   91.59920    8.65720    8.80510    5.03860   -0.00220    2.56240    0.15960   13.43760    2.45060   22.54610    0.36790   -9999.25   -9999.25
  831.50000   95.27050    8.94240    9.49320    5.07120   -0.00230    2.59930    0.16970   13.43220    2.43460   22.97940    0.33730   -9999.25   -9999.25
  832.00000   94.56580    9.24910    9.46320    6.66880   -0.00250    2.57710    0.18140   13.43860    2.41860   23.69990    0.32440   -9999.25   -9999.25
  832.50000   93.08360    9.30820    8.78000    6.67670   -0.00290    2.51970    0.18950   13.46640    2.40600   23.89630    0.33190   -9999.25   -9999.25
  833.00000   91.43560    9.93300   10.03460    7.00430   -0.00300    2.41660    0.19010   13.54560    2.40500   23.92320    0.31680   -9999.25   -9999.25
  833.50000   89.99810   11.01550   11.16540    7.53650   -0.00270    2.35720    0.18540   13.61670    2.41220   24.85540    0.32500   -9999.25   -9999.25
  834.00000   88.72750   11.77090   11.90090    7.91120   -0.00240    2.35400    0.17700   13.62710    2.42560   28.25020    0.32560   -9999.25   -9999.25
  834.50000   87.24790   11.96820   12.15480    8.38710   -0.00210    2.37620    0.17220   13.63750    2.43260   31.10500    0.33830   -9999.25   -9999.25
  835.00000   86.02230   13.01420   13.26700    9.16680   -0.00420    2.39830    0.17450   13.61750    2.43030   31.57440    0.32380   -9999.25   -9999.25
  835.50000   85.88110   13.34740   13.83160    9.74230   -0.00350    2.42220    0.17690   13.56190    2.42500   31.82900    0.29690   -9999.25   -9999.25
  836.00000   86.97080   11.97820   12.49370    8.67760   -0.00230    2.45570    0.17840   13.49320    2.42380   30.78780    0.31970   -9999.25   -9999.25
  836.50000   88.22350   10.00710   10.68580    7.48970   -0.00070    2.49370    0.17800   13.45400    2.42500   30.36400    0.34590   -9999.25   -9999.25
  837.00000   89.97290    9.37150   10.15780    6.91910    0.00070    2.58280    0.17360   13.43990    2.43130   29.05340    0.37580   -9999.25   -9999.25
  837.50000   90.57730    9.50030   10.17030    6.98390    0.00190    2.66220    0.16550   13.42570    2.44220   27.44950    0.36790   -9999.25   -9999.25
  838.00000   89.82260    9.64930   10.43970    7.36120    0.00250    2.70310    0.15680   13.41980    2.45830   25.89540    0.36760   -9999.25   -9999.25
  838.50000   89.13530    9.80070   10.44450    7.45100    0.00170    2.73690    0.15280   13.41790    2.46560   24.98290    0.34800   -9999.25   -9999.25
