~Version ---------------------------------------------------
VERS.   2.0 : CWLS log ASCII Standard -VERSION 2.0
WRAP.    NO : One line per depth step
DLM . SPACE : Column Data Section Delimiter
~Well ------------------------------------------------------
STRT .F                   33.0 : START DEPTH
STOP .F                 8286.0 : STOP DEPTH
STEP .F                    0.5 : STEP
NULL .                -9999.25 : NULL VALUE
COMP .                         : COMPANY
WELL .                         : WELL
FLD  .                         : FIELD
LOC  .                         : LOCATION
PROV .                         : PROVINCE
CNTY .                         : COUNTY
STAT .                         : STATE
CTRY .                         : COUNTRY
SRVC .                         : SERVICE COMPANY
DATE .                         : DATE
UWI  .                         : UNIQUE WELL ID
API  .                         : API NUMBER
SLAT .WGS84 1.3521474851533988 : SURFACE LATITUDE
SLON .WGS84  6.484241745599007 : SURFACE LONGITUDE
DATUM.F                    nan : DEPTH DATUM ELEV
~Curve Information -----------------------------------------
DEPT   .F     : 1 MEASURED DEPTH
DT     .US/F  : DELTA-T (INTERVAL TRANSIT TIME)
RLA3   .OHMM  : APPARENT RESISTIVITY FROM COMPUTED FOCUSING MODE 3
RLA5   .OHMM  : APPARENT RESISTIVITY FROM COMPUTED FOCUSING MODE 5
RXOZ   .OHMM  : INVADED FORMATION RESISTIVITY FILTERED AT 18 INCHES
HDRA   .G/C3  : HRDD SPINE AND RIBS DENSITY CORRECTION
PEFZ   .B/E   : HRDD STANDARD RESOLUTION FORMATION PHOTOELECTRIC FACTOR
DPHZ_LS.DEC   : HGRD STANDARD RESOLUTION DENSITY POROSITY
CALD   .IN    : CALIPER FROM DENSITY LOG
RHOZ   .G/C3  : HRDD STANDARD RESOLUTION FORMATION DENSITY
SGRDD  .GAPI  : SPECTROSCOPY GAMMA RAY FROM DENSITY LOG
TNPH_LS.DEC   : THERMAL NEUTRON POROSITY [LIMESTONE]
DTCO   .US/F  : DELTA-T COMPRESSIONAL
DTSM   .US/F  : DELTA-T SHEAR
~Params ----------------------------------------------------
~Other -----------------------------------------------------
~ASCII -----------------------------------------------------
# ...
 5753.00000   -9999.25   53.83740   50.63890   70.17270    0.00540    3.65880    0.05320    8.91650    2.62540   73.89350    0.13720   74.75670  116.88020
 5753.50000   -9999.25   64.27700   61.62260   44.48700    0.00450    3.34560    0.07490    8.92820    2.58340  100.34540    0.19820   75.90840  121.84300
 5754.00000   -9999.25   53.73300   52.68790   48.50270    0.00270    3.14820    0.09580    8.93260    2.55030  112.71490    0.24890   76.36380  122.84720
 5754.50000   -9999.25   84.77940   75.91100   61.96530    0.00110    3.02900    0.10410    8.92540    2.53230  113.18290    0.25560   77.70320  127.90830
 5755.00000   -9999.25   84.11110   85.91580   83.80780    0.00050    2.95600    0.10230    8.91400    2.53460  112.22210    0.26080   78.95810  130.51590
 5755.50000   -9999.25   87.55580   77.66420   74.54880    0.00020    3.00380    0.09910    8.90610    2.54060  111.14880    0.24500   79.91840  130.80920
 5756.00000   -9999.25   75.67880   67.02070   71.45610   -0.00010    3.08550    0.09560    8.90990    2.54660  109.35460    0.25100   80.23420  131.80650
 5756.50000   -9999.25   90.21880   78.49760   87.27200    0.00260    3.16110    0.08590    8.91370    2.55990  108.24390    0.23090   80.07910  132.55830
 5757.00000   -9999.25  110.63160   98.10420   64.41250    0.01190    3.22070    0.06660    8.91710    2.59650  107.26140    0.23940   79.90940  131.78760
 5757.50000   -9999.25   62.67340   55.25660   56.78240    0.01710    3.14810    0.05420    8.91420    2.61790  108.38890    0.22860   79.86020  131.42010
 5758.00000   -9999.25   64.71200   58.47420   49.79660    0.01470    3.06500    0.05540    8.91130    2.61330  110.10380    0.24480   79.90270  131.56970
 5758.50000   -9999.25   92.65090   87.14410   71.32610    0.00600    2.99000    0.07980    8.90840    2.57110  112.77920    0.26060   80.09200  130.96730
 5759.00000   -9999.25  109.21130  102.70110   86.66880    0.00210    2.98130    0.10130    8.90550    2.53610  117.03310    0.27630   80.31470  132.38710
 5759.50000   -9999.25  102.61140   97.13140   94.49310    0.00170    3.00010    0.11150    8.90860    2.51890  117.36900    0.27080   80.54670  132.81720
 5760.00000   -9999.25  122.98020  122.36390  102.16240    0.00150    3.02940    0.11060    8.90570    2.52110  114.31960    0.25630   80.96580  132.19700
 5760.50000   -9999.25  126.85420  121.87930  121.99080    0.00090    3.05860    0.10600    8.90150    2.52870  110.51400    0.25440   81.40610  134.33460
 5761.00000   -9999.25  119.00570  110.53240   86.96490   -0.00010    3.08090    0.10820    8.90120    2.52500  111.07250    0.24920   82.01700  134.90960
 5761.50000   -9999.25   73.28170   67.39800   77.05800    0.00000    3.06200    0.10980    8.90370    2.52270  110.10350    0.25870   82.63270  136.18830
 5762.00000   -9999.25  135.93350  118.98030   74.41480    0.00050    3.03520    0.11290    8.91300    2.51630  112.91270    0.26500   83.12190  136.64810
 5762.50000   -9999.25  111.57290  103.21450   94.88660    0.00010    3.00110    0.11700    8.92120    2.51020  116.48410    0.28680   83.17460  137.52890
 5763.00000   -9999.25  144.40070  121.89030  119.71990   -0.00040    2.99860    0.12330    8.91300    2.50090  120.79160    0.30010   83.10640  136.84670
 5763.50000   -9999.25  150.34710  151.25520  137.29610   -0.00090    3.02990    0.13050    8.90480    2.48680  123.56530    0.30270   82.28520  135.76780
 5764.00000   -9999.25  181.57660  160.30440  143.71470   -0.00080    3.06130    0.13160    8.90080    2.48580  122.86440    0.29130   81.78270  135.14480
 5764.50000   -9999.25  166.64360  139.90700  112.39210   -0.00040    3.08590    0.12460    8.90530    2.49800  119.33140    0.28350   81.19520  134.94840
 5765.00000   -9999.25  112.33970   93.34090   85.42700   -0.00040    3.08690    0.10980    8.90050    2.52340  111.89360    0.25230   79.76570  132.78780
 5765.50000   -9999.25  119.60180   99.95770   73.89590   -0.00040    3.09440    0.09870    8.90160    2.54290  103.55870    0.21510   77.43710  129.74040
 5766.00000   -9999.25  114.23420   95.46060   71.96680   -0.00040    3.10110    0.09440    8.90270    2.54730   98.77390    0.20360   73.47410  127.00120
 5766.50000   -9999.25  121.77540  103.17070   84.40550    0.00250    3.08890    0.09060    8.90380    2.55590   95.07940    0.20680   72.14590  122.23690
 5767.00000   -9999.25  112.37120   98.05000   78.38270    0.00620    3.10510    0.08610    8.90350    2.56350   88.14560    0.21020   70.69580  120.79530
 5767.50000   -9999.25   99.88460   87.08830  101.41090    0.00580    3.31680    0.08070    8.90070    2.57260   69.66140    0.19860   65.84420  115.41490
 5768.00000   -9999.25  290.45480  203.39560  159.91770    0.00220    3.68630    0.07370    8.89590    2.58480   46.62110    0.13180   62.81330  111.37100
 5768.50000   -9999.25 1386.50450 1686.49930 1148.54490   -0.00020    4.05080    0.06330    8.87610    2.60420   24.44020    0.06720   62.34270  105.85110
 5769.00000   -9999.25 4059.42240 4116.84180 1356.64160   -0.00070    4.30370    0.05100    8.85900    2.62680   13.07690    0.04470   56.61500  102.57080
 5769.50000   -9999.25 3790.13790 3720.04170 1340.35820   -0.00080    4.36900    0.03950    8.87050    2.64240   10.20160    0.03500   55.34130   99.19260
 5770.00000   -9999.25 4338.72610 4757.25290 1288.45230   -0.00190    4.40760    0.03650    8.85910    2.64810    9.32900    0.03410   55.08430   98.95240
 5770.50000   -9999.25 5622.70950 6117.35740 1461.62730   -0.00220    4.41780    0.03350    8.85810    2.65320    9.90770    0.03440   54.03850   96.07910
 5771.00000   -9999.25 8142.11130 9446.47560 1679.98010   -0.00160    4.41130    0.03330    8.85770    2.65270   11.09010    0.03570   53.79930   95.80710
 5771.50000   -9999.25 6932.62260 7815.43070 1652.67000   -0.00080    4.42560    0.03700    8.85640    2.64640   12.41160    0.03640   53.96980   95.11060
 5772.00000   -9999.25 5396.23340 6079.02250 1680.65990    0.00120    4.43550    0.03730    8.86020    2.64750   13.86060    0.03660   54.34750   94.35430
 5772.50000   -9999.25 7952.92290 9051.29200 1596.99240    0.00310    4.44240    0.03510    8.87260    2.65100   15.43800    0.03700   54.56610   93.49790
 5773.00000   -9999.25 7932.00240 9262.69820 1983.06980    0.00410    4.40220    0.03370    8.86830    2.65140   15.47270    0.03800   54.56840   94.94570
 5773.50000   -9999.25 10084.60250 12011.57230 1991.02760    0.00290    4.38530    0.03890    8.87800    2.64430   14.90050    0.03750   54.56330   94.31000
 5774.00000   -9999.25 10287.14260 11347.34960 1885.63500    0.00250    4.42620    0.04440    8.85950    2.63450   14.82530    0.03690   54.55890   95.70520
 5774.50000   -9999.25 6428.52290 6946.01710 1430.50440    0.00340    4.48260    0.04330    8.85880    2.63640   15.39780    0.03600   54.56250   95.38540
 5775.00000   -9999.25 7856.68950 7775.65190 1391.21950    0.00540    4.52220    0.03930    8.86240    2.64310   14.38680    0.03260   54.27640   94.69210
 5775.50000   -9999.25 14100.61720 17674.93550 1502.36170    0.00540    4.56180    0.03560    8.87270    2.65040   13.11870    0.02860   54.02690   94.36780
 5776.00000   -9999.25 11527.77930 12169.47460 1521.63280    0.00360    4.55200    0.03490    8.87580    2.65110   12.36280    0.02630   53.82220   94.15860
 5776.50000   -9999.25 9847.28810 11299.42190 1501.12760    0.00010    4.56410    0.03670    8.87670    2.64720   12.78170    0.02660   53.77990   94.24670
 5777.00000   -9999.25 9052.06740 10063.66410 1612.29470   -0.00040    4.52500    0.03580    8.87750    2.65070   13.68880    0.02810   53.75840   94.98380
 5777.50000   -9999.25 9990.24410 11276.30860 1785.33890   -0.00030    4.47640    0.03690    8.87590    2.64760   14.79090    0.02930   53.71510   93.00450
 5778.00000   -9999.25 10807.53610 11341.96880 1652.84330    0.00050    4.39820    0.03460    8.87700    2.64980   14.93290    0.02890   53.63140   94.26070
 5778.50000   -9999.25 9623.50680 10397.07130 1597.15280    0.00000    4.38380    0.03840    8.88330    2.64410   13.19880    0.02850   53.60790   93.30170
