~Version ---------------------------------------------------
VERS.   2.0 : CWLS log ASCII Standard -VERSION 2.0
WRAP.    NO : One line per depth step
DLM . SPACE : Column Data Section Delimiter
~Well ------------------------------------------------------
STRT .F                   33.0 : START DEPTH
STOP .F                 8286.0 : STOP DEPTH
STEP .F                    0.5 : STEP
NULL .                -9999.25 : NULL VALUE
COMP .                         : COMPANY
WELL .                         : WELL
FLD  .                         : FIELD
LOC  .                         : LOCATION
PROV .                         : PROVINCE
CNTY .                         : COUNTY
STAT .                         : STATE
CTRY .                         : COUNTRY
SRVC .                         : SERVICE COMPANY
DATE .                         : DATE
UWI  .                         : UNIQUE WELL ID
API  .                         : API NUMBER
SLAT .WGS84 1.3521474851533988 : SURFACE LATITUDE
SLON .WGS84  6.484241745599007 : SURFACE LONGITUDE
DATUM.F                    nan : DEPTH DATUM ELEV
~Curve Information -----------------------------------------
DEPT   .F     : 1 MEASURED DEPTH
DT     .US/F  : DELTA-T (INTERVAL TRANSIT TIME)
RLA3   .OHMM  : APPARENT RESISTIVITY FROM COMPUTED FOCUSING MODE 3
RLA5   .OHMM  : APPARENT RESISTIVITY FROM COMPUTED FOCUSING MODE 5
RXOZ   .OHMM  : INVADED FORMATION RESISTIVITY FILTERED AT 18 INCHES
HDRA   .G/C3  : HRDD SPINE AND RIBS DENSITY CORRECTION
PEFZ   .B/E   : HRDD STANDARD RESOLUTION FORMATION PHOTOELECTRIC FACTOR
DPHZ_LS.DEC   : HGRD STANDARD RESOLUTION DENSITY POROSITY
CALD   .IN    : CALIPER FROM DENSITY LOG
RHOZ   .G/C3  : HRDD STANDARD RESOLUTION FORMATION DENSITY
SGRDD  .GAPI  : SPECTROSCOPY GAMMA RAY FROM DENSITY LOG
TNPH_LS.DEC   : THERMAL NEUTRON POROSITY [LIMESTONE]
DTCO   .US/F  : DELTA-T COMPRESSIONAL
DTSM   .US/F  : DELTA-T SHEAR
~Params ----------------------------------------------------
~Other -----------------------------------------------------
~ASCII -----------------------------------------------------
# ...
 1307.00000   82.18460    7.00460    8.06440    5.98800   -0.00330    3.43850    0.11430   12.36690    2.52600   48.45350    0.42920   -9999.25   -9999.25
 1307.50000   80.96170    6.82640    7.91420    5.77830   -0.00300    3.47650    0.11370   12.36400    2.52710   49.92070    0.45280   -9999.25   -9999.25
 1308.00000   80.67500    6.65930    7.78400    5.62870   -0.00290    3.39500    0.11370   12.36110    2.52800   47.95920    0.43870   -9999.25   -9999.25
 1308.50000   81.48610    7.06700    8.73340    6.18060   -0.00310    3.25870    0.11780   12.35840    2.52190   43.53090    0.41710   -9999.25   -9999.25
 1309.00000   81.69850    7.42510    8.68080    6.39660   -0.00410    3.16570    0.12810   12.35860    2.50400   44.50580    0.38540   -9999.25   -9999.25
 1309.50000   82.00650    6.67070    7.79190    6.13770   -0.00680    3.12990    0.13660   12.36520    2.48920   47.25110    0.37810   -9999.25   -9999.25
 1310.00000   82.95850    6.62940    8.01030    6.17970   -0.00810    3.12200    0.13790   12.37180    2.48880   50.79400    0.36710   -9999.25   -9999.25
 1310.50000   84.07080    6.99660    8.66650    6.48440   -0.00840    3.12460    0.12910   12.37840    2.49900   54.47700    0.36040   -9999.25   -9999.25
 1311.00000   85.93040    7.33580    8.70350    7.15770   -0.00870    3.15170    0.12160   12.38500    2.51360   59.43180    0.39020   -9999.25   -9999.25
 1311.50000   86.82230    7.04400    8.34830    6.73020   -0.00920    3.15980    0.11410   12.39160    2.52510   66.06890    0.42090   -9999.25   -9999.25
 1312.00000   86.33220    6.99610    8.03660    6.76930   -0.00910    3.12580    0.10910   12.39820    2.53380   72.50920    0.39000   -9999.25   -9999.25
 1312.50000   85.89890    8.55130    9.52960    7.09280   -0.00780    3.09190    0.10350   12.40480    2.54050   74.07300    0.36050   -9999.25   -9999.25
 1313.00000   84.23270    8.38660    9.36660    7.56010   -0.00650    3.05930    0.10570   12.41140    2.54330   68.79660    0.35240   -9999.25   -9999.25
 1313.50000   82.59190    8.34430    9.03620    7.16520   -0.00450    3.03620    0.10850   12.41800    2.53570   56.53920    0.40180   -9999.25   -9999.25
 1314.00000   83.33820    7.78090    8.84260    7.10200   -0.00430    3.02450    0.11750   12.41840    2.52310   47.38300    0.43540   -9999.25   -9999.25
 1314.50000   87.72240    6.49980    8.26840    6.22550   -0.00510    3.04040    0.12710   12.41370    2.50810   42.28430    0.46570   -9999.25   -9999.25
 1315.00000   90.96180    5.48220    5.79700    4.79120   -0.00590    3.08780    0.14210   12.41050    2.48420   41.98740    0.42070   -9999.25   -9999.25
 1315.50000   93.13900    5.05760    5.22900    3.95700   -0.00580    3.09380    0.16090   12.41330    2.45170   42.28030    0.38870   -9999.25   -9999.25
 1316.00000   95.08620    5.13700    5.44140    4.18540   -0.00590    3.07800    0.18160   12.41600    2.42020   43.02190    0.39890   -9999.25   -9999.25
 1316.50000   96.11280    4.86150    5.25050    3.96530   -0.00590    3.06430    0.19610   12.41880    2.39620   43.06240    0.42730   -9999.25   -9999.25
 1317.00000   95.38560    4.44720    4.58560    3.88430   -0.00570    3.05220    0.18930   12.42160    2.40310   42.84910    0.44610   -9999.25   -9999.25
 1317.50000   93.95750    6.22940    5.56010    3.97520   -0.00390    3.08660    0.16670   12.42440    2.44480   40.71450    0.44600   -9999.25   -9999.25
 1318.00000   91.49760    8.16670    7.52910    5.00630   -0.00480    3.13960    0.15000   12.42710    2.46630   39.07910    0.47490   -9999.25   -9999.25
 1318.50000   88.23670    9.93380    8.72440    6.25350   -0.00560    3.19260    0.14800   12.42990    2.47120   37.45420    0.48470   -9999.25   -9999.25
 1319.00000   86.76940    9.86330    7.97410    5.73920   -0.00550    3.24560    0.14890   12.43270    2.47160   40.30210    0.41930   -9999.25   -9999.25
 1319.50000   85.51140    9.75160    8.95040    6.04480   -0.00350    3.25930    0.14570   12.43500    2.47540   40.49530    0.41420   -9999.25   -9999.25
 1320.00000   84.94930   13.53310   11.66250    6.69250   -0.00380    3.26130    0.14600   12.43530    2.47730   40.89220    0.43250   -9999.25   -9999.25
 1320.50000   83.94100   15.55680   12.41230    7.74320   -0.00500    3.26330    0.15040   12.43570    2.46850   36.76180    0.46350   -9999.25   -9999.25
 1321.00000   84.02850   15.13780   11.39290    6.34630   -0.00740    3.26180    0.15730   12.43600    2.45890   34.18920    0.47650   -9999.25   -9999.25
 1321.50000   86.21700   15.21890   11.79680    5.46980   -0.00970    3.22630    0.15990   12.43630    2.45340   32.89600    0.45230   -9999.25   -9999.25
 1322.00000   88.31640   14.06000   11.83050    5.14500   -0.00970    3.19870    0.15780   12.43660    2.45690   33.52450    0.43930   -9999.25   -9999.25
 1322.50000   89.51520   11.29980    8.77160    4.62700   -0.00980    3.21530    0.15520   12.43690    2.46080   36.27390    0.45150   -9999.25   -9999.25
 1323.00000   89.33510   10.16360    7.94980    4.76810   -0.00920    3.25440    0.15780   12.43660    2.45390   38.39770    0.43400   -9999.25   -9999.25
 1323.50000   88.81550   11.37730    8.96030    4.72320   -0.00860    3.29990    0.16270   12.42820    2.44910   40.01710    0.42350   -9999.25   -9999.25
 1324.00000   86.13400   12.68260    9.94650    5.09430   -0.00800    3.33900    0.16470   12.41450    2.44500   39.33510    0.38980   -9999.25   -9999.25
 1324.50000   81.86860   14.85750   11.87800    5.70820   -0.00770    3.35770    0.16060   12.40070    2.45090   38.28450    0.38260   -9999.25   -9999.25
 1325.00000   80.23870   15.60930   12.48760    6.75910   -0.00810    3.44000    0.15460   12.38700    2.46100   36.89910    0.38750   -9999.25   -9999.25
 1325.50000   80.21830   13.67180   11.10710    7.39600   -0.00840    3.51720    0.15280   12.37610    2.46400   35.36180    0.44670   -9999.25   -9999.25
 1326.00000   80.27980   13.23050   10.57550    5.97800   -0.00840    3.55320    0.14740   12.40810    2.47170   35.03260    0.46220   -9999.25   -9999.25
 1326.50000   79.85330   15.87040   12.51150    6.08580   -0.00780    3.54460    0.13750   12.46930    2.48670   34.46560    0.45990   -9999.25   -9999.25
 1327.00000   80.25240   19.43300   16.10150    6.58720   -0.00710    3.48030    0.11740   12.54540    2.51830   34.31750    0.41390   -9999.25   -9999.25
 1327.50000   81.20110   17.53830   14.45680    7.05850   -0.00640    3.39780    0.10920   12.39650    2.53450   33.56700    0.37000   -9999.25   -9999.25
 1328.00000   81.66810   12.26710   10.29410    5.72020   -0.00580    3.31890    0.11050   12.38360    2.53320   33.56150    0.33570   -9999.25   -9999.25
 1328.50000   83.60420   10.34920    8.83550    5.19230   -0.00640    3.28830    0.11920   12.37730    2.51960   35.02140    0.30930   -9999.25   -9999.25
 1329.00000   82.07380   10.24610    9.26250    5.52770   -0.00770    3.29630    0.12520   12.36310    2.50960   34.03480    0.30890   -9999.25   -9999.25
 1329.50000   78.95170   11.93280   11.51580    6.44080   -0.00900    3.40990    0.12710   12.34890    2.50640   35.15390    0.31480   -9999.25   -9999.25
 1330.00000   77.22780   15.44570   15.50540    7.28320   -0.01040    3.58830    0.12420   12.33940    2.51050   34.97820    0.33140   -9999.25   -9999.25
 1330.50000   76.24100   12.13030   14.41710    8.27300   -0.00950    3.67680    0.11640   12.35420    2.52060   36.48630    0.35540   -9999.25   -9999.25
 1331.00000   76.50370    9.78590   10.76700    7.52960   -0.00560    3.60510    0.10280   12.35370    2.54440   35.36990    0.36840   -9999.25   -9999.25
 1331.50000   78.08830    9.34740   11.46130    6.37210   -0.00180    3.42940    0.09590   12.35520    2.55480   35.08830    0.39820   -9999.25   -9999.25
 1332.00000   79.23650    8.85550   10.17290    5.59400   -0.00140    3.22880    0.09950   12.36440    2.55110   34.83900    0.38860   -9999.25   -9999.25
 1332.50000   80.14100    8.64810    9.37210    5.06210   -0.00220    3.15720    0.11250   12.37620    2.53170   34.58500    0.39960   -9999.25   -9999.25
