~Version ---------------------------------------------------
VERS.   2.0 : CWLS log ASCII Standard -VERSION 2.0
WRAP.    NO : One line per depth step
DLM . SPACE : Column Data Section Delimiter
~Well ------------------------------------------------------
STRT .F                   33.0 : START DEPTH
STOP .F                 8286.0 : STOP DEPTH
STEP .F                    0.5 : STEP
NULL .                -9999.25 : NULL VALUE
COMP .                         : COMPANY
WELL .                         : WELL
FLD  .                         : FIELD
LOC  .                         : LOCATION
PROV .                         : PROVINCE
CNTY .                         : COUNTY
STAT .                         : STATE
CTRY .                         : COUNTRY
SRVC .                         : SERVICE COMPANY
DATE .                         : DATE
UWI  .                         : UNIQUE WELL ID
API  .                         : API NUMBER
SLAT .WGS84 1.3521474851533988 : SURFACE LATITUDE
SLON .WGS84  6.484241745599007 : SURFACE LONGITUDE
DATUM.F                    nan : DEPTH DATUM ELEV
~Curve Information -----------------------------------------
DEPT   .F     : 1 MEASURED DEPTH
DT     .US/F  : DELTA-T (INTERVAL TRANSIT TIME)
RLA3   .OHMM  : APPARENT RESISTIVITY FROM COMPUTED FOCUSING MODE 3
RLA5   .OHMM  : APPARENT RESISTIVITY FROM COMPUTED FOCUSING MODE 5
RXOZ   .OHMM  : INVADED FORMATION RESISTIVITY FILTERED AT 18 INCHES
HDRA   .G/C3  : HRDD SPINE AND RIBS DENSITY CORRECTION
PEFZ   .B/E   : HRDD STANDARD RESOLUTION FORMATION PHOTOELECTRIC FACTOR
DPHZ_LS.DEC   : HGRD STANDARD RESOLUTION DENSITY POROSITY
CALD   .IN    : CALIPER FROM DENSITY LOG
RHOZ   .G/C3  : HRDD STANDARD RESOLUTION FORMATION DENSITY
SGRDD  .GAPI  : SPECTROSCOPY GAMMA RAY FROM DENSITY LOG
TNPH_LS.DEC   : THERMAL NEUTRON POROSITY [LIMESTONE]
DTCO   .US/F  : DELTA-T COMPRESSIONAL
DTSM   .US/F  : DELTA-T SHEAR
~Params ----------------------------------------------------
~Other -----------------------------------------------------
~ASCII -----------------------------------------------------
# ...
 7729.00000   -9999.25 1223.21680 2113.88380  250.03120    0.02130    4.55800    0.07580    9.12740    2.58190   31.40760    0.07190   60.11220  104.92250
 7729.50000   -9999.25  571.40960  568.22390  267.38310    0.02750    4.33300    0.05940    9.03940    2.61350   48.70750    0.07620   60.88790  104.14930
 7730.00000   -9999.25 1033.17580 1006.22440  410.27380    0.02610    4.09470    0.04760    8.82610    2.62920   68.27360    0.08790   61.18460  104.14640
 7730.50000   -9999.25  822.30620  800.31370  473.21950    0.01900    3.82620    0.05520    8.81260    2.61740   79.25010    0.10140   61.06470  104.70330
 7731.00000   -9999.25  913.49160 1043.26750  529.95570    0.01080    3.60540    0.07070    8.82010    2.58630   76.13100    0.11920   60.83500  104.35250
 7731.50000   -9999.25 1213.82360 1413.80550  625.42570    0.00740    3.44610    0.08680    8.82870    2.56020   63.89490    0.11550   60.41820  103.49460
 7732.00000   -9999.25 1927.68730 3073.39500  895.01270    0.00330    3.43030    0.09460    8.83610    2.54910   48.60230    0.10350   59.88440  102.75300
 7732.50000   -9999.25 3859.24460 4732.98490 1094.86430    0.00030    3.58880    0.09240    8.83730    2.55270   42.88610    0.08860   59.78140  101.85380
 7733.00000   -9999.25 6907.55710 7884.16500 1022.42710   -0.00080    3.82700    0.07940    8.83840    2.57460   36.49730    0.07210   59.59030  100.99260
 7733.50000   -9999.25 5281.02830 6126.50240 1021.07860    0.00120    4.04160    0.06240    8.83520    2.60180   38.14360    0.06180   59.69510  102.33360
 7734.00000   -9999.25 4004.42360 4559.10160 1025.73680    0.00560    4.19130    0.04700    8.83200    2.63210   40.65230    0.06150   60.21250  102.84450
 7734.50000   -9999.25 2429.20240 2548.66190 1014.67100    0.00800    4.20580    0.03880    8.82890    2.64540   44.84960    0.06390   61.36420  104.38540
 7735.00000   -9999.25 1101.03530 1092.62590  790.63960    0.00740    4.12040    0.04000    8.82490    2.64340   50.86080    0.06840   61.81710  104.53090
 7735.50000   -9999.25  679.35250  649.42300  537.76760    0.00510    3.97280    0.04690    8.82610    2.63110   58.38610    0.07450   62.33510  105.25470
 7736.00000   -9999.25  589.10420  564.11330  387.77680    0.00340    3.83070    0.05340    8.83130    2.61830   67.96590    0.09260   63.20650  105.76580
 7736.50000   -9999.25  421.93900  390.48770  297.36380    0.00330    3.73530    0.06000    8.82820    2.60830   77.03520    0.11130   64.12810  106.45980
 7737.00000   -9999.25  354.16610  300.77150  264.22970    0.00170    3.72300    0.06640    8.82510    2.59670   82.58180    0.12890   64.25470  107.51900
 7737.50000   -9999.25  892.86810  751.93520  327.89150    0.00040    3.83480    0.06920    8.82200    2.59150   80.84390    0.12010   64.02540  107.69620
 7738.00000   -9999.25 1383.24290 1278.69140  469.80510    0.00040    3.90870    0.06610    8.81890    2.59760   78.28260    0.11080   63.70500  107.85780
 7738.50000   -9999.25  521.78160  388.03400  350.73650    0.00090    3.90060    0.06050    8.83810    2.60670   74.98090    0.10720   63.53870  108.45900
 7739.00000   -9999.25  311.73090  266.30480  242.60210    0.00230    3.87770    0.05970    8.83430    2.60750   74.60780    0.11320   63.69280  108.48450
 7739.50000   -9999.25  388.33770  321.89270  224.72490    0.00070    3.87960    0.06450    8.83290    2.59920   72.02550    0.11720   63.91600  108.48100
 7740.00000   -9999.25  423.44660  340.29760  226.83200   -0.00120    3.97810    0.06630    8.83160    2.59810   66.11810    0.10750   64.37650  108.40390
 7740.50000   -9999.25  714.80560  644.20040  389.16490    0.00140    4.07410    0.05710    8.83030    2.61560   62.55430    0.09320   64.67350  109.44430
 7741.00000   -9999.25  455.24260  662.43300  288.71410    0.00580    4.01770    0.04710    8.82840    2.63080   73.55910    0.08880   64.39840  108.55370
 7741.50000   -9999.25  338.79110  282.44690  275.15150    0.00740    3.89270    0.05030    8.82500    2.62390   91.97820    0.09650   63.63800  108.96940
 7742.00000   -9999.25  538.00120  475.95600  247.73690    0.00590    3.72190    0.06540    8.82150    2.59630   99.91100    0.12010   63.39440  108.65930
 7742.50000   -9999.25  538.75100  435.52880  145.34130    0.00200    3.56690    0.08220    8.81800    2.57000   93.87450    0.13500   63.12140  107.43960
 7743.00000   -9999.25  173.22820  151.31580  109.55010   -0.00170    3.55180    0.08440    8.81630    2.56660   78.51460    0.14180   62.81670  106.41530
 7743.50000   -9999.25  476.19350  394.09820  119.59340   -0.00250    3.78200    0.07430    8.81630    2.58470   59.33520    0.12670   61.63530  105.91840
 7744.00000   -9999.25 1257.87620 1807.33280  309.56830   -0.00230    4.07120    0.05910    8.81630    2.61080   45.88950    0.08800   60.95960  105.50290
 7744.50000   -9999.25 2039.55870 2054.03910  831.03590   -0.00110    4.26970    0.05070    8.81630    2.62200   46.45810    0.06010   60.67290  104.89930
 7745.00000   -9999.25  823.82170  793.27120  516.36490    0.00070    4.28690    0.05250    8.81630    2.62020   56.58330    0.05960   60.05540  105.59170
 7745.50000   -9999.25  783.73040  729.02900  440.62530   -0.00060    4.24260    0.05870    8.81630    2.60840   65.49170    0.07550   60.19920  105.16560
 7746.00000   -9999.25  953.84780  915.17520  441.69530    0.00040    4.20480    0.05890    8.81630    2.61030   63.17590    0.08300   60.46660  104.60760
 7746.50000   -9999.25 1005.53580 1002.97000  626.65200    0.00180    4.22650    0.05250    8.81630    2.61970   58.45720    0.07840   60.89310  104.26470
 7747.00000   -9999.25 2590.93020 2786.86570  751.98060    0.00250    4.24230    0.05050    8.81630    2.62370   53.69970    0.07310   61.83380  104.33800
 7747.50000   -9999.25 2025.75570 2307.13430  921.02880    0.00240    4.16000    0.05350    8.81610    2.61760   58.84340    0.07790   61.78240  104.99040
 7748.00000   -9999.25 1460.58130 1459.04980  703.09140    0.00160    3.99040    0.06770    8.81540    2.59780   73.32080    0.09340   61.49370  106.33830
 7748.50000   -9999.25  493.89130  478.33650  302.85320   -0.00110    3.80160    0.08220    8.81480    2.57240   90.47840    0.12090   60.62190  106.14320
 7749.00000   -9999.25  315.27060  319.33230  236.76290   -0.00350    3.78400    0.09470    8.81410    2.55120   94.73150    0.13810   60.67320  104.34740
 7749.50000   -9999.25  638.00960  581.25900  307.81540   -0.00670    3.99110    0.08950    8.81350    2.55490   75.78730    0.12570   60.72120  104.31900
 7750.00000   -9999.25 4332.93600 5272.79200  599.47090   -0.00330    4.29360    0.06640    8.81280    2.58960   51.91340    0.07900   61.13650  104.85560
 7750.50000   -9999.25 8027.86230 9964.32520 1358.37210    0.00130    4.44930    0.04210    8.81220    2.64310   27.78430    0.04450   61.41970  104.50600
 7751.00000   -9999.25 5788.76120 5010.55520 1307.05650    0.00590    4.34550    0.03590    8.80970    2.65400   32.62410    0.03580   60.82940  104.23930
 7751.50000   -9999.25 1384.37260 1477.29740  810.33790    0.00990    4.15420    0.04150    8.80540    2.63990   48.95820    0.04950   60.29590  104.22330
 7752.00000   -9999.25  777.18960  817.98440  520.87010    0.00880    3.87130    0.06300    8.80110    2.60680   61.78530    0.08110   60.08170  104.63660
 7752.50000   -9999.25  524.38180  509.55350  424.24140    0.00630    3.72250    0.07450    8.80650    2.58230   70.10780    0.11430   60.10760  102.70820
 7753.00000   -9999.25  591.23830  540.03200  354.48000    0.00200    3.74470    0.07940    8.81590    2.57320   65.14760    0.11950   60.36260  104.08930
 7753.50000   -9999.25  760.99030  732.24910  464.96840    0.00010    3.91840    0.08090    8.82050    2.57230   54.00750    0.11140   61.02630  103.37860
 7754.00000   -9999.25 2510.42850 2087.82350  708.59770   -0.00050    4.11500    0.07880    8.82500    2.57560   40.11790    0.08920   61.50080  104.49120
 7754.50000   -9999.25 5920.63380 6494.94290 1228.62040   -0.00010    4.26940    0.07960    8.82950    2.57420   25.06750    0.07130   61.82110  105.47920
