~Version ---------------------------------------------------
VERS.   2.0 : CWLS log ASCII Standard -VERSION 2.0
WRAP.    NO : One line per depth step
DLM . SPACE : Column Data Section Delimiter
~Well ------------------------------------------------------
STRT .F                   33.0 : START DEPTH
STOP .F                 8286.0 : STOP DEPTH
STEP .F                    0.5 : STEP
NULL .                -9999.25 : NULL VALUE
COMP .                         : COMPANY
WELL .                         : WELL
FLD  .                         : FIELD
LOC  .                         : LOCATION
PROV .                         : PROVINCE
CNTY .                         : COUNTY
STAT .                         : STATE
CTRY .                         : COUNTRY
SRVC .                         : SERVICE COMPANY
DATE .                         : DATE
UWI  .                         : UNIQUE WELL ID
API  .                         : API NUMBER
SLAT .WGS84 1.3521474851533988 : SURFACE LATITUDE
SLON .WGS84  6.484241745599007 : SURFACE LONGITUDE
DATUM.F                    nan : DEPTH DATUM ELEV
~Curve Information -----------------------------------------
DEPT   .F     : 1 MEASURED DEPTH
DT     .US/F  : DELTA-T (INTERVAL TRANSIT TIME)
RLA3   .OHMM  : APPARENT RESISTIVITY FROM COMPUTED FOCUSING MODE 3
RLA5   .OHMM  : APPARENT RESISTIVITY FROM COMPUTED FOCUSING MODE 5
RXOZ   .OHMM  : INVADED FORMATION RESISTIVITY FILTERED AT 18 INCHES
HDRA   .G/C3  : HRDD SPINE AND RIBS DENSITY CORRECTION
PEFZ   .B/E   : HRDD STANDARD RESOLUTION FORMATION PHOTOELECTRIC FACTOR
DPHZ_LS.DEC   : HGRD STANDARD RESOLUTION DENSITY POROSITY
CALD   .IN    : CALIPER FROM DENSITY LOG
RHOZ   .G/C3  : HRDD STANDARD RESOLUTION FORMATION DENSITY
SGRDD  .GAPI  : SPECTROSCOPY GAMMA RAY FROM DENSITY LOG
TNPH_LS.DEC   : THERMAL NEUTRON POROSITY [LIMESTONE]
DTCO   .US/F  : DELTA-T COMPRESSIONAL
DTSM   .US/F  : DELTA-T SHEAR
~Params ----------------------------------------------------
~Other -----------------------------------------------------
~ASCII -----------------------------------------------------
# ...
 4739.00000   75.47180    4.63230    5.12880    2.36940   -0.00250    2.82940    0.14300   12.50600    2.47690   31.76920    0.37960   -9999.25   -9999.25
 4739.50000   77.06980    6.06870    5.96330    2.50640   -0.00350    2.66100    0.15620   12.50600    2.45490   30.15530    0.41340   -9999.25   -9999.25
 4740.00000   77.59280    6.98120    7.14410    3.36620   -0.00530    2.62590    0.16170   12.50420    2.44790   31.67880    0.44740   -9999.25   -9999.25
 4740.50000   77.59540    5.61920    6.04980    3.16010   -0.00710    2.61030    0.16230   12.50240    2.44740   32.00420    0.46690   -9999.25   -9999.25
 4741.00000   77.96090    4.18940    4.34500    2.05030   -0.00800    2.60090    0.16840   12.50070    2.43610   31.48630    0.40930   -9999.25   -9999.25
 4741.50000   78.41370    4.18630    4.16760    1.57930   -0.00780    2.60000    0.17310   12.49890    2.43140   31.12400    0.37750   -9999.25   -9999.25
 4742.00000   78.52290    4.29140    4.26510    1.52760   -0.00560    2.60580    0.17280   12.49710    2.43470   29.60910    0.35830   -9999.25   -9999.25
 4742.50000   77.84590    6.10030    5.21640    1.95890   -0.00350    2.64710    0.16590   12.49540    2.44670   28.43360    0.31520   -9999.25   -9999.25
 4743.00000   77.55120    6.53720    7.18320    2.48080   -0.00410    2.70010    0.16310   12.49360    2.44810   27.62910    0.30480   -9999.25   -9999.25
 4743.50000   77.00210    4.99110    5.81930    2.67540   -0.00740    2.75650    0.16340   12.49180    2.44690   28.61450    0.29450   -9999.25   -9999.25
 4744.00000   75.12530    5.11390    5.50390    2.45640   -0.01220    2.86650    0.15810   12.49210    2.47020   30.89480    0.34400   -9999.25   -9999.25
 4744.50000   69.67790    8.96290   10.40650    3.56880   -0.01700    3.04930    0.12790   12.49290    2.49890   33.17050    0.37060   -9999.25   -9999.25
 4745.00000   68.18100   15.67970   19.10230    6.13520   -0.01520    3.21180    0.11540   12.49370    2.53640   32.98040    0.35330   -9999.25   -9999.25
 4745.50000   68.34210    6.67080    8.49260    3.96920   -0.01250    3.25410    0.12350   12.49450    2.52850   32.00930    0.33290   -9999.25   -9999.25
 4746.00000   70.08100    4.63370    5.01200    2.83100   -0.01050    3.07350    0.14660   12.49540    2.46140   30.69430    0.34330   -9999.25   -9999.25
 4746.50000   75.23640    5.74170    6.44300    2.90470   -0.00860    2.81670    0.16810   12.49620    2.43820   29.65380    0.38190   -9999.25   -9999.25
 4747.00000   77.24790    5.14630    5.66440    3.45910   -0.00670    2.70010    0.16490   12.49710    2.45180   27.62830    0.40450   -9999.25   -9999.25
 4747.50000   75.51020    6.14040    5.39890    4.27810   -0.00350    2.74800    0.14420   12.49860    2.48750   27.15290    0.38410   -9999.25   -9999.25
 4748.00000   73.62100    6.69420    6.28900    7.35090   -0.00100    2.84190    0.12040   12.49810    2.53010   28.24320    0.36910   -9999.25   -9999.25
 4748.50000   73.27350    5.56730    6.29840    7.11580   -0.00010    2.86790    0.10820   12.50280    2.52770   30.37470    0.38280   -9999.25   -9999.25
 4749.00000   73.31140    5.44050    5.88040    4.52340    0.00070    2.78520    0.12360   12.50750    2.50760   32.13230    0.39340   -9999.25   -9999.25
 4749.50000   75.10220    5.70370    6.28250    3.57960   -0.00080    2.65040    0.14260   12.51220    2.46630   33.83010    0.39060   -9999.25   -9999.25
 4750.00000   77.00480    5.44610    5.99170    3.67480   -0.00270    2.59840    0.15660   12.51390    2.44990   34.80020    0.38530   -9999.25   -9999.25
 4750.50000   77.20710    5.37490    6.06310    3.51190   -0.00460    2.57750    0.16190   12.51480    2.44950   34.94110    0.38230   -9999.25   -9999.25
 4751.00000   77.20330    5.53190    6.42630    3.62710   -0.00510    2.58090    0.16050   12.51580    2.45590   34.00340    0.34980   -9999.25   -9999.25
 4751.50000   77.10220    5.69350    6.59690    3.98990   -0.00610    2.59850    0.15520   12.51670    2.46030   34.48570    0.35410   -9999.25   -9999.25
 4752.00000   76.86110    5.78090    6.70870    4.23920   -0.00730    2.61600    0.15650   12.51770    2.45610   34.93560    0.34970   -9999.25   -9999.25
 4752.50000   76.69370    5.74610    6.69690    4.38700   -0.00820    2.63580    0.15900   12.51860    2.45490   34.95440    0.35980   -9999.25   -9999.25
 4753.00000   76.60310    5.67250    6.71140    4.30830   -0.00830    2.65860    0.15750   12.51960    2.45890   34.31280    0.35750   -9999.25   -9999.25
 4753.50000   76.44190    5.59990    6.61720    4.32640   -0.00780    2.66200    0.15250   12.52050    2.46550   34.68700    0.36790   -9999.25   -9999.25
 4754.00000   76.21070    5.71740    7.14110    4.60820   -0.00730    2.67380    0.15240   12.52150    2.46540   35.09310    0.36350   -9999.25   -9999.25
 4754.50000   76.18750    6.01500    7.17740    4.74460   -0.00720    2.67020    0.15310   12.52240    2.46290   35.02940    0.36990   -9999.25   -9999.25
 4755.00000   76.06440    5.75100    6.97270    4.61400   -0.00710    2.66090    0.15190   12.53010    2.47070   33.11660    0.34630   -9999.25   -9999.25
 4755.50000   75.97840    5.92850    7.16030    4.49180   -0.00760    2.66440    0.14880   12.53340    2.46950   32.02120    0.34980   -9999.25   -9999.25
 4756.00000   75.98080    6.29110    7.48950    4.46290   -0.00800    2.70050    0.15190   12.53510    2.46600   30.91840    0.36990   -9999.25   -9999.25
 4756.50000   75.50800    6.32320    7.88460    4.25490   -0.01020    2.78310    0.14800   12.53210    2.47430   31.27010    0.40550   -9999.25   -9999.25
 4757.00000   71.97160    6.78420    7.65650    5.42880   -0.00770    2.83640    0.13390   12.52910    2.50740   31.71180    0.36870   -9999.25   -9999.25
 4757.50000   71.49250    7.99270   10.52900    7.58530   -0.00430    2.87090    0.11290   12.52600    2.53270   32.41340    0.38730   -9999.25   -9999.25
 4758.00000   72.21240    6.17520    7.81900    6.88210   -0.00210    2.85340    0.11530   12.52300    2.51260   32.63850    0.36530   -9999.25   -9999.25
 4758.50000   73.44070    5.09350    5.73610    4.27410   -0.00530    2.75470    0.14210   12.52290    2.47350   32.48320    0.40330   -9999.25   -9999.25
 4759.00000   77.68790    4.81280    5.27870    3.22400   -0.00810    2.64440    0.17140   12.53020    2.43370   31.92500    0.36680   -9999.25   -9999.25
 4759.50000   78.80830    4.56070    5.03120    2.83280   -0.00990    2.58620    0.18380   12.53750    2.41280   31.33650    0.39860   -9999.25   -9999.25
 4760.00000   78.83650    4.56270    4.82250    2.70350   -0.01010    2.56900    0.18790   12.53830    2.40580   29.22010    0.37950   -9999.25   -9999.25
 4760.50000   78.83080    4.56290    4.96090    2.57650   -0.01030    2.58040    0.19010   12.54260    2.40420   26.30560    0.38770   -9999.25   -9999.25
 4761.00000   78.71450    4.57170    4.92200    2.54210   -0.01010    2.59020    0.18500   12.53650    2.41500   23.87990    0.35540   -9999.25   -9999.25
 4761.50000   78.50830    4.71250    4.93990    2.57250   -0.00840    2.61800    0.17770   12.53540    2.43010   25.07320    0.32150   -9999.25   -9999.25
 4762.00000   78.33330    5.02640    5.42450    2.95320   -0.00690    2.67220    0.16480   12.52570    2.45440   28.04350    0.34890   -9999.25   -9999.25
 4762.50000   76.03480    5.44000    5.78290    3.36260   -0.00550    2.79110    0.14610   12.51590    2.49290   30.61590    0.38350   -9999.25   -9999.25
 4763.00000   70.66910    5.96470    7.00900    4.50190   -0.00970    2.99340    0.12400   12.50620    2.52670   30.61200    0.40540   -9999.25   -9999.25
 4763.50000   68.84880    7.47610   17.33940    6.63340   -0.01140    3.25080    0.10390   12.50190    2.54610   30.53550    0.35500   -9999.25   -9999.25
 4764.00000   68.21850    7.21660    9.36980    7.93780   -0.01320    3.33430    0.10690   12.50860    2.52120   30.74370    0.36370   -9999.25   -9999.25
 4764.50000   70.27470    6.53380    7.93830    5.99010   -0.01090    3.17010    0.12930   12.51540    2.48910   31.11450    0.37240   -9999.25   -9999.25
