~Version ---------------------------------------------------
VERS.   2.0 : CWLS log ASCII Standard -VERSION 2.0
WRAP.    NO : One line per depth step
DLM . SPACE : Column Data Section Delimiter
~Well ------------------------------------------------------
STRT .F                   33.0 : START DEPTH
STOP .F                 8286.0 : STOP DEPTH
STEP .F                    0.5 : STEP
NULL .                -9999.25 : NULL VALUE
COMP .                         : COMPANY
WELL .                         : WELL
FLD  .                         : FIELD
LOC  .                         : LOCATION
PROV .                         : PROVINCE
CNTY .                         : COUNTY
STAT .                         : STATE
CTRY .                         : COUNTRY
SRVC .                         : SERVICE COMPANY
DATE .                         : DATE
UWI  .                         : UNIQUE WELL ID
API  .                         : API NUMBER
SLAT .WGS84 1.3521474851533988 : SURFACE LATITUDE
SLON .WGS84  6.484241745599007 : SURFACE LONGITUDE
DATUM.F                    nan : DEPTH DATUM ELEV
~Curve Information -----------------------------------------
DEPT   .F     : 1 MEASURED DEPTH
DT     .US/F  : DELTA-T (INTERVAL TRANSIT TIME)
RLA3   .OHMM  : APPARENT RESISTIVITY FROM COMPUTED FOCUSING MODE 3
RLA5   .OHMM  : APPARENT RESISTIVITY FROM COMPUTED FOCUSING MODE 5
RXOZ   .OHMM  : INVADED FORMATION RESISTIVITY FILTERED AT 18 INCHES
HDRA   .G/C3  : HRDD SPINE AND RIBS DENSITY CORRECTION
PEFZ   .B/E   : HRDD STANDARD RESOLUTION FORMATION PHOTOELECTRIC FACTOR
DPHZ_LS.DEC   : HGRD STANDARD RESOLUTION DENSITY POROSITY
CALD   .IN    : CALIPER FROM DENSITY LOG
RHOZ   .G/C3  : HRDD STANDARD RESOLUTION FORMATION DENSITY
SGRDD  .GAPI  : SPECTROSCOPY GAMMA RAY FROM DENSITY LOG
TNPH_LS.DEC   : THERMAL NEUTRON POROSITY [LIMESTONE]
DTCO   .US/F  : DELTA-T COMPRESSIONAL
DTSM   .US/F  : DELTA-T SHEAR
~Params ----------------------------------------------------
~Other -----------------------------------------------------
~ASCII -----------------------------------------------------
# ...
 2789.00000   71.93930   31.35010   71.04090    0.25200    0.10770    3.54840   -9999.25   15.69470    2.02200   14.85590    0.42450   -9999.25   -9999.25
 2789.50000   71.00310   32.62950   91.08640    0.32850    0.11810    3.61430   -9999.25   15.40800    2.02610   16.85550    0.45530   -9999.25   -9999.25
 2790.00000   71.99410   39.91940  166.74470    0.33680    0.12220    3.67950   -9999.25   15.97470    2.01270   16.78450    0.49890   -9999.25   -9999.25
 2790.50000   73.75360   44.21170  293.31930    0.36620    0.12600    3.74770   -9999.25   16.26660    2.01130   16.54950    0.52080   -9999.25   -9999.25
 2791.00000   69.67150   46.11670  345.50100    0.46450    0.12840    3.81590   -9999.25   16.25260    2.01380   15.36350    0.48600   -9999.25   -9999.25
 2791.50000   69.56800   46.09960  213.30110    0.51860    0.13080    3.86370   -9999.25   15.11760    2.02740   14.88740    0.40320   -9999.25   -9999.25
 2792.00000   70.49520   45.78560  129.13030    0.47750    0.13220    3.87640   -9999.25   14.88210    2.05410   14.74930    0.36670   -9999.25   -9999.25
 2792.50000   75.75260   38.28560   64.97710    0.48950    0.12880    3.84040   -9999.25   16.22150    2.10560   14.12710    0.40950   -9999.25   -9999.25
 2793.00000   78.44620   22.68490   18.84760    0.45120    0.11950    3.74050   -9999.25   15.25320    2.16880   13.85760    0.42260   -9999.25   -9999.25
 2793.50000   81.55200   21.45010   16.58880    0.46860    0.10490    3.65230    0.29980   15.10300    2.22800   14.50120    0.42590   -9999.25   -9999.25
 2794.00000   82.71950   18.16090   15.48090    0.67890    0.09470    3.65070    0.27800   14.62700    2.26670   15.27360    0.37540   -9999.25   -9999.25
 2794.50000   80.84070   14.15450   16.18750    0.90880    0.09110    3.72660    0.28860   13.47520    2.23090   15.40140    0.38960   -9999.25   -9999.25
 2795.00000   75.15570   21.88000   46.64960    0.66270    0.09210    3.83640    0.29970   16.25240    2.13920   14.18690    0.37260   -9999.25   -9999.25
 2795.50000   74.29410   28.25880  101.98890    0.51050    0.09380    3.90880   -9999.25   16.69730    2.08160   13.36010    0.37820   -9999.25   -9999.25
 2796.00000   72.56550   28.61240  148.69100    0.53920    0.09600    3.94850   -9999.25   16.91790    2.04580   13.88730    0.37150   -9999.25   -9999.25
 2796.50000   70.05030   31.23160  336.12450    0.63490    0.10260    3.98610   -9999.25   16.62710    2.04810   14.63860    0.37570   -9999.25   -9999.25
 2797.00000   70.58790   42.62690  491.59610    0.60520    0.11710    3.89530   -9999.25   16.33910    2.07620   15.30840    0.39130   -9999.25   -9999.25
 2797.50000   70.86780   33.84850  435.03820    0.52230    0.12860    3.76910   -9999.25   16.90430    2.08500   14.60020    0.37680   -9999.25   -9999.25
 2798.00000   71.03780   34.62160  334.38350    0.44570    0.13690    3.70350   -9999.25   16.82890    2.08000   13.74090    0.36180   -9999.25   -9999.25
 2798.50000   72.48420   32.88380  263.61760    0.45240    0.14360    3.76070   -9999.25   16.49720    2.05460   12.93360    0.33680   -9999.25   -9999.25
 2799.00000   72.06940   30.27140  231.80580    0.40670    0.14120    3.82160   -9999.25   16.34440    2.03890   12.77380    0.35500   -9999.25   -9999.25
 2799.50000   72.94920   31.63120  331.92520    0.40830    0.11480    3.89660   -9999.25   16.35240    2.02200   12.98500    0.35940   -9999.25   -9999.25
 2800.00000   72.40630   28.33310  419.43620    0.50060    0.09660    3.99320   -9999.25   15.57490    2.01510   13.07720    0.34900   -9999.25   -9999.25
 2800.50000   71.75680   29.63750  475.95670    0.79740    0.08470    4.14130   -9999.25   15.80310    2.01820   13.10670    0.33130   -9999.25   -9999.25
 2801.00000   71.28600   33.62710  569.87390    1.25910    0.08110    4.28360   -9999.25   16.89040    2.03790   13.15820    0.35130   -9999.25   -9999.25
 2801.50000   71.98900   35.41280  613.62370    1.68160    0.07370    4.37160   -9999.25   17.05000    2.04390   13.81930    0.37730   -9999.25   -9999.25
 2802.00000   70.59700   37.05250  804.15580    2.78340    0.06300    4.37050   -9999.25   17.17830    2.04470   15.03990    0.38750   -9999.25   -9999.25
 2802.50000   70.77360   38.98440 1011.14330    2.12630    0.05650    4.34110   -9999.25   16.94350    2.02570   16.91870    0.37930   -9999.25   -9999.25
 2803.00000   71.49230   46.20670 1354.06790    1.11740    0.05440    4.30330   -9999.25   17.30930    2.00520   19.64330    0.36810   -9999.25   -9999.25
 2803.50000   69.68610   50.16020 1181.40080    0.63230    0.07300    4.26870   -9999.25   16.67730    1.99380   22.65910    0.36870   -9999.25   -9999.25
 2804.00000   70.95050   48.82750  463.75550    0.38300    0.10640    4.23700   -9999.25   17.03880    2.02470   24.85520    0.37580   -9999.25   -9999.25
 2804.50000   70.13970   45.54750  207.78860    0.30620    0.11730    4.20500    0.30050   16.69370    2.09770   26.36910    0.37430   -9999.25   -9999.25
 2805.00000   69.90330   37.20570   79.47070    0.39110    0.12220    4.17190    0.30010   15.69970    2.25880   25.12980    0.37680   -9999.25   -9999.25
 2805.50000   70.03960   30.90230   47.16980    0.76000    0.11020    4.15900    0.23580   13.52480    2.36480   23.49110    0.32330   -9999.25   -9999.25
 2806.00000   70.56270   25.64930   34.94000    2.22730    0.09930    4.14780    0.18030   13.53910    2.42430   20.73650    0.33840   -9999.25   -9999.25
 2806.50000   72.28840   18.67310   26.34540    3.34370    0.09300    4.09410    0.18590   13.41000    2.39440   17.90260    0.32340   -9999.25   -9999.25
 2807.00000   74.06250   18.16080   25.25590    1.54550    0.07890    3.87350    0.22750   13.51620    2.32170   15.20320    0.36770   -9999.25   -9999.25
 2807.50000   76.32130   18.48200   22.31830    0.95170    0.04810    3.63900    0.26410   13.42900    2.28050   12.52970    0.33190   -9999.25   -9999.25
 2808.00000   76.34050   18.23600   22.56110    1.04920    0.02520    3.44710    0.28410   13.45630    2.22420   13.42760    0.31870   -9999.25   -9999.25
 2808.50000   76.47870   29.29850   34.41370    0.90950    0.02330    3.35770    0.29970   13.53360    2.13560   15.29630    0.30870   -9999.25   -9999.25
 2809.00000   76.54540   44.14370   53.01250    0.44250    0.04760    3.41820    0.29970   13.63250    2.03290   17.24570    0.26800   -9999.25   -9999.25
 2809.50000   74.87680   49.91140   56.03090    0.24350    0.07260    3.44480    0.29980   14.79320    1.96020   18.61470    0.23050   -9999.25   -9999.25
 2810.00000   73.18370   47.98760   55.85030    0.22110    0.09830    3.47400    0.29990   14.25420    1.94290   18.50280    0.19570   -9999.25   -9999.25
 2810.50000   70.77640   62.92190   97.52680    0.39000    0.12430    3.46710    0.29990   14.31540    1.98820   19.36890    0.19530   -9999.25   -9999.25
 2811.00000   69.31800   70.91350  125.80140    0.34490    0.16000    3.45470    0.30000   13.57430    2.06320   19.03900    0.19160   -9999.25   -9999.25
 2811.50000   70.39700   63.86430  106.20750    0.35190    0.17550    3.44620    0.30010   15.01580    2.20270   18.75250    0.19880   -9999.25   -9999.25
 2812.00000   71.66980   44.45090   51.02590    0.37310    0.16580    3.43370    0.28000   15.67220    2.30880   18.17250    0.20270   -9999.25   -9999.25
 2812.50000   69.98020   35.27520   31.22680    2.85300    0.10230    3.33670    0.22210   13.51880    2.36890   16.82460    0.20860   -9999.25   -9999.25
 2813.00000   67.00770   58.14790   88.38360   12.93450    0.04150    3.24140    0.19600   13.36960    2.39110   15.49710    0.22430   -9999.25   -9999.25
 2813.50000   62.67400   81.50400  186.57080   36.93450    0.00290    3.17890    0.20410   13.50870    2.38120   16.07960    0.23700   -9999.25   -9999.25
 2814.00000   60.61700   89.84000  234.11570   71.59470   -0.00100    3.16030    0.20480   13.53430    2.38070   17.36260    0.29120   -9999.25   -9999.25
 2814.50000   60.64150   95.39100  259.57450   77.86050   -0.00410    3.16040    0.20370   13.52030    2.38470   18.82230    0.34510   -9999.25   -9999.25
