~Version ---------------------------------------------------
VERS.   2.0 : CWLS log ASCII Standard -VERSION 2.0
WRAP.    NO : One line per depth step
DLM . SPACE : Column Data Section Delimiter
~Well ------------------------------------------------------
STRT .F                   33.0 : START DEPTH
STOP .F                 8286.0 : STOP DEPTH
STEP .F                    0.5 : STEP
NULL .                -9999.25 : NULL VALUE
COMP .                         : COMPANY
WELL .                         : WELL
FLD  .                         : FIELD
LOC  .                         : LOCATION
PROV .                         : PROVINCE
CNTY .                         : COUNTY
STAT .                         : STATE
CTRY .                         : COUNTRY
SRVC .                         : SERVICE COMPANY
DATE .                         : DATE
UWI  .                         : UNIQUE WELL ID
API  .                         : API NUMBER
SLAT .WGS84 1.3521474851533988 : SURFACE LATITUDE
SLON .WGS84  6.484241745599007 : SURFACE LONGITUDE
DATUM.F                    nan : DEPTH DATUM ELEV
~Curve Information -----------------------------------------
DEPT   .F     : 1 MEASURED DEPTH
DT     .US/F  : DELTA-T (INTERVAL TRANSIT TIME)
RLA3   .OHMM  : APPARENT RESISTIVITY FROM COMPUTED FOCUSING MODE 3
RLA5   .OHMM  : APPARENT RESISTIVITY FROM COMPUTED FOCUSING MODE 5
RXOZ   .OHMM  : INVADED FORMATION RESISTIVITY FILTERED AT 18 INCHES
HDRA   .G/C3  : HRDD SPINE AND RIBS DENSITY CORRECTION
PEFZ   .B/E   : HRDD STANDARD RESOLUTION FORMATION PHOTOELECTRIC FACTOR
DPHZ_LS.DEC   : HGRD STANDARD RESOLUTION DENSITY POROSITY
CALD   .IN    : CALIPER FROM DENSITY LOG
RHOZ   .G/C3  : HRDD STANDARD RESOLUTION FORMATION DENSITY
SGRDD  .GAPI  : SPECTROSCOPY GAMMA RAY FROM DENSITY LOG
TNPH_LS.DEC   : THERMAL NEUTRON POROSITY [LIMESTONE]
DTCO   .US/F  : DELTA-T COMPRESSIONAL
DTSM   .US/F  : DELTA-T SHEAR
~Params ----------------------------------------------------
~Other -----------------------------------------------------
~ASCII -----------------------------------------------------
# ...
 2295.00000   63.82240   43.45750   67.31310   32.32790    0.00290    3.27630    0.16100   12.77510    2.44720   26.31790    0.22870   -9999.25   -9999.25
 2295.50000   63.29910   47.06050   76.70400   36.17370    0.00520    3.20080    0.16410   12.76660    2.45080   25.39960    0.23590   -9999.25   -9999.25
 2296.00000   62.32580   46.03510   76.50620   31.74820    0.01100    3.15530    0.15330   12.75820    2.46820   25.38980    0.25730   -9999.25   -9999.25
 2296.50000   62.36600   39.29560   72.53180   24.32060    0.01270    3.12300    0.14280   12.73550    2.48620   26.15100    0.24030   -9999.25   -9999.25
 2297.00000   63.69850   28.63750   48.39560   21.06810    0.00990    3.13480    0.13350   12.70280    2.49540   27.65320    0.23910   -9999.25   -9999.25
 2297.50000   64.71680   27.87770   45.49360   21.41930    0.00550    3.15130    0.14340   12.68370    2.47560   30.18860    0.26290   -9999.25   -9999.25
 2298.00000   65.68680   26.21120   42.75710   22.26320    0.00190    3.16770    0.15330   12.67770    2.46040   31.59790    0.27950   -9999.25   -9999.25
 2298.50000   66.96710   22.58890   37.20210   19.97800    0.00050    3.18410    0.16140   12.67160    2.44590   32.05230    0.29090   -9999.25   -9999.25
 2299.00000   67.54470   19.97850   32.37190   17.45000   -0.00090    3.17920    0.16400   12.66410    2.44910   31.26640    0.28350   -9999.25   -9999.25
 2299.50000   68.78490   18.92580   30.34530   15.48980   -0.00150    3.16620    0.15830   12.63540    2.45910   30.01300    0.26940   -9999.25   -9999.25
 2300.00000   69.45430   17.22640   26.58210   14.36780   -0.00180    3.16740    0.15180   12.60080    2.46650   28.23070    0.31140   -9999.25   -9999.25
 2300.50000   70.02740   15.31330   23.13730   12.65840   -0.00030    3.16060    0.14550   12.57050    2.47850   26.81170    0.35330   -9999.25   -9999.25
 2301.00000   71.93130   12.27100   18.31950   10.68980    0.00120    3.14230    0.14100   12.57630    2.48930   25.97410    0.36470   -9999.25   -9999.25
 2301.50000   72.70140   10.96880   15.16050    8.82760    0.00230    3.14910    0.13480   12.57560    2.49810   27.76600    0.33370   -9999.25   -9999.25
 2302.00000   74.17020   11.03350   14.60150    7.96350    0.00210    3.17220    0.12940   12.53390    2.50380   29.14670    0.33170   -9999.25   -9999.25
 2302.50000   75.93440   10.63170   13.28920    6.86310    0.00030    3.20190    0.13010   12.52160    2.49670   27.97170    0.33030   -9999.25   -9999.25
 2303.00000   76.56840    9.43080   11.44310    6.63780   -0.00200    3.23310    0.13710   12.53810    2.48850   25.41790    0.28470   -9999.25   -9999.25
 2303.50000   78.85920    9.21750   10.65390    6.36220   -0.00350    3.28670    0.14060   12.55460    2.48480   21.68340    0.24300   -9999.25   -9999.25
 2304.00000   79.39220    9.16610   10.69770    6.70550   -0.00400    3.33090    0.13990   12.56580    2.48520   20.36890    0.20710   -9999.25   -9999.25
 2304.50000   79.66280    8.50190    9.83610    6.37700   -0.00440    3.33280    0.13890   12.56920    2.48470   20.00610    0.19520   -9999.25   -9999.25
 2305.00000   82.06240    7.63750    9.16310    5.30750   -0.00470    3.33470    0.14290   12.64980    2.47830   21.67900    0.20350   -9999.25   -9999.25
 2305.50000   83.01560    6.63100    8.04880    4.47500   -0.00520    3.30550    0.14890   12.68250    2.46920   22.94220    0.21730   -9999.25   -9999.25
 2306.00000   80.79220    8.90010    6.89160    4.70920   -0.00520    3.27710    0.15500   12.72870    2.45860   21.38180    0.24750   -9999.25   -9999.25
 2306.50000   76.38710   13.57580   10.45430    7.22930   -0.00490    3.18520    0.15900   12.76660    2.45370   19.58040    0.26320   -9999.25   -9999.25
 2307.00000   70.69780   20.00180   29.05220   18.53940   -0.00450    3.04130    0.16050   12.80460    2.45140   18.03880    0.27270   -9999.25   -9999.25
 2307.50000   65.08850   20.68380   30.61830   22.27910   -0.00230    2.91850    0.16040   12.86780    2.45450   17.56640    0.24710   -9999.25   -9999.25
 2308.00000   63.31040   22.33040   28.63170   19.40790   -0.00100    2.87660    0.15250   12.93140    2.46660   16.29020    0.23530   -9999.25   -9999.25
 2308.50000   65.03910   31.11200   48.88530   19.88280    0.00040    2.89420    0.14700   12.97370    2.47540   15.51490    0.21640   -9999.25   -9999.25
 2309.00000   66.70900   22.05640   32.03790   22.00350    0.00040    2.95120    0.14410   12.96400    2.47750   15.49080    0.18450   -9999.25   -9999.25
 2309.50000   66.82590   20.94230   28.37560   18.95660   -0.00090    2.99490    0.14900   12.91520    2.46860   16.51680    0.16230   -9999.25   -9999.25
 2310.00000   68.28650   22.25530   33.23570   19.19160   -0.00190    3.03860    0.15410   12.89560    2.46020   18.20470    0.14900   -9999.25   -9999.25
 2310.50000   67.86640   22.56580   32.49990   20.29830   -0.00280    3.08960    0.16050   12.89680    2.45030   21.98480    0.15830   -9999.25   -9999.25
 2311.00000   67.40010   20.86900   28.93020   18.60220   -0.00290    3.11160    0.16450   12.89810    2.44510   26.05480    0.20090   -9999.25   -9999.25
 2311.50000   67.37570   20.94650   29.66570   18.74130   -0.00260    3.15740    0.16610   12.89440    2.44370   27.79890    0.24660   -9999.25   -9999.25
 2312.00000   66.58780   33.96600   46.45190   17.61470   -0.00210    3.22090    0.16500   12.89070    2.44340   26.60110    0.28340   -9999.25   -9999.25
 2312.50000   64.51160   77.31890   94.54360   23.22610   -0.00160    3.27190    0.16790   12.87170    2.43850   24.64740    0.29660   -9999.25   -9999.25
 2313.00000   62.97430  101.15020  131.92780   29.68200    0.00030    3.26930    0.17740   12.87980    2.42200   25.87480    0.30990   -9999.25   -9999.25
 2313.50000   62.01470  121.74990  133.21140   22.37830    0.00570    3.22570    0.19040   13.01670    2.40020   26.39750    0.30960   -9999.25   -9999.25
 2314.00000   62.42200  108.73860  119.03250   12.97170    0.01070    3.19880    0.20240   13.02600    2.38420   25.08940    0.31920   -9999.25   -9999.25
 2314.50000   64.37070   38.48790   56.00890   10.03960    0.01110    3.20030    0.20170   13.19460    2.38500   23.94990    0.29300   -9999.25   -9999.25
 2315.00000   68.48040   21.87280   23.77650   11.04460    0.00800    3.25770    0.18430   12.85570    2.41470   23.61950    0.31730   -9999.25   -9999.25
 2315.50000   71.13070   16.93730   17.68710   10.85290    0.00550    3.32780    0.15180   12.73850    2.46910   23.83650    0.28780   -9999.25   -9999.25
 2316.00000   72.36530   15.64380   15.83670    8.29330    0.00170    3.40380    0.12550   12.68180    2.51470   23.72910    0.27700   -9999.25   -9999.25
 2316.50000   73.30250   16.34640   16.81880    7.70450   -0.00360    3.50000    0.12330   12.67280    2.51740   22.90680    0.26130   -9999.25   -9999.25
 2317.00000   72.97790   19.63440   22.56530    9.32910   -0.00870    3.53450    0.15670   12.65930    2.45370   22.78970    0.23880   -9999.25   -9999.25
 2317.50000   72.84200   30.47060   34.20470    3.98390   -0.00030    3.52780    0.21770   12.64950    2.30160   20.95130    0.21500   -9999.25   -9999.25
 2318.00000   72.81290   46.74180   44.71250    1.56320    0.02960    3.57630    0.29450   12.63980    2.18500   21.31990    0.19620   -9999.25   -9999.25
 2318.50000   72.63640   65.51500   55.74690    0.42600    0.06950    3.65470    0.29990   12.66800    2.10800   20.87090    0.18250   -9999.25   -9999.25
 2319.00000   71.56410   72.34220   56.12000    0.45740    0.09930    3.77680    0.29990   12.74650    2.16400   23.21890    0.16880   -9999.25   -9999.25
 2319.50000   70.61090   61.62580   55.45340    0.66300    0.08810    3.84900    0.29990   12.70670    2.21400   22.81280    0.17290   -9999.25   -9999.25
 2320.00000   69.80390   48.90280   51.75210    7.33230    0.05970    3.78320    0.26420   12.67170    2.27480   22.99880    0.17820   -9999.25   -9999.25
 2320.50000   69.10160   42.14540   47.95350   14.82670    0.02270    3.70660    0.24480   12.64840    2.31660   22.39060    0.18280   -9999.25   -9999.25
