~Version ---------------------------------------------------
VERS.   2.0 : CWLS log ASCII Standard -VERSION 2.0
WRAP.    NO : One line per depth step
DLM . SPACE : Column Data Section Delimiter
~Well ------------------------------------------------------
STRT .F                   33.0 : START DEPTH
STOP .F                 8286.0 : STOP DEPTH
STEP .F                    0.5 : STEP
NULL .                -9999.25 : NULL VALUE
COMP .                         : COMPANY
WELL .                         : WELL
FLD  .                         : FIELD
LOC  .                         : LOCATION
PROV .                         : PROVINCE
CNTY .                         : COUNTY
STAT .                         : STATE
CTRY .                         : COUNTRY
SRVC .                         : SERVICE COMPANY
DATE .                         : DATE
UWI  .                         : UNIQUE WELL ID
API  .                         : API NUMBER
SLAT .WGS84 1.3521474851533988 : SURFACE LATITUDE
SLON .WGS84  6.484241745599007 : SURFACE LONGITUDE
DATUM.F                    nan : DEPTH DATUM ELEV
~Curve Information -----------------------------------------
DEPT   .F     : 1 MEASURED DEPTH
DT     .US/F  : DELTA-T (INTERVAL TRANSIT TIME)
RLA3   .OHMM  : APPARENT RESISTIVITY FROM COMPUTED FOCUSING MODE 3
RLA5   .OHMM  : APPARENT RESISTIVITY FROM COMPUTED FOCUSING MODE 5
RXOZ   .OHMM  : INVADED FORMATION RESISTIVITY FILTERED AT 18 INCHES
HDRA   .G/C3  : HRDD SPINE AND RIBS DENSITY CORRECTION
PEFZ   .B/E   : HRDD STANDARD RESOLUTION FORMATION PHOTOELECTRIC FACTOR
DPHZ_LS.DEC   : HGRD STANDARD RESOLUTION DENSITY POROSITY
CALD   .IN    : CALIPER FROM DENSITY LOG
RHOZ   .G/C3  : HRDD STANDARD RESOLUTION FORMATION DENSITY
SGRDD  .GAPI  : SPECTROSCOPY GAMMA RAY FROM DENSITY LOG
TNPH_LS.DEC   : THERMAL NEUTRON POROSITY [LIMESTONE]
DTCO   .US/F  : DELTA-T COMPRESSIONAL
DTSM   .US/F  : DELTA-T SHEAR
~Params ----------------------------------------------------
~Other -----------------------------------------------------
~ASCII -----------------------------------------------------
# ...
 4271.00000   57.69630   91.28200   80.61890   38.68420   -0.00620    3.83100    0.05520   12.40920    2.62600   16.85360    0.20640   -9999.25   -9999.25
 4271.50000   57.76770  111.01860   90.60090   39.18430   -0.00470    3.83000    0.05230   12.40280    2.62530   16.41530    0.18090   -9999.25   -9999.25
 4272.00000   57.70810  115.47550   98.55360   34.38900   -0.00310    3.75920    0.05500   12.39630    2.61910   17.37470    0.16670   -9999.25   -9999.25
 4272.50000   57.69940  103.76690   91.79040   31.24570   -0.00480    3.66370    0.06260   12.39780    2.60630   17.60170    0.17310   -9999.25   -9999.25
 4273.00000   57.79730  111.09910   95.13750   32.73110   -0.00490    3.63190    0.07060   12.40320    2.59410   18.64570    0.20330   -9999.25   -9999.25
 4273.50000   57.34440  134.02520  108.03660   43.58900   -0.00500    3.66350    0.07040   12.40860    2.59860   18.22670    0.22130   -9999.25   -9999.25
 4274.00000   56.94300  161.39500  122.59730   56.27320   -0.00520    3.69510    0.06520   12.41390    2.60710   18.55400    0.22940   -9999.25   -9999.25
 4274.50000   56.64200  162.38800  128.00650   56.56340   -0.00530    3.74340    0.06110   12.40500    2.61180   18.89300    0.22310   -9999.25   -9999.25
 4275.00000   56.54950  166.25490  126.22850   53.67620   -0.00510    3.80860    0.05930   12.39990    2.61530   18.62560    0.21810   -9999.25   -9999.25
 4275.50000   56.75590  165.85740  124.78240   57.46500   -0.00500    3.79370    0.05480   12.39790    2.62460   16.74440    0.22880   -9999.25   -9999.25
 4276.00000   56.93020  172.35330  120.42610   67.38480   -0.00340    3.73930    0.04680   12.40630    2.63670   14.63880    0.21570   -9999.25   -9999.25
 4276.50000   56.90930  167.28100  110.49220   81.91250   -0.00340    3.71260    0.04510   12.42250    2.63420   13.28390    0.20550   -9999.25   -9999.25
 4277.00000   56.99170  178.18960  119.35150   81.31180   -0.00340    3.76230    0.05170   12.41070    2.62790   12.57010    0.19660   -9999.25   -9999.25
 4277.50000   57.12440  172.48050  111.76100   85.91970   -0.00440    3.79420    0.05470   12.39890    2.62360   12.54320    0.19860   -9999.25   -9999.25
 4278.00000   56.67300  166.67210  103.78080   79.68090   -0.00540    3.83110    0.05870   12.38700    2.62360   12.69910    0.20310   -9999.25   -9999.25
 4278.50000   56.30690  168.13840  107.82530   71.20920   -0.00520    3.90010    0.05370   12.37920    2.62480   13.10740    0.18770   -9999.25   -9999.25
 4279.00000   55.97520  196.10620  137.60260   72.75280   -0.00500    4.05290    0.05310   12.37700    2.62710   13.77590    0.18300   -9999.25   -9999.25
 4279.50000   55.70110  196.51650  141.73730   83.94570   -0.00470    4.20710    0.05070   12.37950    2.62950   14.16330    0.17840   -9999.25   -9999.25
 4280.00000   55.58630  193.06070  134.60020   91.34950   -0.00460    4.31700    0.04950   12.39430    2.63230   13.60760    0.18180   -9999.25   -9999.25
 4280.50000   55.44500  189.67750  141.22300   95.11170   -0.00350    4.39160    0.04520   12.40900    2.63880   12.38570    0.16920   -9999.25   -9999.25
 4281.00000   55.15340  233.53070  180.49360  102.92860   -0.00250    4.46860    0.03950   12.43190    2.64930   10.05190    0.16740   -9999.25   -9999.25
 4281.50000   54.78400  238.04910  189.13060  112.56020    0.00100    4.50900    0.03180   12.42170    2.66020    9.22180    0.15170   -9999.25   -9999.25
 4282.00000   54.65050  242.57700  192.36650  110.87630   -0.00020    4.51050    0.03330   12.42970    2.65900    8.58790    0.15810   -9999.25   -9999.25
 4282.50000   54.55570  221.62210  186.76890   94.25180   -0.00130    4.50380    0.03090   12.44980    2.65750    8.27310    0.15560   -9999.25   -9999.25
 4283.00000   54.26430  228.21540  199.21430   79.75470   -0.00170    4.50050    0.03280   12.46980    2.66150    8.29670    0.18460   -9999.25   -9999.25
 4283.50000   53.75850  238.17600  214.25160   67.39140   -0.00210    4.50140    0.02820   12.49560    2.66480    8.61110    0.19380   -9999.25   -9999.25
 4284.00000   53.21650  267.63790  251.73440   69.61910   -0.00220    4.55440    0.03090   12.49990    2.66000    8.95390    0.20330   -9999.25   -9999.25
 4284.50000   52.92260  280.61200  260.37430   80.49460   -0.00220    4.59550    0.03170   12.51240    2.65980    9.06740    0.19830   -9999.25   -9999.25
 4285.00000   52.98490  255.38470  239.59090  103.04400   -0.00220    4.58480    0.03010   12.50390    2.66220    9.30230    0.20090   -9999.25   -9999.25
 4285.50000   53.61360  232.42560  220.33750  105.07130   -0.00220    4.56770    0.03200   12.49000    2.65430   11.02540    0.19060   -9999.25   -9999.25
 4286.00000   54.29230  189.07420  145.03330   87.33790   -0.00240    4.57440    0.03830   12.46960    2.64490   11.89240    0.19550   -9999.25   -9999.25
 4286.50000   54.84760  154.33480  107.62470   70.04220   -0.00260    4.57860    0.04420   12.46170    2.63780   13.34260    0.20420   -9999.25   -9999.25
 4287.00000   55.44470  153.07000  104.99870   59.88490   -0.00290    4.53860    0.04780   12.47000    2.63080   14.29010    0.22040   -9999.25   -9999.25
 4287.50000   55.73460  137.83750   98.43360   53.08450   -0.00290    4.40960    0.05270   12.46440    2.62250   14.89950    0.23530   -9999.25   -9999.25
 4288.00000   56.42700  124.12080   93.42120   55.47240   -0.00250    4.20160    0.05600   12.46070    2.62090   15.84550    0.23710   -9999.25   -9999.25
 4288.50000   56.82920  112.49520   83.42610   58.61150   -0.00200    4.02270    0.05290   12.42880    2.62790   17.15650    0.23910   -9999.25   -9999.25
 4289.00000   56.95500  103.92390   79.89740   57.56820   -0.00150    3.94690    0.04530   12.40920    2.64130   19.92800    0.25530   -9999.25   -9999.25
 4289.50000   56.88700  112.95950   86.68800   49.25340   -0.00220    4.00610    0.03900   12.39290    2.64810   22.07530    0.27480   -9999.25   -9999.25
 4290.00000   56.43180  127.20500   94.23630   45.65440   -0.00300    4.15090    0.03990   12.38820    2.64580   22.64920    0.27570   -9999.25   -9999.25
 4290.50000   55.98600  128.27690   95.86240   43.27280   -0.00240    4.27490    0.04160   12.37750    2.64270   21.95160    0.27720   -9999.25   -9999.25
 4291.00000   56.29610   88.15160   79.01690   58.69710    0.00200    4.25090    0.03790   12.37640    2.65490   21.10210    0.27970   -9999.25   -9999.25
 4291.50000   57.58790   57.28530   65.60700   54.46880    0.01120    4.03950    0.02710   12.37390    2.66720   21.75820    0.27930   -9999.25   -9999.25
 4292.00000   58.42660   48.58900   50.82300   41.33940    0.01410    3.69030    0.02450   12.36940    2.67030   22.73930    0.26310   -9999.25   -9999.25
 4292.50000   59.39430   46.91970   49.79080   25.10120    0.00930    3.36030    0.03300   12.36650    2.64730   22.74250    0.26060   -9999.25   -9999.25
 4293.00000   60.23560   53.77480   51.36100   23.38040    0.00140    3.18870    0.05220   12.37660    2.62030   21.94170    0.25940   -9999.25   -9999.25
 4293.50000   59.95760   59.15130   58.49200   24.32530   -0.00390    3.14790    0.06620   12.39420    2.59910   22.50160    0.25820   -9999.25   -9999.25
 4294.00000   59.77920   57.64040   60.46550   31.55290   -0.00810    3.14910    0.07650   12.39940    2.59030   23.27070    0.25370   -9999.25   -9999.25
 4294.50000   59.68130   61.51730   59.23210   39.36700   -0.00960    3.15310    0.08050   12.39740    2.58150   23.60110    0.24100   -9999.25   -9999.25
 4295.00000   59.77920   63.33790   58.50340   38.66850   -0.00990    3.11180    0.08300   12.39320    2.57720   21.66330    0.22240   -9999.25   -9999.25
 4295.50000   59.83140   68.31850   60.91720   38.61970   -0.01030    3.04160    0.08610   12.38910    2.57400   19.91050    0.22940   -9999.25   -9999.25
 4296.00000   59.86060   69.09100   63.62900   24.65570   -0.01000    3.02540    0.09120   12.40170    2.56180   17.92460    0.23920   -9999.25   -9999.25
 4296.50000   59.84910   67.92280   62.97710   19.73770   -0.00790    3.03530    0.09370   12.42870    2.55810   16.59480    0.24010   -9999.25   -9999.25
