~Version ---------------------------------------------------
VERS.   2.0 : CWLS log ASCII Standard -VERSION 2.0
WRAP.    NO : One line per depth step
DLM . SPACE : Column Data Section Delimiter
~Well ------------------------------------------------------
STRT .F                  200.0 : START DEPTH
STOP .F                11624.0 : STOP DEPTH
STEP .F                    0.5 : STEP
NULL .                -9999.25 : NULL VALUE
COMP .                         : COMPANY
WELL .                         : WELL
FLD  .                         : FIELD
LOC  .                         : LOCATION
PROV .                         : PROVINCE
CNTY .                         : COUNTY
STAT .                         : STATE
CTRY .                         : COUNTRY
SRVC .                         : SERVICE COMPANY
DATE .                         : DATE
UWI  .                         : UNIQUE WELL ID
API  .                         : API NUMBER
SLAT .WGS84 1.5739531858111988 : SURFACE LATITUDE
SLON .WGS84  7.766076827432002 : SURFACE LONGITUDE
DATUM.F                    nan : DEPTH DATUM ELEV
~Curve Information -----------------------------------------
DEPT.F     : 1 MEASURED DEPTH
GRR .GAPI  : GAMMA RAY FROM RESISTIVITY LOG
NPHI.DEC   : NEUTRON POROSITY
DTCO.US/F  : DELTA-T COMPRESSIONAL
DTSM.US/F  : DELTA-T SHEAR
CALR.IN    : CALIPER FROM RESISTIVITY LOG
DRHO.G/C3  : BULK DENSITY CORRECTION
PEFZ.B/E   : HRDD STANDARD RESOLUTION FORMATION PHOTOELECTRIC FACTOR
RHOZ.G/C3  : HRDD STANDARD RESOLUTION FORMATION DENSITY
RLA2.OHMM  : APPARENT RESISTIVITY FROM COMPUTED FOCUSING MODE 2
RLA4.OHMM  : APPARENT RESISTIVITY FROM COMPUTED FOCUSING MODE 4
RLA5.OHMM  : APPARENT RESISTIVITY FROM COMPUTED FOCUSING MODE 5
~Params ----------------------------------------------------
~Other -----------------------------------------------------
~ASCII -----------------------------------------------------
# ...
 5324.00000  108.40640    0.19280   76.96190  145.30870   10.83190   -0.00700    2.77880    2.35000    1.03940    1.21900    1.27230
 5324.50000  108.86500    0.19290   77.00840  144.66740   10.78910   -0.00690    2.79010    2.35470    1.03600    1.21030    1.26320
 5325.00000  111.23580    0.19300   76.94040  144.02600   10.74640   -0.00680    2.80140    2.35800    1.03680    1.21220    1.26470
 5325.50000  114.03650    0.19320   76.51270  143.25310   10.69910   -0.00670    2.81270    2.35890    1.04210    1.21880    1.27160
 5326.00000  116.83720    0.19330   74.88710  141.69530   10.61780   -0.00660    2.82400    2.35570    1.04750    1.22550    1.27860
 5326.50000  115.44530    0.19220   73.69500  139.15200   10.53650   -0.00650    2.82850    2.34930    1.11320    1.24800    1.37960
 5327.00000  109.50960    0.18490   72.56040  134.38050   10.45530   -0.00640    2.82830    2.34370    1.22160    1.34320    1.65380
 5327.50000  100.31610    0.17660   71.99060  129.60900   10.38370   -0.00630    2.82800    2.34370    1.34050    1.60990    1.90650
 5328.00000   95.77060    0.16580   70.88210  125.30180   10.31560   -0.00620    2.82780    2.36250    1.48280    1.86840    2.00630
 5328.50000   91.22510    0.16020   69.09080  121.23470   10.24750   -0.00610    2.79430    2.37280    1.73620    1.96630    2.16850
 5329.00000   86.67970    0.15470   67.29950  117.16770   10.17930   -0.00610    2.74080    2.38220    1.95180    2.09740    2.76340
 5329.50000   84.77840    0.14840   65.50820  115.92550   10.11740   -0.00600    2.71710    2.38570    2.19430    2.67260    3.45860
 5330.00000   82.88500    0.13900   64.66490  117.29660   10.05750   -0.00590    2.71840    2.38920    2.46690    3.39270    3.72630
 5330.50000   83.18040    0.12970   66.15390  119.44840    9.99770   -0.00580    2.72400    2.41140    3.06060    3.65550    4.01470
 5331.00000   87.14440    0.12040   69.68870  121.60030    9.92410   -0.00570    2.78430    2.43730    3.49740    3.93850    4.34520
 5331.50000   95.39190    0.11100   72.70810  123.75220    9.82530   -0.00560    2.84460    2.46220    3.76800    4.25860    4.81850
 5332.00000  118.79720    0.10320   75.63630  125.90410    9.72650   -0.00560    2.90480    2.46230    4.05960    4.72260    7.47590
 5332.50000  119.55480    0.09560   78.56450  128.05600    9.62770   -0.00550    3.02480    2.45870    4.47770    6.69950   17.90260
 5333.00000  120.31240    0.08960   77.94060  130.20780    9.52890   -0.00540    3.17630    2.40280    5.90580   16.03200   42.87150
 5333.50000  187.38470    0.09250   75.16540  129.60230    9.46290   -0.00530    3.32770    2.33440   10.86010   24.25500   52.99780
 5334.00000  209.48210    0.09630   72.39030  122.37330    9.43780   -0.00520    3.42190    2.30580   19.97040   30.49540   53.11060
 5334.50000  208.57350    0.09600   69.61510  115.02790    9.41260   -0.00510    3.42170    2.30680   20.97790   26.73740   42.22770
 5335.00000  175.30020    0.09210   69.00100  110.51300    9.42120   -0.00510    3.32650    2.35290   16.33730   23.44240   32.44900
 5335.50000  135.94950    0.08820   68.66900  111.75520    9.43050   -0.00500    3.23120    2.41480   12.18790   20.55350   24.93480
 5336.00000  114.52800    0.08810   69.94720  115.80160    9.43990   -0.00500    3.13950    2.47670    9.33600   19.07940   21.82880
 5336.50000  106.04830    0.08830   72.93750  118.71940    9.44930   -0.00500    3.05650    2.51410    9.29090   18.94900   21.30770
 5337.00000  112.39300    0.09020   75.92770  122.11680    9.45860   -0.00500    3.01160    2.51240    9.24600   18.97880   26.16380
 5337.50000  120.75500    0.09390   78.91800  125.57950    9.46800   -0.00490    3.02270    2.50880   11.08890   19.34300   42.40420
 5338.00000  172.84300    0.10230   79.13720  129.12330    9.47730   -0.00490    3.18230    2.41460   15.07940   26.49160   68.72540
 5338.50000  210.23550    0.11160   77.23110  133.43320    9.48670   -0.00490    3.27300    2.32990   21.65360   42.94490  111.38470
 5339.00000  216.02080    0.12080   75.11650  137.74320    9.49600   -0.00480    3.26770    2.33080   31.59980   67.13580  156.00620
 5339.50000  221.80600    0.13010   73.00190  144.13490    9.50540   -0.00480    3.22880    2.34610   33.72740   67.16800  157.66350
 5340.00000  227.59120    0.13930   73.87530  154.15530    9.51470   -0.00480    3.16390    2.37230   29.06940   45.63440  118.48000
 5340.50000  232.02870    0.14500   76.02610  153.36540    9.52410   -0.00470    3.02070    2.39840   25.05470   31.13270   59.76630
 5341.00000  235.82520    0.14440   78.17680  139.84760    9.53340   -0.00470    2.87740    2.42460   21.59440   27.27910   30.14860
 5341.50000  234.53810    0.13870   79.81190  133.88210    9.55730   -0.00470    2.80830    2.42600   18.61210   23.90240   26.60890
 5342.00000  231.37510    0.12290   77.89350  134.80380    9.60770   -0.00460    2.73980    2.42100   16.04160   20.94370   25.63920
 5342.50000  226.64470    0.11970   76.28710  137.94120    9.96160   -0.00460    2.69260    2.38820   14.07900   20.08270   24.93970
 5343.00000  226.10770    0.12540   78.70520  141.07870   10.39230   -0.00460    2.73100    2.33470   12.64340   19.94510   24.54850
 5343.50000  225.80720    0.14640   81.12340  141.83850   10.82300   -0.00450    2.76950    2.28130   11.60380   20.11360   24.21540
 5344.00000  224.75050    0.16640   81.33730  139.92610   10.93470   -0.00450    2.80790    2.22950   11.88870   20.49930   25.75360
 5344.50000  217.29080    0.16580   68.98890  135.25940   10.65180   -0.00450    2.83920    2.22850   14.80830   22.83200   27.58160
 5345.00000  176.10520    0.16180   56.55710  131.08800   10.06830   -0.00440    2.86260    2.28580   18.44480   25.68130   41.58150
 5345.50000  160.24980    0.15320   56.44970  126.91660    9.48490   -0.00440    2.88600    2.36440   22.97450   29.95090   42.12340
 5346.00000  131.78680    0.15020   61.00070  125.27230    9.13730   -0.00440    2.90940    2.44290   27.81630   35.15150   42.62640
 5346.50000  112.15740    0.15000   68.69250  124.44420    9.12340   -0.00440    2.96430    2.52140   31.87010   39.14180   43.07440
 5347.00000  100.37150    0.14960   70.17980  123.61590    9.10950   -0.00420    3.33330    2.57740   34.08500   40.69190   43.52700
 5347.50000  106.31180    0.14940   68.49310  122.78710    9.09560   -0.00400    3.70410    2.57490   36.45390   42.30320   44.97290
 5348.00000  118.84460    0.14940   68.19480  121.95830    9.08690   -0.00380    4.06160    2.50520   38.98740   44.03400   49.43830
 5348.50000  131.37740    0.14930   69.45510  121.12960    9.08600   -0.00360    4.02330    2.42970   41.69700   45.94770   93.73800
 5349.00000  171.89050    0.14930   71.40090  120.30080    9.08510   -0.00340    3.83960    2.35420   44.59480   62.22250   92.75620
 5349.50000  172.93030    0.13290   73.30080  119.34710    9.08420   -0.00320    3.65580    2.34380   45.99420   68.56830   91.78470
 5350.00000  172.93570    0.10810   72.59930  118.24420    9.08330   -0.00300    3.47200    2.34250   44.29400   64.64910   87.17540
 5350.50000  172.94090    0.09970   71.33080  117.14140    9.08240   -0.00300    3.37410    2.34420   35.44990   57.26430   76.38780
 5351.00000  169.73830    0.09140   70.06240  114.73920    9.08150   -0.00300    3.34990    2.34780   28.37170   46.10460   61.44860
 5351.50000  158.72210    0.08300   68.79390  113.09200    9.08060   -0.00300    3.32570    2.35980   22.70680   35.85360   47.78090
 5352.00000  147.70590    0.08020   67.44140  112.04290    9.07970   -0.00300    3.30160    2.38640   16.99850   27.88190   37.15330
 5352.50000  134.33790    0.08370   65.61770  111.30480    9.07880   -0.00300    3.27740    2.41290   11.83630   19.93750   28.88950
 5353.00000  122.76020    0.08700   63.79400  111.21170    9.07790   -0.00310    3.25320    2.43950    9.97850   13.87760   22.46630
 5353.50000  105.50460    0.09020   63.40740  111.11860    9.07700   -0.00310    3.22900    2.46610    9.97750   12.81590   17.47330
 5354.00000   96.70560    0.09070   63.66120  111.02560    9.07610   -0.00310    3.20480    2.48890   10.39850   12.56260   14.87410
