~Version ---------------------------------------------------
VERS.   2.0 : CWLS log ASCII Standard -VERSION 2.0
WRAP.    NO : One line per depth step
DLM . SPACE : Column Data Section Delimiter
~Well ------------------------------------------------------
STRT .F                  200.0 : START DEPTH
STOP .F                11624.0 : STOP DEPTH
STEP .F                    0.5 : STEP
NULL .                -9999.25 : NULL VALUE
COMP .                         : COMPANY
WELL .                         : WELL
FLD  .                         : FIELD
LOC  .                         : LOCATION
PROV .                         : PROVINCE
CNTY .                         : COUNTY
STAT .                         : STATE
CTRY .                         : COUNTRY
SRVC .                         : SERVICE COMPANY
DATE .                         : DATE
UWI  .                         : UNIQUE WELL ID
API  .                         : API NUMBER
SLAT .WGS84 1.5739531858111988 : SURFACE LATITUDE
SLON .WGS84  7.766076827432002 : SURFACE LONGITUDE
DATUM.F                    nan : DEPTH DATUM ELEV
~Curve Information -----------------------------------------
DEPT.F     : 1 MEASURED DEPTH
GRR .GAPI  : GAMMA RAY FROM RESISTIVITY LOG
NPHI.DEC   : NEUTRON POROSITY
DTCO.US/F  : DELTA-T COMPRESSIONAL
DTSM.US/F  : DELTA-T SHEAR
CALR.IN    : CALIPER FROM RESISTIVITY LOG
DRHO.G/C3  : BULK DENSITY CORRECTION
PEFZ.B/E   : HRDD STANDARD RESOLUTION FORMATION PHOTOELECTRIC FACTOR
RHOZ.G/C3  : HRDD STANDARD RESOLUTION FORMATION DENSITY
RLA2.OHMM  : APPARENT RESISTIVITY FROM COMPUTED FOCUSING MODE 2
RLA4.OHMM  : APPARENT RESISTIVITY FROM COMPUTED FOCUSING MODE 4
RLA5.OHMM  : APPARENT RESISTIVITY FROM COMPUTED FOCUSING MODE 5
~Params ----------------------------------------------------
~Other -----------------------------------------------------
~ASCII -----------------------------------------------------
# ...
 8465.50000  105.98300    0.11270   74.18330  120.66700    8.52260    0.00780    2.95000    2.43890   46.69380   63.67420   82.71420
 8466.00000   86.09150    0.11540   71.27040  116.79300    8.52360    0.00830    3.00080    2.53920   47.63190   67.37640  169.39740
 8466.50000   78.16560    0.11820   68.55070  111.14330    8.52450    0.00870    3.17310    2.61460   48.58890   71.29380  346.92340
 8467.00000  112.21020    0.12130   69.23040  112.06580    8.52540    0.03390    3.28070    2.53660   49.56510   75.43910  391.84140
 8467.50000  117.57440    0.12550   71.36560  115.60310    8.52630    0.02380    3.26550    2.34340   50.56090   79.82540  226.91460
 8468.00000  122.43530    0.12960   80.59940  122.05620    8.52720    0.01160    3.20990    2.34340   52.28550   84.46670   99.72160
 8468.50000  127.27190    0.13320   81.62000  126.30170    8.52820    0.00220    3.04390    2.35500   54.62780   89.37780   98.01530
 8469.00000  132.10850    0.13290   81.55470  130.54700    8.52910   -0.00720    2.87790    2.37060   57.07500   93.64390  102.94240
 8469.50000  135.98140    0.13270   80.26010  132.52110    8.53000   -0.00810    2.71190    2.38620   59.63180   91.77180  117.07590
 8470.00000  135.39610    0.13250   79.99730  128.03170    8.53090   -0.00830    2.70640    2.39320   62.30320   89.93710  128.75750
 8470.50000  134.29560    0.13210   79.73440  122.31690    8.53190   -0.00850    2.70680    2.38280   65.09430   87.79930  126.43930
 8471.00000  132.78160    0.13160   79.59410  120.65460    8.53280   -0.00870    2.71670    2.36730   65.30770   85.66410  119.65530
 8471.50000  131.26750    0.13110   79.46460  124.62990    8.53370   -0.00880    2.72770    2.35190   62.72200   83.58100  110.50900
 8472.00000  129.04160    0.12450   79.33520  128.73800    8.53460   -0.00900    2.73880    2.33640   59.71570   81.54840  102.06190
 8472.50000  126.12030    0.12020   79.33340  132.09180    8.53550   -0.00920    2.74990    2.34000   56.85360   79.56530   94.26030
 8473.00000  124.61170    0.12030   79.40870  132.41370    8.53650   -0.00940    2.75190    2.35210   54.12860   79.43980   87.10320
 8473.50000  125.87160    0.12130   79.47860  132.22360    8.53740   -0.00960    2.74030    2.36420   56.08830   79.47780   85.11330
 8474.00000  130.49820    0.12240   79.53080  130.37870    8.53830   -0.00970    2.72870    2.37630   60.84140   80.31690   91.28270
 8474.50000  135.32090    0.12360   79.62170  128.53380    8.53920   -0.00980    2.69840    2.37770   65.99720   84.67530  108.06060
 8475.00000  138.93740    0.12500   79.79550  127.19500    8.54010   -0.00980    2.64290    2.37290   71.58990   89.27010  127.92250
 8475.50000  142.50160    0.12630   79.96940  126.76580    8.54110   -0.00980    2.63840    2.35600   77.65660   94.11440  146.60470
 8476.00000  145.82420    0.12960   80.14320  126.33660    8.54200   -0.00980    2.69470    2.33630   84.23740   99.03900  147.92340
 8476.50000  147.34410    0.13220   81.09010  127.65210    8.54290   -0.00980    2.75100    2.31670   86.12120   99.08660  139.43440
 8477.00000  147.55780    0.13380   84.15150  133.20490    8.54380   -0.00980    2.80620    2.29700   85.08300   91.96570  116.43440
 8477.50000  146.23970    0.13150   85.29060  134.80930    8.54480   -0.00980    2.86080    2.27740   70.40400   82.31100   96.01710
 8478.00000  129.56340    0.12760   82.41540  129.14590    8.54570   -0.00980    2.98750    2.27310   58.25750   73.66990   86.10270
 8478.50000  121.24010    0.12240   79.54020  117.73220    8.54660   -0.00970    2.99560    2.31480   48.20660   71.49260   85.56880
 8479.00000  117.94830    0.11780   76.66500  115.19480    8.54750   -0.00970    3.00360    2.35650   49.19200   74.39090   89.01120
 8479.50000  117.78620    0.11390   74.86900  116.52840    8.54840   -0.00970    3.01170    2.38300   54.10420   81.76460   98.52170
 8480.00000  119.77030    0.11580   75.26340  120.45050    8.54940   -0.00970    2.94520    2.38600   59.50690   89.86920  109.04840
 8480.50000  123.06180    0.11790   76.84620  125.28210    8.55030   -0.00970    2.86390    2.38620   65.44910   94.01850  120.69990
 8481.00000  134.40610    0.12080   79.07350  130.35400    8.55120   -0.00970    2.84590    2.38200   69.61470   91.42490  127.68560
 8481.50000  141.06850    0.12380   80.76770  135.42580    8.55210   -0.00970    2.83270    2.32270   58.77040   82.72320  111.44220
 8482.00000  141.66230    0.12470   81.79270  137.71320    8.55300   -0.00970    2.81950    2.26060   47.53830   74.84970   89.81720
 8482.50000  137.21420    0.12290   82.58890  134.07920    8.55400   -0.00970    2.80630    2.25970   43.83170   67.72560   75.58080
 8483.00000  127.10200    0.11990   82.43130  128.88670    8.55490   -0.00970    2.79310    2.26190   43.83290   64.07160   74.88640
 8483.50000  115.53740    0.11670   79.99650  123.69420    8.55580   -0.00960    2.79030    2.31770   48.10810   64.04460   74.70590
 8484.00000  104.22140    0.10350   76.32020  119.35340    8.55670   -0.00960    2.79230    2.37440   53.22950   69.46260   92.07480
 8484.50000  103.60930    0.10260   74.83030  119.44600    8.55770   -0.00960    2.79430    2.43110   58.89610   75.33900  117.14810
 8485.00000  104.19490    0.09890   75.14600  121.71850    8.55860   -0.00960    2.79630    2.43360   65.16600   81.71250  118.07740
 8485.50000  107.80610    0.09840   75.46170  124.11400    8.55950   -0.00700    2.80230    2.43250   70.07070   83.33780  118.32220
 8486.00000  114.08690    0.09850   75.77740  126.57630    8.56040   -0.00450    2.81140    2.42740   71.20370   84.04680  115.19350
 8486.50000  121.87170    0.09900   78.04260  129.03850    8.56130   -0.00190    2.85640    2.41010   61.68820   76.31700  103.93520
 8487.00000  129.05180    0.10350   80.94740  130.97610    8.56230    0.00060    2.90140    2.37350   48.72040   69.26950   88.35090
 8487.50000  133.44160    0.10870   83.96250  130.85480    8.56320    0.00240    2.94910    2.33700   42.66430   64.31210   75.10340
 8488.00000  136.80930    0.11510   83.96110  129.28580    8.56410    0.00240    3.00650    2.30050   44.13150   63.77240   72.21750
 8488.50000  136.21550    0.12340   83.40940  126.85660    8.56500    0.00240    3.06220    2.27260   49.30770   64.33230   77.23700
 8489.00000  117.45290    0.12390   76.79880  124.42740    8.56590    0.00240    3.08650    2.31430   55.09090   68.99380   86.54930
 8489.50000  114.65160    0.11620   73.63800  121.99820    8.56690    0.00190    3.08290    2.41610   61.55250   76.98030   96.98440
 8490.00000  115.98000    0.10850   73.79000  121.87590    8.56780    0.00140    3.06660    2.41860   62.94150   85.89140  108.67760
 8490.50000  118.26780    0.10820   74.61930  121.87200    8.56870    0.00100    3.04330    2.40890   63.45030   93.78590  118.81270
 8491.00000  120.55570    0.10960   75.59300  122.06650    8.56960    0.00050    3.01700    2.37950   63.96320   93.78840  118.81600
 8491.50000  120.85300    0.11200   76.56660  124.48170    8.57050    0.00000    3.01180    2.37330   62.81570   86.52000  117.57430
 8492.00000  123.24830    0.11450   77.71380  126.89700    8.57150   -0.00040    3.01360    2.37740   59.84470   78.32350  105.67940
 8492.50000  128.48360    0.11660   78.75050  127.48120    8.57240   -0.00090    2.98680    2.38140   54.35880   70.90350   92.36040
 8493.00000  134.94820    0.11680   79.21100  127.87780    8.57330   -0.00140    2.96010    2.38230   48.69830   64.18650   80.72000
 8493.50000  137.21400    0.11660   79.83060  128.46340    8.57420   -0.00210    2.93170    2.37460   43.62720   58.10580   70.54670
 8494.00000  139.44320    0.11620   80.39890  129.07150    8.57520   -0.00280    2.90120    2.35660   39.08420   56.73150   62.99380
 8494.50000  141.62780    0.11580   80.89980  129.96160    8.57610   -0.00340    2.87070    2.34310   36.23870   56.52050   60.91070
 8495.00000  143.68980    0.11560   81.40060  130.85160    8.57700   -0.00410    2.84140    2.32950   36.23970   56.31020   60.56140
 8495.50000  145.50340    0.11890   81.89780  134.30770    8.57790   -0.00480    2.81910    2.31600   36.24060   56.10070   60.21410
