~Version ---------------------------------------------------
VERS.   2.0 : CWLS log ASCII Standard -VERSION 2.0
WRAP.    NO : One line per depth step
DLM . SPACE : Column Data Section Delimiter
~Well ------------------------------------------------------
STRT .F                  200.0 : START DEPTH
STOP .F                11624.0 : STOP DEPTH
STEP .F                    0.5 : STEP
NULL .                -9999.25 : NULL VALUE
COMP .                         : COMPANY
WELL .                         : WELL
FLD  .                         : FIELD
LOC  .                         : LOCATION
PROV .                         : PROVINCE
CNTY .                         : COUNTY
STAT .                         : STATE
CTRY .                         : COUNTRY
SRVC .                         : SERVICE COMPANY
DATE .                         : DATE
UWI  .                         : UNIQUE WELL ID
API  .                         : API NUMBER
SLAT .WGS84 1.5739531858111988 : SURFACE LATITUDE
SLON .WGS84  7.766076827432002 : SURFACE LONGITUDE
DATUM.F                    nan : DEPTH DATUM ELEV
~Curve Information -----------------------------------------
DEPT.F     : 1 MEASURED DEPTH
GRR .GAPI  : GAMMA RAY FROM RESISTIVITY LOG
NPHI.DEC   : NEUTRON POROSITY
DTCO.US/F  : DELTA-T COMPRESSIONAL
DTSM.US/F  : DELTA-T SHEAR
CALR.IN    : CALIPER FROM RESISTIVITY LOG
DRHO.G/C3  : BULK DENSITY CORRECTION
PEFZ.B/E   : HRDD STANDARD RESOLUTION FORMATION PHOTOELECTRIC FACTOR
RHOZ.G/C3  : HRDD STANDARD RESOLUTION FORMATION DENSITY
RLA2.OHMM  : APPARENT RESISTIVITY FROM COMPUTED FOCUSING MODE 2
RLA4.OHMM  : APPARENT RESISTIVITY FROM COMPUTED FOCUSING MODE 4
RLA5.OHMM  : APPARENT RESISTIVITY FROM COMPUTED FOCUSING MODE 5
~Params ----------------------------------------------------
~Other -----------------------------------------------------
~ASCII -----------------------------------------------------
# ...
 11580.50000   -9999.25    0.18470   -9999.25   -9999.25    9.53620    0.24700    5.10530    2.27540    5.37200    5.96590    6.26290
 11581.00000   -9999.25    0.18340   -9999.25   -9999.25    9.79380    0.24740    5.00590    2.32500    5.39820    5.96720    6.92740
 11581.50000   -9999.25    0.14960   -9999.25   -9999.25   10.05140    0.24750    4.90640    2.37470    5.42450    6.23060    7.99520
 11582.00000   -9999.25    0.11240   -9999.25   -9999.25   10.12820    0.24620    4.80700    2.40340    5.45090    6.87840    8.93320
 11582.50000   -9999.25    0.07520   -9999.25   -9999.25   10.09760    0.22350    4.70760    2.40340    5.47740    7.19580    8.67170
 11583.00000   -9999.25    0.06520   -9999.25   -9999.25    9.88250    0.19320    4.60820    2.40340    5.50410    6.95230    7.79250
 11583.50000   -9999.25    0.06480   -9999.25   -9999.25    9.66750    0.16290    4.50870    2.40340    5.53090    6.55320    7.00240
 11584.00000   -9999.25    0.06960   -9999.25   -9999.25    9.45210    0.14960    4.44590    2.40340    5.55790    6.17700    6.29240
 11584.50000   -9999.25    0.08180   -9999.25   -9999.25    9.29830    0.15450    4.39200    2.40340    5.58500    5.87290    6.06130
 11585.00000   -9999.25    0.09560   -9999.25   -9999.25    9.26140    0.17970    4.33800    2.40340    5.61220    5.81130    5.98880
 11585.50000   -9999.25    0.10950   -9999.25   -9999.25    9.22890    0.19930    4.28410    2.40340    5.61940    5.90710    6.10430
 11586.00000   -9999.25    0.12330   -9999.25   -9999.25    9.22730    0.12430    4.23020    2.40340    5.57270    6.06390    6.40660
 11586.50000   -9999.25    0.13710   -9999.25   -9999.25    9.32800    0.07770    4.20460    2.40340    5.52630    6.03850    6.72380
 11587.00000   -9999.25    0.15090   -9999.25   -9999.25    9.75810    0.05450    4.19180    2.40280    5.48020    5.88780    6.87580
 11587.50000   -9999.25    0.16190   -9999.25   -9999.25   10.18740    0.03130    4.17900    2.40090    5.43460    5.77960    6.63050
 11588.00000   -9999.25    0.16080   -9999.25   -9999.25   10.44520    0.00810    4.16620    2.39880    5.38940    5.67330    6.01070
 11588.50000   -9999.25    0.14670   -9999.25   -9999.25   10.63510    0.00620    4.17630    2.39260    5.34450    5.56890    5.68950
 11589.00000   -9999.25    0.12200   -9999.25   -9999.25   10.27890    0.05470    4.18660    2.38640    5.30000    5.46650    5.62150
 11589.50000   -9999.25    0.09720   -9999.25   -9999.25    9.92310    0.09870    4.20070    2.37210    5.25590    5.37160    5.58130
 11590.00000   -9999.25    0.07250   -9999.25   -9999.25    9.56750    0.13960    4.22510    2.34740    5.21210    5.37280    5.60930
 11590.50000   -9999.25    0.06550   -9999.25   -9999.25    9.22770    0.13860    4.24940    2.32260    5.16870    5.37400    5.63730
 11591.00000   -9999.25    0.06600   -9999.25   -9999.25    9.17980    0.09770    4.27380    2.29790    5.12570    5.37510    5.69600
 11591.50000   -9999.25    0.07210   -9999.25   -9999.25    9.14530    0.05680    4.33480    2.28490    5.08300    5.37630    5.79400
 11592.00000   -9999.25    0.11630   -9999.25   -9999.25    9.18520    0.01590    4.48860    2.28490    5.04070    5.38600    5.89370
 11592.50000   -9999.25    0.17190   -9999.25   -9999.25    9.27210    0.03160    4.79010    2.28490    4.99870    5.42220    5.99520
 11593.00000   -9999.25    0.22620   -9999.25   -9999.25    9.35870    0.08210    5.04990    2.28480    4.95710    5.45860    6.09840
 11593.50000   -9999.25    0.22730   -9999.25   -9999.25    9.44540    0.14450    5.37950    2.28480    4.92750    5.49520    6.20340
 11594.00000   -9999.25    0.22580   -9999.25   -9999.25    9.52530    0.18810    5.43730    2.28480    4.91220    5.53200    6.31020
 11594.50000   -9999.25    0.18960   -9999.25   -9999.25    9.55840    0.20590    5.48870    2.28470    4.89710    5.54210    6.47040
 11595.00000   -9999.25    0.14250   -9999.25   -9999.25    9.59140    0.22130    5.45290    2.28470    4.88190    5.51780    6.85710
 11595.50000   -9999.25    0.09540   -9999.25   -9999.25    9.62450    0.21900    5.22490    2.28470    4.86690    5.49360    7.13310
 11596.00000   -9999.25    0.06140   -9999.25   -9999.25    9.55560    0.17660    5.01960    2.28460    4.85180    5.47050    6.47890
 11596.50000   -9999.25    0.05940   -9999.25   -9999.25    9.43880    0.12670    4.98690    2.28460    4.83680    5.46130    5.88460
 11597.00000   -9999.25    0.07510   -9999.25   -9999.25    9.23740    0.08830    4.95720    2.28460    4.82190    5.45210    5.74050
 11597.50000   -9999.25    0.09510   -9999.25   -9999.25    9.02990    0.06430    4.92740    2.28450    4.81100    5.44300    5.73470
 11598.00000   -9999.25    0.10870   -9999.25   -9999.25    8.89250    0.04360    4.89770    2.28450    4.81210    5.43380    5.72890
 11598.50000   -9999.25    0.10920   -9999.25   -9999.25    8.83830    0.03520    4.68380    2.28450    4.81310    5.42470    5.72310
 11599.00000   -9999.25    0.09020   -9999.25   -9999.25    8.78430    0.03040    4.19870    2.28440    4.81410    5.41550    5.71730
 11599.50000   -9999.25    0.06270   -9999.25   -9999.25    8.73020    0.02560    3.90260    2.28440    4.81520    5.40640    5.71160
 11600.00000   -9999.25    0.05910   -9999.25   -9999.25    8.71740    0.01950    3.77450    2.28430    4.81620    5.39730    5.70580
 11600.50000   -9999.25    0.06400   -9999.25   -9999.25    8.72230    0.01330    3.57770    2.28430    4.81730    5.38830    5.70000
 11601.00000   -9999.25    0.06810   -9999.25   -9999.25    8.72720    0.00720    3.37910    2.28430    4.81830    5.37920    5.69430
 11601.50000   -9999.25    0.06810   -9999.25   -9999.25    8.73200    0.00100    3.31090    2.28420    4.81940    5.37010    5.68850
 11602.00000   -9999.25    0.06810   -9999.25   -9999.25    8.73690    0.00050    3.31120    2.28420    4.82040    5.36110    5.68280
 11602.50000   -9999.25    0.06810   -9999.25   -9999.25    8.74180    0.00130    3.32000    2.28420    4.82150    5.35210    5.67710
 11603.00000   -9999.25    0.06810   -9999.25   -9999.25    8.74660    0.00260    3.34020    2.28410    4.82250    5.34310    5.67130
 11603.50000   -9999.25    0.06810   -9999.25   -9999.25    8.75150    0.00530    3.37080    2.28410    4.82350    5.33410    5.66560
 11604.00000   -9999.25    0.06810   -9999.25   -9999.25    8.75640    0.00630    3.43320    2.28410    4.82460    5.32510    5.65990
 11604.50000   -9999.25    0.06950   -9999.25   -9999.25    8.76120    0.00740    3.57310    2.28400    4.82560    5.31620    5.65420
 11605.00000   -9999.25    0.08490   -9999.25   -9999.25    8.76610    0.01150    3.94160    2.28400    4.82670    5.30720    5.64850
 11605.50000   -9999.25    0.09880   -9999.25   -9999.25    8.77090    0.06080    4.41310    2.28400    4.82770    5.29830    5.64280
 11606.00000   -9999.25    0.09880   -9999.25   -9999.25    8.77580    0.15980    4.58360    2.28390    4.82880    5.28940    5.63710
 11606.50000   -9999.25    0.09510   -9999.25   -9999.25    8.78070    0.20000    4.62120    2.28390    4.82980    5.28050    5.63140
 11607.00000   -9999.25    0.03790   -9999.25   -9999.25    8.78550    0.20560    4.31240    2.28390    4.83090    5.27160    5.62570
 11607.50000   -9999.25    0.03030   -9999.25   -9999.25    8.79040    0.20510    3.99100    2.28380    4.83190    5.26280    5.62000
 11608.00000   -9999.25    0.03240   -9999.25   -9999.25    8.79530    0.13410    3.75970    2.28380    4.83300    5.25390    5.60210
 11608.50000   -9999.25    0.05590   -9999.25   -9999.25    8.80010   -0.00930    3.69760    2.28380    4.83400    5.22510    5.57660
 11609.00000   -9999.25    0.09290   -9999.25   -9999.25    8.80500   -0.01150    3.63540    2.28370    4.78670    5.17830    5.55130
 11609.50000   -9999.25    0.12990   -9999.25   -9999.25    8.88760   -0.01380    3.67980    2.28370    4.67850    5.13190    5.49430
 11610.00000   -9999.25    0.13430   -9999.25   -9999.25    8.98530   -0.01400    3.76010    2.28360    4.27390    5.06860    5.42870
