~Version ---------------------------------------------------
VERS.   2.0 : CWLS log ASCII Standard -VERSION 2.0
WRAP.    NO : One line per depth step
DLM . SPACE : Column Data Section Delimiter
~Well ------------------------------------------------------
STRT .F                  200.0 : START DEPTH
STOP .F                11624.0 : STOP DEPTH
STEP .F                    0.5 : STEP
NULL .                -9999.25 : NULL VALUE
COMP .                         : COMPANY
WELL .                         : WELL
FLD  .                         : FIELD
LOC  .                         : LOCATION
PROV .                         : PROVINCE
CNTY .                         : COUNTY
STAT .                         : STATE
CTRY .                         : COUNTRY
SRVC .                         : SERVICE COMPANY
DATE .                         : DATE
UWI  .                         : UNIQUE WELL ID
API  .                         : API NUMBER
SLAT .WGS84 1.5739531858111988 : SURFACE LATITUDE
SLON .WGS84  7.766076827432002 : SURFACE LONGITUDE
DATUM.F                    nan : DEPTH DATUM ELEV
~Curve Information -----------------------------------------
DEPT.F     : 1 MEASURED DEPTH
GRR .GAPI  : GAMMA RAY FROM RESISTIVITY LOG
NPHI.DEC   : NEUTRON POROSITY
DTCO.US/F  : DELTA-T COMPRESSIONAL
DTSM.US/F  : DELTA-T SHEAR
CALR.IN    : CALIPER FROM RESISTIVITY LOG
DRHO.G/C3  : BULK DENSITY CORRECTION
PEFZ.B/E   : HRDD STANDARD RESOLUTION FORMATION PHOTOELECTRIC FACTOR
RHOZ.G/C3  : HRDD STANDARD RESOLUTION FORMATION DENSITY
RLA2.OHMM  : APPARENT RESISTIVITY FROM COMPUTED FOCUSING MODE 2
RLA4.OHMM  : APPARENT RESISTIVITY FROM COMPUTED FOCUSING MODE 4
RLA5.OHMM  : APPARENT RESISTIVITY FROM COMPUTED FOCUSING MODE 5
~Params ----------------------------------------------------
~Other -----------------------------------------------------
~ASCII -----------------------------------------------------
# ...
 11130.50000  138.28100    0.24900   88.01730  157.26900   10.45760    0.24700    7.69890    2.22980    5.98090    6.85090    7.47420
 11131.00000  139.86840    0.23750   88.96910  156.61390   10.47460    0.21770    7.69890    2.25040    5.85460    6.81640    7.60260
 11131.50000  141.26170    0.22590   89.29560  156.49690   10.51470    0.18800    7.69890    2.26020    5.85330    6.78210    7.73330
 11132.00000  140.59900    0.22510   89.15040  156.61320   10.59470    0.15830    7.72780    2.25940    5.85200    6.84960    7.86610
 11132.50000  138.32460    0.22690   88.52940  157.42070   10.67440    0.13380    7.78340    2.25780    5.85080    7.05210    7.97110
 11133.00000  128.20260    0.23430   86.52430  156.55740   10.75430    0.13420    7.83900    2.25550    5.92100    7.26060    8.04930
 11133.50000  115.85790    0.24340   83.22910  154.65030   10.84450    0.15930    8.44830    2.25320    6.08870    7.47530    8.12830
 11134.00000  113.00760    0.25260   81.34450  150.39130   10.94420    0.21100    9.12080    2.20030    6.26120    7.96190    8.28830
 11134.50000  113.94460    0.26170   80.34430  146.58630   11.04380    0.24330    9.19940    2.14720    6.43860    8.62750   10.09310
 11135.00000  117.14710    0.26980   80.23930  143.22350   11.00690    0.24430    9.27790    2.09410    6.82980    9.42100   14.06610
 11135.50000  121.39840    0.26980   80.85140  140.61330   10.77200    0.24350    9.35640    2.06140    7.54980   10.28740   14.68230
 11136.00000  125.64960    0.26980   81.89740  139.68950   10.45800    0.22530    9.44650    2.07520    8.34570   10.90360   14.77250
 11136.50000  129.90080    0.26560   82.64900  139.91010   10.14410    0.18420    9.54380    2.09530    9.22550   11.11660   14.49590
 11137.00000  134.15200    0.25300   82.74690  140.13070    9.83010    0.14310    9.64100    2.11550    9.31080   10.80920   13.77680
 11137.50000  138.40330    0.23460   82.84470  142.84600    9.78330    0.10200    9.73830    2.12760    8.01280   10.51030   13.09340
 11138.00000  142.02420    0.23540   82.94260  146.63450    9.87530    0.06100    9.83560    2.12890    6.60900   10.21970   12.44390
 11138.50000  144.54050    0.24770   83.04050  150.42300   10.17960    0.05740    9.90570    2.12990    5.53800    9.93710   11.82660
 11139.00000  147.05670    0.26380   83.13840  154.21150   10.92580    0.09880    9.90570    2.12990    5.53680    9.66230   11.23990
 11139.50000  146.79780    0.26450   83.43380  158.00000   11.67210    0.17760    9.86230    2.12990    5.53550    9.89280   10.96320
 11140.00000  145.86530    0.26520   84.20110  162.37360   12.41980    0.18160    9.72930    2.08840    5.53430   10.13090   10.82040
 11140.50000  127.43580    0.25970   87.55740  164.14400   13.16630    0.18550    9.57260    2.04640    5.53310   10.37470   10.81810
 11141.00000  103.59170    0.21640   88.46300  165.04360   13.91230    0.19520    9.41780    2.00430    5.95460   10.83580   11.69910
 11141.50000   79.74750    0.19760   88.78730  165.90250   14.32870    0.21140    9.36410    1.96230    6.77360   11.39760   13.82920
 11142.00000   78.20480    0.19840   88.70070  166.76140   13.97160    0.22770    9.31050    1.95910    7.70520   11.98850   16.34710
 11142.50000   93.26860    0.22060   88.18440  167.62030   13.51950    0.24400    9.25690    1.95840    8.76500   12.61010   15.86470
 11143.00000  108.33240    0.25400   87.50440  168.47920   13.06690    0.24810    9.22430    1.95900    9.97060   12.98290   15.20870
 11143.50000  115.58570    0.26920   85.61550  168.27140   12.61470    0.24890    9.19180    1.96020    9.85470   12.61950   14.57990
 11144.00000  117.09360    0.26970   84.69290  167.61540   12.16310    0.24890    9.15940    1.96880    9.54540   11.91750   13.98150
 11144.50000  118.60160    0.26700   84.53980  166.61340   11.71080    0.24300    9.07360    2.01480    9.22840   11.25470   13.51060
 11145.00000  124.07440    0.25980   84.38670  165.61150   11.25840    0.23660    8.98710    2.06070    8.92180   10.62860   12.50160
 11145.50000  130.96700    0.25510   84.46900  165.02260   10.88070    0.23670    8.93170    2.10660    8.62550   10.03740   11.47140
 11146.00000  132.51250    0.25240   84.77460  164.71400   10.73130    0.23840    8.93670    2.15260    8.33900    9.47910   10.52610
 11146.50000  127.66320    0.24970   85.21560  164.40540   10.64470    0.23960    8.99520    2.16170    8.06200    8.95190    9.65860
 11147.00000  118.52390    0.25060   86.58530  164.34710   10.72510    0.24080    9.05370    2.15900    7.79430    8.45400    9.05870
 11147.50000  117.58950    0.25260   89.45250  164.47140   10.80540    0.24220    9.11220    2.15320    7.53540    8.09180    8.80360
 11148.00000  120.43250    0.25650   89.58630  164.59570   10.88540    0.24410    9.17080    2.14740    7.28510    8.04460    8.55560
 11148.50000  131.43330    0.26040   86.70730  163.89420   10.94830    0.24610    9.21650    2.11380    7.24550    7.99770    8.44050
 11149.00000  142.43410    0.26070   83.82820  163.11950   11.00960    0.24710    9.14210    2.07220    7.24400    8.01240    8.33030
 11149.50000  145.51860    0.25870   82.70360  162.40230   11.07040    0.24810    9.02500    2.03060    7.24250    8.09320    8.31320
 11150.00000  134.08750    0.25780   87.04680  161.68520   11.03770    0.24520    8.82920    1.99620    7.24110    8.17480    8.31840
 11150.50000  124.15930    0.26280   89.31370  160.96810   10.97920    0.23250    8.63340    1.99530    7.23960    8.25730    8.49700
 11151.00000  126.49730    0.26790   88.57730  160.25100   10.88100    0.18680    8.43760    1.99930    7.34020    8.34050    8.67940
 11151.50000  129.88140    0.26830   86.02390  159.24190   10.73170    0.14100    8.27050    2.02900    7.47090    8.42460    8.86570
 11152.00000  133.26550    0.26860   82.16370  157.77360   10.58220    0.09530    8.21310    2.07160    7.60380    8.50960    9.05600
 11152.50000  135.85750    0.26890   80.62690  156.66470   10.43560    0.04960    8.15570    2.11410    7.73910    8.59540    9.25040
 11153.00000  136.51970    0.17850   79.21310  156.63420   10.15850    0.02800    8.09830    2.15660    7.87690    8.68200    9.44900
 11153.50000  135.56030    0.17900   78.62590  156.60370    9.84980    0.06530    8.05520    2.19320    8.01700    8.76120    9.65190
 11154.00000  134.01160    0.18920   78.27000  156.57320    9.54200    0.14420    8.05520    2.19430    8.03790    8.81990    9.85910
 11154.50000  129.69850    0.20270   78.70270  156.54280    9.23410    0.22060    8.05520    2.19550    7.99290    8.87900   10.07070
 11155.00000  126.81810    0.21620   83.42930  156.51230    9.04380    0.24590    8.05520    2.19590    7.94810    8.93860   10.28690
 11155.50000  127.54550    0.22970   88.49200  156.48180    9.02480    0.24370    8.05520    2.18470    7.90350    8.99850   11.16750
 11156.00000  128.93110    0.24320   88.32480  156.45130    9.22940    0.24150    8.08770    2.14430    7.85920    8.96010   12.27770
 11156.50000  130.31660    0.24930   87.94910  156.42080    9.45580    0.20150    8.12230    2.12470    7.78730    8.88220   13.01650
 11157.00000  131.77660    0.25150   87.57340  156.39030    9.65250    0.16130    8.15700    2.13350    7.70140    8.80500    9.62860
 11157.50000  133.85750    0.25360   87.18310  156.35980    9.72820    0.12120    8.19160    2.15810    7.61630    8.72210    9.59330
 11158.00000  136.60950    0.25510   86.26920  156.32930    9.80390    0.08110    8.23350    2.18270    7.53230    8.54750    9.55810
 11158.50000  139.58690    0.25660   85.70760  155.19820    9.82460    0.03450    8.29640    2.18270    7.44910    8.37640    9.52310
 11159.00000  150.88810    0.25820   85.32850  152.54670    9.79450    0.01630    8.35940    2.18270    7.36020    8.20870    9.45980
 11159.50000  162.04040    0.25930   85.53450  149.89510    9.76420    0.01920    8.42240    2.18240    7.26890    8.04440    9.29050
 11160.00000  166.07330    0.25930   85.74050  147.98100    9.73090    0.02430    8.48530    2.17800    7.17880    7.88330    8.86980
