~Version ---------------------------------------------------
VERS.   2.0 : CWLS log ASCII Standard -VERSION 2.0
WRAP.    NO : One line per depth step
DLM . SPACE : Column Data Section Delimiter
~Well ------------------------------------------------------
STRT .F                  200.0 : START DEPTH
STOP .F                11624.0 : STOP DEPTH
STEP .F                    0.5 : STEP
NULL .                -9999.25 : NULL VALUE
COMP .                         : COMPANY
WELL .                         : WELL
FLD  .                         : FIELD
LOC  .                         : LOCATION
PROV .                         : PROVINCE
CNTY .                         : COUNTY
STAT .                         : STATE
CTRY .                         : COUNTRY
SRVC .                         : SERVICE COMPANY
DATE .                         : DATE
UWI  .                         : UNIQUE WELL ID
API  .                         : API NUMBER
SLAT .WGS84 1.5739531858111988 : SURFACE LATITUDE
SLON .WGS84  7.766076827432002 : SURFACE LONGITUDE
DATUM.F                    nan : DEPTH DATUM ELEV
~Curve Information -----------------------------------------
DEPT.F     : 1 MEASURED DEPTH
GRR .GAPI  : GAMMA RAY FROM RESISTIVITY LOG
NPHI.DEC   : NEUTRON POROSITY
DTCO.US/F  : DELTA-T COMPRESSIONAL
DTSM.US/F  : DELTA-T SHEAR
CALR.IN    : CALIPER FROM RESISTIVITY LOG
DRHO.G/C3  : BULK DENSITY CORRECTION
PEFZ.B/E   : HRDD STANDARD RESOLUTION FORMATION PHOTOELECTRIC FACTOR
RHOZ.G/C3  : HRDD STANDARD RESOLUTION FORMATION DENSITY
RLA2.OHMM  : APPARENT RESISTIVITY FROM COMPUTED FOCUSING MODE 2
RLA4.OHMM  : APPARENT RESISTIVITY FROM COMPUTED FOCUSING MODE 4
RLA5.OHMM  : APPARENT RESISTIVITY FROM COMPUTED FOCUSING MODE 5
~Params ----------------------------------------------------
~Other -----------------------------------------------------
~ASCII -----------------------------------------------------
# ...
 7550.50000   89.55000    0.02700   57.86310   98.82620    9.12460   -0.00600    3.99140    2.57080  118.86850  270.43660  653.87400
 7551.00000   78.23700    0.02860   55.68410   98.79120    9.12560   -0.00700    3.88510    2.53460  131.91250  236.06010  492.66170
 7551.50000   66.92400    0.03050   56.08470   98.75620    9.12650   -0.00800    3.77880    2.53040  146.38800  214.83520  371.19610
 7552.00000   59.01690    0.03250   57.87810   98.72110    9.12750   -0.00900    3.71960    2.52910  162.45180  214.81310  286.99890
 7552.50000   65.49840    0.03370   59.67150   98.68610    9.12840   -0.01000    3.72030    2.53230  176.33800  226.29800  312.61560
 7553.00000   71.97980    0.03400   60.42800   98.65110    9.12940   -0.01090    3.94200    2.66350  179.13230  270.39470  478.48620
 7553.50000   78.46130    0.03430   60.15990   98.61610    9.13040   -0.01190    4.08660    2.65920  181.97080  323.08440  732.36650
 7554.00000   84.45070    0.03460   57.82940   98.58110    9.13130   -0.01260    4.10020    2.63960  184.85430  325.75980 1093.21140
 7554.50000   84.47250    0.03500   55.48290   98.54610    9.13230   -0.01250    4.11370    2.61990  154.21740  325.72630 1106.14860
 7555.00000   84.14350    0.03530   55.47360   98.51100    9.13320   -0.01250    3.94300    2.61580  136.55070  231.13300  666.56210
 7555.50000   80.95410    0.03560   56.49330   98.47600    9.13420   -0.01250    3.77210    2.61520  119.92710  159.68690  311.83520
 7556.00000   76.49820    0.03590   58.55020   98.44100    9.13510   -0.01240    3.60130    2.61460   98.63370  124.88430  164.78260
 7556.50000   72.04220    0.04160   59.40280   98.40600    9.13610   -0.01240    3.43040    2.61400   81.12090  104.36590  137.70690
 7557.00000   67.58620    0.04830   59.64380   98.37100    9.13200   -0.01230    3.26890    2.61330   66.71760   87.21870  115.08010
 7557.50000   63.13020    0.04830   59.63500   98.33430    9.07080   -0.01230    3.19120    2.61230   54.87170   72.88870   96.17110
 7558.00000   62.74450    0.04830   59.39320   98.29700    9.00960   -0.01230    3.11350    2.61130   48.32360   64.77010   80.36910
 7558.50000   68.98010    0.04830   59.10330   98.25960    8.90210   -0.01210    3.03580    2.61030   46.04330   60.39380   68.05320
 7559.00000   76.43620    0.04820   58.81350   98.22230    8.64420   -0.01190    2.95810    2.60930   45.52960   59.78500   63.45650
 7559.50000   83.89230    0.04820   58.52360   98.18490    8.64520   -0.01180    2.97850    2.60830   45.52490   59.77880   63.22520
 7560.00000   90.90660    0.04820   58.21160   98.14750    8.64620   -0.01160    3.01370    2.60560   45.52010   59.77260   69.82430
 7560.50000   96.74710    0.04820   57.64860   98.89640    8.71200   -0.01140    3.04890    2.58770   47.76290   62.77540   84.84560
 7561.00000  102.58760    0.04810   57.33650   99.90060    8.83670   -0.01090    3.08410    2.55190   53.65370   76.28020  103.09850
 7561.50000  103.42480    0.04770   58.70450  100.90480    8.96130   -0.00940    3.10930    2.51620   60.27110   92.69030  125.27810
 7562.00000   99.30550    0.04570   61.21240  101.90910    9.08600   -0.00790    3.10960    2.48420   67.70460  112.63060  152.22920
 7562.50000   95.18610    0.04070   62.18530  102.91330    9.21060   -0.00630    3.19390    2.48160   77.00220  136.86070  184.97830
 7563.00000   91.06670    0.03570   62.06240  103.91750    9.33530   -0.00480    3.29900    2.47910   93.62300  166.30340  221.98120
 7563.50000   66.61010    0.03110   61.59120  105.21420    9.34520   -0.00330    3.39780    2.47800  114.40410  202.07990  247.95480
 7564.00000   41.89200    0.02950   61.32010  108.73810    9.31340   -0.00180    3.49300    2.47790  139.79800  231.93750  281.28820
 7564.50000   27.44870    0.02790   61.49120  108.70070    9.28160   -0.00180    3.64790    2.51290  170.82840  259.08280  381.69900
 7565.00000   26.53490    0.02730   61.29520  107.14430    9.24980   -0.00170    3.81320    2.57060  208.74670  319.16340  552.62880
 7565.50000   30.38570    0.02680   60.72050  103.79540    9.21950   -0.00170    4.38170    2.62840  255.08150  409.29390  800.10320
 7566.00000   37.59620    0.02630   59.50540   97.30240    9.19180   -0.00160    4.69960    2.67850  311.70100  524.87700  993.87680
 7566.50000   44.48240    0.02590   56.79480   90.80930    9.16420   -0.00160    4.75380    2.68520  341.65490  635.20120 1001.65490
 7567.00000   51.36860    0.02580   54.08420   84.83010    9.13650   -0.00160    4.76370    2.69190  341.61950  642.45640  995.71620
 7567.50000   58.25480    0.02580   52.73530   80.33940    9.10880   -0.00150    4.77370    2.69230  341.58400  636.82400  956.71430
 7568.00000   65.14100    0.02650   52.59740   81.89990    9.02960   -0.00150    4.77870    2.69130  325.61250  586.80130  897.79460
 7568.50000   72.02720    0.03340   52.80370   86.95470    8.86250   -0.00150    4.77900    2.68710  303.27200  505.75970  850.40720
 7569.00000   94.78460    0.04030   54.16580   93.62690    8.72780   -0.00140    4.77920    2.65340  244.19780  435.91060  839.22780
 7569.50000  108.95240    0.04720   55.70670  100.18030    8.69600   -0.00140    4.38070    2.59230  196.63080  375.70810  710.15810
 7570.00000  120.92890    0.05410   59.38580  103.47280    8.66420   -0.00180    3.97400    2.53120  158.32920  323.82000  530.05760
 7570.50000  127.55240    0.05680   63.06500  106.76530    8.63240   -0.00210    3.67510    2.47020  124.55770  261.71800  395.63140
 7571.00000  123.35350    0.05730   66.58570  107.73960    8.60060   -0.00250    3.51240    2.45180   96.59200  202.98510  299.40150
 7571.50000  119.15450    0.05500   66.57640  107.90860    8.56880   -0.00290    3.34960    2.46530   82.48960  157.43260  232.19840
 7572.00000  116.68990    0.05140   66.24090  108.07760    8.53700   -0.00330    3.19230    2.48970   81.88470  122.10270  180.07960
 7572.50000  115.88650    0.04780   65.35060  107.96010    8.52780   -0.00380    3.19350    2.51410   81.28420   94.70120  139.65920
 7573.00000  115.04760    0.04420   64.46020  107.71760    8.52880   -0.00430    3.19460    2.52910   80.68810   89.97260  108.31160
 7573.50000  114.14950    0.04100   63.56280  107.47510    8.52980   -0.00490    3.18680    2.53440   80.09640   89.31270   94.55420
 7574.00000  111.50480    0.03990   62.84300  106.13780    8.53080   -0.00530    3.17850    2.53980   79.50910   88.65760   93.86070
 7574.50000  108.38760    0.04260   62.61880  104.16240    8.53180   -0.00560    3.17020    2.54290   78.92600   88.00730   93.17240
 7575.00000  105.27050    0.04530   62.39860  102.18710    8.53280   -0.00590    3.16200    2.54510   78.34720   87.36180   92.48910
 7575.50000  104.15730    0.04790   62.22410  101.26390    8.53380   -0.00620    3.15370    2.54730   77.77260   87.82180   93.89290
 7576.00000  103.08820    0.05060   62.07460  100.56510    8.58280   -0.00650    3.14540    2.54840   79.14830   89.92010  104.79350
 7576.50000  103.72270    0.05190   62.04920   99.86620    8.64520   -0.00680    3.13710    2.54750   81.03950   95.18030  124.64830
 7577.00000  107.79310    0.05190   62.02380   99.26190    8.70770   -0.00690    3.12880    2.54660   82.97580  113.21920  148.26490
 7577.50000  113.35140    0.04930   61.99840  100.14920    8.79850   -0.00680    3.13630    2.54410   84.95850  129.23350  161.31000
 7578.00000  139.56050    0.04610   62.16880  101.03640    8.96020   -0.00680    3.16710    2.51700   95.32940  131.07180  159.51330
 7578.50000  139.57790    0.04290   62.84930  101.92360    9.12200   -0.00670    3.19790    2.47920   96.85740  132.93620  156.79060
 7579.00000  132.75530    0.04080   63.52980  102.81090    9.28370   -0.00620    3.22860    2.44410   98.40980  134.82730  154.11430
 7579.50000  121.02430    0.04150   64.21030  103.69810    9.32760   -0.00560    3.25170    2.44210   99.98710  136.74510  152.68850
 7580.00000  110.58850    0.04490   64.89080  104.58540    9.32600   -0.00500    3.27300    2.44740  101.58970  138.69030  152.67290
 7580.50000  101.08010    0.04810   65.51660  105.47260    9.32450   -0.00460    3.42290    2.46950  103.00770  140.66300  161.85870
