~Version ---------------------------------------------------
VERS.   2.0 : CWLS log ASCII Standard -VERSION 2.0
WRAP.    NO : One line per depth step
DLM . SPACE : Column Data Section Delimiter
~Well ------------------------------------------------------
STRT .F                  200.0 : START DEPTH
STOP .F                11624.0 : STOP DEPTH
STEP .F                    0.5 : STEP
NULL .                -9999.25 : NULL VALUE
COMP .                         : COMPANY
WELL .                         : WELL
FLD  .                         : FIELD
LOC  .                         : LOCATION
PROV .                         : PROVINCE
CNTY .                         : COUNTY
STAT .                         : STATE
CTRY .                         : COUNTRY
SRVC .                         : SERVICE COMPANY
DATE .                         : DATE
UWI  .                         : UNIQUE WELL ID
API  .                         : API NUMBER
SLAT .WGS84 1.5739531858111988 : SURFACE LATITUDE
SLON .WGS84  7.766076827432002 : SURFACE LONGITUDE
DATUM.F                    nan : DEPTH DATUM ELEV
~Curve Information -----------------------------------------
DEPT.F     : 1 MEASURED DEPTH
GRR .GAPI  : GAMMA RAY FROM RESISTIVITY LOG
NPHI.DEC   : NEUTRON POROSITY
DTCO.US/F  : DELTA-T COMPRESSIONAL
DTSM.US/F  : DELTA-T SHEAR
CALR.IN    : CALIPER FROM RESISTIVITY LOG
DRHO.G/C3  : BULK DENSITY CORRECTION
PEFZ.B/E   : HRDD STANDARD RESOLUTION FORMATION PHOTOELECTRIC FACTOR
RHOZ.G/C3  : HRDD STANDARD RESOLUTION FORMATION DENSITY
RLA2.OHMM  : APPARENT RESISTIVITY FROM COMPUTED FOCUSING MODE 2
RLA4.OHMM  : APPARENT RESISTIVITY FROM COMPUTED FOCUSING MODE 4
RLA5.OHMM  : APPARENT RESISTIVITY FROM COMPUTED FOCUSING MODE 5
~Params ----------------------------------------------------
~Other -----------------------------------------------------
~ASCII -----------------------------------------------------
# ...
 10710.50000  135.22840    0.09540   76.52490  125.14790    8.83630   -0.00510    3.11020    2.35740   24.42700   27.60890   36.97640
 10711.00000  127.70980    0.09310   76.41560  125.40600    8.83950   -0.00350    3.10640    2.35080   24.08760   26.81570   31.70720
 10711.50000  119.36620    0.09090   76.30620  125.66310    8.83980   -0.00070    3.10220    2.35800   23.75280   26.04540   29.59800
 10712.00000  117.75110    0.08860   76.19690  125.92020    8.83920   -0.00050    3.09800    2.37070   23.42270   25.29710   28.93060
 10712.50000  120.00760    0.08790   76.19080  126.17720    8.83860   -0.00160    3.08820    2.38150   23.19060   25.44660   28.27830
 10713.00000  127.90790    0.08790   76.24630  126.37330    8.83800   -0.00120    3.06250    2.38600   23.27540   25.63730   27.64070
 10713.50000  129.21560    0.08790   76.33670  126.11850    8.83740    0.00070    3.03920    2.38990   23.36060   25.82930   27.22090
 10714.00000  129.00180    0.08890   76.56810  125.86360    8.83680    0.00250    3.04910    2.39460   23.44600   26.02280   27.04190
 10714.50000  128.53040    0.09160   76.85580  125.47220    8.83620    0.00210    3.05900    2.39790   23.53180   26.50360   27.69330
 10715.00000  127.94860    0.09600   76.94170  125.01160    8.83560    0.00130    3.06880    2.39940   23.61790   27.04840   29.83440
 10715.50000  127.31350    0.10040   76.19470  124.55100    8.83500    0.00050    3.23180    2.40070   23.70430   27.60430   32.12410
 10716.00000  121.88730    0.10490   74.03670  124.63220    8.83440    0.00220    3.50030    2.40130   23.79110   28.17160   32.33080
 10716.50000  120.62040    0.10690   72.96060  124.82120    8.83380    0.07390    3.80750    2.40080   23.87810   28.58930   32.53880
 10717.00000  119.35340    0.10430   74.62740  126.28560    8.83320    0.10280    4.13810    2.39960   23.96550   28.58650   32.35760
 10717.50000  119.91920    0.08550   77.06100  129.52210    8.83260    0.13170    4.31700    2.39830   24.05320   28.58380   32.14480
 10718.00000  126.37680    0.07110   77.06840  130.62010    8.83200    0.13460    4.20190    2.39700   24.14120   28.56190   31.50440
 10718.50000  128.41410    0.07050   76.36520  127.93190    8.83140    0.11360    3.81440    2.39590   24.22950   28.29590   30.79370
 10719.00000  128.69790    0.06980   75.35490  124.50440    8.83080    0.08420    3.42690    2.39660   24.31810   28.03230   30.09900
 10719.50000  128.98160    0.07380   75.51600  123.29220    8.83020    0.05370    3.08880    2.39930   24.40710   27.77120   29.60910
 10720.00000  128.38440    0.08040   76.04090  123.01910    8.82960    0.02310    3.06300    2.40190   24.25380   27.51250   29.18450
 10720.50000  126.85650    0.08710   76.70420  123.44780    8.82900    0.00260    3.40800    2.40460   24.01660   27.27080   29.97690
 10721.00000  124.65600    0.09370   77.36750  125.74680    8.82840    0.00190    3.77240    2.40460   23.78160   27.45430   35.52630
 10721.50000  124.07430    0.09780   78.03070  128.04580    8.82780    0.00230    3.78370    2.35690   23.54900   27.63900   39.55520
 10722.00000  124.90990    0.09780   78.39670  129.31190    8.82720    0.02470    3.79490    2.35760   23.31870   28.93640   40.11060
 10722.50000  126.42370    0.09610   78.46770  129.00580    8.82660    0.00280    3.75050    2.36270   23.37420   30.70110   40.67370
 10723.00000  131.11790    0.09210   78.53870  126.04340    8.82600    0.00090    3.35990    2.36780   25.00240   32.57340   41.24470
 10723.50000  134.55000    0.08970   78.60970  125.28250    8.82540   -0.00100    3.05650    2.37290   26.74410   34.55990   42.14720
 10724.00000  136.78150    0.08920   78.54780  125.26570    8.82480   -0.00280    3.02420    2.37390   28.60710   36.66760   43.36320
 10724.50000  137.60570    0.09020   78.36570  125.24890    8.82420   -0.00380    2.90480    2.37330   30.59990   38.24710   44.46890
 10725.00000  138.43000    0.09470   77.73050  125.23210    8.82360   -0.00380    2.91070    2.36400   31.28550   37.94810   44.78180
 10725.50000  135.94780    0.10200   75.61260  125.21540    8.82300   -0.00390    2.91670    2.35100   31.45240   37.65140   45.35190
 10726.00000  131.89350    0.10930   72.91420  125.19860    8.82230   -0.00420    2.92270    2.35130   31.62020   37.35710   46.74700
 10726.50000  127.89010    0.11480   72.48140  125.18180    8.82180   -0.00450    3.01590    2.36040   31.78890   37.06500   53.99560
 10727.00000  124.41010    0.11520   72.04870  125.16510    8.82110   -0.00480    3.13170    2.40020   31.95850   36.77520   61.48810
 10727.50000  126.88320    0.11450   72.40830  125.14830    8.82050   -0.00420    3.18020    2.43750   31.30670   36.48770   59.92530
 10728.00000  132.90660    0.11110   74.08130  125.13150    8.81990   -0.00310    3.22870    2.47480   30.35280   36.20250   45.18110
 10728.50000  137.74020    0.09800   75.69540  125.12120    8.81930   -0.00200    3.17410    2.48190   29.42790   35.91940   39.94010
 10729.00000  138.12330    0.08490   75.77970  125.13860    8.81870   -0.00170    3.07880    2.40840   28.53120   35.69300   40.15900
 10729.50000  132.36500    0.07690   75.86390  125.15590    8.81810   -0.00150    2.98350    2.40370   27.95470   35.68080   40.48380
 10730.00000  128.27840    0.07690   75.93160  125.17330    8.81750   -0.00120    2.98980    2.39890   28.17510   35.66860   41.32350
 10730.50000  128.85350    0.07960   75.92650  125.19070    8.81690   -0.00090    3.02150    2.39400   28.39730   36.65940   42.18050
 10731.00000  131.39360    0.08320   75.92140  125.28220    8.81630   -0.00080    3.06700    2.38970   28.62120   38.04620   43.05540
 10731.50000  135.09330    0.08680   75.91630  125.46170    8.81570   -0.00210    3.11250    2.38900   28.84690   39.60700   44.03160
 10732.00000  138.79300    0.09040   75.91120  125.64120    8.81520   -0.00330    3.15800    2.38830   29.07430   41.24660   45.03850
 10732.50000  143.28660    0.09360   75.90620  125.82070    8.81920   -0.00460    3.20350    2.38730   29.30360   42.95400   46.93150
 10733.00000  147.82100    0.09360   75.90110  126.00020    8.82360   -0.00480    3.31080    2.38560   30.68160   45.91350   56.69830
 10733.50000  142.27840    0.09360   76.07150  126.17970    8.82790   -0.00480    3.31590    2.38390   32.86110   50.89120   81.04970
 10734.00000  140.60160    0.09360   76.56730  126.35930    8.83230   -0.00490    3.29620    2.38340   35.19550   56.40860   83.77490
 10734.50000  138.95730    0.09150   77.27480  126.53880    8.83670   -0.00490    3.27650    2.40200   42.14110   62.52420   86.59190
 10735.00000  138.36150    0.08580   78.04890  126.71830    8.84110   -0.00500    3.18430    2.43440   44.77200   69.30270   89.50350
 10735.50000  138.05250    0.08050   77.83930  126.89780    8.84550   -0.00500    3.08320    2.42270   45.58970   70.09430   96.11040
 10736.00000  138.10080    0.08130   77.83770  126.81500    8.84980   -0.00500    3.00430    2.41090   46.42240   67.67140  103.53000
 10736.50000  138.50630    0.08210   77.83610  125.96150    8.85420   -0.00510    3.01420    2.40170   47.27030   63.29260  106.99560
 10737.00000  138.98260    0.12500   77.83450  125.88550    8.85860   -0.00510    3.02410    2.40150   46.60120   59.19720   98.71750
 10737.50000  139.49190    0.12770   78.28720  128.85950    8.86300   -0.00520    3.03400    2.40120   43.07110   55.36670   87.45930
 10738.00000  139.91180    0.12630   78.92880  130.30040    8.86740   -0.00520    3.04390    2.39430   39.80840   51.78410   77.48500
 10738.50000  140.08170    0.12110   79.62490  130.20830    8.87170   -0.00520    3.05380    2.38670   36.79290   48.43340   68.64830
 10739.00000  140.16070    0.11480   79.86720  130.25660    8.87610   -0.00530    3.05890    2.37910   34.00580   45.29940   61.01620
 10739.50000  137.41980    0.11370   79.91960  130.31490    8.88050   -0.00530    3.03740    2.37150   31.42980   42.36820   54.41390
 10740.00000  134.42480    0.11370   79.73000  129.95530    8.88490   -0.00540    3.01590    2.36770   30.58570   40.39180   49.02120
