~Version ---------------------------------------------------
VERS.   2.0 : CWLS log ASCII Standard -VERSION 2.0
WRAP.    NO : One line per depth step
DLM . SPACE : Column Data Section Delimiter
~Well ------------------------------------------------------
STRT .F                  200.0 : START DEPTH
STOP .F                11624.0 : STOP DEPTH
STEP .F                    0.5 : STEP
NULL .                -9999.25 : NULL VALUE
COMP .                         : COMPANY
WELL .                         : WELL
FLD  .                         : FIELD
LOC  .                         : LOCATION
PROV .                         : PROVINCE
CNTY .                         : COUNTY
STAT .                         : STATE
CTRY .                         : COUNTRY
SRVC .                         : SERVICE COMPANY
DATE .                         : DATE
UWI  .                         : UNIQUE WELL ID
API  .                         : API NUMBER
SLAT .WGS84 1.5739531858111988 : SURFACE LATITUDE
SLON .WGS84  7.766076827432002 : SURFACE LONGITUDE
DATUM.F                    nan : DEPTH DATUM ELEV
~Curve Information -----------------------------------------
DEPT.F     : 1 MEASURED DEPTH
GRR .GAPI  : GAMMA RAY FROM RESISTIVITY LOG
NPHI.DEC   : NEUTRON POROSITY
DTCO.US/F  : DELTA-T COMPRESSIONAL
DTSM.US/F  : DELTA-T SHEAR
CALR.IN    : CALIPER FROM RESISTIVITY LOG
DRHO.G/C3  : BULK DENSITY CORRECTION
PEFZ.B/E   : HRDD STANDARD RESOLUTION FORMATION PHOTOELECTRIC FACTOR
RHOZ.G/C3  : HRDD STANDARD RESOLUTION FORMATION DENSITY
RLA2.OHMM  : APPARENT RESISTIVITY FROM COMPUTED FOCUSING MODE 2
RLA4.OHMM  : APPARENT RESISTIVITY FROM COMPUTED FOCUSING MODE 4
RLA5.OHMM  : APPARENT RESISTIVITY FROM COMPUTED FOCUSING MODE 5
~Params ----------------------------------------------------
~Other -----------------------------------------------------
~ASCII -----------------------------------------------------
# ...
 9807.50000   11.12660    0.02660   53.30490   94.37540    8.71220   -0.00240    5.18900    2.61680  216.71160 1861.10690 1934.25740
 9808.00000   11.50250    0.02560   53.16410   94.12980    8.71140   -0.00220    5.19730    2.61400  220.71870 1861.10690 1939.14390
 9808.50000   11.87850    0.02460   53.04930   93.88420    8.71060   -0.00190    5.20110    2.61990  224.79980 1861.10690 1935.78390
 9809.00000   14.12620    0.02380   52.93460   93.63860    8.70970   -0.00170    5.20290    2.63110  228.95650 1861.10690 1932.42980
 9809.50000   13.92860    0.02310   52.81980   93.39300    8.70890   -0.00570    5.18180    2.63850  233.18980 1861.10690 1929.08250
 9810.00000   13.73100    0.02240   52.70500   93.14740    8.70810   -0.00970    5.12970    2.63980  237.50160 1861.10690 1925.73990
 9810.50000   13.53350    0.02010   52.59030   92.90170    8.70730   -0.01370    5.07770    2.64110  238.53380 1861.10690 1922.40320
 9811.00000   13.33590    0.01780   52.47550   92.65610    8.70650   -0.01580    5.03950    2.64220  234.60540 1861.10690 1919.07210
 9811.50000   13.91480    0.01580   52.36080   92.41050    8.70570   -0.01670    5.04390    2.64340  230.74150 1861.10690 1915.74690
 9812.00000   17.58750    0.01380   52.24600   92.23270    8.70480   -0.01460    5.04840    2.65560  226.94150 1861.10690 1912.42860
 9812.50000   21.43620    0.01190   52.13120   92.30270    8.70400   -0.01240    5.05280    2.67010  223.20390 1861.10690 1909.11490
 9813.00000   22.49450    0.01130   52.06960   92.37270    8.70320   -0.00320    5.05700    2.67010  219.52790 1861.10690 1905.80690
 9813.50000   23.09660    0.01090   52.02840   92.44270    8.70240    0.00130    5.05620    2.67010  215.91240 1861.10690 1902.50460
 9814.00000   23.65480    0.01180   51.98720   92.51260    8.70160    0.00070    5.05530    2.66810  212.35660 1861.10690 1899.20910
 9814.50000   24.21300    0.01470   51.94590   92.58260    8.70070    0.00100    5.05450    2.66490  207.94200 1861.10690 1895.91830
 9815.00000   25.77160    0.01770   51.90470   92.65260    8.69990    0.00120    5.05360    2.65920  199.56840 1861.10690 1892.63330
 9815.50000   29.85060    0.02070   51.94680   92.72260    8.69910    0.00180    5.05280    2.64530  191.53200 1301.08870 1889.35390
 9816.00000   34.04680    0.02370   52.15810   92.79260    8.69830    0.00260    5.05220    2.62410  183.81920  873.51070 1889.22630
 9816.50000   37.11100    0.02680   52.36940   93.34410    8.69750    0.00340    5.05240    2.62390  177.01650  586.44790 1485.71920
 9817.00000   33.87600    0.02880   52.65340   94.09640    8.69670    0.00430    5.05270    2.62800  170.60770  448.36440 1036.13390
 9817.50000   32.38230    0.02820   53.38650   95.60290    8.69580    0.00510    5.05290    2.63320  164.43100  448.36440 1049.64990
 9818.00000   31.45710    0.02070   56.76820   97.10940    8.69500    0.00600    5.05310    2.63830  158.47790  528.11500 1229.30710
 9818.50000   30.66710    0.01310   60.14990   98.61580    8.69420    0.00680    5.05330    2.64130  152.74020  625.13180 1439.71440
 9819.00000   32.62670    0.00830   63.15980  100.12230    8.69340    0.00590    5.02650    2.64220  147.79630  728.12380 1447.54040
 9819.50000   95.36200    0.00840   63.31500  101.14300    8.69260    0.00240    4.98530    2.62220  143.11470  643.84860  919.87920
 9820.00000   93.83740    0.01320   61.30060  101.52720    8.69170   -0.00120    4.70450    2.56500  138.58140  338.59770  533.41860
 9820.50000   86.82920    0.02020   58.32680  101.54080    8.69090   -0.00480    4.53410    2.50790  134.19150  178.06730  309.36050
 9821.00000   79.82100    0.02720   57.61810  101.55430    8.69070   -0.00690    4.36360    2.50320  129.94080   93.64500  187.95880
 9821.50000   72.81280    0.03410   59.69360  101.56790    8.96470   -0.00750    4.23370    2.51870  124.93130   53.14850  186.70310
 9822.00000   67.05220    0.04110   61.97410  101.58150    9.26970   -0.00810    4.21700    2.54290  119.46660   50.95310  185.51660
 9822.50000   67.06300    0.04800   63.86570  101.59500    9.23820   -0.00820    4.20000    2.54640  114.24110   48.84840  178.18310
 9823.00000   96.85610    0.05250   64.17530  101.60860    9.20670   -0.00540    4.17250    2.54300  104.78390   50.17330  163.37440
 9823.50000   88.63280    0.05480   60.68650  101.62210    9.00410   -0.00260    4.14500    2.53690   90.33930   52.60310  149.79640
 9824.00000   77.72160    0.05480   58.74680  101.63570    8.78460   -0.00160    4.12340    2.53110   77.88590   55.79010  148.04990
 9824.50000   69.91900    0.05480   58.35620  101.64930    8.78610   -0.00050    4.11430    2.53730   77.88620   59.17020  157.03230
 9825.00000   68.42550    0.05480   57.95520  101.53520    8.78770    0.00060    4.10520    2.55350   79.06300   62.75510  164.06830
 9825.50000   66.93200    0.05250   57.52100  101.41670    8.78920    0.00160    4.09700    2.56960   80.25750   66.55720  134.42390
 9826.00000   65.43840    0.04850   57.08670  101.29830    8.79070    0.00140    4.10550    2.58570   87.12820   71.25940  118.99580
 9826.50000   63.94490    0.04430   56.59210  101.17980    8.79220    0.00090    4.11400    2.60180   95.91430   76.36670  118.64660
 9827.00000   62.45130    0.04010   56.07060  101.06140    8.79370    0.00210    4.12250    2.61320  105.58650   81.83990  119.57270
 9827.50000   49.11750    0.03590   55.98210  101.01130    8.79520    0.00650    4.13090    2.61750  116.23400   87.70550  497.75900
 9828.00000   48.79410    0.03170   55.89520  101.01020    8.79670    0.01150    4.13940    2.62170  127.95520   93.99150  940.11510
 9828.50000   48.47070    0.02750   56.18880  101.00920    8.79820    0.01660    4.14780    2.62600  140.85840   99.05340  678.85330
 9829.00000   49.32700    0.02660   59.92980  103.10730    8.79980    0.01700    4.15550    2.62780  155.06280   99.05340  417.25300
 9829.50000   51.67640    0.02880   65.04870  107.64110    8.80130    0.01550    4.15030    2.62960  157.20150   93.78140  411.68710
 9830.00000   65.06920    0.03390   66.75430  112.17490    8.80280    0.01300    4.14510    2.62530  128.98290   81.91540  406.61310
 9830.50000   80.81720    0.03820   68.43450  116.70870    8.80430    0.01060    4.13990    2.59610   94.35180   71.55080  389.96800
 9831.00000   96.56520    0.03850   70.34560  121.24250    8.80580    0.00810    4.13470    2.56080   71.22590   62.49770  262.10030
 9831.50000  110.56590    0.03880   72.70070  124.40350    8.80730    0.00650    4.12950    2.52550   61.84620   39.59050  141.04050
 9832.00000  117.09130    0.03910   75.05580  124.40260    8.80880    0.00480    4.11780    2.49350   53.70160   39.31350   75.89620
 9832.50000  123.61670    0.03940   76.38980  121.41720    8.80850    0.00310    4.08690    2.47370   52.01830   39.03840   61.83530
 9833.00000  127.90610    0.03970   76.27610  118.21480    8.80820    0.00150    4.04330    2.45400   52.00940   39.47500   61.36980
 9833.50000  128.20960    0.04010   68.01070  115.06660    8.80780   -0.00020    3.94360    2.41810   52.00060   41.89530   61.45710
 9834.00000  118.89040    0.04460   62.06030  111.91850    8.80750   -0.00130    3.84390    2.38070   59.44780   50.48290   84.62840
 9834.50000   96.79130    0.05240   56.10990  108.77030    8.80710   -0.00220    3.74430    2.35990   68.16170   86.01200  161.23980
 9835.00000   74.69220    0.06000   53.32850  105.62220    8.80680   -0.00310    3.64460    2.41820   78.15290  146.54570  307.20530
 9835.50000   52.59310    0.06050   53.35220  102.91490    8.80640   -0.00400    3.77720    2.48900   89.60870  249.68200  585.30870
 9836.00000   36.40110    0.05890   55.11040  103.08630    8.80610   -0.00480    4.02740    2.55970   97.46970  425.40400 1115.17070
 9836.50000   34.32690    0.04790   58.21930  103.25760    8.80570   -0.00530    4.27760    2.63050   96.37970  584.93520 1432.18360
 9837.00000   38.96630    0.03700   61.14470  103.42890    8.80530   -0.00570    4.36630    2.65260   92.42830  375.49470 1437.83130
 9837.50000   54.04070    0.02600   62.63280  103.60020    8.80500   -0.00620    4.38220    2.64940   88.63890  154.73760  566.74410
