~Version ---------------------------------------------------
VERS.   2.0 : CWLS log ASCII Standard -VERSION 2.0
WRAP.    NO : One line per depth step
DLM . SPACE : Column Data Section Delimiter
~Well ------------------------------------------------------
STRT .F                  200.0 : START DEPTH
STOP .F                11624.0 : STOP DEPTH
STEP .F                    0.5 : STEP
NULL .                -9999.25 : NULL VALUE
COMP .                         : COMPANY
WELL .                         : WELL
FLD  .                         : FIELD
LOC  .                         : LOCATION
PROV .                         : PROVINCE
CNTY .                         : COUNTY
STAT .                         : STATE
CTRY .                         : COUNTRY
SRVC .                         : SERVICE COMPANY
DATE .                         : DATE
UWI  .                         : UNIQUE WELL ID
API  .                         : API NUMBER
SLAT .WGS84 1.5739531858111988 : SURFACE LATITUDE
SLON .WGS84  7.766076827432002 : SURFACE LONGITUDE
DATUM.F                    nan : DEPTH DATUM ELEV
~Curve Information -----------------------------------------
DEPT.F     : 1 MEASURED DEPTH
GRR .GAPI  : GAMMA RAY FROM RESISTIVITY LOG
NPHI.DEC   : NEUTRON POROSITY
DTCO.US/F  : DELTA-T COMPRESSIONAL
DTSM.US/F  : DELTA-T SHEAR
CALR.IN    : CALIPER FROM RESISTIVITY LOG
DRHO.G/C3  : BULK DENSITY CORRECTION
PEFZ.B/E   : HRDD STANDARD RESOLUTION FORMATION PHOTOELECTRIC FACTOR
RHOZ.G/C3  : HRDD STANDARD RESOLUTION FORMATION DENSITY
RLA2.OHMM  : APPARENT RESISTIVITY FROM COMPUTED FOCUSING MODE 2
RLA4.OHMM  : APPARENT RESISTIVITY FROM COMPUTED FOCUSING MODE 4
RLA5.OHMM  : APPARENT RESISTIVITY FROM COMPUTED FOCUSING MODE 5
~Params ----------------------------------------------------
~Other -----------------------------------------------------
~ASCII -----------------------------------------------------
# ...
 10260.50000   88.40380    0.07070   67.52530  111.78220    9.59100   -0.00720    3.77130    2.50440   38.50370   80.90860  124.19570
 10261.00000   88.59850    0.06680   70.72400  112.81620    9.59020   -0.00700    3.59940    2.50440   38.97800   88.09860  125.73640
 10261.50000   99.38730    0.06620   73.92260  117.94490    9.58940   -0.00670    3.42740    2.45930   39.45820   88.71450  116.19790
 10262.00000  112.49670    0.06780   77.12130  124.56510    9.54760   -0.00650    3.25540    2.39410   36.19800   89.33480  101.63090
 10262.50000  125.60610    0.09700   79.74590  127.19670    9.48710   -0.00620    3.08340    2.38980   32.66770   75.74580   88.89010
 10263.00000  130.87200    0.10130   79.32540  125.09090    9.42670   -0.00590    2.96810    2.39520   29.48170   61.66180   77.74650
 10263.50000  130.41410    0.09690   77.00350  120.77670    9.36620   -0.00570    2.97610    2.40070   30.30830   50.19660   70.89610
 10264.00000  129.24960    0.09250   74.27370  116.46250    9.30560   -0.00540    2.98410    2.40610   31.37590   44.41220   83.24430
 10264.50000  127.58970    0.08820   73.34560  116.01520    9.24440   -0.00520    2.99210    2.41150   32.48120   50.79270   98.57190
 10265.00000  126.94700    0.08820   73.40800  119.33970    9.16940   -0.00490    3.00580    2.41430   33.62530   58.61090  116.72180
 10265.50000  127.98580    0.08940   73.47040  122.66420    9.09420   -0.00470    3.02290    2.41310   40.10740   67.63250  138.21360
 10266.00000  130.11490    0.09730   74.50530  125.98870    9.01900   -0.00440    3.04000    2.41190   47.91940   78.04280  143.26020
 10266.50000  130.37290    0.10500   77.23050  127.57780    8.94380   -0.00370    3.02910    2.39540   55.08990   90.05540  144.22290
 10267.00000  131.67770    0.10500   77.36030  127.28870    8.86860   -0.00210    3.01700    2.37890   55.76870   96.65580  133.83210
 10267.50000  133.50200    0.10240   77.18150  123.90560    8.81420   -0.00060    3.00500    2.37640   56.45590   96.04090  119.95190
 10268.00000  132.51090    0.09700   76.88660  120.52260    8.81250    0.00090    2.99300    2.38040   52.29800   95.06510  107.51120
 10268.50000  131.51980    0.09480   76.59160  120.01490    8.81080    0.00250    2.98100    2.39420   46.82670   91.98950  101.95550
 10269.00000  130.52870    0.09670   76.50210  122.36290    8.80910    0.00400    2.96890    2.40970   41.82340   89.01350  100.33890
 10269.50000  128.18980    0.10150   76.74340  124.73870    8.80740   -0.00050    3.00220    2.40040   37.53020   86.13370   98.74790
 10270.00000  125.59760    0.10390   77.16490  127.11450    8.80580   -0.00630    3.06200    2.38090   39.68820   86.64260   97.42950
 10270.50000  123.00530    0.10350   77.06810  126.34900    8.80410   -0.01170    3.12180    2.37950   43.17410   87.72740   96.83490
 10271.00000  120.41310    0.10220   75.75720  122.49520    8.80240   -0.00820    3.18160    2.38020   46.96620   88.82570   96.78910
 10271.50000  115.90790    0.09810   73.68440  118.24550    8.80070   -0.00550    3.21780    2.38620   51.09140   89.93770  100.37810
 10272.00000  110.19860    0.08650   72.15300  115.43550    8.79900   -0.00300    3.27320    2.39220   55.57900   91.06370  139.26930
 10272.50000  104.37700    0.07470   70.58370  112.62540    8.79730   -0.00100    3.39170    2.42880   60.46060   92.92670  229.76520
 10273.00000   98.55550    0.06290   69.94070  111.32710    8.79570   -0.00080    3.31060    2.48120   65.77110   95.10140  231.21620
 10273.50000   94.17710    0.06270   73.25400  111.71700    8.79400   -0.00050    3.22790    2.50590   68.33900   97.32700  196.25790
 10274.00000   98.95930    0.06580   76.36390  115.74030    8.79230   -0.00020    3.14530    2.45560   68.35810   99.60480  166.58500
 10274.50000  109.55450    0.07350   76.41670  119.59400    8.79060    0.00000    3.06260    2.40450   68.37720  101.93580  146.86910
 10275.00000  115.05020    0.08120   74.49410  120.40620    8.78890    0.00030    3.24890    2.40760   68.39630  104.32140  145.81760
 10275.50000  117.57920    0.08240   72.57150  121.21840    8.78720    0.00040    3.34890    2.43710   68.17580  106.76270  146.14560
 10276.00000  116.31340    0.08370   72.17760  121.10130    8.78560    0.00040    3.35270    2.46110   66.11580  109.26130  148.39550
 10276.50000  114.95890    0.08540   73.80870  120.47590    8.78390    0.00040    3.36530    2.46430   64.11800  111.81830  150.68010
 10277.00000  116.07650    0.08900   76.08580  119.85050    8.78220    0.00040    3.38350    2.46490   62.18050  114.43510  153.80690
 10277.50000  122.33540    0.09330   76.06090  119.22510    8.78050    0.00040    3.41040    2.36490   60.30160  115.95400  157.35440
 10278.00000  127.33470    0.09550   73.96340  118.78240    8.77880    0.00040    3.50970    2.36870   61.26950  116.33910  160.98370
 10278.50000  124.42970    0.09480   69.78910  118.37660    8.77710    0.00040    3.62610    2.42720   63.80510  116.72540  162.69030
 10279.00000  107.49760    0.08080   68.20930  117.97080    8.77550    0.00040    3.75010    2.49570   66.44550  117.11300  163.46790
 10279.50000   94.17270    0.06480   69.76530  117.56500    8.77380    0.00000    3.81480    2.49570   69.19520  117.50190  164.24920
 10280.00000   93.87890    0.06070   71.76090  117.19150    8.77210   -0.00040    3.76430    2.47840   72.05870  117.64860  161.54350
 10280.50000   94.95540    0.05930   73.03240  117.17020    8.77040   -0.00080    3.71380    2.45740   75.04070  117.37990  157.06690
 10281.00000   96.96950    0.05790   72.32500  117.14890    8.76870   -0.00110    3.66330    2.43650   76.84000  117.11190  152.71440
 10281.50000   98.98350    0.05630   70.31730  117.12760    8.76700   -0.00150    3.61280    2.43920   76.44820  116.84440  148.48260
 10282.00000  100.99760    0.04930   70.16520  117.17060    8.76530   -0.00210    3.56230    2.45230   76.05840  116.57760  144.36800
 10282.50000  108.03760    0.04230   78.33770  120.44540    8.76370   -0.00270    3.51180    2.46550   75.67060  116.31130  140.36740
 10283.00000  112.81550    0.04210   78.37990  122.12330    8.76200   -0.00330    3.47810    2.47650   74.83370  115.42850  136.47760
 10283.50000  117.82370    0.05300   78.42220  122.63590    8.76030   -0.00390    3.46110    2.47540   52.89710  113.10100  132.69570
 10284.00000  121.78990    0.06580   78.25140  122.96100    8.75860   -0.00450    3.41340    2.42920   50.14690  110.82040  132.02020
 10284.50000  125.75610    0.07870   77.60250  122.60870    8.75690   -0.00510    3.32690    2.36230   49.51420  108.58590  131.40240
 10285.00000  124.31030    0.09150   75.62730  122.25630    8.75520   -0.00560    3.24030    2.37040   55.29590  106.39630  131.53640
 10285.50000  116.70500    0.09780   74.76390  122.05290    8.78620   -0.00560    3.15380    2.39100   61.75280  104.25090  133.99450
 10286.00000  117.61550    0.09680   73.88350  122.27810    8.84580   -0.00560    3.09620    2.41170   68.96350  102.14880  150.85020
 10286.50000  118.52600    0.09060   72.97260  122.50330    8.97650   -0.00260    3.12200    2.43230   73.57370   98.32290  175.22130
 10287.00000  124.82530    0.08450   72.81920  123.54930    9.10720    0.00410    3.14770    2.44730   73.57370   92.48170  184.17470
 10287.50000  131.43670    0.08280   74.91420  126.52420    9.19020    0.00840    3.17340    2.44650   73.57370   86.98750  176.54300
 10288.00000  138.04800    0.09020   77.00920  128.08090    9.25060    0.00840    3.22360    2.42730   73.57370   81.81970  140.43680
 10288.50000  144.65940    0.10580   79.10420  129.63760    9.26960    0.00730    3.30620    2.38440   69.01850   76.95890  111.71500
 10289.00000  148.08010    0.12070   79.83040  130.26650    9.26430    0.00390    3.38880    2.34150   63.77310   72.38690   94.19700
 10289.50000  147.83050    0.12060   79.02110  129.62500    9.03940    0.00180    3.47140    2.31300   58.92630   68.08650   93.45470
 10290.00000  146.89070    0.11980   74.18480  124.69690    8.79950   -0.00040    3.55400    2.32210   54.44790   64.04160   93.11460
