~Version ---------------------------------------------------
VERS.   2.0 : CWLS log ASCII Standard -VERSION 2.0
WRAP.    NO : One line per depth step
DLM . SPACE : Column Data Section Delimiter
~Well ------------------------------------------------------
STRT .F                  200.0 : START DEPTH
STOP .F                11624.0 : STOP DEPTH
STEP .F                    0.5 : STEP
NULL .                -9999.25 : NULL VALUE
COMP .                         : COMPANY
WELL .                         : WELL
FLD  .                         : FIELD
LOC  .                         : LOCATION
PROV .                         : PROVINCE
CNTY .                         : COUNTY
STAT .                         : STATE
CTRY .                         : COUNTRY
SRVC .                         : SERVICE COMPANY
DATE .                         : DATE
UWI  .                         : UNIQUE WELL ID
API  .                         : API NUMBER
SLAT .WGS84 1.5739531858111988 : SURFACE LATITUDE
SLON .WGS84  7.766076827432002 : SURFACE LONGITUDE
DATUM.F                    nan : DEPTH DATUM ELEV
~Curve Information -----------------------------------------
DEPT.F     : 1 MEASURED DEPTH
GRR .GAPI  : GAMMA RAY FROM RESISTIVITY LOG
NPHI.DEC   : NEUTRON POROSITY
DTCO.US/F  : DELTA-T COMPRESSIONAL
DTSM.US/F  : DELTA-T SHEAR
CALR.IN    : CALIPER FROM RESISTIVITY LOG
DRHO.G/C3  : BULK DENSITY CORRECTION
PEFZ.B/E   : HRDD STANDARD RESOLUTION FORMATION PHOTOELECTRIC FACTOR
RHOZ.G/C3  : HRDD STANDARD RESOLUTION FORMATION DENSITY
RLA2.OHMM  : APPARENT RESISTIVITY FROM COMPUTED FOCUSING MODE 2
RLA4.OHMM  : APPARENT RESISTIVITY FROM COMPUTED FOCUSING MODE 4
RLA5.OHMM  : APPARENT RESISTIVITY FROM COMPUTED FOCUSING MODE 5
~Params ----------------------------------------------------
~Other -----------------------------------------------------
~ASCII -----------------------------------------------------
# ...
 6208.50000   98.49640    0.10730   67.71680  123.54730   10.03650   -0.01250    3.05230    2.43990    4.39910    4.54530    4.80130
 6209.00000   97.43110    0.10490   67.89830  121.90690   10.03830   -0.01220    3.08480    2.45230    4.34860    4.54230    4.78660
 6209.50000   95.80790    0.10780   69.10010  122.16560   10.04000   -0.01200    3.11730    2.46470    4.26640    4.56510    5.11190
 6210.00000   89.68640    0.11600   70.30180  127.13960   10.04180   -0.01170    3.14980    2.46910    4.09750    4.79870    6.21800
 6210.50000   84.58120    0.12420   73.24100  135.28490   10.04350   -0.01150    3.16400    2.45760    3.38660    5.31860    7.21720
 6211.00000   77.13680    0.13240   76.36410  140.27040   10.04530   -0.01120    3.16380    2.44170    2.65100    3.89960    7.11000
 6211.50000   76.28200    0.13820   77.94280  141.38350   10.04700   -0.01100    3.10660    2.42570    2.05440    2.94230    5.69850
 6212.00000   78.44980    0.14360   77.74400  142.07920   10.04870   -0.01070    3.04690    2.41660    2.01870    2.27990    3.66510
 6212.50000   80.61760    0.14860   75.61380  141.26290   10.05050   -0.01050    2.98710    2.41560    1.98870    2.10530    2.46200
 6213.00000   82.69210    0.15230   72.43580  140.54430   10.05220   -0.01030    2.92740    2.41450    1.95910    2.07460    2.46030
 6213.50000   82.28840    0.15650   73.98780  140.56790   10.05400   -0.01000    2.87190    2.41340    1.85220    2.04440    2.74260
 6214.00000   80.37780    0.16360   75.53980  140.59150   10.11060   -0.00970    2.87790    2.40680    1.74140    2.01470    3.48820
 6214.50000   78.38330    0.17240   77.09180  141.15890   10.21540   -0.00910    2.88390    2.38160    1.63720    1.98620    4.08460
 6215.00000   76.81640    0.18130   78.64380  141.98370   10.32010   -0.00840    2.88980    2.35640    1.53920    1.83550    3.16900
 6215.50000   76.06680    0.18130   80.13010  142.60950   10.42480   -0.00780    2.89580    2.35500    1.44720    1.77750    1.99240
 6216.00000   75.31730    0.17180   80.23540  141.52910   10.47650   -0.00710    2.90180    2.36060    1.36590    1.75180    1.84530
 6216.50000   74.56770    0.16230   77.31920  140.44880   10.47550   -0.00640    2.90770    2.38320    1.36590    1.75180    1.86430
 6217.00000   73.81810    0.15280   71.13350  134.69910   10.47450   -0.00580    2.91490    2.40580    1.44680    1.79560    1.97040
 6217.50000   73.06860    0.14330   70.57970  129.32810   10.47350   -0.00510    2.94190    2.42060    1.58640    1.88720    2.50990
 6218.00000   72.64280    0.14020   71.90040  128.73340   10.47250   -0.00500    2.96880    2.42000    1.73950    2.24380    3.28470
 6218.50000   72.70680    0.14370   73.70010  133.51960   10.47150   -0.00560    2.98030    2.40940    1.90730    2.52870    4.18700
 6219.00000   73.77580    0.14730   75.49990  139.29290   10.38570   -0.00720    2.98890    2.39880    2.07920    2.67780    4.03170
 6219.50000   75.99170    0.15080   75.69390  140.38310   10.22850   -0.00880    2.99590    2.39740    2.08110    2.57140    3.34710
 6220.00000   79.90430    0.15190   75.83750  138.38550   10.07140   -0.01040    2.96320    2.39740    1.74230    2.29040    2.77880
 6220.50000   82.83440    0.14050   75.55700  133.37480    9.97000   -0.01130    2.93060    2.39750    1.75540    2.25370    2.38440
 6221.00000   85.01340    0.12670   73.14880  126.55820    9.96900   -0.01030    2.89600    2.40100    1.86530    2.22580    2.38690
 6221.50000   87.70580    0.11840   71.13250  124.97080    9.96800   -0.00870    2.89270    2.40880    2.11510    2.30040    2.66730
 6222.00000   90.90790    0.11760   71.04360  124.28670    9.97050   -0.00690    2.91680    2.41670    2.39830    2.46740    3.20200
 6222.50000   92.60740    0.11670   70.94180  123.60260    9.98570   -0.00510    2.94090    2.42450    2.71950    2.96190    3.84400
 6223.00000   96.83060    0.11480   70.79560  122.56450   10.00090   -0.00470    2.96510    2.43680    3.08370    3.55550    4.30300
 6223.50000   97.23770    0.11280   70.64940  121.45780   10.01610   -0.00460    3.00140    2.46260    3.44100    4.09490    4.31530
 6224.00000   96.07410    0.10560   68.15810  120.19040   10.03130   -0.00620    3.04190    2.48840    3.80580    4.13710    4.36260
 6224.50000   94.91060    0.09690   65.36870  115.79790   10.03290   -0.00790    3.08240    2.51430    3.63500    4.17970    4.41040
 6225.00000   93.74700    0.08830   62.96830  111.23730   10.03190   -0.00950    3.11160    2.54010    3.31600    4.22280    4.56290
 6225.50000   91.21850    0.07960   62.86980  108.49650   10.00620   -0.01120    3.11130    2.54450    3.37890    4.39780    5.00880
 6226.00000   87.71750    0.07090   63.58020  111.73080    9.93020   -0.01150    3.11110    2.54460    3.44300    4.58330    6.42860
 6226.50000   84.42120    0.06580   64.72250  117.36330    9.85420   -0.01140    3.11090    2.53840    4.26720    5.80040   10.72820
 6227.00000   83.74680    0.06130   65.86480  121.49810    9.76020   -0.01140    3.11070    2.52300    5.38450    8.13160   11.47310
 6227.50000   87.07460    0.05680   66.40390  119.05950    9.64720   -0.01140    3.11050    2.50610    6.79440    9.05730   11.14550
 6228.00000   91.51430    0.05230   66.45490  115.80390    9.53410   -0.01130    3.12040    2.48920    8.14760    9.31340   10.82720
 6228.50000   96.74780    0.04780   66.50590  115.34410    9.43610   -0.01130    3.25610    2.47230    8.55480    9.57670   10.56390
 6229.00000  107.34610    0.05460   66.61380  113.30050    9.37070   -0.01120    3.35530    2.46490    8.91280    9.84750   10.48830
 6229.50000  117.94440    0.06370   66.92910  111.08160    9.31790   -0.01120    3.37140    2.46490    9.28570   10.09620   12.11800
 6230.00000  130.63660    0.07270   67.35320  109.82640    9.36940   -0.01120    3.37160    2.46490    9.67430   10.50700   17.36420
 6230.50000  138.96600    0.08170   67.77730  115.17150    9.42100   -0.01110    3.33720    2.47530   10.07920   13.90100   17.79700
 6231.00000  140.64020    0.08750   68.18030  115.72400    9.47250   -0.01110    3.30280    2.48700    9.98190   14.23710   17.63630
 6231.50000  137.08920    0.08960   68.25120  116.27650    9.52410   -0.01110    3.27100    2.49870    9.42280   13.08860   16.41980
 6232.00000  133.53810    0.09170   68.29560  116.82910    9.57560   -0.01100    3.24230    2.51040    8.85020   11.16330   14.00910
 6232.50000  125.23380    0.09390   68.09670  119.10250    9.62720   -0.01100    3.21360    2.52210    7.65880    9.52110   11.94830
 6233.00000  118.35070    0.09600   67.71280  120.04720    9.67870   -0.01090    3.18490    2.52270    7.30020    8.12060   10.19070
 6233.50000  114.89350    0.10490   67.32890  119.70300    9.73030   -0.01090    3.15620    2.52040    6.95830    7.58320    8.69170
 6234.00000  110.71820    0.11870   67.01030  119.35890    9.77200   -0.01090    3.13240    2.50150    6.34790    7.22810    7.86240
 6234.50000  106.49720    0.13250   66.90540  119.01480    9.81360   -0.01080    3.10870    2.47540    5.63890    6.88970    7.49420
 6235.00000  103.33580    0.14630   67.05440  120.09030    9.85530   -0.01080    3.06230    2.44930    5.00900    6.50750    7.14330
 6235.50000  100.11100    0.16010   71.71640  122.59720    9.89700   -0.01070    2.98850    2.42330    4.44950    6.10410    6.95100
 6236.00000   93.02290    0.17020   78.10040  127.22560    9.93870   -0.00980    2.91480    2.39720    3.95250    5.72560    6.82950
 6236.50000   88.54440    0.17090   80.32400  133.39820   10.01380   -0.00880    2.84180    2.37890    2.78020    5.37060    6.71010
 6237.00000   85.31330    0.17160   80.32400  139.20210   10.08890   -0.00780    2.82350    2.37970    1.93740    3.51060    6.61400
 6237.50000   82.08220    0.17220   80.18120  143.62210   10.16400   -0.00690    2.80510    2.38630    1.79490    2.03320    4.91050
 6238.00000   80.90630    0.17120   79.48480  144.03750   10.23910   -0.00590    2.82760    2.39290    1.66290    1.90350    2.61030
 6238.50000   80.04770    0.16760   77.66660  143.78640   10.31420   -0.00490    2.84530    2.39940    1.60200    1.77010    1.97820
