~Version ---------------------------------------------------
VERS.   2.0 : CWLS log ASCII Standard -VERSION 2.0
WRAP.    NO : One line per depth step
DLM . SPACE : Column Data Section Delimiter
~Well ------------------------------------------------------
STRT .F                  200.0 : START DEPTH
STOP .F                11624.0 : STOP DEPTH
STEP .F                    0.5 : STEP
NULL .                -9999.25 : NULL VALUE
COMP .                         : COMPANY
WELL .                         : WELL
FLD  .                         : FIELD
LOC  .                         : LOCATION
PROV .                         : PROVINCE
CNTY .                         : COUNTY
STAT .                         : STATE
CTRY .                         : COUNTRY
SRVC .                         : SERVICE COMPANY
DATE .                         : DATE
UWI  .                         : UNIQUE WELL ID
API  .                         : API NUMBER
SLAT .WGS84 1.5739531858111988 : SURFACE LATITUDE
SLON .WGS84  7.766076827432002 : SURFACE LONGITUDE
DATUM.F                    nan : DEPTH DATUM ELEV
~Curve Information -----------------------------------------
DEPT.F     : 1 MEASURED DEPTH
GRR .GAPI  : GAMMA RAY FROM RESISTIVITY LOG
NPHI.DEC   : NEUTRON POROSITY
DTCO.US/F  : DELTA-T COMPRESSIONAL
DTSM.US/F  : DELTA-T SHEAR
CALR.IN    : CALIPER FROM RESISTIVITY LOG
DRHO.G/C3  : BULK DENSITY CORRECTION
PEFZ.B/E   : HRDD STANDARD RESOLUTION FORMATION PHOTOELECTRIC FACTOR
RHOZ.G/C3  : HRDD STANDARD RESOLUTION FORMATION DENSITY
RLA2.OHMM  : APPARENT RESISTIVITY FROM COMPUTED FOCUSING MODE 2
RLA4.OHMM  : APPARENT RESISTIVITY FROM COMPUTED FOCUSING MODE 4
RLA5.OHMM  : APPARENT RESISTIVITY FROM COMPUTED FOCUSING MODE 5
~Params ----------------------------------------------------
~Other -----------------------------------------------------
~ASCII -----------------------------------------------------
# ...
 6666.00000   83.83270    0.05970   64.89740  111.47430    9.05440   -0.00770    3.17770    2.57460    9.51370   11.63030   14.14420
 6666.50000   82.13010    0.05540   64.81420  110.24060    9.05960   -0.00770    3.18790    2.57690   10.61420   12.83240   14.66240
 6667.00000   78.49170    0.05110   63.86260  108.38100    9.06480   -0.00770    3.33550    2.58930   11.84210   14.34070   19.10030
 6667.50000   74.27220    0.04680   60.02240  105.42240    9.07000   -0.00780    3.44620    2.60430   13.21190   16.01620   24.76550
 6668.00000   72.08530    0.04370   59.29400  102.99180    9.07510   -0.00780    3.43340    2.60940   14.08330   17.84490   25.08240
 6668.50000   71.15700    0.04190   59.42510  102.76470    9.08030   -0.00780    3.36790    2.60630    8.15820   13.65780   23.55280
 6669.00000   76.19880    0.05600   61.57450  107.01420    9.08550   -0.00780    3.26290    2.59110    6.46980    9.11340   15.76850
 6669.50000   79.81950    0.07020   64.98370  111.81470    9.09070   -0.00780    3.16540    2.56440    6.17060    6.91320   10.55690
 6670.00000   82.53500    0.08430   68.39290  116.61530    9.09590   -0.00790    3.13730    2.53780    5.90310    6.23410    7.40540
 6670.50000   82.54060    0.08810   69.95390  119.55100    9.10110   -0.00790    3.03830    2.51110    5.86730    6.16190    7.06360
 6671.00000   82.54610    0.08860   69.95320  119.83690    9.10620   -0.00760    2.92970    2.50720    5.83180    6.30920    7.16550
 6671.50000   80.72630    0.08800   69.61870  119.73220    9.11140   -0.00720    2.96740    2.50480    5.90530    6.52360    8.97750
 6672.00000   74.94020    0.08130   69.05770  118.46770    9.11660   -0.00690    3.00510    2.50880    5.99240    8.17070   11.24780
 6672.50000   68.56230    0.07320   68.36560  117.20310    9.12180   -0.00660    3.04290    2.53230    7.31640   10.23380   11.97160
 6673.00000   68.48760    0.06500   66.18740  113.35940    9.12700   -0.00620    3.08060    2.55570    8.72200   11.53060   12.31210
 6673.50000   68.66140    0.05690   64.00920  107.80740    9.12920   -0.00600    3.07620    2.57230    9.07330   10.96860   12.35650
 6674.00000   69.59110    0.05240   62.13810  107.53880    9.16440   -0.00600    3.06340    2.58380    8.51710    9.80480   11.65940
 6674.50000   72.78310    0.05240   62.37860  108.55990    9.22870   -0.00600    3.04860    2.58860    7.99500    8.76450   10.41770
 6675.00000   76.05480    0.05820   65.21950  111.63220    9.29300   -0.00600    3.03120    2.57250    7.50490    8.30510    9.26040
 6675.50000   79.07060    0.06630   65.73730  114.64840    9.35730   -0.00760    3.01390    2.55920    7.04490    7.98340    9.03200
 6676.00000   82.40760    0.07450   66.24230  116.12240    9.42160   -0.00970    2.99650    2.54590    6.74340    7.67420    9.03300
 6676.50000   85.92160    0.08260   66.71080  117.53530    9.48590   -0.01180    2.97920    2.53260    6.54850    7.37700    8.97500
 6677.00000   89.33360    0.08550   67.67390  117.92970    9.50140   -0.01210    2.96590    2.51540    6.35930    7.09130    8.81050
 6677.50000   92.26200    0.08770   68.68950  118.32410    9.50650   -0.01210    2.96000    2.49620    6.17550    6.81660    7.98630
 6678.00000   94.48930    0.08980   69.41360  118.71850    9.51160   -0.01220    2.95420    2.48290    5.95750    6.60410    7.23920
 6678.50000   96.71660    0.09170   69.43790  118.82790    9.51680   -0.01220    2.94830    2.48700    5.74690    6.41200    7.02670
 6679.00000   92.09440    0.09350   69.12240  118.85250    9.52190   -0.01220    2.94270    2.52340    5.58100    6.22550    6.99860
 6679.50000   83.39560    0.09530   68.50820  118.87710    9.52700   -0.00980    2.94460    2.52660    5.25430    6.04430    7.40810
 6680.00000   76.67200    0.09910   67.89410  118.90170    9.53210   -0.00730    2.94640    2.52480    4.49600    5.40660    7.78100
 6680.50000   77.58330    0.10350   68.05590  120.17910    9.53730   -0.00620    2.94830    2.51410    3.84720    4.66240    6.95630
 6681.00000   79.53070    0.11080   69.54980  123.22850    9.54240   -0.00620    2.95480    2.49830    3.79580    4.06630    5.19910
 6681.50000   81.47810    0.11580   71.04370  126.07020    9.54750   -0.00630    2.96190    2.48240    3.82530    4.37320    5.12820
 6682.00000   83.42550    0.11530   71.81800  128.91180    9.55270   -0.00630    2.96730    2.46990    4.11010    4.87400    5.15250
 6682.50000   85.21840    0.11490   71.81720  130.97630    9.55780   -0.00630    2.96580    2.46900    4.41600    5.43210    5.55370
 6683.00000   80.99340    0.10430   69.80580  131.67630    9.56290   -0.00630    2.96430    2.49490    4.74480    6.05410    7.17780
 6683.50000   76.76380    0.08830   66.49620  128.18970    9.56800   -0.00630    3.02210    2.52190    5.09800    6.74740    8.65110
 6684.00000   72.52280    0.07240   63.62710  113.35130    9.57320   -0.00630    3.18240    2.54900    5.76330    7.90230    9.83380
 6684.50000   70.83000    0.05990   61.77760  108.35010    9.57830   -0.00640    3.23410    2.56350    6.40020    8.66920   11.17820
 6685.00000   71.70510    0.05930   61.82210  108.80980    9.58340   -0.00640    3.22630    2.56120    6.38230    9.51060   11.78070
 6685.50000   73.64960    0.06480   62.77350  111.67560    9.58850   -0.00640    3.17690    2.52470    6.02810    9.73600   12.05690
 6686.00000   75.59410    0.08390   65.57340  117.05100    9.59370   -0.00680    2.96460    2.48460    5.24350    7.54090   12.05830
 6686.50000   78.50570    0.10310   68.37320  122.57980    9.59880   -0.00730    2.92520    2.44450    4.56100    5.82590    9.29610
 6687.00000   82.84830    0.12220   70.99860  128.10860    9.60390   -0.00780    2.90120    2.43990    4.12250    4.78550    6.68650
 6687.50000   84.62230    0.14140   72.84130  130.33240    9.60900   -0.00830    2.90830    2.43760    4.46060    4.91780    5.87830
 6688.00000   85.64280    0.14250   74.68390  130.26250    9.61420   -0.00880    2.91530    2.43530    4.82650    5.07250    5.79470
 6688.50000   85.28640    0.14250   75.48040  129.73420    9.61930   -0.00930    2.92230    2.43300    4.81820    5.18090    5.71240
 6689.00000   84.66940    0.14110   74.89150  129.01440    9.62440   -0.00980    2.92930    2.43210    4.66960    5.06690    5.63110
 6689.50000   84.05240    0.13930   73.95350  127.25230    9.62950   -0.01030    2.93630    2.43130    4.52570    4.95550    5.55110
 6690.00000   83.57160    0.13630   73.10740  125.49030    9.63470   -0.01080    2.94330    2.43300    4.38620    4.84650    5.47220
 6690.50000   83.30260    0.13340   72.39010  123.72830    9.63980   -0.01130    2.95030    2.43780    4.30480    4.73980    5.46990
 6691.00000   83.03350    0.11780   71.67290  123.01230    9.64490   -0.01180    2.95730    2.45460    4.33760    4.70650    5.47050
 6691.50000   82.76450    0.09910   70.95570  122.31500    9.65010   -0.01230    2.97840    2.47660    4.48540    4.76070    5.64930
 6692.00000   80.90750    0.08040   69.22280  120.48340    9.65520   -0.01280    3.07020    2.49850    4.75030    5.81690   10.79710
 6692.50000   78.49700    0.06180   66.36840  114.83370    9.66030   -0.01330    3.16190    2.52050    5.03100    7.10750   41.80830
 6693.00000   72.40890    0.04310   63.51400  107.74040    9.66540   -0.01380    3.19210    2.53350    5.11920   14.87860   41.81300
 6693.50000   70.63330    0.03730   60.65960  101.19600    9.67060   -0.01420    3.06300    2.53350    5.03680   13.79350   34.84120
 6694.00000   68.85760    0.06600   59.97860  103.06400    9.67570   -0.01420    3.02730    2.50730    4.90440    7.38800   18.23310
 6694.50000   75.98680    0.10130   63.61860  111.26800    9.68080   -0.01420    3.01440    2.47970    4.77550    5.05300    9.54180
 6695.00000   82.17820    0.12060   69.14370  119.96480    9.68590   -0.01410    3.00150    2.45350    4.65000    4.93400    5.24600
 6695.50000   85.88700    0.11370   72.62020  126.32660    9.69110   -0.01410    2.99120    2.45590    4.61890    4.81780    5.12230
 6696.00000   97.25500    0.10680   72.49710  126.53470    9.69620   -0.01410    2.98180    2.47050    4.65410    4.91790    5.31710
