~Version ---------------------------------------------------
VERS.   2.0 : CWLS log ASCII Standard -VERSION 2.0
WRAP.    NO : One line per depth step
DLM . SPACE : Column Data Section Delimiter
~Well ------------------------------------------------------
STRT .F                  200.0 : START DEPTH
STOP .F                11624.0 : STOP DEPTH
STEP .F                    0.5 : STEP
NULL .                -9999.25 : NULL VALUE
COMP .                         : COMPANY
WELL .                         : WELL
FLD  .                         : FIELD
LOC  .                         : LOCATION
PROV .                         : PROVINCE
CNTY .                         : COUNTY
STAT .                         : STATE
CTRY .                         : COUNTRY
SRVC .                         : SERVICE COMPANY
DATE .                         : DATE
UWI  .                         : UNIQUE WELL ID
API  .                         : API NUMBER
SLAT .WGS84 1.5739531858111988 : SURFACE LATITUDE
SLON .WGS84  7.766076827432002 : SURFACE LONGITUDE
DATUM.F                    nan : DEPTH DATUM ELEV
~Curve Information -----------------------------------------
DEPT.F     : 1 MEASURED DEPTH
GRR .GAPI  : GAMMA RAY FROM RESISTIVITY LOG
NPHI.DEC   : NEUTRON POROSITY
DTCO.US/F  : DELTA-T COMPRESSIONAL
DTSM.US/F  : DELTA-T SHEAR
CALR.IN    : CALIPER FROM RESISTIVITY LOG
DRHO.G/C3  : BULK DENSITY CORRECTION
PEFZ.B/E   : HRDD STANDARD RESOLUTION FORMATION PHOTOELECTRIC FACTOR
RHOZ.G/C3  : HRDD STANDARD RESOLUTION FORMATION DENSITY
RLA2.OHMM  : APPARENT RESISTIVITY FROM COMPUTED FOCUSING MODE 2
RLA4.OHMM  : APPARENT RESISTIVITY FROM COMPUTED FOCUSING MODE 4
RLA5.OHMM  : APPARENT RESISTIVITY FROM COMPUTED FOCUSING MODE 5
~Params ----------------------------------------------------
~Other -----------------------------------------------------
~ASCII -----------------------------------------------------
# ...
 9350.00000   44.69410    0.01980   62.23480  107.42330    8.71110    0.02580    4.28780    2.60020   82.26350  413.28610  970.04020
 9350.50000   61.30440    0.02940   66.29230  106.77360    8.70890    0.02210    4.28090    2.59320  116.77620  452.18420 1303.86740
 9351.00000   77.91470    0.03900   66.88300  106.33110    8.70680    0.01450    4.12830    2.54150  154.37780  424.54450 1293.37480
 9351.50000   99.28990    0.04860   65.18920  106.30520    8.70300    0.00820    3.97580    2.48970  154.35750  342.93270 1002.20330
 9352.00000  111.05830    0.05820   62.84070  106.27940    8.69820    0.00180    3.82790    2.48710  126.62100  267.35890  570.92980
 9352.50000  106.42470    0.06780   61.60620  106.25350    8.69340    0.00040    3.68520    2.49800   89.37120  208.43970  325.24410
 9353.00000   97.33050    0.07020   62.67680  106.41960    8.68930   -0.00110    3.54260    2.53920   63.07970  162.50480  234.20800
 9353.50000   75.52540    0.07190   64.34100  106.68130    8.68690   -0.00250    3.42740    2.54810   59.54500  126.69290  195.97700
 9354.00000   73.99300    0.07310   65.80420  106.94290    8.68460   -0.00390    3.41610    2.55200   66.59450  113.27010  198.50550
 9354.50000   74.02570    0.07310   65.95860  107.20450    8.68220   -0.00400    3.40480    2.55270   75.92000  111.56010  201.06660
 9355.00000   74.51190    0.07470   66.08560  107.20890    8.67990   -0.00410    3.39180    2.55060   86.55140  109.87600  203.00750
 9355.50000   75.41190    0.07820   65.96490  106.44170    8.67750   -0.00410    3.37510    2.54150   92.06710  109.38400  202.98070
 9356.00000   79.48750    0.08160   65.84420  105.67450    8.67520   -0.00420    3.35850    2.53210   92.71680  110.22560  202.95400
 9356.50000   88.95340    0.08510   65.14390  104.88410    8.67280   -0.00430    3.34730    2.52830   93.37110  111.07370  200.46430
 9357.00000   91.38620    0.08650   63.78940  103.97220    8.67060   -0.00430    3.34950    2.52890   94.03000  111.92830  174.43830
 9357.50000   93.81900    0.08760   63.25810  103.06040    8.66820   -0.00440    3.35180    2.52940   93.19600  115.12530  154.10580
 9358.00000   91.67410    0.07800   60.44970  103.23990    8.66590   -0.00450    3.35410    2.53480   91.85420  121.42730  152.26150
 9358.50000   90.72240    0.05830   60.34940  103.26190    8.66350   -0.00450    3.38590    2.54250   90.53160  127.67430  152.18830
 9359.00000   89.77070    0.04800   60.29660  102.83880    8.66110   -0.00460    3.59470    2.55180   89.22810  137.10390  183.34230
 9359.50000   86.63200    0.04560   60.29240  102.41570    8.65880   -0.00470    3.62810    2.56110   89.96930  150.32250  286.08360
 9360.00000   79.62750    0.04330   60.02010  101.99270    8.65640   -0.00470    3.66150    2.57050   90.86380  164.81540  380.98560
 9360.50000   73.34790    0.04090   57.84990  101.56960    8.65400   -0.00480    3.69500    2.57990   95.22080  184.91910  396.25460
 9361.00000   65.19730    0.03810   55.86710  101.14660    8.65160   -0.00480    3.72840    2.58920  115.15060  237.29560  422.81610
 9361.50000   52.28450    0.03480   55.62610  100.72350    8.64930   -0.00450    3.80190    2.59860  139.25160  304.50700  457.24510
 9362.00000   44.46230    0.03150   55.38500  100.30050    8.64690   -0.00400    3.88940    2.60790  168.39710  390.75550  549.58160
 9362.50000   44.17860    0.02810   55.14400   99.87100    8.64450   -0.00350    3.97700    2.61730  203.64260  483.33500  667.32400
 9363.00000   43.96150    0.02480   54.93480   99.32740    8.64210   -0.00300    4.06460    2.62670  246.26500  534.17500  810.29210
 9363.50000   44.69520    0.02150   54.74600   98.78380    8.63980   -0.00250    4.14580    2.63110  263.86470  590.36270  855.02670
 9364.00000   44.49230    0.01970   54.55720   98.24010    8.63740   -0.00210    4.22080    2.63460  260.42970  652.46050  896.29360
 9364.50000   43.55490    0.01820   54.36840   97.69650    8.63500   -0.00160    4.41720    2.63810  257.03950  721.09010  939.55220
 9365.00000   42.61750    0.01670   54.17950   97.15280    8.63260   -0.00110    4.42760    2.64170  253.69350  796.93870  984.89860
 9365.50000   41.44550    0.01520   53.99070   96.60920    8.63030   -0.00070    4.43800    2.64430  250.39100  876.45140 1032.47730
 9366.00000   38.19780    0.01370   53.80190   96.06560    8.62790   -0.00040    4.44020    2.64430  247.13150  912.36190 1082.35910
 9366.50000   35.29060    0.01220   53.63000   95.69920    8.62550   -0.00010    4.42710    2.64430  244.47120  949.74400 1138.56760
 9367.00000   33.38630    0.01110   53.47190   95.64900    8.62320    0.00020    4.41840    2.64430  245.02150  988.65760 1200.54480
 9367.50000   33.11550    0.01040   53.31390   95.84710    8.62080    0.00050    4.41740    2.64620  273.68720 1029.16560 1294.86100
 9368.00000   32.84470    0.00980   53.15590   96.23230    8.61840    0.00080    4.41640    2.64860  278.24770 1071.33340 1482.24630
 9368.50000   32.83380    0.00910   52.95000   96.61750    8.61600    0.00110    4.41540    2.65100  275.15570 1124.29600 1696.74900
 9369.00000   33.15180    0.00870   52.63780   96.95510    8.61370    0.00160    4.41140    2.65340  270.78500 1209.19910 1874.27100
 9369.50000   33.46990    0.00870   52.32560   97.29100    8.61130    0.00200    4.39720    2.65580  257.47600 1300.51390 1934.14600
 9370.00000   33.78790    0.00870   52.16380   97.62690    8.60890    0.00250    4.38290    2.65610  244.75490 1398.72450 1976.80360
 9370.50000   34.69620    0.00870   52.15960   98.21420    8.60650    0.00290    4.36860    2.65610  232.66240 1504.35160 2008.06840
 9371.00000   37.07170    0.00900   52.61980   99.18730    8.60420    0.00300    4.33490    2.65410  226.27340 1525.44090 2011.53060
 9371.50000   40.00700    0.00930   53.65440  100.52450    8.60180    0.00260    4.27210    2.65050  220.61620 1514.55400 1964.74680
 9372.00000   42.94230    0.01040   56.08160  103.55300    8.59940    0.00220    4.20930    2.64570  215.10050 1403.07970 1864.34660
 9372.50000   45.87070    0.01280   58.50890  108.74160    8.59700    0.00180    4.03520    2.63980  206.33120 1126.11950 1769.07690
 9373.00000   48.72220    0.01930   61.96950  113.93020    8.59470    0.00140    3.83490    2.61590  196.13270  662.63310 1565.64600
 9373.50000   59.22030    0.03210   66.50480  115.52990    8.59230    0.00120    3.63250    2.56270  181.91820  389.90740 1186.94140
 9374.00000   75.19920    0.04490   71.04010  115.51310    8.58990    0.00120    3.44130    2.50940  120.19840  229.42990  899.83980
 9374.50000  104.09640    0.05760   71.21490  111.60850    8.58760    0.00120    3.33890    2.45740   58.38890  135.00150  682.18340
 9375.00000  119.69120    0.06350   68.06660  107.68870    8.58520    0.00120    3.33640    2.45750   28.36370   79.43780  308.88130
 9375.50000  118.11650    0.06490   64.91830  107.41500    8.58280    0.00120    3.33390    2.51110   27.37770   45.23510  139.85620
 9376.00000  115.35980    0.06640   62.48050  107.22140    8.58040    0.00120    3.33150    2.53980   30.82080   42.54170   88.60760
 9376.50000  112.60310    0.07280   63.07990  107.02780    8.57810    0.00120    3.32900    2.54060   35.36570   42.57510   87.99510
 9377.00000  111.29020    0.08190   64.96780  106.79410    8.57570    0.00120    3.33100    2.52130   40.13580   43.11330   90.64280
 9377.50000  114.66260    0.09090   66.81760  106.08670    8.57330    0.00120    3.33330    2.48580   40.13050   44.62490   98.24970
 9378.00000  121.67950    0.09720   65.47120  105.37930    8.57090    0.00130    3.33560    2.46280   37.46860   49.32530  103.08080
 9378.50000  128.69640    0.09730   62.85740  104.67190    8.56860    0.00210    3.33780    2.46180   34.28010   53.80010  102.65890
 9379.00000  131.45350    0.08740   60.24350  103.96450    8.56620    0.00280    3.35190    2.47480   29.89860   57.54150  102.23870
 9379.50000  105.00650    0.06110   57.62970  103.25710    8.56380    0.03720    3.39420    2.50040   26.91530   61.54300  101.82030
 9380.00000   81.96560    0.03490   55.01580  102.54970    8.56150    0.07830    3.57340    2.52600   31.99610   67.11460  109.95810
