~Version ---------------------------------------------------
VERS.   2.0 : CWLS log ASCII Standard -VERSION 2.0
WRAP.    NO : One line per depth step
DLM . SPACE : Column Data Section Delimiter
~Well ------------------------------------------------------
STRT .F                  200.0 : START DEPTH
STOP .F                11624.0 : STOP DEPTH
STEP .F                    0.5 : STEP
NULL .                -9999.25 : NULL VALUE
COMP .                         : COMPANY
WELL .                         : WELL
FLD  .                         : FIELD
LOC  .                         : LOCATION
PROV .                         : PROVINCE
CNTY .                         : COUNTY
STAT .                         : STATE
CTRY .                         : COUNTRY
SRVC .                         : SERVICE COMPANY
DATE .                         : DATE
UWI  .                         : UNIQUE WELL ID
API  .                         : API NUMBER
SLAT .WGS84 1.5739531858111988 : SURFACE LATITUDE
SLON .WGS84  7.766076827432002 : SURFACE LONGITUDE
DATUM.F                    nan : DEPTH DATUM ELEV
~Curve Information -----------------------------------------
DEPT.F     : 1 MEASURED DEPTH
GRR .GAPI  : GAMMA RAY FROM RESISTIVITY LOG
NPHI.DEC   : NEUTRON POROSITY
DTCO.US/F  : DELTA-T COMPRESSIONAL
DTSM.US/F  : DELTA-T SHEAR
CALR.IN    : CALIPER FROM RESISTIVITY LOG
DRHO.G/C3  : BULK DENSITY CORRECTION
PEFZ.B/E   : HRDD STANDARD RESOLUTION FORMATION PHOTOELECTRIC FACTOR
RHOZ.G/C3  : HRDD STANDARD RESOLUTION FORMATION DENSITY
RLA2.OHMM  : APPARENT RESISTIVITY FROM COMPUTED FOCUSING MODE 2
RLA4.OHMM  : APPARENT RESISTIVITY FROM COMPUTED FOCUSING MODE 4
RLA5.OHMM  : APPARENT RESISTIVITY FROM COMPUTED FOCUSING MODE 5
~Params ----------------------------------------------------
~Other -----------------------------------------------------
~ASCII -----------------------------------------------------
# ...
 8008.00000  107.76880    0.20610   78.70370  123.85830    9.30620   -0.01260    2.84570    2.45040   48.39260   64.09540   78.59890
 8008.50000  114.31730    0.19150   77.49330  123.91330    9.30510   -0.01060    2.83410    2.44570   52.67840   70.58140   92.46350
 8009.00000  121.69320    0.19030   77.08580  124.25290    9.30390   -0.00870    2.80870    2.43900   58.13690   77.72370  108.77370
 8009.50000  129.06920    0.19660   77.82610  124.59250    9.30280   -0.01630    2.78330    2.42570   64.57010   85.58880  127.96110
 8010.00000  136.44510    0.22490   79.10440  124.93210    9.30170   -0.02050    2.75790    2.41240   71.71520   94.08140  150.53300
 8010.50000  143.82100    0.23170   80.45940  125.63740    9.30060   -0.01800    2.73250    2.39920   79.65080   94.07950  177.08640
 8011.00000  151.19700    0.23100   82.25950  126.39040    9.29940   -0.01550    2.64280    2.38590   88.46470   94.07750  208.32380
 8011.50000  157.57700    0.22920   83.54610  127.14340    9.29830   -0.01360    2.58080    2.37270   98.25380   93.65510  242.44480
 8012.00000  162.71580    0.22740   84.55970  127.55520    9.29720   -0.01360    2.58050    2.35940  109.12610   92.44080  262.66600
 8012.50000  162.30290    0.22490   84.31700  127.88680    9.29610   -0.01360    2.58020    2.34610  114.70180   91.24210  284.57370
 8013.00000  149.19620    0.22210   83.50300  127.79590    9.29490   -0.01360    2.58040    2.34150  113.28890   90.05910  295.99580
 8013.50000  142.74020    0.21720   82.68900  127.70200    9.29380   -0.01360    2.58640    2.34250   99.47210   87.41440  291.39670
 8014.00000  136.81320    0.21190   81.87490  127.60810    9.29270   -0.01360    2.59250    2.36660   64.75090   84.43440  228.33250
 8014.50000  134.02240    0.19070   79.69860  127.31360    9.29160   -0.01360    2.59850    2.38630   42.14930   65.97320  157.75640
 8015.00000  133.98980    0.16200   79.32840  126.68480    9.29050   -0.01360    2.65210    2.38520   27.43680   42.96990   95.54600
 8015.50000  137.57220    0.12950   78.95830  126.05600    9.28930   -0.01360    2.76180    2.37820   20.49700   30.66030   56.56470
 8016.00000  142.21190    0.10450   79.59980  127.19480    9.28820   -0.01360    2.95850    2.35560   20.78900   30.02750   33.48720
 8016.50000  148.65890    0.11300   80.76440  127.53080    9.28710   -0.01360    3.06080    2.32810   21.08510   29.40780   31.50750
 8017.00000  163.51150    0.12250   81.10140  127.56630    9.28600   -0.01360    3.10860    2.30860   21.38550   29.60520   33.09250
 8017.50000  179.18890    0.12350   81.26920  127.60170    9.28480   -0.01360    3.15500    2.30100   22.49450   29.81130   35.33070
 8018.00000  179.47220    0.12450   81.31280  127.84020    9.28370   -0.01360    3.17530    2.29350   24.57770   31.49600   37.72040
 8018.50000  179.48000    0.12520   81.35460  128.16770    9.28260   -0.01360    3.19560    2.29050   26.85390   35.51800   44.06050
 8019.00000  178.31700    0.12600   81.35150  128.49510    9.28150   -0.01360    3.16820    2.29140   29.34090   42.78270   56.27090
 8019.50000  171.99860    0.12740   80.94270  127.85900    9.28030   -0.01360    3.12560    2.31760   32.05820   51.53340   80.89880
 8020.00000  164.30660    0.13060   80.24150  126.49700    9.27920   -0.01360    3.06320    2.32190   37.80350   62.07380  114.29270
 8020.50000  156.61470    0.14080   79.54020  125.13490    9.27810   -0.01360    2.95230    2.32610   45.13370   74.77020  120.72800
 8021.00000  148.92280    0.15190   78.65390  123.46310    9.27700   -0.01360    2.84140    2.33590   53.88530   90.06340  131.55710
 8021.50000  141.23090    0.16290   77.36420  121.58770    9.27580   -0.01360    2.73040    2.37880   64.33380  108.48460  204.01780
 8022.00000  115.57530    0.17390   74.94060  119.71230    9.27470   -0.01360    2.72350    2.42180   73.52930  113.18670  294.57510
 8022.50000   84.91850    0.18250   71.00010  117.83690    9.27360   -0.01300    2.83660    2.46470   76.00470  114.61170  299.29880
 8023.00000   70.91420    0.11230   67.05950  115.96150    9.27250   -0.01160    3.18150    2.47450   67.69310  102.79500  249.49610
 8023.50000   90.09900    0.06360   66.35730  114.08610    9.27140   -0.01020    3.52630    2.44870   56.00680   80.49540  166.33880
 8024.00000  131.38140    0.07040   66.62800  114.38900    9.27020   -0.00870    3.50790    2.42200   46.33800   64.33810  110.89790
 8024.50000  137.90730    0.08440   73.03670  115.71860    9.26910   -0.00730    3.35130    2.39520   38.33840   51.42400   73.93550
 8025.00000  144.56780    0.09850   78.29620  117.31760    9.26800   -0.00580    3.19470    2.36850   31.71980   41.10200   50.50130
 8025.50000  146.91360    0.11250   78.55640  121.14020    9.26690   -0.00440    3.03540    2.34180   29.99450   38.81220   56.41030
 8026.00000  150.17940    0.12660   78.81660  126.65320    9.26570   -0.00420    2.87140    2.31760   30.29260   38.25100   72.27260
 8026.50000  156.46610    0.14060   78.86320  123.50170    9.26460   -0.00550    2.77600    2.31870   30.59380   37.69780   92.59510
 8027.00000  162.75280    0.15560   78.89110  123.08960    9.26350   -0.00690    2.73210    2.36310   31.76610   39.71560  114.20340
 8027.50000  166.35380    0.15560   78.91900  123.13810    9.26240   -0.00820    2.73210    2.37930   33.04220   43.22370  100.81800
 8028.00000  161.75820    0.15270   79.07490  124.21180    9.26120   -0.00960    2.73210    2.37780   34.36970   47.04160   65.42040
 8028.50000  154.44640    0.14860   79.78190  125.44780    9.26010   -0.01070    2.73210    2.35950   35.75040   51.19680   60.62960
 8029.00000  147.13460    0.14440   80.48890  126.68380    9.25900   -0.01190    2.75870    2.31660   37.18660   54.93580   62.81050
 8029.50000  136.87750    0.14020   80.66170  126.46030    9.25790   -0.01300    2.85510    2.30880   39.67260   59.36590   91.15110
 8030.00000  130.47590    0.13600   80.03330  125.75780    9.25670   -0.01280    2.95140    2.34990   43.62270   66.24590  138.24000
 8030.50000  124.07430    0.13100   76.20210  118.85170    9.25560   -0.01120    3.06320    2.43050   47.96610   73.92330  146.63630
 8031.00000  117.67270    0.12590   71.80770  116.05880    9.25450   -0.00960    3.16470    2.48230   52.74200   82.49030  146.78330
 8031.50000  108.24630    0.12070   69.01700  114.06730    9.25340   -0.00880    3.20310    2.48370   57.99330   86.43650  132.81360
 8032.00000   98.70900    0.11560   66.71100  112.43250    9.25230   -0.00800    3.24150    2.48400   63.59150   87.64730  119.68920
 8032.50000   98.71140    0.11050   66.75660  111.24830    9.25110   -0.00810    3.27850    2.47630   65.14500   86.24970  117.56760
 8033.00000   98.73470    0.10530   68.14590  112.03810    9.25000   -0.00900    3.27850    2.46260   66.73650   81.58850  115.48370
 8033.50000  101.48820    0.10430   69.87890  113.71130    9.24890   -0.00990    3.25850    2.44880   63.84190   77.17920  110.20450
 8034.00000  104.33510    0.10940   72.35400  115.37420    9.24780   -0.01080    3.21860    2.43400   61.18310   73.42820   99.31470
 8034.50000  112.15780    0.11520   73.99640  116.62170    9.24660   -0.01170    3.17870    2.41560   59.46950   70.03770   85.47240
 8035.00000  115.97180    0.12100   74.17410  117.86930    9.24550   -0.01260    3.13880    2.40520   57.80390   66.80370   73.55930
 8035.50000  120.10740    0.12680   74.35180  119.11680    9.24440   -0.01350    3.09890    2.36460   56.18500   63.71910   65.46930
 8036.00000  124.70190    0.13670   75.54710  120.35500    9.24330   -0.01440    3.05890    2.32030   54.33920   60.77680   66.69220
 8036.50000  129.81090    0.15200   77.79510  121.49840    9.24210   -0.01520    3.01900    2.31640   52.39150   57.97050   70.98560
 8037.00000  150.66380    0.16720   79.41680  122.46040    9.24100   -0.01520    2.97910    2.37180   50.51360   55.29370   74.63730
 8037.50000  157.38560    0.17050   78.92550  123.36480    9.23990   -0.01460    2.93920    2.37890   48.70300   52.74060   74.61380
 8038.00000  147.46620    0.13950   77.69750  124.25080    9.23880   -0.01390    2.89930    2.31100   32.31820   50.30530   73.76370
