~Version ---------------------------------------------------
VERS.   2.0 : CWLS log ASCII Standard -VERSION 2.0
WRAP.    NO : One line per depth step
DLM . SPACE : Column Data Section Delimiter
~Well ------------------------------------------------------
STRT .F                  200.0 : START DEPTH
STOP .F                11624.0 : STOP DEPTH
STEP .F                    0.5 : STEP
NULL .                -9999.25 : NULL VALUE
COMP .                         : COMPANY
WELL .                         : WELL
FLD  .                         : FIELD
LOC  .                         : LOCATION
PROV .                         : PROVINCE
CNTY .                         : COUNTY
STAT .                         : STATE
CTRY .                         : COUNTRY
SRVC .                         : SERVICE COMPANY
DATE .                         : DATE
UWI  .                         : UNIQUE WELL ID
API  .                         : API NUMBER
SLAT .WGS84 1.5739531858111988 : SURFACE LATITUDE
SLON .WGS84  7.766076827432002 : SURFACE LONGITUDE
DATUM.F                    nan : DEPTH DATUM ELEV
~Curve Information -----------------------------------------
DEPT.F     : 1 MEASURED DEPTH
GRR .GAPI  : GAMMA RAY FROM RESISTIVITY LOG
NPHI.DEC   : NEUTRON POROSITY
DTCO.US/F  : DELTA-T COMPRESSIONAL
DTSM.US/F  : DELTA-T SHEAR
CALR.IN    : CALIPER FROM RESISTIVITY LOG
DRHO.G/C3  : BULK DENSITY CORRECTION
PEFZ.B/E   : HRDD STANDARD RESOLUTION FORMATION PHOTOELECTRIC FACTOR
RHOZ.G/C3  : HRDD STANDARD RESOLUTION FORMATION DENSITY
RLA2.OHMM  : APPARENT RESISTIVITY FROM COMPUTED FOCUSING MODE 2
RLA4.OHMM  : APPARENT RESISTIVITY FROM COMPUTED FOCUSING MODE 4
RLA5.OHMM  : APPARENT RESISTIVITY FROM COMPUTED FOCUSING MODE 5
~Params ----------------------------------------------------
~Other -----------------------------------------------------
~ASCII -----------------------------------------------------
# ...
 7123.50000  137.29050    0.12620   73.40820  121.95470    9.22280    0.00080    3.32160    2.30330   70.65010  105.46590  108.79030
 7124.00000  139.31930    0.13710   76.52400  129.14300    9.19330    0.00290    3.32630    2.27830   57.44620  105.17660  108.48420
 7124.50000  139.55180    0.13560   78.88260  132.02960    9.15360    0.00290    3.33110    2.25620   63.73630  104.22680  109.38140
 7125.00000  139.51440    0.13260   80.22980  133.51930    9.11390    0.00290    3.33580    2.25120   72.59260  106.00270  117.64850
 7125.50000  139.24650    0.12220   79.49090  132.30090    9.07410    0.00180    3.34050    2.28070   82.67950  113.66030  129.54850
 7126.00000  137.43160    0.11180   77.36060  129.73030    9.00020    0.00010    3.34480    2.31420   94.16790  123.61190  142.65220
 7126.50000  135.61660    0.10140   75.23040  127.54100    8.91160   -0.00160    3.34710    2.34770  107.25270  134.43480  157.08210
 7127.00000  133.80170    0.09740   74.13040  126.34790    8.82300   -0.00330    3.34940    2.35570  122.15580  145.06310  172.97220
 7127.50000  135.17270    0.10200   75.18350  125.15480    8.76980   -0.00500    3.35180    2.35630  127.68410  146.10020  194.06250
 7128.00000  141.95080    0.11620   76.53940  124.89320    8.75050   -0.00670    3.35410    2.34180  125.51430  137.15610  225.49440
 7128.50000  142.43200    0.12910   77.89530  125.34400    8.73120   -0.00720    3.37670    2.31000  110.78310  128.75970  237.54190
 7129.00000  141.94650    0.12970   78.26180  125.97150    8.71190   -0.00720    3.42860    2.27830   97.66650  120.87720  235.58420
 7129.50000  140.78420    0.12650   77.92620  126.55160    8.69430   -0.00650    3.48060    2.25540   86.10300  113.47720  127.51100
 7130.00000  139.62200    0.11490   77.59060  126.61490    8.67670   -0.00360    3.53250    2.25670   75.90850  106.53030  116.16710
 7130.50000  139.46140    0.10330   77.25510  126.67810    8.65910   -0.00070    3.58450    2.28640   73.73940  100.95680  112.48050
 7131.00000  139.45040    0.09170   76.87680  126.73570    8.65210    0.00220    3.72220    2.31610   72.66830   97.39900  109.15990
 7131.50000  139.43940    0.08010   76.48840  126.49990    8.69150    0.00270    3.80640    2.34570   71.61270   93.96650  106.18190
 7132.00000  143.02910    0.07010   74.84860  126.26400    8.73090    0.00220    3.88980    2.37540   70.65430   90.65500  104.08750
 7132.50000  155.86550    0.06960   74.36490  124.75830    8.77030    0.00060    3.79910    2.38310   70.17390   87.46030  102.03450
 7133.00000  162.93060    0.06910   73.82640  123.20490    8.80970   -0.00110    3.61820    2.38390   69.69680   85.05570  100.73430
 7133.50000  166.04300    0.07270   73.27490  121.99200    8.84910   -0.00270    3.50560    2.37690   69.22290   85.06000  100.19580
 7134.00000  168.99770    0.07820   72.78110  120.84210    8.88850   -0.00430    3.45780    2.35410   67.71690   85.06420   99.66020
 7134.50000  165.08800    0.08490   74.60580  119.69220    8.92790   -0.00560    3.39430    2.35300   61.69490   85.06840  104.37830
 7135.00000  158.67090    0.09170   75.52080  120.34640    8.96730   -0.00640    3.40860    2.35200   56.20830   88.83890  109.45520
 7135.50000  157.92840    0.09840   75.80650  123.01170    9.00660   -0.00730    3.42280    2.34970   51.20970   97.29750  122.18130
 7136.00000  157.18580    0.10250   75.88950  124.39410    9.04600   -0.00710    3.43710    2.33970   57.61280  106.56140  140.55740
 7136.50000  155.44090    0.10630   75.97220  125.08240    9.08540   -0.00690    3.45130    2.32980   72.25190  117.06370  149.69130
 7137.00000  153.44470    0.11010   78.07200  125.77060    9.12480   -0.00680    3.43270    2.31980   90.61060  132.59040  154.83450
 7137.50000  150.55290    0.11380   78.49880  126.45880    9.16420   -0.00660    3.36120    2.31370  103.54770  148.05410  171.91300
 7138.00000  142.21440    0.11660   78.26530  127.14700    9.20360   -0.00640    3.35670    2.31470  108.76590  165.32130  215.11570
 7138.50000  133.87580    0.11780   78.03180  127.70360    9.23400   -0.00620    3.36190    2.32220  114.24710  184.60230  286.67690
 7139.00000  125.53720    0.11900   76.55990  127.83300    9.23540   -0.00600    3.45210    2.33230  128.34890  204.59830  310.06090
 7139.50000  122.57590    0.12020   74.60580  127.96240    9.23690   -0.00580    3.56970    2.34250  147.54540  197.86410  302.03000
 7140.00000  128.81270    0.12140   72.65170  128.09180    9.23830   -0.00560    3.57420    2.35260  133.87500  180.62590  233.56200
 7140.50000  135.04940    0.12260   71.63910  128.43600    9.23980   -0.00540    3.56900    2.32730  103.04290  164.88940  179.19410
 7141.00000  141.28620    0.12270   75.55440  129.01260    9.24120   -0.00530    3.56380    2.25960   95.58600  150.52400  172.46300
 7141.50000  147.52290    0.12220   78.51560  129.58920    9.24260   -0.00510    3.55860    2.26800   95.59080  137.41010  167.72960
 7142.00000  154.51860    0.12090   79.84320  130.50020    9.24410   -0.00490    3.55810    2.28200   95.59550  135.91190  168.61100
 7142.50000  161.88320    0.11460   81.19990  131.56600    9.24550   -0.00470    3.56010    2.29600   99.67420  146.36080  169.49710
 7143.00000  169.18300    0.11040   82.33640  132.51970    9.24690   -0.00450    3.53750    2.30060  113.68620  157.61310  177.46530
 7143.50000  169.17190    0.11040   82.68250  133.23940    9.24840   -0.00430    3.47880    2.30010  129.66800  169.73030  190.67870
 7144.00000  159.99060    0.11450   82.77330  133.95910    9.24980   -0.00410    3.48210    2.29960  136.35110  182.77930  225.61020
 7144.50000  151.05170    0.12940   82.62740  134.36990    9.25130   -0.00390    3.53680    2.30600  136.35780  187.96020  245.57810
 7145.00000  145.86830    0.13050   81.93080  134.26170    9.25270   -0.00380    3.64000    2.32440  136.36460  178.58750  227.59850
 7145.50000  142.96770    0.13000   81.33890  134.15340    9.25410   -0.00360    3.65650    2.34280  133.82600  167.40220  209.93870
 7146.00000  142.63140    0.12940   81.20090  133.87760    9.25560   -0.00340    3.61600    2.33950  130.67080  156.91750  193.64930
 7146.50000  142.29500    0.12970   81.06280  133.57700    9.25700   -0.00300    3.57130    2.33050  127.59010  147.08940  178.62380
 7147.00000  137.04970    0.13040   80.92480  133.27630    9.25850   -0.00230    3.51730    2.31960  124.58200  137.87690  184.61650
 7147.50000  135.52220    0.13100   79.54270  132.97570    9.25990   -0.00170    3.42580    2.30870  122.12600  134.39160  204.42620
 7148.00000  134.84850    0.13160   77.99300  132.67500    9.26130   -0.00100    3.36570    2.29780  121.39960  133.47350  230.87090
 7148.50000  136.04500    0.13190   76.44320  132.37440    9.26280   -0.00030    3.35730    2.28700  120.67730  133.34820  245.67630
 7149.00000  139.45440    0.13220   77.49910  131.98410    9.26420    0.00030    3.35040    2.28300  119.95940  133.77010  238.45630
 7149.50000  141.21300    0.13190   80.36760  130.87820    9.26560    0.00070    3.35050    2.28310  119.24580  134.19320  197.51080
 7150.00000  142.97150    0.12490   80.52270  129.77230    9.26710    0.00070    3.38220    2.30760   92.69710  134.61770  163.59600
 7150.50000  144.73010    0.11300   80.06930  128.66640    9.26850    0.00070    3.41820    2.33460   64.30760  134.97570  139.96430
 7151.00000  146.55790    0.10110   79.33490  127.56050    9.27000   -0.00010    3.45920    2.34130   58.52120  133.09930  137.78420
 7151.50000  150.46320    0.09790   78.60060  126.93990    9.27140   -0.00200    3.50450    2.34080   67.28170  131.24900  137.42060
 7152.00000  158.76440    0.10000   78.24030  126.43700    9.27280   -0.00380    3.58390    2.34030   84.02030  129.42450  139.29620
 7152.50000  162.13480    0.10310   77.94330  126.09430    9.27430   -0.00560    3.54680    2.33850  103.81350  127.62520  142.04290
 7153.00000  165.91980    0.11050   77.71030  125.95040    9.27570   -0.00730    3.45780    2.33560  103.81140  122.02110  145.96890
 7153.50000  164.42650    0.11790   77.78800  125.80650    9.27710   -0.00690    3.36880    2.32120  103.80920  116.30780  148.23510
