~Version ---------------------------------------------------
VERS.   2.0 : CWLS log ASCII Standard -VERSION 2.0
WRAP.    NO : One line per depth step
DLM . SPACE : Column Data Section Delimiter
~Well ------------------------------------------------------
STRT .F                  200.0 : START DEPTH
STOP .F                11624.0 : STOP DEPTH
STEP .F                    0.5 : STEP
NULL .                -9999.25 : NULL VALUE
COMP .                         : COMPANY
WELL .                         : WELL
FLD  .                         : FIELD
LOC  .                         : LOCATION
PROV .                         : PROVINCE
CNTY .                         : COUNTY
STAT .                         : STATE
CTRY .                         : COUNTRY
SRVC .                         : SERVICE COMPANY
DATE .                         : DATE
UWI  .                         : UNIQUE WELL ID
API  .                         : API NUMBER
SLAT .WGS84 1.5739531858111988 : SURFACE LATITUDE
SLON .WGS84  7.766076827432002 : SURFACE LONGITUDE
DATUM.F                    nan : DEPTH DATUM ELEV
~Curve Information -----------------------------------------
DEPT.F     : 1 MEASURED DEPTH
GRR .GAPI  : GAMMA RAY FROM RESISTIVITY LOG
NPHI.DEC   : NEUTRON POROSITY
DTCO.US/F  : DELTA-T COMPRESSIONAL
DTSM.US/F  : DELTA-T SHEAR
CALR.IN    : CALIPER FROM RESISTIVITY LOG
DRHO.G/C3  : BULK DENSITY CORRECTION
PEFZ.B/E   : HRDD STANDARD RESOLUTION FORMATION PHOTOELECTRIC FACTOR
RHOZ.G/C3  : HRDD STANDARD RESOLUTION FORMATION DENSITY
RLA2.OHMM  : APPARENT RESISTIVITY FROM COMPUTED FOCUSING MODE 2
RLA4.OHMM  : APPARENT RESISTIVITY FROM COMPUTED FOCUSING MODE 4
RLA5.OHMM  : APPARENT RESISTIVITY FROM COMPUTED FOCUSING MODE 5
~Params ----------------------------------------------------
~Other -----------------------------------------------------
~ASCII -----------------------------------------------------
# ...
 8923.00000  150.46330    0.13300   73.84680  116.55900    8.39680   -0.01050    3.26270    2.34660   48.97210   51.72950   89.03570
 8923.50000  162.56790    0.12510   73.71700  116.18560    8.39250   -0.01040    3.29790    2.36990   51.39730   56.78650   96.63510
 8924.00000  176.68110    0.11730   74.61270  118.91320    8.38910   -0.01040    3.29370    2.39320   53.22530   64.17690   92.26740
 8924.50000  190.79430    0.10940   77.89240  124.29240    8.42530   -0.01030    3.26670    2.39640   53.21040   68.48980   82.53290
 8925.00000  188.83150    0.11530   81.17200  129.27320    8.48070   -0.01030    3.11560    2.37980   52.04310   67.58900   73.82540
 8925.50000  181.97740    0.13290   81.31410  128.82610    8.72630   -0.01030    3.02170    2.32510   50.13220   64.63440   68.30640
 8926.00000  175.12330    0.14270   80.99990  126.61620    8.97180   -0.01030    2.99750    2.32420   48.29150   61.80900   72.44570
 8926.50000  165.92030    0.14270   80.66900  123.40050    9.19320   -0.01030    3.04140    2.32770   46.51830   59.10710   81.56250
 8927.00000  155.87610    0.14010   80.06140  120.18490    9.26700   -0.01020    3.08380    2.35020   44.81030   56.52330   91.82650
 8927.50000  145.83200    0.13340   79.45370  116.96920    9.32530   -0.01020    3.11830    2.37660   43.16500   54.05250  103.38230
 8928.00000  135.78790    0.12570   76.27150  115.87610    9.32370   -0.01020    3.15290    2.40310   41.58010   51.68970  116.39230
 8928.50000  135.04930    0.11790   74.64710  117.37600    9.23490   -0.01020    3.18560    2.42950   40.05330   49.78640  118.40110
 8929.00000  135.71460    0.11020   73.02280  119.74370    9.08890   -0.01010    3.20610    2.45600   38.58270   48.58150   99.13350
 8929.50000  138.63230    0.10250   71.95810  122.11130    8.94290   -0.01010    3.21400    2.46210   37.22060   47.40590   66.14690
 8930.00000  142.01010    0.10030   73.62000  122.94710    8.79690   -0.01010    3.18870    2.45260   36.99520   46.37630   51.27840
 8930.50000  145.38780    0.10610   76.82470  122.98040    8.65090   -0.01010    3.15010    2.41730   36.77120   46.09040   50.23090
 8931.00000  148.76560    0.11470   79.61340  123.01370    8.56650   -0.01010    3.10980    2.38200   36.54860   45.80620   49.20480
 8931.50000  150.66500    0.12330   79.54590  123.04700    8.53220   -0.01020    3.06950    2.34670   36.32730   45.52380   48.95210
 8932.00000  150.92790    0.13060   78.60880  123.00720    8.49800   -0.01020    3.06080    2.33650   36.23370   45.24320   48.95280
 8932.50000  151.19080    0.13140   77.68420  122.92360    8.46370   -0.01020    3.07500    2.33800   36.23420   44.99360   48.95340
 8933.00000  151.45370    0.13000   77.28970  122.84000    8.43210   -0.01030    3.08930    2.34740   36.23470   44.99420   48.95410
 8933.50000  150.77700    0.12070   77.20730  122.73940    8.43050   -0.01030    3.10350    2.35690   36.23520   44.99490   48.95470
 8934.00000  144.88740    0.10930   77.12490  122.61960    8.42890   -0.01030    3.11740    2.36640   36.23570   44.99550   48.95540
 8934.50000  136.74750    0.10360   76.97290  122.49990    8.42930   -0.01040    3.13080    2.37580   36.23620   44.99610   49.10720
 8935.00000  128.60770    0.10390   76.13180  121.93030    8.43780   -0.01040    3.14410    2.38530   36.23670   43.81440   49.61680
 8935.50000  120.46780    0.10590   74.38920  118.41840    8.44640   -0.01040    3.15740    2.39820   36.23720   42.65020   50.13180
 8936.00000  116.54540    0.10590   73.34860  113.47650    8.45500   -0.01050    3.17660    2.42110   36.23770   41.51700   51.47390
 8936.50000  118.49390    0.10070   73.19390  112.09290    8.46350   -0.01050    3.19870    2.44410   36.23820   40.41390   53.29550
 8937.00000  124.77470    0.08940   73.18830  113.14010    8.47210   -0.01050    3.19770    2.45210   36.23870   39.34010   54.20290
 8937.50000  131.05540    0.07940   73.40230  116.90160    8.48070   -0.01060    3.18010    2.44830   36.23920   38.29480   51.91540
 8938.00000  137.21820    0.07940   73.76320  117.59200    8.48930   -0.01060    3.16240    2.42890   35.55940   37.27730   49.34610
 8938.50000  138.00680    0.08400   74.08570  117.34220    8.49780   -0.01060    3.13610    2.40940   33.16220   36.28690   46.90400
 8939.00000  136.41380    0.08890   74.35770  116.77180    8.50640   -0.01060    3.10630    2.39480   30.92660   35.58030   44.58270
 8939.50000  134.29240    0.09370   73.96660  114.73750    8.51500   -0.01070    3.07660    2.39380   28.84170   35.47070   42.37630
 8940.00000  132.17090    0.09560   72.14440  112.70310    8.52350   -0.01070    3.04650    2.40910   27.60320   35.36140   40.27910
 8940.50000  131.32380    0.09410   69.49360  111.49260    8.53210   -0.01070    3.01450    2.42830   27.60360   35.25250   38.58960
 8941.00000  131.08280    0.08720   68.89960  111.67820    8.54070   -0.01080    2.98250    2.44750   27.60400   35.14400   37.70390
 8941.50000  135.05250    0.07780   69.18980  111.86390    8.54920   -0.01080    2.98650    2.44880   28.38520   35.30910   37.60080
 8942.00000  140.91880    0.06830   70.05830  112.69750    8.55780   -0.01080    3.01110    2.44920   29.79840   36.22250   38.18740
 8942.50000  146.78510    0.06360   70.92670  115.82690    8.56640   -0.01090    3.03650    2.44820   31.28190   37.15950   38.78310
 8943.00000  152.65140    0.06370   71.79510  118.13370    8.57500   -0.01090    3.06360    2.43500   32.83940   38.12080   42.75530
 8943.50000  160.39230    0.06480   72.62040  120.44040    8.58350   -0.01090    3.09070    2.41810   34.47430   39.61280   47.62100
 8944.00000  166.51300    0.06750   73.35980  122.68110    8.59210   -0.01100    3.11770    2.40120   36.19070   41.50930   53.04050
 8944.50000  172.63360    0.07050   74.47450  123.20670    8.60070   -0.01100    3.12710    2.38440   37.99250   43.49660   56.61580
 8945.00000  178.75430    0.07670   75.10320  123.73230    8.60920   -0.01100    3.12890    2.36750   39.18730   45.57900   55.87040
 8945.50000  184.87500    0.08290   75.47950  123.38700    8.64170   -0.01100    3.14010    2.35950   40.29190   47.95020   55.50770
 8946.00000  171.58800    0.08910   74.88650  122.70430    8.68330   -0.01110    3.15130    2.35800   41.42760   50.45850   56.02620
 8946.50000  153.12530    0.09540   73.58990  122.02160    8.72490   -0.01110    3.16250    2.36320   42.59530   53.09800   56.54950
 8947.00000   50.84840    0.10160   72.15110  118.41760    8.76650   -0.01110    3.17360    2.38040   45.86800   56.37720   58.83780
 8947.50000   40.42340    0.10050   54.39700  106.59550    8.80810   -0.01120    4.03610    2.40780   49.57030   61.37150   64.53730
 8948.00000   44.34120    0.08620   48.55010  104.97610    8.84970   -0.01120    4.28200    2.44820   54.56110   78.18440  526.49590
 8948.50000   47.84320    0.06780   49.77980  103.35680    8.89130   -0.01120    4.52800    2.48870   68.58860  123.13190 1412.55570
 8949.00000   46.72470    0.04940   51.10290  101.73740    8.94990   -0.01130    4.66610    2.52910   86.22240  193.91950 1152.91390
 8949.50000   42.04100    0.03110   51.35720  100.63110    9.00910   -0.01130    4.67630    2.56950  108.38990  305.40230 1030.76230
 8950.00000   39.37780    0.01850   51.29510   99.55770    9.06830   -0.01130    4.68640    2.61000  136.25660  480.97550 1150.21640
 8950.50000   39.81540    0.01760   50.67090   98.48440    9.12750   -0.01140    4.69660    2.65040  171.28760  762.21830 1384.29130
 8951.00000   40.25300    0.01670   49.87780   97.41110    9.17540   -0.01140    4.70670    2.66110  215.32500 1117.92650 1666.00160
 8951.50000   41.40450    0.01610   50.39240   96.50610    9.12770   -0.01140    4.71690    2.66290  270.68410 1118.17520 1857.17650
 8952.00000   45.99590    0.01580   51.67940   96.29510    9.08000   -0.01140    4.72690    2.66470  340.27600 1118.42320 1736.98060
 8952.50000   50.58720    0.01550   52.96650   96.08400    9.03230   -0.01140    4.73640    2.66640  367.18880  809.63260 1534.62330
 8953.00000   55.17860    0.01520   54.00790   96.17370    8.98450   -0.01080    4.74600    2.66820  366.87550  509.99710 1355.84120
