~Version ---------------------------------------------------
VERS.   2.0 : CWLS log ASCII Standard -VERSION 2.0
WRAP.    NO : One line per depth step
DLM . SPACE : Column Data Section Delimiter
~Well ------------------------------------------------------
STRT .F                  200.0 : START DEPTH
STOP .F                11624.0 : STOP DEPTH
STEP .F                    0.5 : STEP
NULL .                -9999.25 : NULL VALUE
COMP .                         : COMPANY
WELL .                         : WELL
FLD  .                         : FIELD
LOC  .                         : LOCATION
PROV .                         : PROVINCE
CNTY .                         : COUNTY
STAT .                         : STATE
CTRY .                         : COUNTRY
SRVC .                         : SERVICE COMPANY
DATE .                         : DATE
UWI  .                         : UNIQUE WELL ID
API  .                         : API NUMBER
SLAT .WGS84 1.5739531858111988 : SURFACE LATITUDE
SLON .WGS84  7.766076827432002 : SURFACE LONGITUDE
DATUM.F                    nan : DEPTH DATUM ELEV
~Curve Information -----------------------------------------
DEPT.F     : 1 MEASURED DEPTH
GRR .GAPI  : GAMMA RAY FROM RESISTIVITY LOG
NPHI.DEC   : NEUTRON POROSITY
DTCO.US/F  : DELTA-T COMPRESSIONAL
DTSM.US/F  : DELTA-T SHEAR
CALR.IN    : CALIPER FROM RESISTIVITY LOG
DRHO.G/C3  : BULK DENSITY CORRECTION
PEFZ.B/E   : HRDD STANDARD RESOLUTION FORMATION PHOTOELECTRIC FACTOR
RHOZ.G/C3  : HRDD STANDARD RESOLUTION FORMATION DENSITY
RLA2.OHMM  : APPARENT RESISTIVITY FROM COMPUTED FOCUSING MODE 2
RLA4.OHMM  : APPARENT RESISTIVITY FROM COMPUTED FOCUSING MODE 4
RLA5.OHMM  : APPARENT RESISTIVITY FROM COMPUTED FOCUSING MODE 5
~Params ----------------------------------------------------
~Other -----------------------------------------------------
~ASCII -----------------------------------------------------
# ...
 4866.50000   19.87370    0.02430   -9999.25   -9999.25   -9999.25   -9999.25   -9999.25   -9999.25   -9999.25   -9999.25   -9999.25
 4867.00000   20.07180    0.02100   -9999.25   -9999.25   -9999.25   -9999.25   -9999.25   -9999.25   -9999.25   -9999.25   -9999.25
 4867.50000   20.27550    0.01770   -9999.25   -9999.25   -9999.25   -9999.25   -9999.25   -9999.25   -9999.25   -9999.25   -9999.25
 4868.00000   20.22560    0.01440   -9999.25   -9999.25   -9999.25   -9999.25   -9999.25   -9999.25   -9999.25   -9999.25   -9999.25
 4868.50000   19.90140    0.01120   -9999.25   -9999.25   -9999.25   -9999.25   -9999.25   -9999.25   -9999.25   -9999.25   -9999.25
 4869.00000   19.57720    0.01110   -9999.25   -9999.25   -9999.25   -9999.25   -9999.25   -9999.25   -9999.25   -9999.25   -9999.25
 4869.50000   19.25310    0.01110   -9999.25   -9999.25   -9999.25   -9999.25   -9999.25   -9999.25   -9999.25   -9999.25   -9999.25
 4870.00000   18.38260    0.01400   -9999.25   -9999.25   -9999.25   -9999.25   -9999.25   -9999.25   -9999.25   -9999.25   -9999.25
 4870.50000   17.29940    0.01770   -9999.25   -9999.25   -9999.25   -9999.25   -9999.25   -9999.25   -9999.25   -9999.25   -9999.25
 4871.00000   16.21630    0.02150   -9999.25   -9999.25   -9999.25   -9999.25   -9999.25   -9999.25   -9999.25   -9999.25   -9999.25
 4871.50000   15.73010    0.02400   -9999.25   -9999.25   -9999.25   -9999.25   -9999.25   -9999.25   -9999.25   -9999.25   -9999.25
 4872.00000   15.98830    0.02400   58.17720   86.42980    9.01260    0.20780    8.61090    2.94130    0.19350    0.18780    0.21800
 4872.50000   19.03420    0.02370   58.13270   86.41450    9.22720    0.19300    7.94950    2.92750    0.19350    0.18780    0.21790
 4873.00000   22.08010    0.02050   58.08820   86.39920    9.44180    0.16470    7.45090    2.91380    0.19360    0.18790    0.21790
 4873.50000   25.13120    0.01710   58.04370   86.38390    9.65640    0.14930    6.51460    2.90010    0.19370    0.18800    0.28020
 4874.00000   27.99190    0.01350   57.99920   86.36860    9.87100    0.13080    6.30220    2.89960    0.19370    0.19840    9.25080
 4874.50000   26.45960    0.00990   57.95460   86.35330   10.03540    0.09870    6.15490    2.89960    0.19380    2.35390   60.93590
 4875.00000   24.92720    0.00630   57.91010   86.33800   10.07280    0.06680    6.11590    2.89970    0.63480   32.54090  401.39210
 4875.50000   23.39490    0.00270   57.86560   86.05650    9.92400    0.03560    6.07700    2.89970   14.98050  214.51450 1327.73380
 4876.00000   19.11370   -0.00090   57.82110   85.71620    9.68210    0.01310    6.03800    2.89980   98.74370 1119.70230 1591.73820
 4876.50000   17.89030   -0.00100   57.77660   85.37600    9.49340    0.01310    6.02640    2.89980  650.86630 1371.03550 1908.23680
 4877.00000   17.57330   -0.00100   57.73210   85.03580    9.42960    0.01320    6.01590    2.89990  907.42830 1635.28250 2143.45210
 4877.50000   17.49870   -0.00100   57.67590   84.69560    9.36580    0.01440    6.00540    2.89990 1085.26380 1635.87870 2222.68460
 4878.00000   17.42420   -0.00110   57.57820   84.35540    9.36030    0.01840    5.99740    2.90000 1241.59530 1607.01480 2223.49370
 4878.50000   17.34960   -0.00110   57.48050   84.01510    9.35670    0.04290    5.99040    2.90400 1268.80880 1574.85850 2210.72950
 4879.00000   17.27210   -0.00110   57.38280   83.67490    9.35310    0.07440    5.98340    2.90840 1206.52360 1493.29130 2016.40640
 4879.50000   17.13250   -0.00120   57.28510   83.33470    9.34950    0.10590    5.97640    2.91270 1058.19730 1298.84220 1702.35830
 4880.00000   16.99290   -0.00140   57.18740   82.99450    9.34590    0.13740    5.96960    2.91710  892.86520 1129.71340 1437.22200
 4880.50000   16.85330   -0.00150   57.08300   82.65430    9.34230    0.22360    5.97040    2.92140  753.36480  963.02400 1213.37990
 4881.00000   16.39000   -0.00170   56.93750   82.31400    9.34500    0.25820    5.97130    2.92580  635.65990  812.64730 1024.26200
 4881.50000   15.13040   -0.00180   56.79190   81.97380    9.35450    0.25830    5.97210    2.93020  451.78890  685.75240  864.41640
 4882.00000   13.87080   -0.00200   56.64630   81.63360    9.36400    0.25830    5.97290    2.93410  336.47000  529.75530  729.51670
 4882.50000   12.97700   -0.00220   56.50070   81.29340    9.37340    0.25840    5.97370    2.93700  281.73730  362.41710  602.53640
 4883.00000   12.46510   -0.00230   56.35510   80.95310    9.38290    0.25840    5.97460    2.93680  235.90770  256.09410  412.07100
 4883.50000   12.20990   -0.00250   56.20950   80.61290    9.39230    0.25830    5.97540    2.93610  223.36410  251.70720  281.81310
 4884.00000   12.07180   -0.00260   56.06390   80.27270    9.40180    0.25700    5.97620    2.93540  224.46380  249.08480  269.92760
 4884.50000   11.93380   -0.00280   55.91830   79.93250    9.41130    0.25570    5.97700    2.93470  232.29810  253.00050  268.74150
 4885.00000   11.79570   -0.00290   55.77270   79.59230    9.42070    0.25430    5.97790    2.93400  240.40580  256.97780  267.75930
 4885.50000   11.65770   -0.00310   55.62710   79.25200    9.43020    0.25300    5.97810    2.93610  249.01770  261.01760  276.16560
 4886.00000   11.54340   -0.00320   55.48150   78.91180    9.43970    0.25170    5.97630    2.94360  258.89030  266.91210  290.01830
 4886.50000   11.47360   -0.00340   55.33590   78.57160    9.44910    0.25040    5.97450    2.95100  269.15430  280.27840  307.35690
 4887.00000   11.40390   -0.00350   55.19030   78.23140    9.45860    0.24910    5.97270    2.95270  279.82500  297.03350  325.73230
 4887.50000   11.33410   -0.00370   55.04470   78.33110    9.46810    0.24770    5.92720    2.95280  290.91900  314.79050  344.95330
 4888.00000   11.20050   -0.00380   54.93190   78.45630    9.47750    0.24640    5.74890    2.95280  302.54730  333.44290  364.77800
 4888.50000   10.80190   -0.00400   54.82100   78.58150    9.48700    0.24510    5.74980    2.95290  323.83340  352.59720  385.74190
 4889.00000   10.31790   -0.00410   54.71000   78.70670    9.49640    0.24380    5.75060    2.95290  346.61710  372.85210  436.94490
 4889.50000    9.81990   -0.00430   54.59900   78.83190    9.50590    0.24330    5.75140    2.95280  371.36510  413.18870  516.74510
 4890.00000   10.18050   -0.00440   54.58020   78.95710    9.51540    0.24330    5.75220    2.95270  401.75690  468.16170  597.19630
 4890.50000   10.61720   -0.00460   54.56400   78.71880    9.52480    0.24330    5.75310    2.95270  437.47460  517.70170  597.41430
 4891.00000   11.05380   -0.00470   54.54790   78.31830    9.53430    0.24330    5.75390    2.95260  456.93100  504.31440  576.92340
 4891.50000   11.23850   -0.00490   54.53180   78.19180    9.54380    0.24330    5.75470    2.95250  431.91980  474.96510  533.28390
 4892.00000   11.38840   -0.00500   54.51570   78.06530    9.55050    0.24320    5.75550    2.95250  402.10490  438.99550  492.94570
 4892.50000   11.53840   -0.00520   54.49960   77.93880    9.55640    0.24320    5.75640    2.95240  374.34780  408.60290  455.65840
 4893.00000   11.68830   -0.00530   54.48350   77.81230    9.56220    0.24320    5.75720    2.95240  353.95870  387.71610  422.51030
 4893.50000   11.79210   -0.00550   54.46730   77.68580    9.56810    0.24320    5.75800    2.95230  335.87350  367.89700  400.93220
 4894.00000   11.81840   -0.00560   54.45120   77.55930    9.57390    0.24320    5.75880    2.95220  323.20820  349.09100  380.45600
 4894.50000   11.84480   -0.00580   54.40810   77.43280    9.57980    0.24320    5.75970    2.95220  312.72180  335.61730  361.02560
 4895.00000   11.87120   -0.00640   54.35060   77.30630    9.58570    0.24310    5.76050    2.95210  302.57570  324.73600  347.14610
 4895.50000   11.94970   -0.00700   54.14530   77.17980    9.59150    0.24310    5.76130    2.95210  293.17410  314.20730  335.88640
 4896.00000   12.02820   -0.00760   53.90370   77.05330    9.59740    0.24310    5.76210    2.95200  284.11280  304.48630  325.05150
 4896.50000   12.10670   -0.00820   53.67520   76.92680    9.60320    0.24310    5.76290    2.95190  275.33150  295.07540  315.00520
