~Version ---------------------------------------------------
VERS.   2.0 : CWLS log ASCII Standard -VERSION 2.0
WRAP.    NO : One line per depth step
DLM . SPACE : Column Data Section Delimiter
~Well ------------------------------------------------------
STRT .F                  200.0 : START DEPTH
STOP .F                11624.0 : STOP DEPTH
STEP .F                    0.5 : STEP
NULL .                -9999.25 : NULL VALUE
COMP .                         : COMPANY
WELL .                         : WELL
FLD  .                         : FIELD
LOC  .                         : LOCATION
PROV .                         : PROVINCE
CNTY .                         : COUNTY
STAT .                         : STATE
CTRY .                         : COUNTRY
SRVC .                         : SERVICE COMPANY
DATE .                         : DATE
UWI  .                         : UNIQUE WELL ID
API  .                         : API NUMBER
SLAT .WGS84 1.5739531858111988 : SURFACE LATITUDE
SLON .WGS84  7.766076827432002 : SURFACE LONGITUDE
DATUM.F                    nan : DEPTH DATUM ELEV
~Curve Information -----------------------------------------
DEPT.F     : 1 MEASURED DEPTH
GRR .GAPI  : GAMMA RAY FROM RESISTIVITY LOG
NPHI.DEC   : NEUTRON POROSITY
DTCO.US/F  : DELTA-T COMPRESSIONAL
DTSM.US/F  : DELTA-T SHEAR
CALR.IN    : CALIPER FROM RESISTIVITY LOG
DRHO.G/C3  : BULK DENSITY CORRECTION
PEFZ.B/E   : HRDD STANDARD RESOLUTION FORMATION PHOTOELECTRIC FACTOR
RHOZ.G/C3  : HRDD STANDARD RESOLUTION FORMATION DENSITY
RLA2.OHMM  : APPARENT RESISTIVITY FROM COMPUTED FOCUSING MODE 2
RLA4.OHMM  : APPARENT RESISTIVITY FROM COMPUTED FOCUSING MODE 4
RLA5.OHMM  : APPARENT RESISTIVITY FROM COMPUTED FOCUSING MODE 5
~Params ----------------------------------------------------
~Other -----------------------------------------------------
~ASCII -----------------------------------------------------
# ...
 5751.00000  138.63430    0.07790   67.70530  114.95880    8.60930   -0.00310    4.17130    2.39590   77.53870   98.69700  129.23320
 5751.50000  133.50900    0.07260   66.18830  115.71810    8.60360   -0.00330    4.17020    2.42780   68.29030   81.25080  105.10870
 5752.00000  132.87860    0.06740   66.24640  116.47740    8.59790   -0.00350    4.17910    2.45980   60.14500   73.20580   99.31270
 5752.50000  132.24810    0.06210   67.30840  117.32650    8.59210   -0.00400    4.20120    2.46280   56.43150   76.38860   98.25080
 5753.00000  132.08820    0.05680   68.37050  118.20140    8.58640   -0.00460    4.22330    2.46230   57.01050   91.51790   98.14390
 5753.50000  132.27030    0.05160   69.43250  119.07630    8.58070   -0.00510    4.15890    2.45120   66.10430   94.58110  101.11670
 5754.00000  133.91090    0.04680   70.49450  119.95120    8.57500   -0.00570    4.07210    2.42290   76.49360   97.44480  128.20180
 5754.50000  136.76710    0.04210   71.55660  120.75280    8.56920   -0.00620    4.01100    2.39450   88.51570  115.15320  166.82230
 5755.00000  140.89720    0.04110   72.40700  120.31910    8.56350   -0.00680    4.02740    2.36620  102.42720  144.38820  204.30790
 5755.50000  143.54390    0.04230   72.40150  119.68780    8.55780   -0.00730    4.06020    2.36260  101.28380  144.39690  206.34860
 5756.00000  128.21760    0.04560   70.75810  119.05660    8.55210   -0.00670    4.16890    2.37610   95.74790  137.38750  184.49800
 5756.50000  117.97010    0.04820   67.90770  118.42530    8.54630   -0.00600    4.46300    2.39100   90.51440  114.09630  151.22030
 5757.00000  113.52790    0.03970   66.28580  117.39160    8.54060   -0.00530    4.62940    2.40590   85.56710   95.83290  123.94480
 5757.50000  111.11660    0.02780   65.86930  115.77570    8.63610   -0.00470    4.79590    2.42080   80.70850   89.79500  101.58900
 5758.00000  108.03180    0.01590   65.19310  114.15910    8.74330   -0.00400    4.86610    2.43570   76.92330   84.13750   93.38540
 5758.50000  103.37730    0.01470   64.51680  112.54250    8.85050   -0.00330    4.88640    2.45060   74.27390   79.88360   87.49740
 5759.00000  100.22140    0.01410   64.10690  110.92590    8.95770   -0.00260    4.88710    2.46580   71.23640   77.13230   82.82060
 5759.50000   98.57940    0.01410   63.89070  109.33360    8.97080   -0.00190    4.79100    2.48090   64.21520   74.03800   79.96860
 5760.00000   98.69910    0.01410   63.42650  108.18740    8.96980   -0.00100    4.66400    2.49600   38.64680   69.06240   76.79710
 5760.50000   98.81870    0.01400   62.50710  107.04120    8.96890   -0.00100    4.53700    2.50640   23.25880   60.71560   73.12730
 5761.00000   98.93840    0.01560   61.23680  105.89500    8.96790   -0.00090    4.40990    2.50850   20.20150   40.01470   64.31880
 5761.50000   98.69260    0.02000   59.57030  104.83660    8.96860   -0.00090    4.24320    2.51340   18.43860   39.52600   43.42810
 5762.00000   95.24920    0.02560   58.33360  104.73510    8.96960   -0.00100    4.07650    2.54330   16.82950   31.37220   41.24030
 5762.50000   80.49890    0.03250   58.10560  106.92820    8.97050   -0.00230    3.90980    2.56320   13.73750   21.57720   38.24350
 5763.00000   84.16870    0.03940   58.80620  109.62730    8.97140   -0.00320    3.74300    2.58320   10.89950   14.84040   25.04990
 5763.50000   87.83860    0.04650   63.98170  112.32640    8.97240   -0.00380    3.57630    2.60310    8.64770   10.20690   17.22890
 5764.00000   92.85270    0.05360   66.46490  114.83340    8.97330   -0.00450    3.41860    2.60310    6.86120    9.19680   11.84980
 5764.50000   97.70240    0.06070   67.00690  115.24510    8.97420   -0.00520    3.32460    2.58400    6.67730    9.13260    9.62920
 5765.00000  102.51120    0.06770   67.08680  115.65680    8.97520   -0.00580    3.28420    2.55320    7.23610    9.06880    9.56200
 5765.50000  108.16740    0.07480   67.26840  116.06850    8.97610   -0.00650    3.25400    2.52250    7.84170    9.04590    9.52970
 5766.00000  113.82360    0.08040   67.53650  116.48020    8.97700   -0.00650    3.23820    2.49170    8.01810    9.04630    9.53010
 5766.50000  112.48720    0.08140   67.64550  116.89190    8.97800   -0.00650    3.22230    2.46840    7.32690    8.85610    9.53050
 5767.00000  107.00740    0.08240   67.67910  117.31920    8.97890   -0.00650    3.20640    2.45900    6.69530    8.23180    9.53090
 5767.50000  101.52770    0.08350   67.67220  117.81070    8.97990   -0.00640    3.19050    2.44980    6.11820    7.65150    8.77380
 5768.00000   96.37500    0.08460   66.78630  118.16990    8.98080   -0.00640    3.18090    2.44990    5.74680    7.57020    8.01570
 5768.50000   91.45780    0.08690   65.90040  116.83050    8.98170   -0.00640    3.18050    2.44990    5.68690    7.51730    7.92610
 5769.00000   85.89240    0.08920   65.43430  115.54600    8.98270   -0.00680    3.18010    2.44990    5.62750    7.46480    7.87240
 5769.50000   80.32700    0.09150   65.36730  114.48330    8.98360   -0.00710    3.17960    2.45410    6.07000    7.56070    8.24110
 5770.00000   76.43860    0.09280   65.05510  113.42050    8.98450   -0.00750    3.17920    2.48170    6.63730    7.68820    9.84890
 5770.50000   76.44900    0.09280   64.72720  112.35750    8.98550   -0.00780    3.17880    2.51240    7.25760    9.13460   11.77040
 5771.00000   76.58780    0.09280   64.43700  111.62930    8.98640   -0.00820    3.17890    2.54310    7.93580    9.97780   13.31230
 5771.50000   77.57250    0.09280   64.19210  112.19080    8.98730   -0.00850    3.17920    2.56450    8.67740   10.36190   13.60610
 5772.00000   78.55720    0.09070   64.31080  112.75230    8.98830   -0.00870    3.17950    2.56460    8.83580   10.76070   12.81450
 5772.50000   79.82510    0.08810   65.98100  113.31380    8.98920   -0.00900    3.17990    2.56460    8.21090   10.81730   11.52520
 5773.00000   81.46610    0.08540   66.55290  114.00010    8.99010   -0.00930    3.18020    2.55440    7.53600   10.82010   11.39730
 5773.50000   85.49950    0.08280   66.21280  114.94520    8.99110   -0.00960    3.18050    2.54410    7.19390   10.82300   11.86100
 5774.00000   98.14160    0.08090   65.77120  114.12920    8.99200   -0.00990    3.20560    2.53370    7.72070   11.39470   14.23200
 5774.50000  111.55070    0.07900   65.32950  109.66150    8.99300   -0.00970    3.24920    2.52340    9.26200   12.41400   19.59200
 5775.00000  122.14660    0.07120   65.04900  109.52550    8.99390   -0.00930    3.29280    2.51300   11.11100   14.81110   24.66310
 5775.50000  121.66070    0.06200   64.91800  109.63600    8.99480   -0.00900    3.33640    2.50270   13.32910   17.67110   25.19390
 5776.00000  117.58160    0.05280   64.78710  109.76450    8.99580   -0.00870    3.46570    2.50000   13.33860   16.89040   25.38090
 5776.50000  107.81090    0.04540   64.73010  110.06490    8.99670   -0.00840    3.54020    2.50000   11.50130   13.63670   21.40390
 5777.00000   98.04010    0.04540   64.71690  110.36520    8.99760   -0.00810    3.54330    2.50180    9.91710   12.04830   15.78920
 5777.50000   88.26930    0.04540   64.70380  110.66560    8.99860   -0.00780    3.50350    2.51260    8.55110   11.11310   12.56620
 5778.00000   84.29890    0.04640   64.69060  111.99050    8.99950   -0.00730    3.41960    2.52680    7.10820    9.64410   11.59060
 5778.50000   83.98620    0.05360   66.00370  115.14190    9.00040   -0.00660    3.35670    2.54110    5.41970    7.81870   10.48270
 5779.00000   83.67350    0.06500   67.72740  118.90180    9.00140   -0.00600    3.30050    2.55420    4.13220    6.33880    8.49870
 5779.50000   85.32630    0.07640   69.45120  122.70290    9.00230   -0.00540    3.26080    2.55490    3.49210    6.12190    6.89020
 5780.00000   87.20130    0.08790   71.17490  124.88170    9.00330   -0.00470    3.25120    2.55560    3.47420    6.12350    6.45010
 5780.50000   89.07630    0.09930   71.66050  120.97010    9.00420   -0.00410    3.24200    2.53620    3.45640    6.13250    6.47760
 5781.00000   90.74210    0.10720   62.97610  114.86240    9.00510   -0.00350    3.23420    2.50880    3.85560    6.21120    6.98530
