~Version ---------------------------------------------------
VERS.   2.0 : CWLS log ASCII Standard -VERSION 2.0
WRAP.    NO : One line per depth step
DLM . SPACE : Column Data Section Delimiter
~Well ------------------------------------------------------
STRT .F                  185.0 : START DEPTH
STOP .F                 4349.0 : STOP DEPTH
STEP .F                    0.5 : STEP
NULL .                -9999.25 : NULL VALUE
COMP .                         : COMPANY
WELL .                         : WELL
FLD  .                         : FIELD
LOC  .                         : LOCATION
PROV .                         : PROVINCE
CNTY .                         : COUNTY
STAT .                         : STATE
CTRY .                         : COUNTRY
SRVC .                         : SERVICE COMPANY
DATE .                         : DATE
UWI  .                         : UNIQUE WELL ID
API  .                         : API NUMBER
SLAT .WGS84 3.0948621706700976 : SURFACE LATITUDE
SLON .WGS84  8.486843216905001 : SURFACE LONGITUDE
DATUM.F                3951.47 : DEPTH DATUM ELEV
~Curve Information -----------------------------------------
DEPT.F     : 
DT  .US/F  : DELTA-T (INTERVAL TRANSIT TIME)
DTCO.US/F  : DELTA-T COMPRESSIONAL
DTL .US/F  : DELTA-T LONG SPACING
DTSM.US/F  : DELTA-T SHEAR
LLD .OHMM  : LATEROLOG DEEP RESISTIVITY
LLS .OHMM  : LATEROLOG SHALLOW RESISTIVITY
MSFL.OHMM  : MICRO SPHERICALLY FOCUSED RESISTIVITY
SGR .GAPI  : SPECTROSCOPY GAMMA RAY
CALD.IN    : CALIPER FROM DENSITY LOG
PEF .B/E   : PHOTOELECTRIC FACTOR
DRHO.G/C3  : BULK DENSITY CORRECTION
NPHI.DEC   : NEUTRON POROSITY
DPHI.DEC   : DENSITY POROSITY
~Params ----------------------------------------------------
~Other -----------------------------------------------------
~ASCII -----------------------------------------------------
# ...
 3461.00000   51.49390   50.83780   46.40040   89.70890   74.02030   65.12250   73.99100   29.17980    8.91510    3.10630   -0.00140    0.09450   -0.05820
 3461.50000   45.71900   49.03060   44.95910   88.20670  133.52890  138.41880  136.17370   23.46970    8.87630    3.22700    0.00010    0.06500   -0.07080
 3462.00000   43.55310   48.12290   44.19190   85.50510  200.02620  189.15200  326.45190   15.95770    8.84440    3.39280    0.00160    0.03670   -0.08340
 3462.50000   43.91350   49.02050   43.87550   86.10190  460.93150  245.54800  421.82450   13.55090    8.79370    3.46850    0.00260    0.02520   -0.09240
 3463.00000   44.54460   49.63710   43.97780   87.29830  398.77910  244.06050  352.72420   12.94580    8.79340    3.49910    0.00670    0.02410   -0.09480
 3463.50000   45.44650   49.89760   44.49650   88.20150  215.23120  151.33650  203.26470   17.14560    8.79310    3.47970    0.00770    0.03010   -0.08700
 3464.00000   46.52870   48.99000   45.16200   88.82310  165.85570  117.85560  112.38920   19.54350    8.79280    3.44020    0.01070    0.03160   -0.07500
 3464.50000   47.70120   49.32420   46.38140   89.71370  130.92640  109.87110   41.09100   20.44580    8.79250    3.40070    0.01220    0.03190   -0.07140
 3465.00000   49.23460   49.97770   47.65660   90.88470  111.96710  104.04900   88.96590   21.65630    8.79210    3.32140    0.01080    0.03510   -0.07200
 3465.50000   50.67780   51.54900   49.39210   91.82550  100.82530   67.52570  118.88300   23.21810    8.79180    3.23780    0.00780    0.04540   -0.07260
 3466.00000   51.57960   54.56670   51.78800   92.78580   76.15810   45.27500   37.86710   26.30060    8.76140    3.17240    0.00340    0.05680   -0.05640
 3466.50000   52.30090   55.24620   52.38300   93.63760   54.16650   36.49270   23.39490   31.11760    8.73100    3.08290    0.00190    0.06640   -0.01860
 3467.00000   51.93960   54.84750   52.50750   94.17130   31.90860   30.93280   15.25360   36.03620    8.73070    2.96340   -0.00110    0.07360   -0.00090
 3467.50000   50.49550   54.23040   51.86040   93.18570   30.15120   30.50690   16.47030   38.43130    8.73040    2.84380   -0.00400    0.07900    0.00110
 3468.00000   49.05150   53.50520   50.32910   91.49050   32.11110   37.27890   23.14740   36.16860    8.70000    2.84440   -0.00400    0.07960   -0.00550
 3468.50000   48.20880   52.57910   49.15760   89.56270   46.35170   53.18250   44.50090   33.56300    8.66960    2.90510   -0.00400    0.07290   -0.01930
 3469.00000   48.14820   51.65260   47.71630   88.46180   93.78230   75.26430   85.41400   30.04480    8.66930    2.98580   -0.00400    0.05670   -0.04450
 3469.50000   48.14780   50.86210   47.80420   88.15890  133.34300  107.50020  132.96550   27.61020    8.66900    3.08650   -0.00390    0.04890   -0.05310
 3470.00000   47.75630   49.50040   47.71210   88.97580  143.88160  122.73690  130.00220   25.71570    8.66870    3.06710   -0.00390    0.04230   -0.05920
 3470.50000   47.00400   48.42820   47.34620   89.81250  145.95210  125.02800   58.69320   25.49100    8.66840    2.96760   -0.00320    0.04950   -0.06250
 3471.00000   46.07120   48.43760   46.79340   88.90230  150.11090  125.07920   56.45270   25.48650    8.66810    2.96820   -0.00160    0.05250   -0.06100
 3471.50000   45.31890   48.86580   45.87650   87.37190  152.62700  135.45170   90.76010   23.36970    8.66780    3.05890   -0.00080    0.04890   -0.06250
 3472.00000   44.22070   48.25630   44.96280   85.54170  159.15870  184.06340  145.08940   18.22120    8.66750    3.17960    0.00070    0.03680   -0.07450
 3472.50000   43.81430   46.14920   44.15070   84.01040  226.10630  294.82390  304.83040   15.74840    8.66720    3.30030    0.00230    0.02300   -0.08950
 3473.00000   44.31010   46.74080   43.65160   84.83900  496.67130  422.34050  483.88160   14.83600    8.66690    3.33090    0.00230    0.01580   -0.09130
 3473.50000   44.85100   47.93210   43.86020   86.03550  433.05980  416.71950  397.01690   13.79440    8.66660    3.36160    0.00230    0.01100   -0.09130
 3474.00000   45.79790   49.12330   44.38380   86.93210  367.10620  338.89620  287.51390   13.31140    8.66630    3.25210    0.00230    0.01300   -0.09130
 3474.50000   46.88020   49.71490   45.45500   87.52880  311.45400  206.23040  199.57400   14.02930    8.66600    2.99240    0.00240    0.02340   -0.09090
 3475.00000   47.91730   50.30650   46.74630   88.42540  204.02080  118.75460  131.01040   16.59160    8.66570    2.79280    0.00390    0.03680   -0.08070
 3475.50000   48.92430   50.59890   47.86280   92.32050  132.68480   92.65790   62.71990   22.51280    8.66530    2.85350    0.00540    0.05200   -0.06910
 3476.00000   49.52540   50.89000   49.28930   94.71640   95.74580   85.32540   49.09970   29.59290    8.66510    2.91410    0.00690    0.06360   -0.05770
 3476.50000   49.46490   50.91710   49.84410   93.51400   82.77420   85.36040   49.22820   32.85750    8.66470    3.03480    0.00850    0.06940   -0.05430
 3477.00000   48.65240   50.27400   49.59240   91.71200   79.99830   83.06930   48.57980   34.19710    8.66440    3.15550    0.00850    0.06780   -0.05530
 3477.50000   46.99790   49.66620   48.62310   89.61010   84.00590   95.40880   51.03200   29.63130    8.66410    3.21620    0.00850    0.05510   -0.06610
 3478.00000   46.27560   49.35820   47.83880   86.90850   93.99750  124.08220  112.25550   25.12230    8.66380    3.24680    0.00860    0.03750   -0.07280
 3478.50000   46.36530   49.05020   47.49660   88.10490  153.42860  159.15990  319.28940   21.81460    8.66350    3.24740    0.00860    0.02410   -0.07400
 3479.00000   47.50760   49.36500   47.53570   89.60490  200.77180  198.59280  194.43010   21.20950    8.66320    3.23810    0.00810    0.02020   -0.07340
 3479.50000   49.04100   51.32000   48.51200   91.12860  154.74860  150.73060  100.34280   21.80570    8.66300    3.21860    0.00520    0.01930   -0.06620
 3480.00000   50.21350   55.74260   51.42060   93.29330  133.75160  119.24230   54.72180   24.80420    8.66270    3.13920    0.00270    0.01990   -0.04940
 3480.50000   54.45370   57.83050   54.73790   95.67830  122.87430  106.81500   53.99090   27.50250    8.66230    3.07970   -0.00180    0.03720    0.01060
 3481.00000   56.61860   59.09800   56.37530   96.86360  113.19540  102.52250   47.70630   29.90040    8.66200    2.96520   -0.00320    0.05740    0.04720
 3481.50000   57.34000   61.05240   57.28440   97.73070  104.21080  102.56460   37.75090   32.29840    8.66170    2.86070   -0.00170    0.06530    0.06450
 3482.00000   57.24930   60.78580   55.32650   97.50520  108.18880  110.49530   25.31760   33.49510    8.66930    2.77120    0.00210    0.06820    0.08490
 3482.50000   54.09100   59.02690   51.81090   95.90710  120.34550  125.25840   42.18200   33.79130    8.70060    2.71170    0.00280    0.06820    0.08790
 3483.00000   51.47400   56.55950   50.95560   93.09020  162.07630  157.26010   72.24490   34.38710    8.72110    2.60220    0.00790    0.06460    0.07770
 3483.50000   48.40590   53.68600   49.70200   90.12870  207.64020  218.36450  107.79730   31.07930    8.72080    2.51270    0.00890    0.05760    0.04770
 3484.00000   45.42800   51.75040   48.06580   87.30380  309.73260  318.28890  209.01660   24.76860    8.73410    2.52330    0.01390    0.04820   -0.01580
 3484.50000   43.62300   49.81100   45.17380   84.26000  504.44690  425.53620  428.25830   18.45780    8.75030    2.70400    0.01790    0.03750   -0.06200
 3485.00000   43.26170   48.52080   43.75850   83.75330  627.03530  534.47320  588.27190   10.04500    8.78010    2.92500    0.00900    0.02620   -0.10300
 3485.50000   43.80260   48.93480   43.23940   83.86510  766.02650  534.72020  502.30110    8.53900    8.77980    3.10570    0.00150    0.01740   -0.10310
 3486.00000   45.81730   49.36740   44.55220   84.29580  628.14870  490.46580  400.82280   10.04380    8.77950    3.10630   -0.00290    0.01380   -0.10280
 3486.50000   46.95950   49.66810   50.43780   84.45880  529.03370  373.27420  259.51710   10.95430    8.77920    3.10690   -0.00290    0.01440   -0.09920
