~Version ---------------------------------------------------
VERS.   2.0 : CWLS log ASCII Standard -VERSION 2.0
WRAP.    NO : One line per depth step
DLM . SPACE : Column Data Section Delimiter
~Well ------------------------------------------------------
STRT .F                  185.0 : START DEPTH
STOP .F                 4349.0 : STOP DEPTH
STEP .F                    0.5 : STEP
NULL .                -9999.25 : NULL VALUE
COMP .                         : COMPANY
WELL .                         : WELL
FLD  .                         : FIELD
LOC  .                         : LOCATION
PROV .                         : PROVINCE
CNTY .                         : COUNTY
STAT .                         : STATE
CTRY .                         : COUNTRY
SRVC .                         : SERVICE COMPANY
DATE .                         : DATE
UWI  .                         : UNIQUE WELL ID
API  .                         : API NUMBER
SLAT .WGS84 3.0948621706700976 : SURFACE LATITUDE
SLON .WGS84  8.486843216905001 : SURFACE LONGITUDE
DATUM.F                3951.47 : DEPTH DATUM ELEV
~Curve Information -----------------------------------------
DEPT.F     : 
DT  .US/F  : DELTA-T (INTERVAL TRANSIT TIME)
DTCO.US/F  : DELTA-T COMPRESSIONAL
DTL .US/F  : DELTA-T LONG SPACING
DTSM.US/F  : DELTA-T SHEAR
LLD .OHMM  : LATEROLOG DEEP RESISTIVITY
LLS .OHMM  : LATEROLOG SHALLOW RESISTIVITY
MSFL.OHMM  : MICRO SPHERICALLY FOCUSED RESISTIVITY
SGR .GAPI  : SPECTROSCOPY GAMMA RAY
CALD.IN    : CALIPER FROM DENSITY LOG
PEF .B/E   : PHOTOELECTRIC FACTOR
DRHO.G/C3  : BULK DENSITY CORRECTION
NPHI.DEC   : NEUTRON POROSITY
DPHI.DEC   : DENSITY POROSITY
~Params ----------------------------------------------------
~Other -----------------------------------------------------
~ASCII -----------------------------------------------------
# ...
 4293.00000   -9999.25   -9999.25   -9999.25   -9999.25  122.27150  122.09390  208.86520   -9999.25    7.98580    3.29070    0.00770    0.08030   -0.04230
 4293.50000   -9999.25   -9999.25   -9999.25   -9999.25  127.49100  123.29270  143.78100   -9999.25    7.98600    3.26160    0.00670    0.08150   -0.03840
 4294.00000   -9999.25   -9999.25   -9999.25   -9999.25  129.31220  131.88780   80.76350   -9999.25    7.98610    3.27750    0.00440    0.08550   -0.03640
 4294.50000   -9999.25   -9999.25   -9999.25   -9999.25  134.83220  137.50510  184.65730   -9999.25    7.98630    3.32350    0.00370    0.08790   -0.03720
 4295.00000   -9999.25   -9999.25   -9999.25   -9999.25  138.65990  126.70430  209.48600   -9999.25    7.98640    3.41440    0.00080    0.08920   -0.03920
 4295.50000   -9999.25   -9999.25   -9999.25   -9999.25  119.16450  114.26910  151.61570   -9999.25    7.98660    3.47530   -0.00070    0.09070   -0.04100
 4296.00000   -9999.25   -9999.25   -9999.25   -9999.25  102.41010   98.32510   73.58970   -9999.25    7.98670    3.42630    0.00010    0.09190   -0.04160
 4296.50000   -9999.25   -9999.25   -9999.25   -9999.25   85.61400   79.38960  109.86370   -9999.25    7.98690    3.37710    0.00080    0.09340   -0.04240
 4297.00000   -9999.25   -9999.25   -9999.25   -9999.25   70.59110   67.23500  105.50530   -9999.25    7.98700    3.27790    0.00080    0.09620   -0.04240
 4297.50000   -9999.25   -9999.25   -9999.25   -9999.25   56.17840   62.76770   27.72170   -9999.25    7.98720    3.13860    0.00080    0.09890   -0.04120
 4298.00000   -9999.25   -9999.25   -9999.25   -9999.25   47.13420   59.42300   32.73870   -9999.25    7.98730    3.05950    0.00080    0.10130   -0.03220
 4298.50000   -9999.25   -9999.25   -9999.25   -9999.25   42.40910   54.36710   57.67060   -9999.25    7.98750    3.06040    0.00080    0.10280   -0.02980
 4299.00000   -9999.25   -9999.25   -9999.25   -9999.25   38.51620   44.05920   51.69340   -9999.25    7.98770    3.12140    0.00240    0.10420   -0.02920
 4299.50000   -9999.25   -9999.25   -9999.25   -9999.25   34.82510   35.65740   32.37620   -9999.25    7.98780    3.18230    0.00340    0.10480   -0.02860
 4300.00000   -9999.25   -9999.25   -9999.25   -9999.25   31.47510   31.33390   22.33230   -9999.25    7.98800    3.24320    0.01290    0.10600   -0.02740
 4300.50000   -9999.25   -9999.25   -9999.25   -9999.25   29.66120   30.91310   20.90060   -9999.25    7.98810    3.30420    0.01890    0.10600   -0.02500
 4301.00000   -9999.25   -9999.25   -9999.25   -9999.25   28.86430   31.21470   19.50830   -9999.25    7.95820    3.36510    0.02490    0.10560   -0.02620
 4301.50000   -9999.25   -9999.25   -9999.25   -9999.25   31.60050   32.25140   23.90990   -9999.25    7.95830    3.42610    0.01890   -9999.25   -0.03110
 4302.00000   -9999.25   -9999.25   -9999.25   -9999.25   38.15870   35.39030   21.28070   -9999.25    7.92830    3.48700    0.00990   -9999.25   -0.03710
 4302.50000   -9999.25   -9999.25   -9999.25   -9999.25   52.10820   43.21550   32.93160   -9999.25    7.92850    3.31780    0.00690   -9999.25   -0.03410
 4303.00000   -9999.25   -9999.25   -9999.25   -9999.25   73.34840   58.90330   50.92810   -9999.25    7.92860    3.18860    0.00690   -9999.25   -0.03170
 4303.50000   -9999.25   -9999.25   -9999.25   -9999.25  115.73240   83.79300   30.54400   -9999.25    7.89860    3.22950    0.00840   -9999.25   -0.03470
 4304.00000   -9999.25   -9999.25   -9999.25   -9999.25  194.76880  132.22590   40.05510   -9999.25    7.86870    3.39060    0.01290   -9999.25   -0.04550
 4304.50000   -9999.25   -9999.25   -9999.25   -9999.25  216.21950  176.79140   54.74790   -9999.25    7.86880    3.43160    0.01590   -9999.25   -0.05070
 4305.00000   -9999.25   -9999.25   -9999.25   -9999.25  184.79010  160.57940   57.40160   -9999.25    7.86900    3.40240    0.01590   -9999.25   -0.05270
 4305.50000   -9999.25   -9999.25   -9999.25   -9999.25  148.81950  138.01630   98.26370   -9999.25    7.86910    3.28320    0.01590   -9999.25   -0.04230
 4306.00000   -9999.25   -9999.25   -9999.25   -9999.25  127.96880  121.94530   63.91810   -9999.25    7.86930    3.23900    0.01590   -9999.25   -0.03190
 4306.50000   -9999.25   -9999.25   -9999.25   -9999.25  112.67090  115.44750    9.96690   -9999.25    7.86940    3.32990    0.01790   -9999.25   -0.02350
 4307.00000   -9999.25   -9999.25   -9999.25   -9999.25  108.13940  112.35650    3.10860   -9999.25    7.86960    3.43600    0.02390   -9999.25   -0.02230
 4307.50000   -9999.25   -9999.25   -9999.25   -9999.25   98.24400  109.34830    8.28200   -9999.25    7.86970    3.43690    0.02490   -9999.25   -0.02420
 4308.00000   -9999.25   -9999.25   -9999.25   -9999.25   88.42510  103.52170    4.27690   -9999.25    7.86990    3.43780    0.02490   -9999.25   -0.01820
 4308.50000   -9999.25   -9999.25   -9999.25   -9999.25   64.91670   79.67020    2.60600   -9999.25    7.87000    3.41870    0.02490   -9999.25   -0.00410
 4309.00000   -9999.25   -9999.25   -9999.25   -9999.25   39.40940   61.31420   12.56110   -9999.25    7.87020    3.28960    0.02490   -9999.25    0.01050
 4309.50000   -9999.25   -9999.25   -9999.25   -9999.25   26.49980   27.53860    9.54290   -9999.25    7.87030    3.20040    0.02440   -9999.25    0.01380
 4310.00000   -9999.25   -9999.25   -9999.25   -9999.25   30.20920   27.93490    3.84490   -9999.25    7.87050    3.20120    0.02140   -9999.25    0.01440
 4310.50000   -9999.25   -9999.25   -9999.25   -9999.25   42.20350   34.85830    4.18060   -9999.25    7.87070    3.20210    0.01740   -9999.25    0.00150
 4311.00000   -9999.25   -9999.25   -9999.25   -9999.25   70.37210   55.77150    6.96960   -9999.25    7.87080    3.26310    0.01220   -9999.25   -0.03090
 4311.50000   -9999.25   -9999.25   -9999.25   -9999.25   98.06000   75.60560    9.44850   -9999.25    7.87100    3.32400    0.00690   -9999.25   -0.04360
 4312.00000   -9999.25   -9999.25   -9999.25   -9999.25  142.42100  126.08130   18.33180   -9999.25    7.87110    3.44500    0.00320   -9999.25   -0.04340
 4312.50000   -9999.25   -9999.25   -9999.25   -9999.25  156.93370  155.95390   39.17090   -9999.25    7.87120    3.53600    0.00090   -9999.25   -0.04320
 4313.00000   -9999.25   -9999.25   -9999.25   -9999.25  165.90790  169.50640   34.63290   -9999.25    7.87140    3.56700    0.00160   -9999.25   -0.04320
 4313.50000   -9999.25   -9999.25   -9999.25   -9999.25  131.58460  135.41650   14.74510   -9999.25    7.87150    3.56790    0.00920   -9999.25   -0.04260
 4314.00000   -9999.25   -9999.25   -9999.25   -9999.25   67.10490   69.26870    5.62220   -9999.25    7.75120    3.42860    0.01370   -9999.25   -0.02780
 4314.50000   -9999.25   -9999.25   -9999.25   -9999.25   40.72070   43.93830    3.19750   -9999.25    7.50800    3.28940    0.01370   -9999.25   -0.00500
 4315.00000   -9999.25   -9999.25   -9999.25   -9999.25   25.29060   30.12840    2.23640   -9999.25    7.32580    3.10520    0.01220   -9999.25    0.00360
 4315.50000   -9999.25   -9999.25   -9999.25   -9999.25   22.08170   21.01500    3.88580   -9999.25    7.20610    2.97090    0.00920   -9999.25    0.00240
 4316.00000   -9999.25   -9999.25   -9999.25   -9999.25   25.58340   22.43650    5.05440   -9999.25    7.14940    2.88170    0.00940   -9999.25    0.00120
 4316.50000   -9999.25   -9999.25   -9999.25   -9999.25   30.81590   27.81220    9.40900   -9999.25    7.14950    2.85260    0.01090   -9999.25   -0.00120
 4317.00000   -9999.25   -9999.25   -9999.25   -9999.25   67.34710   41.97700   24.38580   -9999.25    7.14970    2.73570    0.01480   -9999.25   -0.00460
 4317.50000   -9999.25   -9999.25   -9999.25   -9999.25  310.27790  106.00090   60.64050   -9999.25   -9999.25   -9999.25   -9999.25   -9999.25   -9999.25
 4318.00000   -9999.25   -9999.25   -9999.25   -9999.25  482.87280  377.48900  696.72330   -9999.25   -9999.25   -9999.25   -9999.25   -9999.25   -9999.25
 4318.50000   -9999.25   -9999.25   -9999.25   -9999.25  546.99530  484.48270  364.78770   -9999.25   -9999.25   -9999.25   -9999.25   -9999.25   -9999.25
