~Version ---------------------------------------------------
VERS.   2.0 : CWLS log ASCII Standard -VERSION 2.0
WRAP.    NO : One line per depth step
DLM . SPACE : Column Data Section Delimiter
~Well ------------------------------------------------------
STRT .F                  185.0 : START DEPTH
STOP .F                 4349.0 : STOP DEPTH
STEP .F                    0.5 : STEP
NULL .                -9999.25 : NULL VALUE
COMP .                         : COMPANY
WELL .                         : WELL
FLD  .                         : FIELD
LOC  .                         : LOCATION
PROV .                         : PROVINCE
CNTY .                         : COUNTY
STAT .                         : STATE
CTRY .                         : COUNTRY
SRVC .                         : SERVICE COMPANY
DATE .                         : DATE
UWI  .                         : UNIQUE WELL ID
API  .                         : API NUMBER
SLAT .WGS84 3.0948621706700976 : SURFACE LATITUDE
SLON .WGS84  8.486843216905001 : SURFACE LONGITUDE
DATUM.F                3951.47 : DEPTH DATUM ELEV
~Curve Information -----------------------------------------
DEPT.F     : 
DT  .US/F  : DELTA-T (INTERVAL TRANSIT TIME)
DTCO.US/F  : DELTA-T COMPRESSIONAL
DTL .US/F  : DELTA-T LONG SPACING
DTSM.US/F  : DELTA-T SHEAR
LLD .OHMM  : LATEROLOG DEEP RESISTIVITY
LLS .OHMM  : LATEROLOG SHALLOW RESISTIVITY
MSFL.OHMM  : MICRO SPHERICALLY FOCUSED RESISTIVITY
SGR .GAPI  : SPECTROSCOPY GAMMA RAY
CALD.IN    : CALIPER FROM DENSITY LOG
PEF .B/E   : PHOTOELECTRIC FACTOR
DRHO.G/C3  : BULK DENSITY CORRECTION
NPHI.DEC   : NEUTRON POROSITY
DPHI.DEC   : DENSITY POROSITY
~Params ----------------------------------------------------
~Other -----------------------------------------------------
~ASCII -----------------------------------------------------
# ...
 3071.00000   52.14260   56.83160   61.14190   99.97000   -9999.25   -9999.25   -9999.25    9.48290    9.89820   -9999.25   -9999.25   -0.00420   -9999.25
 3071.50000   52.14170   55.37450   58.89000   99.97000   -9999.25   -9999.25   -9999.25    7.67820    9.73490   -9999.25   -9999.25   -0.00610   -9999.25
 3072.00000   51.93010   54.07330   53.81330   99.90200   -9999.25   -9999.25   -9999.25    6.77430    9.70280   -9999.25   -9999.25   -0.00730   -9999.25
 3072.50000   51.77890   51.46960   52.92500   99.21550   -9999.25   -9999.25   -9999.25    6.17080    9.61450   -9999.25   -9999.25   -0.00850   -9999.25
 3073.00000   51.68780   48.80520   57.80070   98.51000   -9999.25   -9999.25   -9999.25    6.16780    9.60340   -9999.25   -9999.25   -0.00970   -9999.25
 3073.50000   51.68690   47.49630   59.41670   96.00610   -9999.25   -9999.25   -9999.25    6.16490    9.49400   -9999.25   -9999.25   -0.01040   -9999.25
 3074.00000   51.86650   51.42430   61.48260   92.77360   -9999.25   -9999.25   -9999.25    6.16190    9.48490   -9999.25   -9999.25   -0.00800   -9999.25
 3074.50000   52.43710   53.96320   62.19910   96.07200   -9999.25   -9999.25   -9999.25    7.66050    9.39280   -9999.25   -9999.25   -0.00500   -9999.25
 3075.00000   52.31580   55.36720   61.29650   93.89820   -9999.25   -9999.25   -9999.25    9.15900    9.36090   -9999.25   -9999.25   -0.00080   -9999.25
 3075.50000   51.09680   55.89210   60.03400   92.63910   -9999.25   -9999.25   -9999.25   13.06000    9.29900   -9999.25   -9999.25    0.00220   -9999.25
 3076.00000   50.37410   55.89210   58.41170   92.77360   -9999.25   -9999.25   -9999.25   16.66060    9.25300   -9999.25   -9999.25    0.00580   -9999.25
 3076.50000   50.86950   57.08120   54.90030   93.38050   -9999.25   -9999.25   -9999.25   18.80340    9.25300   -9999.25   -9999.25    0.01010   -9999.25
 3077.00000   51.45500   61.18480   53.34120   94.62510   -9999.25   -9999.25   -9999.25   23.68040    9.22290   -9999.25   -9999.25    0.01730   -9999.25
 3077.50000   51.95040   64.77490   57.95260  100.03010   -9999.25   -9999.25   -9999.25   28.72100    9.19280   -9999.25   -9999.25    0.02690   -9999.25
 3078.00000   52.67130   65.87690   57.40970  106.56670   -9999.25   -9999.25   -9999.25   56.88860    9.19280   -9999.25   -9999.25    0.04450   -9999.25
 3078.50000   52.91100   63.11370   54.43810   99.67020   -9999.25   -9999.25   -9999.25   62.59130    9.19280   -9999.25   -9999.25    0.07930   -9999.25
 3079.00000   52.57930   62.09880   52.90580   96.97150   -9999.25   -9999.25   -9999.25   62.28810    9.19280   -9999.25   -9999.25    0.08330   -9999.25
 3079.50000   52.15740   71.18440   52.54070   98.77060   -9999.25   -9999.25   -9999.25   61.98480    9.19280   -9999.25   -9999.25    0.07730   -9999.25
 3080.00000   51.97600   83.47830   53.43930  125.75710   -9999.25   -9999.25   -9999.25   57.77770    9.22290   -9999.25   -9999.25    0.05500   -9999.25
 3080.50000   52.00510   94.27290   55.16750  133.85310   -9999.25   -9999.25   -9999.25   48.76570    9.22470   -9999.25   -9999.25    0.03040   -9999.25
 3081.00000   52.12460   91.27440   58.23620  134.81360   -9999.25   -9999.25   -9999.25   44.55600    9.25300   -9999.25   -9999.25    0.02380   -9999.25
 3081.50000   52.30400   91.57420   59.76400  132.95350   -9999.25   -9999.25   -9999.25   43.35440    9.26360   -9999.25   -9999.25    0.02820   -9999.25
 3082.00000   52.30310   93.37330   60.71320  130.55470   -9999.25   -9999.25   -9999.25   43.37350    9.35040   -9999.25   -9999.25    0.02860   -9999.25
 3082.50000   52.12180   94.27290   56.93110  128.75560   -9999.25   -9999.25   -9999.25   43.64880    9.39110   -9999.25   -9999.25    0.02680   -9999.25
 3083.00000   51.94040   94.27290   55.66950  127.55620   -9999.25   -9999.25   -9999.25   44.28930    9.51510   -9999.25   -9999.25    0.02250   -9999.25
 3083.50000   51.75910   93.67320   59.89430  126.65670   -9999.25   -9999.25   -9999.25   44.95070    9.63900   -9999.25   -9999.25    0.01880   -9999.25
 3084.00000   51.75820   94.27290   57.12070  126.35680   -9999.25   -9999.25   -9999.25   46.23440    9.79120   -9999.25   -9999.25    0.01720   -9999.25
 3084.50000   51.75730   96.67170   54.15790  127.26170   -9999.25   -9999.25   -9999.25   48.88700   10.00750   -9999.25   -9999.25    0.02280   -9999.25
 3085.00000   51.75640  101.46930   53.13790  127.57140   -9999.25   -9999.25   -9999.25   53.41340   10.14910   -9999.25   -9999.25    0.03350   -9999.25
 3085.50000   52.11640  103.86810   55.84480  127.85610   -9999.25   -9999.25   -9999.25   54.23690   10.33730   -9999.25   -9999.25    0.04550   -9999.25
 3086.00000   53.19820  107.46630   68.22650  127.55620   -9999.25   -9999.25   -9999.25   53.51930   10.48800   -9999.25   -9999.25    0.05290   -9999.25
 3086.50000   53.64850  108.67100   68.87110  127.55620   -9999.25   -9999.25   -9999.25   51.79950   10.69880   -9999.25   -9999.25    0.05380   -9999.25
 3087.00000   53.91830  105.95170   67.87800  127.55620   -9999.25   -9999.25   -9999.25   50.70170   10.93980   -9999.25   -9999.25    0.05010   -9999.25
 3087.50000   54.75940  104.73010   69.04380  127.55620   -9999.25   -9999.25   -9999.25   49.34910   11.06020   -9999.25   -9999.25    0.04580   -9999.25
 3088.00000   55.20960  102.92870   82.49600  127.18440   -9999.25   -9999.25   -9999.25   48.12380   11.21080   -9999.25   -9999.25    0.03940   -9999.25
 3088.50000   54.93800  101.35910  104.93010  126.57520   -9999.25   -9999.25   -9999.25   46.58240   11.33130   -9999.25   -9999.25    0.03700   -9999.25
 3089.00000   54.21530   98.52570  100.03320  126.26580   -9999.25   -9999.25   -9999.25   41.44940   11.42470   -9999.25   -9999.25    0.03280   -9999.25
 3089.50000   53.58290   95.17550   94.89370  126.05700   -9999.25   -9999.25   -9999.25   33.99640   11.54540   -9999.25   -9999.25    0.02800   -9999.25
 3090.00000   53.16090   91.47560   84.86150  126.79660   -9999.25   -9999.25   -9999.25   29.48890   11.63750   -9999.25   -9999.25    0.02260   -9999.25
 3090.50000   53.00960   82.55800   80.94420  129.41370   -9999.25   -9999.25   -9999.25   26.78330   11.71310   -9999.25   -9999.25    0.02080   -9999.25
 3091.00000   52.78310   73.74300   78.41370  130.55470   -9999.25   -9999.25   -9999.25   24.07760   11.80020   -9999.25   -9999.25    0.02080   -9999.25
 3091.50000   52.51160   65.96280   76.44470  127.83200   -9999.25   -9999.25   -9999.25   21.67230   11.91390   -9999.25   -9999.25    0.02560   -9999.25
 3092.00000   52.24000   60.40970   77.87360  110.95930   -9999.25   -9999.25   -9999.25   20.76840   12.00600   -9999.25   -9999.25    0.02860   -9999.25
 3092.50000   52.60000   53.53120   93.80170  103.98050   -9999.25   -9999.25   -9999.25   23.46820   12.11190   -9999.25   -9999.25    0.02860   -9999.25
 3093.00000   52.86980   51.70930  104.30050  101.23440   -9999.25   -9999.25   -9999.25   23.16490   12.23590   -9999.25   -9999.25    0.02140   -9999.25
 3093.50000   52.86890   50.48700  101.11990   98.96450   -9999.25   -9999.25   -9999.25   22.86170   12.29970   -9999.25   -9999.25    0.01720   -9999.25
 3094.00000   52.76270   48.25570   98.14830   96.55770   -9999.25   -9999.25   -9999.25   22.85870   12.38550   -9999.25   -9999.25    0.01660   -9999.25
 3094.50000   52.70160   48.69570   71.69840   99.67020   -9999.25   -9999.25   -9999.25   24.05700   12.50600   -9999.25   -9999.25    0.02260   -9999.25
 3095.00000   53.00150   51.99400   56.13300  103.56820   -9999.25   -9999.25   -9999.25   26.75670   12.50600   -9999.25   -9999.25    0.03050   -9999.25
 3095.50000   53.18110   51.39430   38.00580  104.16790   -9999.25   -9999.25   -9999.25   28.87830   12.62650   -9999.25   -9999.25    0.03760   -9999.25
 3096.00000   53.12010   51.33410    7.59220  104.46780   -9999.25   -9999.25   -9999.25   30.98720   12.68670   -9999.25   -9999.25    0.04080   -9999.25
 3096.50000   52.75830   52.29390    0.00040  105.66720   -9999.25   -9999.25   -9999.25   31.87940   12.74700   -9999.25   -9999.25    0.04640   -9999.25
