~Version ---------------------------------------------------
VERS.   2.0 : CWLS log ASCII Standard -VERSION 2.0
WRAP.    NO : One line per depth step
DLM . SPACE : Column Data Section Delimiter
~Well ------------------------------------------------------
STRT .F                  185.0 : START DEPTH
STOP .F                 4349.0 : STOP DEPTH
STEP .F                    0.5 : STEP
NULL .                -9999.25 : NULL VALUE
COMP .                         : COMPANY
WELL .                         : WELL
FLD  .                         : FIELD
LOC  .                         : LOCATION
PROV .                         : PROVINCE
CNTY .                         : COUNTY
STAT .                         : STATE
CTRY .                         : COUNTRY
SRVC .                         : SERVICE COMPANY
DATE .                         : DATE
UWI  .                         : UNIQUE WELL ID
API  .                         : API NUMBER
SLAT .WGS84 3.0948621706700976 : SURFACE LATITUDE
SLON .WGS84  8.486843216905001 : SURFACE LONGITUDE
DATUM.F                3951.47 : DEPTH DATUM ELEV
~Curve Information -----------------------------------------
DEPT.F     : 
DT  .US/F  : DELTA-T (INTERVAL TRANSIT TIME)
DTCO.US/F  : DELTA-T COMPRESSIONAL
DTL .US/F  : DELTA-T LONG SPACING
DTSM.US/F  : DELTA-T SHEAR
LLD .OHMM  : LATEROLOG DEEP RESISTIVITY
LLS .OHMM  : LATEROLOG SHALLOW RESISTIVITY
MSFL.OHMM  : MICRO SPHERICALLY FOCUSED RESISTIVITY
SGR .GAPI  : SPECTROSCOPY GAMMA RAY
CALD.IN    : CALIPER FROM DENSITY LOG
PEF .B/E   : PHOTOELECTRIC FACTOR
DRHO.G/C3  : BULK DENSITY CORRECTION
NPHI.DEC   : NEUTRON POROSITY
DPHI.DEC   : DENSITY POROSITY
~Params ----------------------------------------------------
~Other -----------------------------------------------------
~ASCII -----------------------------------------------------
# ...
 3825.00000   43.48880   49.97000   43.62620   87.41390  655.78240  541.72830  702.28450   50.25010    8.43220    3.16820    0.00240    0.06670   -0.06540
 3825.50000   43.66910   49.96550   43.89690   87.71450  674.37650  615.97590  125.07890   51.16120    8.44100    3.13900    0.00490    0.06970   -0.06500
 3826.00000   43.60900   49.96100   43.89740   88.01510  540.87770  651.31230  307.37810   51.63370    8.46210    3.13990    0.00550    0.06950   -0.06820
 3826.50000   43.65410   49.95650   43.80770   88.01580  331.78620  597.03840  855.44860   52.38230    8.46190    3.08070    0.00750    0.05720   -0.07880
 3827.00000   43.83450   49.95120   43.71810   88.91610  188.89120  343.03330  345.61090   52.69070    8.46170    3.08160    0.01150    0.04610   -0.08940
 3827.50000   44.15040   49.64690   43.80860   88.91680  164.46310  150.74050  166.54030   52.68770    8.46160    3.02240    0.01150    0.04560   -0.09100
 3828.00000   44.55640   49.94230   44.34960   89.21740  184.51870  129.51820   68.03110   52.19200    8.46140    2.96340    0.01460    0.05130   -0.09060
 3828.50000   44.78200   50.83810   44.89060   89.21820  198.65340  149.77640  183.58470   48.91340    8.46130    2.96430    0.01610    0.05580   -0.09080
 3829.00000   44.19550   50.83300   44.26040   89.21890  201.48450  156.15170  831.37810   44.35350    8.46110    2.96520    0.01460    0.05490   -0.09570
 3829.50000   43.83460   49.92900   43.99050   89.21960  179.04710  162.82950 1202.29640   36.75920    8.46100    2.96600    0.01460    0.05150   -0.09930
 3830.00000   43.83460   48.42530   43.99100   89.22040  116.05050  165.18380  402.01200   29.84930    8.46080    2.99700    0.01170    0.06280   -0.09870
 3830.50000   44.24050   48.31900   44.08150   89.85830   80.60830  149.61290  150.40550   28.94540    8.46070    3.07300    0.01170    0.08920   -0.06780
 3831.00000   45.17270   49.91570   44.71260   91.70180   59.42670  105.33230   57.65140   28.34190    8.46050    3.11890    0.00870    0.10280   -0.03540
 3831.50000   46.94720   51.11070   46.70910   93.75600   45.53810   60.51350   47.33690   29.23980    8.46040    3.20990    0.00580    0.14030   -0.01230
 3832.00000   48.96220   53.50510   49.43830   95.00840   34.37000   35.67900   45.46470   31.03860    8.46020    3.21080    0.00380    0.18750    0.01890
 3832.50000   51.51850   55.89940   51.60870   96.17320   30.32050   30.03980   33.30530   32.23690    8.46010    3.21160   -0.00020    0.21430    0.04880
 3833.00000   53.20280   58.29380   53.06970   97.38200   31.62290   27.91250   17.98810   31.93360    8.45990    3.21260   -0.00010    0.22730    0.06770
 3833.50000   55.42860   59.48880   54.84420   97.92120   35.09310   28.98490   14.04220   31.02970    8.45980    3.11340   -0.00010    0.23310    0.08180
 3834.00000   54.88720   58.26050   56.75230   97.08820   41.15760   32.83840   17.57220   30.12580    8.45960    3.05430   -0.00010    0.22690    0.07940
 3834.50000   52.72180   57.01850   58.87740   96.33710   48.91560   38.07750   19.94050   30.12290    8.49280    2.97500    0.00450    0.19240    0.05690
 3835.00000   51.09770   55.87710   61.77940   95.72960   55.01450   45.82280   22.90400   30.11990    8.51960    2.97610    0.00750    0.15320    0.02630
 3835.50000   49.59390   55.95050   60.03200   95.22550   59.35450   54.34570   33.52600   30.71750    8.53120    3.00700    0.00900    0.14020   -0.00730
 3836.00000   48.84200   57.11530   56.15860   95.75020   55.44510   60.69260   55.22240   31.01500    8.59400    3.06790    0.00900    0.13640   -0.01650
 3836.50000   48.60150   56.94880   54.35720   96.54700   47.31010   63.28260  110.01070   32.51340    8.63960    3.09880    0.00610    0.14440   -0.00770
 3837.00000   49.26340   55.29510   50.12340   97.15600   44.15640   55.92280   62.33150   34.01190    8.65940    3.15980    0.00210    0.15210    0.00890
 3837.50000   50.55650   53.30600   48.68260   97.19010   42.96430   48.06840   28.96850   35.81070    8.69960    3.22070    0.00020    0.15540    0.02150
 3838.00000   50.79690   52.25190   47.96220   96.13670   42.38960   35.49460   25.56500   36.10810    8.68670    3.22160    0.00020    0.15480    0.02570
 3838.50000   50.01500   52.24740   51.35520   95.23010   44.20700   35.51410   31.89710   36.10510    8.63900    3.19250    0.00020    0.14310    0.02250
 3839.00000   49.29330   52.24290   55.61620   94.93100   49.63160   40.79510   48.94150   36.72420    8.59340    3.10330    0.00020    0.12640    0.01090
 3839.50000   48.57140   52.23840   58.68430   94.16060   62.30600   49.52260   36.16080   39.49760    8.51820    3.04410    0.00180    0.11230   -0.01210
 3840.00000   47.75930   52.11380   57.69370   92.83370   82.15200   65.31020   31.80270   44.64560    8.51800    3.04500    0.00630    0.09710   -0.03970
 3840.50000   46.45110   50.77240   54.72120   90.43570  106.83420   84.94960   70.74080   44.43290    8.48780    3.11610    0.00630    0.08210   -0.05470
 3841.00000   45.05270   49.55030   50.75770   88.93720  151.41430  106.01100  168.24720   35.14390    8.45750    3.20700    0.00930    0.06230   -0.06970
 3841.50000   43.92480   48.47510   46.88430   87.73850  266.68610  126.92570  422.66920   28.76470    8.42720    3.30800    0.00940    0.04720   -0.07450
 3842.00000   43.12790   47.41830   43.10090   86.83960  232.50560  162.82950  350.75100   21.66940    8.39700    3.36900    0.00640    0.04420   -0.07630
 3842.50000   44.09030   46.48420   42.07440   86.84040  201.60880  208.88950   98.92200   21.61920    8.39680    3.34990    0.00040    0.04960   -0.07270
 3843.00000   44.42110   46.20990   42.47130   88.04060  188.13730  174.65990  114.19470   24.06590    8.39670    3.32070    0.00050    0.05800   -0.06190
 3843.50000   44.42110   47.10410   42.92210   89.24070  189.94030  144.03650  115.79630   25.26410    8.39650    3.29160    0.00050    0.05860   -0.05410
 3844.00000   44.39100   48.59890   43.28300   89.24140  217.13360  130.83710   81.97850   24.96080    8.39640    3.33750    0.00050    0.05500   -0.05290
 3844.50000   44.18040   48.29460   43.55370   88.34260  249.37090  132.72890   96.98600   23.75670    8.39620    3.35340    0.00360    0.04780   -0.05650
 3845.00000   43.96990   46.49110   43.64420   87.14400  367.20660  187.55480  207.88750   21.65160    8.39610    3.35430    0.00660    0.03640   -0.06550
 3845.50000   43.42860   44.98740   43.64470   85.64550  533.30800  349.32580  448.94230   21.04800    8.39590    3.15510    0.00660    0.02740   -0.08350
 3846.00000   42.84210   44.98300   43.19460   84.44680  548.42960  454.37160  886.95840   21.34530    8.39580    3.02580    0.00960    0.02440   -0.09610
 3846.50000   42.57140   46.17790   42.65450   83.24810  471.30550  436.17190  832.30930   22.86630    8.39560    2.99670    0.00970    0.02440   -0.10510
 3847.00000   42.43610   44.97410   42.38470   82.94900  440.01370  396.30830  461.80160   25.26510    8.39550    3.09760    0.00970    0.02740   -0.10710
 3847.50000   42.48120   44.66980   42.56530   82.94980  440.16440  350.37920  207.35560   27.99540    8.36520    3.26890    0.00670    0.03340   -0.10240
 3848.00000   42.79700   44.66540   42.92610   83.25040  491.74460  347.47810  170.94110   28.84100    8.36510    3.48000    0.00230    0.03580   -0.09590
 3848.50000   42.88720   44.96100   43.10680   83.30050  527.07600  439.65700  317.89130   27.60620    8.33480    3.48080    0.00080    0.03580   -0.09130
 3849.00000   42.88720   44.95640   43.10720   84.18440  549.55730  475.18950  546.49490   28.00000    8.33460    3.33160    0.00080    0.03390   -0.08930
 3849.50000   42.97740   45.55170   43.28780   84.53520  334.40260  440.23990  720.51640   37.20150    8.33450    3.24240    0.00090    0.03810   -0.09310
 3850.00000   43.30820   46.14690   43.46850   85.10240  215.03750  282.25720  451.17820   40.14050    8.33430    3.24320    0.00090    0.04950   -0.09670
 3850.50000   43.63900   47.35070   43.74400   85.65290  182.26320  197.69250  189.40870   42.20880    8.33420    3.24410    0.00290    0.05620   -0.08710
