~Version ---------------------------------------------------
VERS.   2.0 : CWLS log ASCII Standard -VERSION 2.0
WRAP.    NO : One line per depth step
DLM . SPACE : Column Data Section Delimiter
~Well ------------------------------------------------------
STRT .F                  185.0 : START DEPTH
STOP .F                 4349.0 : STOP DEPTH
STEP .F                    0.5 : STEP
NULL .                -9999.25 : NULL VALUE
COMP .                         : COMPANY
WELL .                         : WELL
FLD  .                         : FIELD
LOC  .                         : LOCATION
PROV .                         : PROVINCE
CNTY .                         : COUNTY
STAT .                         : STATE
CTRY .                         : COUNTRY
SRVC .                         : SERVICE COMPANY
DATE .                         : DATE
UWI  .                         : UNIQUE WELL ID
API  .                         : API NUMBER
SLAT .WGS84 3.0948621706700976 : SURFACE LATITUDE
SLON .WGS84  8.486843216905001 : SURFACE LONGITUDE
DATUM.F                3951.47 : DEPTH DATUM ELEV
~Curve Information -----------------------------------------
DEPT.F     : 
DT  .US/F  : DELTA-T (INTERVAL TRANSIT TIME)
DTCO.US/F  : DELTA-T COMPRESSIONAL
DTL .US/F  : DELTA-T LONG SPACING
DTSM.US/F  : DELTA-T SHEAR
LLD .OHMM  : LATEROLOG DEEP RESISTIVITY
LLS .OHMM  : LATEROLOG SHALLOW RESISTIVITY
MSFL.OHMM  : MICRO SPHERICALLY FOCUSED RESISTIVITY
SGR .GAPI  : SPECTROSCOPY GAMMA RAY
CALD.IN    : CALIPER FROM DENSITY LOG
PEF .B/E   : PHOTOELECTRIC FACTOR
DRHO.G/C3  : BULK DENSITY CORRECTION
NPHI.DEC   : NEUTRON POROSITY
DPHI.DEC   : DENSITY POROSITY
~Params ----------------------------------------------------
~Other -----------------------------------------------------
~ASCII -----------------------------------------------------
# ...
 2655.00000   -9999.25   -9999.25   -9999.25   -9999.25  229.84000  249.22740  318.12000   10.37630    9.46080    5.05110    0.04040    0.00350   -0.10930
 2655.50000   -9999.25   -9999.25   -9999.25   -9999.25  217.62850  237.10310  789.05790   11.27840    9.49060    5.11170    0.04640    0.00140   -0.03730
 2656.00000   -9999.25   -9999.25   -9999.25   -9999.25  206.06580  207.67130    3.72980   12.18060    9.58070    5.11230    0.04950    0.00740    0.04790
 2656.50000   -9999.25   -9999.25   -9999.25   -9999.25  174.76870  181.05980   14.75920   11.57670    9.70090    4.99280    0.04950    0.03490    0.12400
 2657.00000   -9999.25   -9999.25   -9999.25   -9999.25  148.22490  153.57100    6.90430   11.57520    9.82110    4.75310    0.04950    0.06870    0.15760
 2657.50000   -9999.25   -9999.25   -9999.25   -9999.25  114.16300  126.71800    3.38920   12.77850    9.97140    4.39340    0.04800    0.08790    0.15700
 2658.00000   -9999.25   -9999.25   -9999.25   -9999.25   76.61940   89.86650    2.64580   14.58430    9.90840    4.57410    0.03910    0.09390    0.09350
 2658.50000   -9999.25   -9999.25   -9999.25   -9999.25   76.65580   92.42560   10.73350   16.39000    9.72560    4.90520    0.04060    0.07050   -0.02830
 2659.00000   -9999.25   -9999.25   -9999.25   -9999.25   82.15750  149.72560  122.19890   12.77410    9.57550    5.11600    0.04360    0.01100   -0.10080
 2659.50000   -9999.25   -9999.25   -9999.25   -9999.25  572.66810  438.42960 1254.41850    7.91750    9.45810    5.26670    0.04220    0.00260   -0.11980
 2660.00000   -9999.25   -9999.25   -9999.25   -9999.25 1717.58810 1644.85310 1781.78440    6.14460    9.45780    5.31730    0.03170    0.00020   -0.11920
 2660.50000   -9999.25   -9999.25   -9999.25   -9999.25 2149.52000 1837.36690 1907.59740    8.13720    9.45750    5.18770    0.02570   -0.00040   -0.05470
 2661.00000   -9999.25   -9999.25   -9999.25   -9999.25 3530.16160 1915.88450 1881.98130   13.10560    9.45720    4.83300    0.01320    0.00200   -0.02670
 2661.50000   -9999.25   -9999.25   -9999.25   -9999.25 2833.58300 1814.21720 1652.92900   17.30170    9.45690    4.36810    0.01070    0.01280   -0.02090
 2662.00000   -9999.25   -9999.25   -9999.25   -9999.25 1275.72250  525.78580  649.02470   19.99410    9.45660    4.17350    0.01280    0.03680   -0.02750
 2662.50000   -9999.25   -9999.25   -9999.25   -9999.25  450.60240  388.60240   51.45430   19.46500    9.49900    4.11410    0.01280    0.04220   -0.08220
 2663.00000   -9999.25   -9999.25   -9999.25   -9999.25  325.37700  329.60430  352.88430   16.89160    9.51630    4.09970    0.00780    0.03860   -0.10400
 2663.50000   -9999.25   -9999.25   -9999.25   -9999.25  286.20890  283.43880  114.45470   12.17630    9.54610    4.15040    0.00270    0.03020   -0.11850
 2664.00000   -9999.25   -9999.25   -9999.25   -9999.25  260.77870  247.11820   71.16240   10.34940    9.54580    4.26110    0.00190    0.02480   -0.13710
 2664.50000   -9999.25   -9999.25   -9999.25   -9999.25  215.16490  190.91950  130.44810   11.79160    9.57560    4.46180    0.00190    0.02470   -0.14220
 2665.00000   -9999.25   -9999.25   -9999.25   -9999.25  156.20320  126.84990  330.48230   13.27800    9.57530    4.60250    0.00420    0.03380   -0.13740
 2665.50000   -9999.25   -9999.25   -9999.25   -9999.25  117.04050   84.01720  548.88310   16.61530    9.57500    4.75330    0.00800    0.05600   -0.11460
 2666.00000   -9999.25   -9999.25   -9999.25   -9999.25   69.87490   62.35520   81.23270   19.99030    9.57470    4.79400    0.01200    0.07640   -0.09720
 2666.50000   -9999.25   -9999.25   -9999.25   -9999.25   45.51530   47.12110   22.49930   22.08890    9.57440    4.73460    0.01360    0.08900   -0.09180
 2667.00000   -9999.25   -9999.25   -9999.25   -9999.25   39.36860   42.37280   12.53050   20.48570    9.60420    4.58500    0.01260    0.10160   -0.09180
 2667.50000   -9999.25   -9999.25   -9999.25   -9999.25   49.29750   49.20460   35.93670   15.45910    9.60390    4.55560    0.01260    0.08860   -0.10460
 2668.00000   -9999.25   -9999.25   -9999.25   -9999.25   73.71560   67.71230  143.27850   12.14430    9.63370    4.64620    0.01160    0.05040   -0.11400
 2668.50000   -9999.25   -9999.25   -9999.25   -9999.25   88.84290   83.77520  493.08830   11.54040    9.63340    4.79700    0.00820    0.03110   -0.12960
 2669.00000   -9999.25   -9999.25   -9999.25   -9999.25   91.34810   90.96060  133.38450   11.84020    9.66320    4.97780    0.00670    0.03170   -0.13620
 2669.50000   -9999.25   -9999.25   -9999.25   -9999.25   88.50400   91.01010   34.83250   12.74250    9.69310    5.12850    0.00220    0.04240   -0.12720
 2670.00000   -9999.25   -9999.25   -9999.25   -9999.25   88.34720   91.05960  203.20830   13.94580    9.69280    5.00900    0.00080    0.04270   -0.11820
 2670.50000   -9999.25   -9999.25   -9999.25   -9999.25   90.85680   93.65270  183.50230   15.14900    9.69250    4.82950   -0.00220    0.03810   -0.11820
 2671.00000   -9999.25   -9999.25   -9999.25   -9999.25   95.42150   99.01810   48.01760   14.54510    9.69680    4.91010   -0.00220    0.03330   -0.12080
 2671.50000   -9999.25   -9999.25   -9999.25   -9999.25  114.30780  117.03590   49.17720   12.73640    9.75210    5.05090   -0.00070    0.02840   -0.12200
 2672.00000   -9999.25   -9999.25   -9999.25   -9999.25  139.50090  140.83330  211.18260   10.62650    9.81210    5.21160    0.00390    0.02260   -0.12380
 2672.50000   -9999.25   -9999.25   -9999.25   -9999.25  173.07390  159.88850  571.39810   10.32380    9.81170    5.26220    0.00840    0.01290   -0.12840
 2673.00000   -9999.25   -9999.25   -9999.25   -9999.25  205.30700  187.06610   92.85570   10.32230    9.85140    5.28300    0.00540    0.00660   -0.08060
 2673.50000   -9999.25   -9999.25   -9999.25   -9999.25  238.99020  231.29190  109.56330   10.30370    9.91270    5.25350    0.00300    0.00180   -0.00380
 2674.00000   -9999.25   -9999.25   -9999.25   -9999.25  307.93970  284.83240   27.66090    9.66070    9.93130    5.16390    0.00950   -0.00140    0.06800
 2674.50000   -9999.25   -9999.25   -9999.25   -9999.25  415.39060  428.40010    1.63200    8.51050    9.99130    4.92430    0.01650   -0.00180    0.15110
 2675.00000   -9999.25   -9999.25   -9999.25   -9999.25  643.90920  521.53810   15.43030    9.11160   10.03610    4.59460    0.02560    0.00120    0.18090
 2675.50000   -9999.25   -9999.25   -9999.25   -9999.25  692.40090  553.62760   16.51170    9.10990   10.05090    4.32500    0.03060    0.00520    0.18110
 2676.00000   -9999.25   -9999.25   -9999.25   -9999.25  702.33360  579.98320    1.55840    8.73510   10.03290    4.18540    0.03270    0.00790    0.17330
 2676.50000   -9999.25   -9999.25   -9999.25   -9999.25  705.88640  613.15160   11.79050    8.33780    9.99000    4.22600    0.03270    0.00960    0.14630
 2677.00000   -9999.25   -9999.25   -9999.25   -9999.25  706.22210  657.20280    4.03380    7.90060    9.92950    4.37670    0.02970    0.00930    0.05400
 2677.50000   -9999.25   -9999.25   -9999.25   -9999.25  566.91380  580.93020  100.04240    7.08600    9.91840    4.51750    0.02520    0.00900    0.00420
 2678.00000   -9999.25   -9999.25   -9999.25   -9999.25  396.52230  374.13630  104.38260    6.57630    9.89880    4.65830    0.01850    0.01150   -0.02820
 2678.50000   -9999.25   -9999.25   -9999.25   -9999.25  178.52040  234.41080    6.46810    6.34390    9.86830    4.77900    0.01030    0.02170   -0.01560
 2679.00000   -9999.25   -9999.25   -9999.25   -9999.25  102.97490   89.47020    6.35620    9.76830    9.85530    4.77960    0.00430    0.02940   -0.00180
 2679.50000   -9999.25   -9999.25   -9999.25   -9999.25   75.06190   64.33050  339.82790   11.95830    9.83760    4.72010    0.00280    0.03150    0.00120
 2680.00000   -9999.25   -9999.25   -9999.25   -9999.25   59.42670   54.56380 1823.11340   11.02440    9.80720    4.72070    0.00140    0.03430   -0.00840
 2680.50000   -9999.25   -9999.25   -9999.25   -9999.25   46.40500   48.23130 1589.02450   10.29970    9.80690    4.84140    0.00240    0.06690   -0.03710
