~Version ---------------------------------------------------
VERS.   2.0 : CWLS log ASCII Standard -VERSION 2.0
WRAP.    NO : One line per depth step
DLM . SPACE : Column Data Section Delimiter
~Well ------------------------------------------------------
STRT .F                  185.0 : START DEPTH
STOP .F                 4349.0 : STOP DEPTH
STEP .F                    0.5 : STEP
NULL .                -9999.25 : NULL VALUE
COMP .                         : COMPANY
WELL .                         : WELL
FLD  .                         : FIELD
LOC  .                         : LOCATION
PROV .                         : PROVINCE
CNTY .                         : COUNTY
STAT .                         : STATE
CTRY .                         : COUNTRY
SRVC .                         : SERVICE COMPANY
DATE .                         : DATE
UWI  .                         : UNIQUE WELL ID
API  .                         : API NUMBER
SLAT .WGS84 3.0948621706700976 : SURFACE LATITUDE
SLON .WGS84  8.486843216905001 : SURFACE LONGITUDE
DATUM.F                3951.47 : DEPTH DATUM ELEV
~Curve Information -----------------------------------------
DEPT.F     : 
DT  .US/F  : DELTA-T (INTERVAL TRANSIT TIME)
DTCO.US/F  : DELTA-T COMPRESSIONAL
DTL .US/F  : DELTA-T LONG SPACING
DTSM.US/F  : DELTA-T SHEAR
LLD .OHMM  : LATEROLOG DEEP RESISTIVITY
LLS .OHMM  : LATEROLOG SHALLOW RESISTIVITY
MSFL.OHMM  : MICRO SPHERICALLY FOCUSED RESISTIVITY
SGR .GAPI  : SPECTROSCOPY GAMMA RAY
CALD.IN    : CALIPER FROM DENSITY LOG
PEF .B/E   : PHOTOELECTRIC FACTOR
DRHO.G/C3  : BULK DENSITY CORRECTION
NPHI.DEC   : NEUTRON POROSITY
DPHI.DEC   : DENSITY POROSITY
~Params ----------------------------------------------------
~Other -----------------------------------------------------
~ASCII -----------------------------------------------------
# ...
 3331.00000   58.93180   47.88420   58.65740   85.11160 2831.35940 1990.92350 1478.92460   21.10610    8.59970    3.98050    0.00280    0.01040   -0.11900
 3331.50000   59.01890   47.57620   56.60140   84.20470 2717.76540 1950.99710 1644.95610   22.12790    8.59990    3.74100    0.00280    0.00910   -0.12080
 3332.00000   58.92560   47.26830   51.90390   85.09680 2537.66870 1881.48020  477.05360   20.81680    8.60000    3.62160    0.00580    0.00740   -0.11900
 3332.50000   58.65180   46.96030   48.71220   86.28880 2181.10160 1814.44560  384.39790   20.20520    8.60020    3.59230    0.00580    0.00850   -0.11180
 3333.00000   58.01710   48.50310   53.67450   87.48080 1610.45960 1702.20860  423.15110   18.26570    8.60030    3.77320    0.01040    0.01170   -0.10520
 3333.50000   57.65310   51.18090   62.57740   89.57230 1422.93430 1539.54710  445.93540   17.48070    8.60050    4.07430    0.01200    0.01530   -0.10120
 3334.00000   57.65000   52.06210   67.97200   91.06420  842.37750 1259.42490  320.54010   18.05340    8.60060    4.22520    0.01360    0.01840   -0.10040
 3334.50000   57.91760   52.32510   70.48860   94.05530  596.74630  853.36100  262.91920   22.75110    8.60080    4.04580    0.01490    0.02090   -0.10040
 3335.00000   58.54600   52.01650   67.28400   92.24870  512.89760  501.36580  293.38470   25.31510    8.60090    3.71620    0.01200    0.02100   -0.09740
 3335.50000   58.81360   51.65180   62.90400   91.04190  499.16560  461.61820 1504.39360   26.14520    8.60110    3.62690    0.01050    0.01860   -0.09500
 3336.00000   58.63000   50.73460   61.44070   89.52360  735.13760  564.83650  603.63610   23.61530    8.60120    3.62760    0.00600    0.01410   -0.09740
 3336.50000   58.17580   50.79340   57.97330   88.62830 1067.81420  969.47600  610.53650   22.71290    8.60140    3.64340    0.00360    0.01230   -0.10160
 3337.00000   57.81120   51.46820   50.27170   89.85560 1447.56370 1314.25210 1322.89180   22.11090    8.60150    3.77930    0.00410    0.01350   -0.11200
 3337.50000   57.47730   51.67670   49.69260   91.01230 1428.39660 1551.85180  474.40340   22.10940    8.60170    3.76500    0.00610    0.01630   -0.11400
 3338.00000   57.14330   50.26190   54.55470   90.60850 1084.21840 1352.34580  378.75950   22.70850    8.60180    3.66070    0.00770    0.01940   -0.11480
 3338.50000   55.69640   49.26010   54.81480   89.45890  697.30160 1012.41440  208.87510   24.20850    8.60200    3.54120    0.01070    0.02060   -0.10830
 3339.00000   51.63250   49.67330   53.12370   88.59070  514.86650  651.12120  181.41560   24.80770    8.60210    3.53210    0.01220    0.02000   -0.09530
 3339.50000   44.66790   50.70450   49.12390   88.98870  494.21010  501.10220  400.06410   25.10660    8.60230    3.59290    0.01220    0.01580   -0.09350
 3340.00000   41.79210   51.61430   47.47830   89.77580  567.66170  442.75240  448.51180   19.99990    8.60240    3.63360    0.01230    0.01280   -0.09450
 3340.50000   43.41350   52.67470   48.62410   89.76760 1644.62430  413.41240  437.67010   17.89630    8.60260    3.63440    0.01230    0.01040   -0.10230
 3341.00000   43.47060   51.88370   47.06460   89.01270 1486.44600  431.10390  423.20840   17.59450    8.60270    3.60520    0.01230    0.00860   -0.11400
 3341.50000   42.98570   49.81030   44.99290   87.71070 1060.59580  584.41800  506.46860   17.89340    8.63300    3.57590    0.01240    0.00860   -0.11940
 3342.00000   42.44130   50.27900   42.74140   88.77270  509.20490  568.77060  525.86110   19.09310    8.63330    3.51650    0.01240    0.00980   -0.11760
 3342.50000   42.16750   51.89130   42.73880   92.51570  397.65700  228.74020  397.69380   20.62290    8.66340    3.51730    0.01240    0.01270   -0.11010
 3343.00000   42.88620   52.78270   42.82640   94.52900  362.65540   85.85450  300.91930   23.21450    8.66360    3.45800    0.01250    0.01870   -0.09810
 3343.50000   45.40940   52.77460   42.55360   93.40300  262.87430   70.79660  123.93080   30.08480    8.66370    3.39860    0.01250    0.03680   -0.08370
 3344.00000   47.75210   53.36610   41.29180   91.88220   71.22730   81.31870   17.71040   33.23720    8.66390    3.27920    0.01250    0.06620   -0.06830
 3344.50000   47.47840   53.95770   41.87250   90.78410   79.67130  139.40580   30.64860   34.10070    8.66400    3.18990    0.01260    0.06800   -0.06200
 3345.00000   46.03160   55.74870   43.69720   89.57020  147.49530  211.05640  380.96150   27.59670    8.66420    3.10050    0.01480    0.05270   -0.06430
 3345.50000   44.49470   56.34110   42.60030   88.81890  279.10640  358.01010 1332.09970   23.09280    8.70550    3.02130    0.01560    0.03460   -0.07870
 3346.00000   42.32620   55.13280   40.38140   88.48580 1381.74600  397.05530  768.06580   22.38460    8.73730    2.92190    0.01560    0.02820   -0.09820
 3346.50000   40.51850   53.32560   42.56880   88.47830  799.03020  341.49660  158.43380   23.75150    8.78510    2.92260    0.01570    0.02510   -0.10150
 3347.00000   43.22220   52.11800   46.85250   88.77060  374.78460  349.38890   84.60830   26.13020    8.78520    2.98360    0.01570    0.02470   -0.10120
 3347.50000   45.29430   50.91050   44.33110   88.76310   85.12360  414.53870  215.29500   28.68640    8.80270    3.11940    0.01570    0.02780   -0.09820
 3348.00000   45.53120   50.30270   39.89270   88.28380  266.23030  505.63110  706.68600   23.88270    8.84580    3.25520    0.01280    0.02830   -0.09850
 3348.50000   44.80620   50.29460   37.44260   87.24740  851.37790  702.70990 1689.55730   21.23220    8.90620    3.31610    0.01280    0.02060   -0.10060
 3349.00000   44.08130   51.48580   38.15120   86.64030 1347.03960 1010.47390  838.43050   20.01040    8.90630    3.34680    0.01280    0.01150   -0.10660
 3349.50000   43.41660   51.16190   40.92680   86.03320 1340.18870 1220.21190  959.42030   19.08900    8.90650    3.34760    0.01130    0.00960   -0.10660
 3350.00000   43.77460   50.54480   42.96860   85.72590 1250.66770  989.01350 1010.70100   19.21920    8.96690    3.40840    0.00990    0.01140   -0.10880
 3350.50000   44.13220   49.92750   43.14620   85.71850 1225.58790 1031.33750 1205.39290   20.26880    9.02730    3.56930    0.00990    0.01420   -0.11280
 3351.00000   43.73790   49.99690   43.27020   87.21030 1107.66800 1068.15010 1218.36760   20.09840    9.02740    3.75020    0.00990    0.01700   -0.11440
 3351.50000   43.46410   50.70290   43.54090   89.30190  977.01670 1075.98500 1667.87890   20.26550    9.02760    4.07140    0.01000    0.01800   -0.11140
 3352.00000   43.68660   52.16020   44.07920   90.79370  466.45070  881.10440  413.08150   24.16790    9.09040    4.01210    0.01000    0.01860   -0.10640
 3352.50000   44.81130   53.36940   45.50380   91.98570  246.61630  513.28410  131.12680   28.97120    9.14830    3.77260    0.01000    0.01950   -0.09810
 3353.00000   45.62010   53.81970   47.56710   93.77740  111.29020  241.99290   51.89860   35.87660    9.18290    3.53310    0.01010    0.03290   -0.08560
 3353.50000   47.15080   53.81030   48.61630   95.26920   82.45300  125.37650   43.24870   43.98330    9.24490    3.41370    0.01010    0.05760   -0.07490
 3354.00000   49.58390   53.80210   48.61360   94.36230   86.02380   86.34100   79.08740   47.88570    9.26930    3.26420    0.01160    0.06580   -0.06770
 3354.50000   49.03950   53.68550   48.43110   93.15550  105.95750   83.78910  682.15470   50.28660    9.27840    3.11480    0.01320    0.05280   -0.06830
 3355.00000   48.07370   53.48580   48.15860   92.84820  134.96600  113.25170  388.16930   48.78360    9.32980    3.17560    0.01320    0.03230   -0.07790
 3355.50000   47.76970   53.77740   48.06600   92.81800  146.26530  150.28320  110.03820   49.08250    9.34210    3.29650    0.01320    0.02990   -0.08870
 3356.00000   48.42820   54.20490   48.87290   93.43310  108.77720  130.16750   87.41800   50.88280    9.37390    3.45750    0.01250    0.03710   -0.08570
 3356.50000   49.44770   54.96030   51.29910   94.92490   84.27080   98.66740   69.38440   52.68310    9.39050    3.59840    0.01030    0.06770   -0.06710
