~Version ---------------------------------------------------
VERS.   2.0 : CWLS log ASCII Standard -VERSION 2.0
WRAP.    NO : One line per depth step
DLM . SPACE : Column Data Section Delimiter
~Well ------------------------------------------------------
STRT .F                  185.0 : START DEPTH
STOP .F                 4349.0 : STOP DEPTH
STEP .F                    0.5 : STEP
NULL .                -9999.25 : NULL VALUE
COMP .                         : COMPANY
WELL .                         : WELL
FLD  .                         : FIELD
LOC  .                         : LOCATION
PROV .                         : PROVINCE
CNTY .                         : COUNTY
STAT .                         : STATE
CTRY .                         : COUNTRY
SRVC .                         : SERVICE COMPANY
DATE .                         : DATE
UWI  .                         : UNIQUE WELL ID
API  .                         : API NUMBER
SLAT .WGS84 3.0948621706700976 : SURFACE LATITUDE
SLON .WGS84  8.486843216905001 : SURFACE LONGITUDE
DATUM.F                3951.47 : DEPTH DATUM ELEV
~Curve Information -----------------------------------------
DEPT.F     : 
DT  .US/F  : DELTA-T (INTERVAL TRANSIT TIME)
DTCO.US/F  : DELTA-T COMPRESSIONAL
DTL .US/F  : DELTA-T LONG SPACING
DTSM.US/F  : DELTA-T SHEAR
LLD .OHMM  : LATEROLOG DEEP RESISTIVITY
LLS .OHMM  : LATEROLOG SHALLOW RESISTIVITY
MSFL.OHMM  : MICRO SPHERICALLY FOCUSED RESISTIVITY
SGR .GAPI  : SPECTROSCOPY GAMMA RAY
CALD.IN    : CALIPER FROM DENSITY LOG
PEF .B/E   : PHOTOELECTRIC FACTOR
DRHO.G/C3  : BULK DENSITY CORRECTION
NPHI.DEC   : NEUTRON POROSITY
DPHI.DEC   : DENSITY POROSITY
~Params ----------------------------------------------------
~Other -----------------------------------------------------
~ASCII -----------------------------------------------------
# ...
 2187.00000   -9999.25   -9999.25   -9999.25   -9999.25   -9999.25   -9999.25   -9999.25   40.92500   10.32170    2.78500    0.03650    0.25350    0.11180
 2187.50000   -9999.25   -9999.25   -9999.25   -9999.25   -9999.25   -9999.25   -9999.25   33.09510   10.20190    2.78530    0.02450    0.22030    0.10160
 2188.00000   -9999.25   -9999.25   -9999.25   -9999.25   -9999.25   -9999.25   -9999.25   21.65080   10.14220    3.41620    0.01480    0.14220    0.05250
 2188.50000   -9999.25   -9999.25   -9999.25   -9999.25   -9999.25   -9999.25   -9999.25   14.42330   10.08250    3.92700    0.01480    0.01670   -0.08850
 2189.00000   -9999.25   -9999.25   -9999.25   -9999.25   -9999.25   -9999.25   -9999.25   11.36590   10.08320    4.49790    0.02010    0.00760   -0.12570
 2189.50000   -9999.25   -9999.25   -9999.25   -9999.25   -9999.25   -9999.25   -9999.25   15.63110   10.08370    4.88860    0.02660    0.01420   -0.13050
 2190.00000   -9999.25   -9999.25   -9999.25   -9999.25   -9999.25   -9999.25   -9999.25   29.48800   10.14460    4.97900    0.03010    0.07370   -0.09600
 2190.50000   -9999.25   -9999.25   -9999.25   -9999.25   -9999.25   -9999.25   -9999.25   43.35720   10.20540    4.91920    0.03370    0.11690   -0.06050
 2191.00000   -9999.25   -9999.25   -9999.25   -9999.25   -9999.25   -9999.25   -9999.25   54.41840   10.24220    4.61920    0.03070    0.15720    0.02720
 2191.50000   -9999.25   -9999.25   -9999.25   -9999.25   -9999.25   -9999.25   -9999.25   62.75550   10.32710    3.89880    0.02770    0.18660    0.08600
 2192.00000   -9999.25   -9999.25   -9999.25   -9999.25   -9999.25   -9999.25   -9999.25   65.22940   10.39400    3.17830    0.01870    0.22800    0.11960
 2192.50000   -9999.25   -9999.25   -9999.25   -9999.25   -9999.25   -9999.25   -9999.25   65.63990   10.44880    2.85830    0.01420    0.27310    0.13340
 2193.00000   -9999.25   -9999.25   -9999.25   -9999.25   -9999.25   -9999.25   -9999.25   63.51450   10.44940    2.82870    0.00970    0.28390    0.14120
 2193.50000   -9999.25   -9999.25   -9999.25   -9999.25   -9999.25   -9999.25   -9999.25   60.85220   10.40930    2.91900    0.00380    0.29530    0.14300
 2194.00000   -9999.25   -9999.25   -9999.25   -9999.25   -9999.25   -9999.25   -9999.25   56.92240   10.29400    3.02940    0.00080    0.29710    0.13880
 2194.50000   -9999.25   -9999.25   -9999.25   -9999.25   -9999.25   -9999.25   -9999.25   50.26600   10.13950    3.31510   -0.00220    0.19300    0.09860
 2195.00000   -9999.25   -9999.25   -9999.25   -9999.25   -9999.25   -9999.25   -9999.25   32.78660   10.04510    3.60060   -0.00370    0.10320    0.02420
 2195.50000   -9999.25   -9999.25   -9999.25   -9999.25   -9999.25   -9999.25   -9999.25   15.80110    9.95390    3.87120   -0.00370    0.03080   -0.03880
 2196.00000   -9999.25   -9999.25   -9999.25   -9999.25   -9999.25   -9999.25   -9999.25    8.05360    9.88080    4.15670   -0.00310    0.00920   -0.09700
 2196.50000   -9999.25   -9999.25   -9999.25   -9999.25   -9999.25   -9999.25   -9999.25    6.99720    9.85120    4.39230   -0.00210    0.02140   -0.14550
 2197.00000   -9999.25   -9999.25   -9999.25   -9999.25  162.59480  148.95850  970.26610   10.83460    9.85190    4.21240   -0.00110    0.04820   -0.11790
 2197.50000   -9999.25   -9999.25   -9999.25   -9999.25  133.74290  112.27200  382.52630   14.75170    9.85250    3.73230    0.00470    0.07050   -0.08500
 2198.00000   -9999.25   -9999.25   -9999.25   -9999.25   82.14390   84.14610   33.73910   18.06640    9.85310    3.39220    0.01220    0.07180   -0.06940
 2198.50000   -9999.25   -9999.25   -9999.25   -9999.25   62.85120   61.64030   31.55690   18.51120    9.85370    3.21230    0.01970    0.06010   -0.06580
 2199.00000   -9999.25   -9999.25   -9999.25   -9999.25   54.97850   52.63930   11.38310   15.96090    9.85420    3.48290    0.02430    0.04680   -0.08740
 2199.50000   -9999.25   -9999.25   -9999.25   -9999.25   53.99280   51.25020  156.75490   13.25150    9.85480    3.81350    0.02310    0.02170   -0.11020
 2200.00000   -9999.25   -9999.25   -9999.25   -9999.25   60.94080   72.67680  192.68840   11.44580    9.85540    4.17420    0.02210    0.01310   -0.13320
 2200.50000   -9999.25   -9999.25   -9999.25   -9999.25   85.90290   99.01270   75.42430    9.57420    9.87030    4.38470    0.01810    0.00690   -0.14160
 2201.00000   -9999.25   -9999.25   -9999.25   -9999.25  108.65910  117.22220  270.32600    7.84300    9.88680    4.62520    0.01610    0.00370   -0.14760
 2201.50000   -9999.25   -9999.25   -9999.25   -9999.25  123.55190  127.59520  754.64250    8.55720    9.88740    4.83570    0.01010    0.00350   -0.15070
 2202.00000   -9999.25   -9999.25   -9999.25   -9999.25  127.63950  127.65580  944.95750   12.73320    9.88800    4.95610    0.01020    0.00890   -0.14110
 2202.50000   -9999.25   -9999.25   -9999.25   -9999.25  124.25250  120.87340   27.96950   19.57060    9.88860    4.98650    0.00420    0.04530   -0.11280
 2203.00000   -9999.25   -9999.25   -9999.25   -9999.25   51.32590   85.71570   78.52170   22.35680    9.88920    4.93670    0.00420    0.09280   -0.08150
 2203.50000   -9999.25   -9999.25   -9999.25   -9999.25   22.24600   17.60650    6.90320   25.28790    9.88980    4.84690    0.00420    0.17240   -0.04610
 2204.00000   -9999.25   -9999.25   -9999.25   -9999.25   11.49340   10.65990   49.71040   26.83520    9.88800    4.68710    0.00420    0.22710    0.02170
 2204.50000   -9999.25   -9999.25   -9999.25   -9999.25    8.73090    8.93900   14.87770   28.55590    9.86080    4.44720    0.00430    0.26530    0.06720
 2205.00000   -9999.25   -9999.25   -9999.25   -9999.25    7.50730    8.26950    1.63470   31.00940    9.85040    4.17720    0.01030    0.28850    0.09540
 2205.50000   -9999.25   -9999.25   -9999.25   -9999.25    7.01100    8.27500   18.39760   29.58540    9.72740    3.74200    0.01480    0.27410    0.08820
 2206.00000   -9999.25   -9999.25   -9999.25   -9999.25    9.36550    9.83050   77.10030   23.26590    9.62160    3.84750    0.01730    0.12640    0.01800
 2206.50000   -9999.25   -9999.25   -9999.25   -9999.25   10.60560   12.90590  135.80290   21.76580    9.62230    4.14800    0.01490    0.09630   -0.05150
 2207.00000   -9999.25   -9999.25   -9999.25   -9999.25   16.25850   17.46720  194.50560   19.36200    9.62290    4.42860    0.00940    0.08670   -0.05930
 2207.50000   -9999.25   -9999.25   -9999.25   -9999.25   20.27390   21.00750    5.16130   16.35580    9.62350    4.54900    0.00440    0.07350   -0.06480
 2208.00000   -9999.25   -9999.25   -9999.25   -9999.25   23.92650   23.66870    6.62380   12.74720    9.62410    4.44930    0.00290    0.05910   -0.07140
 2208.50000   -9999.25   -9999.25   -9999.25   -9999.25   43.26850   35.48740   22.94180    7.93380    9.62470    4.59970    0.00440    0.03920   -0.09060
 2209.00000   -9999.25   -9999.25   -9999.25   -9999.25   75.08040   72.79430  175.45440    6.13240    9.62540    4.81020    0.00900    0.01760   -0.11880
 2209.50000   -9999.25   -9999.25   -9999.25   -9999.25   83.85940   83.34080  312.35490    6.53780    9.62600    4.99070    0.01430    0.00800   -0.14120
 2210.00000   -9999.25   -9999.25   -9999.25   -9999.25   81.61800   79.00210  514.19530    8.05180    9.62660    5.14110    0.01750    0.02540   -0.13440
 2210.50000   -9999.25   -9999.25   -9999.25   -9999.25   63.73160   49.56340 1442.50230    9.53170    9.62720    4.99130    0.01700    0.02610   -0.12540
 2211.00000   -9999.25   -9999.25   -9999.25   -9999.25   36.25810   34.34260   11.22340    9.77030    9.62770    4.75130    0.01210    0.02240   -0.12120
 2211.50000   -9999.25   -9999.25   -9999.25   -9999.25   49.78710   46.93040  405.44620    8.36640    9.62830    4.60150    0.00410    0.01100   -0.14640
 2212.00000   -9999.25   -9999.25   -9999.25   -9999.25   70.27260   70.03340 1641.92870    7.37230    9.62890    4.63180   -0.00140    0.00260   -0.14940
 2212.50000   -9999.25   -9999.25   -9999.25   -9999.25   67.45910   72.00580 1972.31700    7.37950    9.62950    4.77230   -0.00140    0.01820   -0.14700
