~Version ---------------------------------------------------
VERS.   2.0 : CWLS log ASCII Standard -VERSION 2.0
WRAP.    NO : One line per depth step
DLM . SPACE : Column Data Section Delimiter
~Well ------------------------------------------------------
STRT .F                  185.0 : START DEPTH
STOP .F                 4349.0 : STOP DEPTH
STEP .F                    0.5 : STEP
NULL .                -9999.25 : NULL VALUE
COMP .                         : COMPANY
WELL .                         : WELL
FLD  .                         : FIELD
LOC  .                         : LOCATION
PROV .                         : PROVINCE
CNTY .                         : COUNTY
STAT .                         : STATE
CTRY .                         : COUNTRY
SRVC .                         : SERVICE COMPANY
DATE .                         : DATE
UWI  .                         : UNIQUE WELL ID
API  .                         : API NUMBER
SLAT .WGS84 3.0948621706700976 : SURFACE LATITUDE
SLON .WGS84  8.486843216905001 : SURFACE LONGITUDE
DATUM.F                3951.47 : DEPTH DATUM ELEV
~Curve Information -----------------------------------------
DEPT.F     : 
DT  .US/F  : DELTA-T (INTERVAL TRANSIT TIME)
DTCO.US/F  : DELTA-T COMPRESSIONAL
DTL .US/F  : DELTA-T LONG SPACING
DTSM.US/F  : DELTA-T SHEAR
LLD .OHMM  : LATEROLOG DEEP RESISTIVITY
LLS .OHMM  : LATEROLOG SHALLOW RESISTIVITY
MSFL.OHMM  : MICRO SPHERICALLY FOCUSED RESISTIVITY
SGR .GAPI  : SPECTROSCOPY GAMMA RAY
CALD.IN    : CALIPER FROM DENSITY LOG
PEF .B/E   : PHOTOELECTRIC FACTOR
DRHO.G/C3  : BULK DENSITY CORRECTION
NPHI.DEC   : NEUTRON POROSITY
DPHI.DEC   : DENSITY POROSITY
~Params ----------------------------------------------------
~Other -----------------------------------------------------
~ASCII -----------------------------------------------------
# ...
 2551.00000   -9999.25   -9999.25   -9999.25   -9999.25  111.08910  146.44920 1344.50390   20.63070   10.33860    4.33970    0.01010    0.01560   -0.13360
 2551.50000   -9999.25   -9999.25   -9999.25   -9999.25  105.24240  154.70320  423.81520   25.84220   10.33920    4.35480    0.01010    0.06370   -0.11080
 2552.00000   -9999.25   -9999.25   -9999.25   -9999.25   79.14410  132.56710  252.38440   41.47480   10.33980    4.37000    0.00920    0.13990   -0.04180
 2552.50000   -9999.25   -9999.25   -9999.25   -9999.25   50.66930   79.45940  292.55210   52.38290   10.38580    4.15990    0.00720    0.18380    0.02290
 2553.00000   -9999.25   -9999.25   -9999.25   -9999.25   23.97640   24.57110   79.31430   59.29030   10.40120    3.61960    0.00520    0.20440    0.03790
 2553.50000   -9999.25   -9999.25   -9999.25   -9999.25   13.61520   16.80970    9.17230   63.59120   10.40190    3.43950    0.00130    0.21840    0.04750
 2554.00000   -9999.25   -9999.25   -9999.25   -9999.25   11.12550   13.66470    7.76670   67.13360   10.43260    3.33950   -0.00100    0.23170    0.05470
 2554.50000   -9999.25   -9999.25   -9999.25   -9999.25    9.47470   11.58420    5.03440   69.18380   10.43320    3.22960   -0.00390    0.23980    0.06610
 2555.00000   -9999.25   -9999.25   -9999.25   -9999.25    8.40580   10.01900    4.67160   67.58100   10.40360    3.16970   -0.00390    0.24140    0.08050
 2555.50000   -9999.25   -9999.25   -9999.25   -9999.25    8.21690    9.81240    4.02500   63.92280   10.28380    3.25990   -0.00210    0.23070    0.08290
 2556.00000   -9999.25   -9999.25   -9999.25   -9999.25   10.98660   10.89280    3.04960   52.48290   10.22410    3.50030   -0.00060    0.19720    0.04070
 2556.50000   -9999.25   -9999.25   -9999.25   -9999.25   34.22330   17.92170   10.26810   35.92250   10.16280    3.86080    0.00140    0.11060   -0.03280
 2557.00000   -9999.25   -9999.25   -9999.25   -9999.25   57.90810   43.76010   30.53810   18.75960   10.07100    4.31140    0.00250    0.02860   -0.10000
 2557.50000   -9999.25   -9999.25   -9999.25   -9999.25   87.42080  113.49410   71.84510   11.53660   10.03360    4.82210    0.00600    0.00680   -0.11310
 2558.00000   -9999.25   -9999.25   -9999.25   -9999.25  265.63720  284.75300  802.78450    6.72320    9.92520    5.22270    0.00750    0.00130   -0.13300
 2558.50000   -9999.25   -9999.25   -9999.25   -9999.25  645.35860  475.18220 1762.84570    5.52420    9.90610    5.48310    0.00760   -0.00130   -0.15220
 2559.00000   -9999.25   -9999.25   -9999.25   -9999.25  663.55560  578.10410 1864.07850    6.74710    9.82420    5.53320    0.00760    0.01070   -0.15520
 2559.50000   -9999.25   -9999.25   -9999.25   -9999.25  444.36320  618.99100  531.92690    8.64130    9.77860    5.22810    0.00760    0.01520   -0.15580
 2560.00000   -9999.25   -9999.25   -9999.25   -9999.25  242.46730  428.08870  682.23550   11.20540    9.70080    5.00300    0.00770    0.01640   -0.15340
 2560.50000   -9999.25   -9999.25   -9999.25   -9999.25  182.39840  288.31220 1436.40440   14.15330    9.62720    4.76290    0.00770    0.01920   -0.13540
 2561.00000   -9999.25   -9999.25   -9999.25   -9999.25  120.79410  191.98870  276.62510   16.01760    9.56750    4.49280    0.00570    0.02930   -0.12100
 2561.50000   -9999.25   -9999.25   -9999.25   -9999.25   67.86840  107.72510   61.85850   17.88240    9.53800    4.52290    0.00270    0.04770   -0.10480
 2562.00000   -9999.25   -9999.25   -9999.25   -9999.25   57.19090   55.63350   72.40260   19.25340    9.44820    4.84340    0.00180    0.06600   -0.09550
 2562.50000   -9999.25   -9999.25   -9999.25   -9999.25   54.89190   50.52400   60.59490   20.03010    9.44880    5.03370    0.00180    0.07620   -0.09020
 2563.00000   -9999.25   -9999.25   -9999.25   -9999.25   54.15610   50.52570   14.94020   20.03610    9.44940    5.18410    0.00180    0.07500   -0.09320
 2563.50000   -9999.25   -9999.25   -9999.25   -9999.25   54.92490   51.22780   29.77710   20.04220    9.45000    5.06410    0.00190    0.05880   -0.09980
 2564.00000   -9999.25   -9999.25   -9999.25   -9999.25   59.96000   54.88030   37.66710   16.24620    9.42050    5.03420    0.00190    0.04380   -0.10410
 2564.50000   -9999.25   -9999.25   -9999.25   -9999.25   69.47640   66.54850   92.79110   13.21240    9.39090    5.12450    0.00190    0.03590   -0.10900
 2565.00000   -9999.25   -9999.25   -9999.25   -9999.25   82.04510   99.20780  228.03320   13.73580    9.39160    5.21470    0.00200    0.03170   -0.10960
 2565.50000   -9999.25   -9999.25   -9999.25   -9999.25  103.40270  136.16930  117.53250   12.83810    9.39220    5.24490    0.00200    0.01850   -0.11440
 2566.00000   -9999.25   -9999.25   -9999.25   -9999.25  193.33150  184.34600   32.54790   11.33790    9.39280    5.18500    0.00350    0.01130   -0.12460
 2566.50000   -9999.25   -9999.25   -9999.25   -9999.25  452.07680  496.75440  205.34390    8.93410    9.39340    5.18510    0.00500   -0.00070   -0.14020
 2567.00000   -9999.25   -9999.25   -9999.25   -9999.25 2346.99190  906.46080  578.34030    8.03610    9.39400    5.32540    0.00510   -0.00320   -0.14540
 2567.50000   -9999.25   -9999.25   -9999.25   -9999.25 3391.44040 1453.91490 1754.89440   10.45190    9.39460    5.31550    0.00510    0.00770   -0.14680
 2568.00000   -9999.25   -9999.25   -9999.25   -9999.25  609.76970  861.68590 1556.82140   12.86750    9.39530    4.98530    0.00510    0.01790   -0.13860
 2568.50000   -9999.25   -9999.25   -9999.25   -9999.25  263.36670  366.99590  461.78830   14.13700    9.39590    4.20980    0.00370    0.02690   -0.12280
 2569.00000   -9999.25   -9999.25   -9999.25   -9999.25  162.70910  226.67750  148.53640   15.47440    9.39650    3.62430    0.00220    0.03310   -0.11900
 2569.50000   -9999.25   -9999.25   -9999.25   -9999.25  130.57650  123.69270   38.05040   17.22880    9.39700    3.65450    0.00220    0.03990   -0.11800
 2570.00000   -9999.25   -9999.25   -9999.25   -9999.25   79.56770   65.85670  147.73750   18.47350    9.39760    4.00000    0.00070    0.05300   -0.11230
 2570.50000   -9999.25   -9999.25   -9999.25   -9999.25   60.43300   53.44290   36.75680   18.92170    9.39820    4.50560    0.00080    0.07120   -0.09460
 2571.00000   -9999.25   -9999.25   -9999.25   -9999.25   58.00360   49.89170   17.58280   18.46930    9.39990    4.68600    0.00080    0.07310   -0.09940
 2571.50000   -9999.25   -9999.25   -9999.25   -9999.25   60.46600   57.32130   10.58300   12.45980    9.42950    4.78620    0.00080    0.05690   -0.11180
 2572.00000   -9999.25   -9999.25   -9999.25   -9999.25  136.26830   92.12540   75.26560    8.40910    9.43010    4.58620    0.00090    0.01570   -0.12910
 2572.50000   -9999.25   -9999.25   -9999.25   -9999.25  439.27300  187.40490  464.42110    6.43070    9.43800    4.82660    0.00090   -0.00000   -0.16060
 2573.00000   -9999.25   -9999.25   -9999.25   -9999.25  611.43570  400.20160  436.69090    8.10960    9.46140    5.21710    0.00160    0.00830   -0.16280
 2573.50000   -9999.25   -9999.25   -9999.25   -9999.25  586.85670  600.07430  882.24210   14.74200    9.46200    5.60770    0.00250    0.02210   -0.16220
 2574.00000   -9999.25   -9999.25   -9999.25   -9999.25  377.85070  313.19230 1632.82410   20.16950    9.46270    5.54770    0.00250    0.03170   -0.15640
 2574.50000   -9999.25   -9999.25   -9999.25   -9999.25  233.43780  167.02510 1371.85220   22.58500    9.46330    5.06740    0.00600    0.03410   -0.13940
 2575.00000   -9999.25   -9999.25   -9999.25   -9999.25  192.56730  128.31880   48.09670   23.49450    9.48140    4.52700    0.00860    0.03110   -0.13360
 2575.50000   -9999.25   -9999.25   -9999.25   -9999.25  154.53820  120.48620   30.68790   21.09070    9.52480    4.16690    0.00860    0.01970   -0.13080
 2576.00000   -9999.25   -9999.25   -9999.25   -9999.25  243.48030  193.68110   41.04490   14.16880    9.55550    4.42730    0.00860    0.00770   -0.13780
 2576.50000   -9999.25   -9999.25   -9999.25   -9999.25  320.74790  322.24980  108.47270   11.46130    9.58620    4.78780    0.00710    0.01010   -0.14860
