~Version ---------------------------------------------------
VERS.   2.0 : CWLS log ASCII Standard -VERSION 2.0
WRAP.    NO : One line per depth step
DLM . SPACE : Column Data Section Delimiter
~Well ------------------------------------------------------
STRT .F                  185.0 : START DEPTH
STOP .F                 4349.0 : STOP DEPTH
STEP .F                    0.5 : STEP
NULL .                -9999.25 : NULL VALUE
COMP .                         : COMPANY
WELL .                         : WELL
FLD  .                         : FIELD
LOC  .                         : LOCATION
PROV .                         : PROVINCE
CNTY .                         : COUNTY
STAT .                         : STATE
CTRY .                         : COUNTRY
SRVC .                         : SERVICE COMPANY
DATE .                         : DATE
UWI  .                         : UNIQUE WELL ID
API  .                         : API NUMBER
SLAT .WGS84 3.0948621706700976 : SURFACE LATITUDE
SLON .WGS84  8.486843216905001 : SURFACE LONGITUDE
DATUM.F                3951.47 : DEPTH DATUM ELEV
~Curve Information -----------------------------------------
DEPT.F     : 
DT  .US/F  : DELTA-T (INTERVAL TRANSIT TIME)
DTCO.US/F  : DELTA-T COMPRESSIONAL
DTL .US/F  : DELTA-T LONG SPACING
DTSM.US/F  : DELTA-T SHEAR
LLD .OHMM  : LATEROLOG DEEP RESISTIVITY
LLS .OHMM  : LATEROLOG SHALLOW RESISTIVITY
MSFL.OHMM  : MICRO SPHERICALLY FOCUSED RESISTIVITY
SGR .GAPI  : SPECTROSCOPY GAMMA RAY
CALD.IN    : CALIPER FROM DENSITY LOG
PEF .B/E   : PHOTOELECTRIC FACTOR
DRHO.G/C3  : BULK DENSITY CORRECTION
NPHI.DEC   : NEUTRON POROSITY
DPHI.DEC   : DENSITY POROSITY
~Params ----------------------------------------------------
~Other -----------------------------------------------------
~ASCII -----------------------------------------------------
# ...
 3565.00000   43.55270   47.01650   56.30880   89.77510 6351.09570 1942.86980 1918.10820    7.01180    8.86140    3.14110    0.00780    0.01520   -0.11600
 3565.50000   43.64160   47.00960   53.87790   88.87560 5183.35550 1943.66480 1790.70510    7.61090    8.86140    3.20180    0.00780    0.01790   -0.11720
 3566.00000   43.82100   47.30360   48.65310   88.87560 4416.07620 1944.46010 1888.04710    8.21000    8.86140    3.32250    0.00780    0.02210   -0.11840
 3566.50000   43.81990   47.59750   43.70140   89.77510 3820.33960 1945.25620 1649.78750    8.80910    8.86140    3.44320    0.00790    0.02450   -0.11740
 3567.00000   43.63830   47.89150   43.10510   90.37960 3283.08740 1946.05220 1601.48610    8.80770    8.86140    3.46390    0.00790    0.02450   -0.11220
 3567.50000   43.54700   48.18540   42.53530   90.98700 2862.25050 1946.84860 1825.47390    8.80620    8.86140    3.50450    0.00790    0.02090   -0.10820
 3568.00000   43.63610   48.17950   49.10180   91.27440 2408.56490 1947.64530 1743.53340    7.60350    8.86140    3.50510    0.00800    0.01550   -0.10640
 3568.50000   43.99590   48.17360   57.41360   91.30170 2156.37060 1948.44230 1944.37850    6.70110    8.86140    3.50570    0.00800    0.01310   -0.11200
 3569.00000   44.62630   47.86780   60.78960   91.87410 1722.67260 1819.19900 1930.68140    6.67950    8.86140    3.47630    0.00800    0.01370   -0.12220
 3569.50000   44.53500   46.96230   58.98850   91.83170 1446.34510 1585.21400 1614.08170    7.29880    8.86140    3.44690    0.00810    0.01610   -0.12380
 3570.00000   43.63160   46.65660   50.98040   91.27440 1146.65540 1381.32400 1288.42140    9.09910    8.86140    3.35740    0.00810    0.01850   -0.11810
 3570.50000   43.17940   46.65070   47.91980   91.21680  876.58110 1138.97770 1036.49630   10.30870    8.86140    3.23790    0.00810    0.02150   -0.11300
 3571.00000   42.90760   46.33770   44.58940   90.54470  692.47440  813.83760  933.11010   11.23830    8.86140    3.13830    0.00810    0.02330   -0.11180
 3571.50000   42.90650   46.03900   43.23800   89.85730  574.28440  478.93880  301.98750   11.82710    8.86140    3.08890    0.00820    0.02270   -0.11030
 3572.00000   42.90540   46.05710   42.42640   88.09640  426.88430  384.89940  518.31760   12.39650    8.86140    3.16950    0.00820    0.02030   -0.10850
 3572.50000   42.90410   46.32720   41.79460   85.40240  374.23460  378.00320 1044.39310   12.19450    8.86140    3.33040    0.00820    0.01910   -0.10380
 3573.00000   42.99320   46.62110   42.07480   83.98280  387.59470  392.37860  530.14690   10.47170    8.86140    3.45110    0.00380    0.01790   -0.09960
 3573.50000   42.75140   47.01380   42.86680   83.77810  433.17900  430.81410  407.33560    9.24870    8.86140    3.48170    0.00080    0.01780   -0.09240
 3574.00000   41.93820   49.34510   44.21720   85.64770  511.71440  515.73720  860.29940    8.18620    8.86140    3.45230   -0.00360    0.01670   -0.08920
 3574.50000   40.01240   56.16410   43.89450   91.60680  602.37350  637.82600 1144.09160    7.79430    8.86140    3.27270   -0.00360    0.01660   -0.08850
 3575.00000   38.68810   55.44120   43.09600  105.36730  731.09090  745.45010 1706.76090    7.18210    8.86140    3.09310   -0.00360    0.01550   -0.09120
 3575.50000   38.11550   51.78680   41.55830  100.56970  786.84330  793.28020 1879.95740    6.98050    8.86140    2.91350   -0.00060    0.01490   -0.09780
 3576.00000   36.91150   47.50800   39.77000   92.47380  809.15120  810.19440 1660.79100    6.67870    8.86140    2.85400    0.00250    0.01370   -0.10710
 3576.50000   37.66190   46.57870   37.73010   86.47680  816.91600  810.52600 1278.20850    6.37690    8.86140    2.88480    0.00250    0.01290   -0.11310
 3577.00000   39.01420   46.87360   39.04810   89.80460  759.19810  784.55470 1407.91700    6.67570    8.86140    3.01550    0.00250    0.01120   -0.11190
 3577.50000   39.55440   46.86660   40.08810   92.23640  728.63760  736.72880 1113.88370    6.97450    8.86140    3.19630   -0.00040    0.01060   -0.10340
 3578.00000   39.91420   46.86060   40.60210   93.88310  523.27620  616.62290  354.72600    7.29350    8.86140    3.33700   -0.00190    0.01000   -0.09990
 3578.50000   39.28150   46.85460   41.40960   95.40460  360.54500  505.62550  218.96330    8.98330    8.86140    3.27750    0.00110    0.01170   -0.09150
 3579.00000   38.64880   46.70570   41.22620   96.84180  355.72130  364.69550  529.25400   10.57330    8.86140    3.18800    0.00360    0.01300   -0.09210
 3579.50000   38.73800   46.54270   41.04560   98.05610  402.93070  392.85180  474.04460   10.87240    8.86560    3.15860    0.00860    0.01390   -0.09810
 3580.00000   39.36840   46.53670   41.24730   99.47030  489.03040  440.85980  487.36510    9.96970    8.89160    3.20410    0.00870    0.01360   -0.10170
 3580.50000   39.54780   46.53070   41.58120   99.97000  561.63390  492.55440  778.94430    7.86610    8.89160    3.38000    0.00870    0.01240   -0.10490
 3581.00000   39.27600   46.52470   41.38840   98.24080  610.35540  550.31070  370.00900    7.26410    8.89160    3.46060    0.00880    0.01090   -0.11090
 3581.50000   38.82370   46.51760   41.08790   96.60410  593.93130  606.40760  380.40610    7.26260    8.89160    3.41120    0.00730    0.01060   -0.11010
 3582.00000   39.09330   46.21180   40.13540   94.91270  524.69960  553.55510 1026.70200    7.26110    8.89160    3.34180    0.00280    0.01100   -0.10770
 3582.50000   40.08470   45.90610   39.95340   93.12320  469.98300  469.21790  448.97500    7.25960    8.89160    3.28230   -0.00210    0.01300   -0.09780
 3583.00000   40.36550   45.60030   40.13120   91.43890  403.88960  414.25540  402.22120    8.45940    8.95180    3.16280   -0.00310    0.01420   -0.09690
 3583.50000   40.62360   45.59440   40.66890   89.61810  377.09400  392.15510  474.57250    9.35880    8.98190    3.07330   -0.00310    0.01480   -0.09970
 3584.00000   41.61500   45.28860   42.01610   89.03560  391.40750  392.31550  575.69710   10.55850    9.01200    2.98380   -0.00310    0.01480   -0.09750
 3584.50000   41.97480   45.28270   42.10410   91.94410  417.57400  414.76420  688.80700   10.85740    9.01200    2.95430    0.00150    0.01360   -0.10210
 3585.00000   41.34210   45.57720   42.01200   92.29900  453.94840  482.99860  560.19130   10.25530    9.01200    2.98500    0.00300    0.01300   -0.10490
 3585.50000   40.88980   45.57080   41.91810   90.97450  512.05580  586.24850  698.56040    9.35290    9.04220    3.10570    0.00750    0.01240   -0.10740
 3586.00000   40.61810   45.56480   41.82790   89.17540  652.51380  682.69450 1784.22140    9.35140    9.07230    3.18640    0.00900    0.01120   -0.10830
 3586.50000   40.70720   46.15860   42.28220   89.47530  608.83670  711.86080 1688.71310    9.34980    9.07230    3.28720    0.01510    0.00940   -0.10560
 3587.00000   41.06700   46.75240   42.39900   90.97450  519.75210  611.79470 1086.42140    9.34830    9.10240    3.34780    0.01810    0.00760   -0.10230
 3587.50000   43.41170   47.34620   43.89100   93.37330  423.74400  490.71730  973.09060    9.34680    9.10870    3.34830    0.01960    0.00460   -0.10770
 3588.00000   45.48580   48.23980   45.39590   96.07200  338.68880  357.33710  130.00530    9.64580    9.13250    3.64930    0.01910    0.00280   -0.12630
 3588.50000   46.20650   49.44230   46.55910   98.17090  461.36690  357.48330  327.50490    7.40200    9.13250    4.07030    0.01620    0.00100   -0.15000
 3589.00000   46.92720   50.32700   47.46580  100.26990  646.53050  446.05200 1028.68630    6.63960    9.13250    4.37120    0.01450   -0.00140   -0.15650
 3589.50000   46.29420   50.29940   48.13070  100.86960  896.86680  630.21420 1737.34890    6.72820    9.13250    4.59700    0.01070   -0.00200   -0.15130
 3590.00000   45.51110   49.65510   48.19820  100.86960 1435.63150 1141.66030 1994.46520    6.53670    9.13250    4.42650    0.00930   -0.00200   -0.14610
 3590.50000   44.78830   49.10940   47.55500   99.37030 1329.53960 1547.56420 1845.00330    6.03450    9.16270    4.07270    0.00480   -0.00010   -0.14990
