~Version ---------------------------------------------------
VERS.   2.0 : CWLS log ASCII Standard -VERSION 2.0
WRAP.    NO : One line per depth step
DLM . SPACE : Column Data Section Delimiter
~Well ------------------------------------------------------
STRT .F                  185.0 : START DEPTH
STOP .F                 4349.0 : STOP DEPTH
STEP .F                    0.5 : STEP
NULL .                -9999.25 : NULL VALUE
COMP .                         : COMPANY
WELL .                         : WELL
FLD  .                         : FIELD
LOC  .                         : LOCATION
PROV .                         : PROVINCE
CNTY .                         : COUNTY
STAT .                         : STATE
CTRY .                         : COUNTRY
SRVC .                         : SERVICE COMPANY
DATE .                         : DATE
UWI  .                         : UNIQUE WELL ID
API  .                         : API NUMBER
SLAT .WGS84 3.0948621706700976 : SURFACE LATITUDE
SLON .WGS84  8.486843216905001 : SURFACE LONGITUDE
DATUM.F                3951.47 : DEPTH DATUM ELEV
~Curve Information -----------------------------------------
DEPT.F     : 
DT  .US/F  : DELTA-T (INTERVAL TRANSIT TIME)
DTCO.US/F  : DELTA-T COMPRESSIONAL
DTL .US/F  : DELTA-T LONG SPACING
DTSM.US/F  : DELTA-T SHEAR
LLD .OHMM  : LATEROLOG DEEP RESISTIVITY
LLS .OHMM  : LATEROLOG SHALLOW RESISTIVITY
MSFL.OHMM  : MICRO SPHERICALLY FOCUSED RESISTIVITY
SGR .GAPI  : SPECTROSCOPY GAMMA RAY
CALD.IN    : CALIPER FROM DENSITY LOG
PEF .B/E   : PHOTOELECTRIC FACTOR
DRHO.G/C3  : BULK DENSITY CORRECTION
NPHI.DEC   : NEUTRON POROSITY
DPHI.DEC   : DENSITY POROSITY
~Params ----------------------------------------------------
~Other -----------------------------------------------------
~ASCII -----------------------------------------------------
# ...
 2317.00000   -9999.25   -9999.25   -9999.25   -9999.25   47.61840   45.16000 1779.48910   11.41000    9.44400    4.25470    0.02160    0.02020   -0.11330
 2317.50000   -9999.25   -9999.25   -9999.25   -9999.25   72.83130   61.12710   44.23570    8.36370    9.44430    4.78570    0.02310    0.00670   -0.12970
 2318.00000   -9999.25   -9999.25   -9999.25   -9999.25  122.44400   94.95220   35.50030   10.38560    9.44460    5.02660    0.02240    0.00870   -0.13270
 2318.50000   -9999.25   -9999.25   -9999.25   -9999.25  195.82940  199.67120  175.83710   12.27210    9.44490    5.22740    0.01820    0.01440   -0.13570
 2319.00000   -9999.25   -9999.25   -9999.25   -9999.25  126.44120  183.81520  396.89110   12.88040    9.44520    5.12800    0.01270    0.02150   -0.14070
 2319.50000   -9999.25   -9999.25   -9999.25   -9999.25   91.59210  130.27030  110.16740   12.88630    9.44550    5.21870    0.01120    0.03960   -0.14090
 2320.00000   -9999.25   -9999.25   -9999.25   -9999.25   48.46190   88.58740  232.09930   14.09700    9.44580    5.18920    0.01430    0.05610   -0.14010
 2320.50000   -9999.25   -9999.25   -9999.25   -9999.25   34.61660   45.11670 1630.52210   17.11490    9.44610    4.94960    0.01730    0.07730   -0.13040
 2321.00000   -9999.25   -9999.25   -9999.25   -9999.25   31.88620   30.68060  228.78520   20.43400    9.44640    4.77000    0.02330    0.09690   -0.09320
 2321.50000   -9999.25   -9999.25   -9999.25   -9999.25   28.98040   32.41310    7.84270   20.95720    9.44670    4.59040    0.02640    0.11030   -0.09140
 2322.00000   -9999.25   -9999.25   -9999.25   -9999.25   26.31470   36.68370   22.86200   17.10080    9.44700    4.59090    0.02940    0.10650   -0.09800
 2322.50000   -9999.25   -9999.25   -9999.25   -9999.25   25.61140   35.19460   90.49730   13.14320    9.44730    4.81190    0.03240    0.06910   -0.11880
 2323.00000   -9999.25   -9999.25   -9999.25   -9999.25   25.09840   29.70340  770.17600   11.08420    9.44760    4.99270    0.03250    0.04550   -0.10700
 2323.50000   -9999.25   -9999.25   -9999.25   -9999.25   24.54140   26.97070 1500.72350    9.86950    9.44790    5.13330    0.02650    0.03400   -0.08840
 2324.00000   -9999.25   -9999.25   -9999.25   -9999.25   21.82050   24.82140   92.92640    8.45000    9.44820    4.68350    0.01550    0.02450   -0.07160
 2324.50000   -9999.25   -9999.25   -9999.25   -9999.25   34.40940   31.46970   80.57790    6.75310    9.44850    4.47390    0.00850    0.01470   -0.09980
 2325.00000   -9999.25   -9999.25   -9999.25   -9999.25   68.61800   59.47640 1390.69310    5.11950    9.44880    4.65460    0.00560    0.00480   -0.12860
 2325.50000   -9999.25   -9999.25   -9999.25   -9999.25  107.05710  118.82120 1840.82600    6.79720    9.44910    4.92550    0.00560    0.00040   -0.14240
 2326.00000   -9999.25   -9999.25   -9999.25   -9999.25  251.90020  269.31240  713.79750   10.71060    9.44940    5.21140    0.00560    0.02580   -0.14680
 2326.50000   -9999.25   -9999.25   -9999.25   -9999.25  349.15020  436.67830 1653.28390   15.66090    9.44970    5.15700    0.00560    0.04380   -0.14090
 2327.00000   -9999.25   -9999.25   -9999.25   -9999.25  258.46270  406.27260 1022.61770   20.26140    9.45000    4.89730    0.00570    0.05160   -0.12450
 2327.50000   -9999.25   -9999.25   -9999.25   -9999.25  101.85600  248.81490   44.07910   19.30840    9.45030    4.75780    0.00570    0.05820   -0.09990
 2328.00000   -9999.25   -9999.25   -9999.25   -9999.25   28.93760   27.42770    7.15390   13.59140    9.45070    4.62830    0.00720    0.04800   -0.09990
 2328.50000   -9999.25   -9999.25   -9999.25   -9999.25   84.71680   88.37950   62.30990    7.57310    9.45100    4.71890    0.00630    0.02490   -0.11610
 2329.00000   -9999.25   -9999.25   -9999.25   -9999.25  364.70650  390.86950  742.83820    5.16940    9.45120    4.83970    0.00580    0.00220   -0.13230
 2329.50000   -9999.25   -9999.25   -9999.25   -9999.25 1751.37040 1903.55650  766.01840    5.77770    9.45150    5.05040   -0.00020   -0.00320   -0.14370
 2330.00000   -9999.25   -9999.25   -9999.25   -9999.25 4962.78420 1929.68050 1335.38850    6.68710    9.45180    5.26120    0.00290   -0.00370   -0.14830
 2330.50000   -9999.25   -9999.25   -9999.25   -9999.25 8588.95610 1877.01540 1993.09480    9.40380    9.45210    5.35190    0.00590    0.00010   -0.14770
 2331.00000   -9999.25   -9999.25   -9999.25   -9999.25 4915.97360 1635.37600  780.92640   12.42180    9.45240    5.17230    0.00740    0.01020   -0.14330
 2331.50000   -9999.25   -9999.25   -9999.25   -9999.25 2065.81910 1143.14750 1811.95450   16.07340    9.45270    4.83260    0.00740    0.02590   -0.12770
 2332.00000   -9999.25   -9999.25   -9999.25   -9999.25  340.66300  349.81830  266.73470   17.57810    9.45300    4.64310    0.00750    0.03200   -0.10940
 2332.50000   -9999.25   -9999.25   -9999.25   -9999.25  191.58040  193.50090   34.68320   17.25860    9.45330    4.55350    0.00600    0.03410   -0.10060
 2333.00000   -9999.25   -9999.25   -9999.25   -9999.25  185.57630  180.60430  366.72410   17.26510    9.45360    4.66430    0.00600    0.03230   -0.10210
 2333.50000   -9999.25   -9999.25   -9999.25   -9999.25  177.34160  180.57960 1767.02170   17.27110    9.45390    4.90510    0.00010    0.02670   -0.11380
 2334.00000   -9999.25   -9999.25   -9999.25   -9999.25  171.06630  170.88070 1920.60310   18.05630    9.45420    5.07090   -0.00240    0.02540   -0.10060
 2334.50000   -9999.25   -9999.25   -9999.25   -9999.25  139.64490  140.90500  115.38480   18.80130    9.45450    4.71110   -0.00590    0.04190   -0.08200
 2335.00000   -9999.25   -9999.25   -9999.25   -9999.25   95.57140   98.49430   24.64660   20.18050    9.45480    4.60660   -0.00590    0.06580   -0.07000
 2335.50000   -9999.25   -9999.25   -9999.25   -9999.25   71.38490   70.77080   34.33510   21.62020    9.45510    4.60720   -0.00500    0.07230   -0.07010
 2336.00000   -9999.25   -9999.25   -9999.25   -9999.25   61.28770   59.98540   45.26540   22.26900    9.45540    4.65780   -0.00210    0.06290   -0.09110
 2336.50000   -9999.25   -9999.25   -9999.25   -9999.25   87.15030   89.40860  138.37690   18.70460    9.45580    4.69860    0.00020    0.03470   -0.11080
 2337.00000   -9999.25   -9999.25   -9999.25   -9999.25  144.70360  136.98440  253.98280   12.79630    9.48620    4.66910    0.00100    0.01910   -0.13860
 2337.50000   -9999.25   -9999.25   -9999.25   -9999.25  172.35470  175.51390  843.39290   10.99500    9.48650    4.60960    0.00330    0.01430   -0.14690
 2338.00000   -9999.25   -9999.25   -9999.25   -9999.25  184.71870  184.55600   87.95520   11.30200    9.48670    4.55020    0.00480    0.01310   -0.14810
 2338.50000   -9999.25   -9999.25   -9999.25   -9999.25  193.90930  190.53760  204.07930   12.51270    9.48710    4.61080    0.00640    0.01240   -0.14210
 2339.00000   -9999.25   -9999.25   -9999.25   -9999.25  200.80290  191.39240  204.20510   12.51860    9.48740    4.67140    0.00640    0.01120   -0.14570
 2339.50000   -9999.25   -9999.25   -9999.25   -9999.25  209.42270  200.36610   43.02170   11.92200    9.48770    4.76210    0.00640    0.01000   -0.15350
 2340.00000   -9999.25   -9999.25   -9999.25   -9999.25  237.26530  220.70680  216.04990    7.10860    9.48800    4.94290    0.00650    0.00760   -0.16070
 2340.50000   -9999.25   -9999.25   -9999.25   -9999.25  282.36660  269.14220  894.51620    6.49620    9.51840    5.12380    0.00650    0.00400   -0.16370
 2341.00000   -9999.25   -9999.25   -9999.25   -9999.25  252.41250  277.40160  583.75020    7.79350    9.51870    5.25450    0.00350    0.00220   -0.14630
 2341.50000   -9999.25   -9999.25   -9999.25   -9999.25  130.66620  138.40730 1246.91280   12.38740    9.51900    5.35510    0.00050    0.02500   -0.12170
 2342.00000   -9999.25   -9999.25   -9999.25   -9999.25   59.73110   60.94960 1225.61880   16.43300    9.51930    5.35070   -0.00540    0.05260   -0.08300
 2342.50000   -9999.25   -9999.25   -9999.25   -9999.25   26.14750   29.50940    5.23810   19.78860    9.51960    5.18620   -0.00540    0.07250   -0.07720
