~Version ---------------------------------------------------
VERS.   2.0 : CWLS log ASCII Standard -VERSION 2.0
WRAP.    NO : One line per depth step
DLM . SPACE : Column Data Section Delimiter
~Well ------------------------------------------------------
STRT .F                  185.0 : START DEPTH
STOP .F                 4349.0 : STOP DEPTH
STEP .F                    0.5 : STEP
NULL .                -9999.25 : NULL VALUE
COMP .                         : COMPANY
WELL .                         : WELL
FLD  .                         : FIELD
LOC  .                         : LOCATION
PROV .                         : PROVINCE
CNTY .                         : COUNTY
STAT .                         : STATE
CTRY .                         : COUNTRY
SRVC .                         : SERVICE COMPANY
DATE .                         : DATE
UWI  .                         : UNIQUE WELL ID
API  .                         : API NUMBER
SLAT .WGS84 3.0948621706700976 : SURFACE LATITUDE
SLON .WGS84  8.486843216905001 : SURFACE LONGITUDE
DATUM.F                3951.47 : DEPTH DATUM ELEV
~Curve Information -----------------------------------------
DEPT.F     : 
DT  .US/F  : DELTA-T (INTERVAL TRANSIT TIME)
DTCO.US/F  : DELTA-T COMPRESSIONAL
DTL .US/F  : DELTA-T LONG SPACING
DTSM.US/F  : DELTA-T SHEAR
LLD .OHMM  : LATEROLOG DEEP RESISTIVITY
LLS .OHMM  : LATEROLOG SHALLOW RESISTIVITY
MSFL.OHMM  : MICRO SPHERICALLY FOCUSED RESISTIVITY
SGR .GAPI  : SPECTROSCOPY GAMMA RAY
CALD.IN    : CALIPER FROM DENSITY LOG
PEF .B/E   : PHOTOELECTRIC FACTOR
DRHO.G/C3  : BULK DENSITY CORRECTION
NPHI.DEC   : NEUTRON POROSITY
DPHI.DEC   : DENSITY POROSITY
~Params ----------------------------------------------------
~Other -----------------------------------------------------
~ASCII -----------------------------------------------------
# ...
 2421.00000   -9999.25   -9999.25   -9999.25   -9999.25  128.60770  246.06000  728.94870   14.21990    9.65090    4.57980    0.00030    0.06950   -0.09580
 2421.50000   -9999.25   -9999.25   -9999.25   -9999.25   87.51630  124.41480 1745.98440   19.04070    9.62090    4.65040    0.00430    0.13510   -0.07840
 2422.00000   -9999.25   -9999.25   -9999.25   -9999.25   23.35250   32.30890  137.46880   26.31860    9.59100    4.71120    0.00540    0.16480   -0.05440
 2422.50000   -9999.25   -9999.25   -9999.25   -9999.25   20.64230   28.32790    6.96320   29.88700    9.59110    4.47150    0.00920    0.15940   -0.05500
 2423.00000   -9999.25   -9999.25   -9999.25   -9999.25   21.75520   27.93950   10.49710   23.42940    9.59130    4.41200    0.01140    0.13540   -0.10060
 2423.50000   -9999.25   -9999.25   -9999.25   -9999.25  165.39170   70.60240   78.70050   16.71720    9.59140    4.77300    0.01150    0.08010   -0.12230
 2424.00000   -9999.25   -9999.25   -9999.25   -9999.25 1273.65770 1307.36690 1283.61070    9.93220    9.59160    5.01380    0.01070    0.01160   -0.15580
 2424.50000   -9999.25   -9999.25   -9999.25   -9999.25 1858.42310 2003.38090 1984.85350    4.03780    9.59170    5.19460    0.00650   -0.00200   -0.17400
 2425.00000   -9999.25   -9999.25   -9999.25   -9999.25 1936.80700 1976.05590 1986.20290    4.49340    9.59190    5.19520    0.00460   -0.00060   -0.17100
 2425.50000   -9999.25   -9999.25   -9999.25   -9999.25 1538.81030 1896.16780 1960.33760    7.70340    9.59200    5.01560    0.00160    0.02660   -0.14360
 2426.00000   -9999.25   -9999.25   -9999.25   -9999.25 1069.82520 1722.01930 1908.53140   11.84920    9.59220    4.74590   -0.00040    0.08360   -0.08740
 2426.50000   -9999.25   -9999.25   -9999.25   -9999.25  599.82010  818.80940 1195.09280   17.08400    9.59230    4.40620   -0.00190    0.17250   -0.00280
 2427.00000   -9999.25   -9999.25   -9999.25   -9999.25  444.41260  405.75600   23.18050   20.78460    9.59250    4.03640   -0.00030    0.20790    0.04090
 2427.50000   -9999.25   -9999.25   -9999.25   -9999.25  265.26130  316.70610    6.79960   24.17950    9.59260    3.47640   -0.00030    0.23560    0.05230
 2428.00000   -9999.25   -9999.25   -9999.25   -9999.25  254.45140  279.80760    5.84670   26.28940    9.59280    2.87650    0.00270    0.23740    0.03970
 2428.50000   -9999.25   -9999.25   -9999.25   -9999.25  269.23400  330.08290   13.38090   27.28260    9.59290    3.49780    0.00580    0.18680   -0.04120
 2429.00000   -9999.25   -9999.25   -9999.25   -9999.25  486.92940  534.44800  213.98080   20.26820    9.59310    4.13400    0.00580    0.08530   -0.08560
 2429.50000   -9999.25   -9999.25   -9999.25   -9999.25  578.31100  630.47670 1693.84440   18.46250    9.59320    4.41980    0.00730    0.02650   -0.11340
 2430.00000   -9999.25   -9999.25   -9999.25   -9999.25  615.53320  666.19310 2027.74390   18.16270    9.59340    4.57050    0.00590    0.00790   -0.14060
 2430.50000   -9999.25   -9999.25   -9999.25   -9999.25  461.15900  549.42430 2029.12300   18.16420    9.58110    4.64620    0.00440    0.02740   -0.15040
 2431.00000   -9999.25   -9999.25   -9999.25   -9999.25  110.08090  126.98590  595.20890   17.86450    9.54980    4.75200   -0.00010    0.03800   -0.13980
 2431.50000   -9999.25   -9999.25   -9999.25   -9999.25   55.50930   59.88380    8.40750   16.01980    9.53360    4.88270   -0.00160    0.03280   -0.13100
 2432.00000   -9999.25   -9999.25   -9999.25   -9999.25   76.83230  142.56260   23.99110   12.90480    9.53370    5.02340   -0.00100    0.01810   -0.13180
 2432.50000   -9999.25   -9999.25   -9999.25   -9999.25  305.58760  308.21120  526.82070    8.85250    9.50380    5.17410    0.00000    0.00550   -0.15280
 2433.00000   -9999.25   -9999.25   -9999.25   -9999.25  520.31880  472.29610 1980.87730    6.42460    9.50390    5.30490    0.00370    0.00220   -0.16240
 2433.50000   -9999.25   -9999.25   -9999.25   -9999.25  576.82750  596.86130 1911.62850    9.79900    9.50410    5.44560    0.00610    0.00860   -0.16420
 2434.00000   -9999.25   -9999.25   -9999.25   -9999.25  312.53710  453.21750 1165.63930   12.02620    9.47410    5.35620    0.00990    0.01210   -0.16180
 2434.50000   -9999.25   -9999.25   -9999.25   -9999.25  140.88930  234.05930  127.41800   12.45330    9.47420    5.17660    0.01210    0.01270   -0.15220
 2435.00000   -9999.25   -9999.25   -9999.25   -9999.25  139.97020  134.95150   83.11460   12.21400    9.47440    4.90690    0.01220    0.01270   -0.14860
 2435.50000   -9999.25   -9999.25   -9999.25   -9999.25  163.02260  146.57740  448.70980    9.36440    9.47460    4.81740    0.01320    0.01040   -0.14680
 2436.00000   -9999.25   -9999.25   -9999.25   -9999.25  183.24280  185.23630  143.19490    6.42530    9.47470    5.02820    0.01370    0.00670   -0.14740
 2436.50000   -9999.25   -9999.25   -9999.25   -9999.25  196.88930  201.19410   67.01820    4.89300    9.47490    5.23900    0.01380    0.00250   -0.14980
 2437.00000   -9999.25   -9999.25   -9999.25   -9999.25  221.03590  227.74120 1093.69790    4.81420    9.47500    5.08950    0.01230    0.00430   -0.15220
 2437.50000   -9999.25   -9999.25   -9999.25   -9999.25  219.05010  234.10710 1869.79350    7.04090    9.47520    4.84980    0.01230    0.01390   -0.15340
 2438.00000   -9999.25   -9999.25   -9999.25   -9999.25  176.83010  198.46340 1690.45130    8.84960    9.47270    4.70030    0.01080    0.01990   -0.15460
 2438.50000   -9999.25   -9999.25   -9999.25   -9999.25  118.63620  102.49430   27.78860   10.65830    9.44530    4.68090    0.00640    0.02170   -0.15400
 2439.00000   -9999.25   -9999.25   -9999.25   -9999.25   71.70700   76.77760   75.04120   11.26220    9.44020    4.73160    0.00490    0.02290   -0.14360
 2439.50000   -9999.25   -9999.25   -9999.25   -9999.25   68.72290   75.77620   17.17420   11.86610    9.41550    4.81220    0.00040    0.02350   -0.13960
 2440.00000   -9999.25   -9999.25   -9999.25   -9999.25   74.68800  118.46820   47.67440   10.96390    9.41570    4.86290    0.00040    0.02470   -0.13840
 2440.50000   -9999.25   -9999.25   -9999.25   -9999.25   94.43460  160.81070  192.03080   10.36300    9.41580    4.92350    0.00050    0.02590   -0.14520
 2441.00000   -9999.25   -9999.25   -9999.25   -9999.25  163.88160  178.62510 1324.30980   10.37620    9.41600    4.94410    0.00050    0.03610   -0.14180
 2441.50000   -9999.25   -9999.25   -9999.25   -9999.25  104.10140  161.59150  504.80430   10.72340    9.41610    4.88470    0.00150    0.05650   -0.12340
 2442.00000   -9999.25   -9999.25   -9999.25   -9999.25  101.32920  121.26550   80.72560   12.91640    9.41630    4.73510    0.00660    0.06910   -0.11120
 2442.50000   -9999.25   -9999.25   -9999.25   -9999.25  110.11460   98.37460   32.07070   17.29650    9.41640    4.51050    0.01060    0.06100   -0.10420
 2443.00000   -9999.25   -9999.25   -9999.25   -9999.25  118.02570  122.59870  291.39880   14.43140    9.41660    4.63120    0.01260    0.03370   -0.10930
 2443.50000   -9999.25   -9999.25   -9999.25   -9999.25  141.23440  182.86760  167.98170   11.41580    9.41670    4.90710    0.01270    0.01710   -0.12100
 2444.00000   -9999.25   -9999.25   -9999.25   -9999.25  183.56030  194.49260 1258.37120   10.07200    9.41690    5.08790    0.01270    0.01390   -0.13930
 2444.50000   -9999.25   -9999.25   -9999.25   -9999.25  173.81950  174.31390 1159.24650   12.25400    9.41700    5.15850    0.01040    0.02340   -0.14770
 2445.00000   -9999.25   -9999.25   -9999.25   -9999.25  162.34510  150.82520  363.60570   13.97110    9.41720    5.10910    0.00600    0.02710   -0.13750
 2445.50000   -9999.25   -9999.25   -9999.25   -9999.25  147.51010  144.67290   73.67700   14.29370    9.41730    5.03970    0.00300    0.02290   -0.12820
 2446.00000   -9999.25   -9999.25   -9999.25   -9999.25  135.88870  140.76180  153.43460   13.47610    9.41750    5.07030    0.00080    0.01950   -0.13780
 2446.50000   -9999.25   -9999.25   -9999.25   -9999.25  110.59440  126.18160 1245.76030   10.68250    9.41760    5.43130    0.00080    0.02120   -0.13560
