~Version ---------------------------------------------------
VERS.   2.0 : CWLS log ASCII Standard -VERSION 2.0
WRAP.    NO : One line per depth step
DLM . SPACE : Column Data Section Delimiter
~Well ------------------------------------------------------
STRT .F                  185.0 : START DEPTH
STOP .F                 4349.0 : STOP DEPTH
STEP .F                    0.5 : STEP
NULL .                -9999.25 : NULL VALUE
COMP .                         : COMPANY
WELL .                         : WELL
FLD  .                         : FIELD
LOC  .                         : LOCATION
PROV .                         : PROVINCE
CNTY .                         : COUNTY
STAT .                         : STATE
CTRY .                         : COUNTRY
SRVC .                         : SERVICE COMPANY
DATE .                         : DATE
UWI  .                         : UNIQUE WELL ID
API  .                         : API NUMBER
SLAT .WGS84 3.0948621706700976 : SURFACE LATITUDE
SLON .WGS84  8.486843216905001 : SURFACE LONGITUDE
DATUM.F                3951.47 : DEPTH DATUM ELEV
~Curve Information -----------------------------------------
DEPT.F     : 
DT  .US/F  : DELTA-T (INTERVAL TRANSIT TIME)
DTCO.US/F  : DELTA-T COMPRESSIONAL
DTL .US/F  : DELTA-T LONG SPACING
DTSM.US/F  : DELTA-T SHEAR
LLD .OHMM  : LATEROLOG DEEP RESISTIVITY
LLS .OHMM  : LATEROLOG SHALLOW RESISTIVITY
MSFL.OHMM  : MICRO SPHERICALLY FOCUSED RESISTIVITY
SGR .GAPI  : SPECTROSCOPY GAMMA RAY
CALD.IN    : CALIPER FROM DENSITY LOG
PEF .B/E   : PHOTOELECTRIC FACTOR
DRHO.G/C3  : BULK DENSITY CORRECTION
NPHI.DEC   : NEUTRON POROSITY
DPHI.DEC   : DENSITY POROSITY
~Params ----------------------------------------------------
~Other -----------------------------------------------------
~ASCII -----------------------------------------------------
# ...
 4163.00000   46.64330   53.70830   69.74230   92.44380  266.54270  217.75340  348.60420   60.17130    7.82620    3.23660    0.02400    0.08650   -0.04440
 4163.50000   47.54600   54.31040   69.77680   93.03750  261.26740  220.88670  148.37880   59.86940    7.82640    3.09740    0.03600    0.08380   -0.03220
 4164.00000   48.22320   54.82550   69.67440   93.33250  199.19960  216.97890   98.18120   56.86170    7.82650    3.01820    0.04200    0.08820   -0.02380
 4164.50000   48.44920   54.91520   69.71260   93.32750  132.17460  169.13140   79.89230   47.72570    7.86610    2.98900    0.04510    0.10050   -0.02260
 4165.00000   48.44960   55.41330   69.70270   93.32260   98.12670  125.58860   25.10770   40.71040    7.90920    3.18030    0.04210    0.10740   -0.02560
 4165.50000   48.14940   54.99300   69.69090   92.71800   85.39190   95.32740   41.84670   35.90350    7.94740    3.24120    0.04070    0.11020   -0.03160
 4166.00000   47.69870   54.80060   69.68110   92.11340   80.45380   84.22720   67.84830   34.46020    7.94760    3.24210    0.03580    0.11330   -0.03880
 4166.50000   47.24800   54.79460   69.67130   91.80860   76.15910   78.64570   35.97100   33.54000    7.94770    3.06280    0.02930    0.11500   -0.04000
 4167.00000   47.00780   54.78860   69.66150   91.80370   73.76740   76.54000   29.30300   33.02610    7.97800    2.88350    0.02290    0.11350   -0.04120
 4167.50000   47.36920   54.78260   69.65170   91.49890   73.45470   73.46920   38.68710   32.83030    8.00830    2.82430    0.01620    0.10720   -0.04120
 4168.00000   47.39970   54.77660   69.64190   91.19410   73.48230   73.50430   63.77100   37.15200    8.03860    2.94530    0.01170    0.09940   -0.03890
 4168.50000   47.24980   55.07050   64.58710   90.58950   75.92340   75.59870   71.64300   39.16650    8.06880    3.06630    0.00960    0.09100   -0.03830
 4169.00000   46.88930   55.06450   61.24400   89.68510   79.90500   81.04150   53.45430   37.58890    8.06900    3.20750    0.01040    0.08190   -0.04250
 4169.50000   46.52890   54.75750   59.52250   88.78060   97.65790   95.69270   32.72680   37.83170    8.06910    3.30840    0.01270    0.07230   -0.05330
 4170.00000   45.92790   54.45170   58.79200   87.86890  137.00210  126.19050  130.32330   45.67700    8.06930    3.30930    0.01270    0.06330   -0.07070
 4170.50000   45.47720   54.44580   58.42180   87.25530  213.20340  153.17650  380.87010   59.74910    8.09950    3.31020    0.01280    0.05610   -0.07730
 4171.00000   44.84610   53.84020   58.14180   86.66670  277.26840  219.44310  343.91190   72.07550    8.06960    3.34120    0.01130    0.04830   -0.08630
 4171.50000   44.21490   53.83430   57.86170   86.66170  355.63910  327.67440  195.82880   85.97170    8.03650    3.43210    0.00690    0.04350   -0.08810
 4172.00000   44.21540   53.52850   56.86090   87.00050  584.87710  482.57650  138.46790   72.37770    8.00960    3.52300    0.00690    0.04100   -0.08630
 4172.50000   44.66690   53.52260   54.05840   87.30450  837.81810  782.83260   33.37440   60.02940    7.97310    3.57410    0.00550    0.03860   -0.07950
 4173.00000   45.47940   53.51670   50.53500   87.60870 1358.96360 1218.37390   61.83980   46.79040    7.94970    3.61500    0.00710    0.03620   -0.07710
 4173.50000   45.66030   53.51070   46.64350   87.91290 1719.17430 1520.33840  160.24110   35.69680    7.94980    3.51580    0.01310    0.03200   -0.07670
 4174.00000   44.84870   53.20500   45.37410   88.13660 1947.46120 1828.65270  252.28030   25.98610    7.95000    3.43670    0.01910    0.02660   -0.07760
 4174.50000   44.39800   52.29950   45.00460   88.04050 2145.84380   -9999.25  406.59170   21.73410    7.95020    3.43760    0.02520    0.02290   -0.08480
 4175.00000   44.30830   51.99380   44.90990   87.82610 2990.12400   -9999.25  401.29660   18.99400    7.95030    3.55860    0.03120    0.02050   -0.09360
 4175.50000   44.30870   51.68800   44.99970   87.52120 3782.69510   -9999.25  321.98180   16.55420    8.01070    3.67960    0.03130    0.02000   -0.09900
 4176.00000   44.48960   51.38220   45.08230   87.51620 5127.41460   -9999.25   33.38830   13.94670    8.04100    3.74050    0.03130    0.02260   -0.10140
 4176.50000   44.85100   51.07650   45.25480   87.63950 6760.85400   -9999.25   11.57850   11.24960    8.04110    3.74140    0.03060    0.02610   -0.10380
 4177.00000   45.12210   50.76170   45.42740   88.54320 7764.87840   -9999.25   71.43290    9.37810    8.04130    3.74230    0.03060    0.02710   -0.10560
 4177.50000   45.21280   50.46480   45.59980   88.70070 9295.20020   -9999.25  266.15400    8.77600    7.95110    3.71310    0.03600    0.02640   -0.10800
 4178.00000   45.39370   50.78480   45.77240   87.02790 10529.18750   -9999.25  480.89500    8.17390    7.95120    3.66410    0.03980    0.02350   -0.11520
 4178.50000   45.39410   52.32070   45.92290   86.29190 11131.30180   -9999.25 1151.61080    7.87220    7.89110    3.58490    0.04060    0.01860   -0.12600
 4179.00000   45.21410   53.14590   45.86070   86.93610 11878.44630   -9999.25  700.90740    8.47130    7.89130    3.56570    0.03360    0.01450   -0.13020
 4179.50000   45.03410   53.13940   45.57600   88.67970 12557.71780   -9999.25   12.06470    8.77030    7.95170    3.61180    0.02170    0.01100   -0.12480
 4180.00000   44.85410   53.13340   45.26290   89.87420 13523.97360   -9999.25   66.53590    9.06890    7.95580    3.64270    0.01380    0.00970   -0.10860
 4180.50000   45.36590   52.62220   45.74110   91.06870 14767.72560   -9999.25   13.31300    9.36770    8.01960    3.68860    0.01380    0.01190   -0.09900
 4181.00000   45.57690   49.96220   46.32440   90.76390 17125.03320   -9999.25   14.19780    9.36630    8.07260    3.71940    0.01390    0.01590   -0.09550
 4181.50000   45.30660   48.31870   45.35480   89.85940 19656.79490   -9999.25   12.66830    9.96540    8.11000    3.81050    0.01090    0.01750   -0.10430
 4182.00000   44.58530   51.01140   44.78310   88.65510 21262.40040   -9999.25   16.29160   10.56450    8.16320    4.00160    0.00800    0.01470   -0.11490
 4182.50000   44.13460   50.90220   44.49100   87.75060 22066.80270   -9999.25  252.42320   11.76420    8.11220    4.17260    0.00800    0.01140   -0.11830
 4183.00000   44.13510   50.69870   44.48110   87.74570 21528.03520   -9999.25 1794.75460   14.16510    8.07320    3.93340    0.00510    0.01020   -0.11250
 4183.50000   44.16560   50.69270   44.74300   88.34050 17666.48630   -9999.25 1375.20070   15.37070    8.01310    3.69410    0.00370    0.01140   -0.10450
 4184.00000   44.40660   50.68670   44.91170   88.63540 13043.05080   -9999.25 1207.52990   16.27620    7.99760    3.51480    0.00870    0.01440   -0.09870
 4184.50000   44.40710   50.81690   44.94160   88.63050 9367.29590   -9999.25  284.08770   16.56310    7.98330    3.57570    0.01570    0.01920   -0.09700
 4185.00000   44.36240   50.97450   44.74930   88.62560 6871.65770   -9999.25   68.70410   14.15920    7.98350    3.78680    0.02530    0.02400   -0.09640
 4185.50000   44.09220   50.96850   44.42960   88.62070 4782.95070   -9999.25   25.12780   14.53650    7.98360    3.93780    0.04130    0.02640   -0.09550
 4186.00000   43.86710   50.96250   44.14960   88.61570 2955.72510   -9999.25    8.69710   15.40570    7.98380    4.05880    0.05780    0.02820   -0.09310
 4186.50000   43.77730   51.25640   44.04970   88.61070 2153.07670   -9999.25  717.52620   16.42840    7.98390    4.05970    0.06090    0.02940   -0.09620
 4187.00000   43.77770   51.84890   44.31020   88.60570 1201.72960 1744.17090 1246.39480   18.62140    7.98400    3.92050    0.05560    0.03120   -0.09740
 4187.50000   43.86850   51.84300   45.47150   89.26690  618.55880  990.64860 1180.32150   21.35740    7.98420    3.66120    0.03950    0.03300   -0.09410
 4188.00000   44.22980   52.13690   46.36270   90.18070  492.47770  503.81860  270.13380   25.51270    7.98430    3.28170    0.02860    0.04080   -0.07560
 4188.50000   44.86180   52.13100   46.53420   90.98990  488.13800  483.60500   96.11120   26.46120    7.98540    3.14750    0.02020    0.05220   -0.06720
