~Version ---------------------------------------------------
VERS.   2.0 : CWLS log ASCII Standard -VERSION 2.0
WRAP.    NO : One line per depth step
DLM . SPACE : Column Data Section Delimiter
~Well ------------------------------------------------------
STRT .F                  185.0 : START DEPTH
STOP .F                 4349.0 : STOP DEPTH
STEP .F                    0.5 : STEP
NULL .                -9999.25 : NULL VALUE
COMP .                         : COMPANY
WELL .                         : WELL
FLD  .                         : FIELD
LOC  .                         : LOCATION
PROV .                         : PROVINCE
CNTY .                         : COUNTY
STAT .                         : STATE
CTRY .                         : COUNTRY
SRVC .                         : SERVICE COMPANY
DATE .                         : DATE
UWI  .                         : UNIQUE WELL ID
API  .                         : API NUMBER
SLAT .WGS84 3.0948621706700976 : SURFACE LATITUDE
SLON .WGS84  8.486843216905001 : SURFACE LONGITUDE
DATUM.F                3951.47 : DEPTH DATUM ELEV
~Curve Information -----------------------------------------
DEPT.F     : 
DT  .US/F  : DELTA-T (INTERVAL TRANSIT TIME)
DTCO.US/F  : DELTA-T COMPRESSIONAL
DTL .US/F  : DELTA-T LONG SPACING
DTSM.US/F  : DELTA-T SHEAR
LLD .OHMM  : LATEROLOG DEEP RESISTIVITY
LLS .OHMM  : LATEROLOG SHALLOW RESISTIVITY
MSFL.OHMM  : MICRO SPHERICALLY FOCUSED RESISTIVITY
SGR .GAPI  : SPECTROSCOPY GAMMA RAY
CALD.IN    : CALIPER FROM DENSITY LOG
PEF .B/E   : PHOTOELECTRIC FACTOR
DRHO.G/C3  : BULK DENSITY CORRECTION
NPHI.DEC   : NEUTRON POROSITY
DPHI.DEC   : DENSITY POROSITY
~Params ----------------------------------------------------
~Other -----------------------------------------------------
~ASCII -----------------------------------------------------
# ...
 3695.00000   43.46990   50.47980   43.61710   86.20700  623.97130  409.52350  107.31550   56.59420    8.22740    3.26280    0.00040    0.02440   -0.08130
 3695.50000   43.67940   50.06240   43.43540   86.20390  446.78200  403.82470   69.04780   71.10720    8.22760    3.26380    0.00050    0.02350   -0.08430
 3696.00000   43.10690   49.28340   43.16380   86.12910  430.74900  476.50560   96.15050   75.98810    8.19760    3.14470    0.00050    0.02140   -0.09030
 3696.50000   42.59450   49.28490   42.80210   84.91070  550.54090  627.94140  126.70720   56.24150    8.19770    3.05570    0.00060    0.01720   -0.09510
 3697.00000   42.26230   49.28640   42.53050   83.79610  761.99010  783.03690  145.46900   43.32550    8.19790    3.08670    0.00160    0.01420   -0.09750
 3697.50000   41.99050   49.28790   42.16880   83.91290 1114.58700 1268.91320  119.95750   36.50580    8.19800    3.20790    0.00320    0.01110   -0.09650
 3698.00000   41.80900   49.28940   41.98730   85.12540 1594.25730 1403.78130  176.51480   33.03920    8.19820    3.38910    0.00370    0.01410   -0.09440
 3698.50000   41.89810   49.29090   41.80580   86.26190  904.12150  691.52030  197.13990   41.41590    8.19830    3.47040    0.00530    0.02900   -0.09380
 3699.00000   43.34060   49.29260   42.34500   87.55020  534.95230  465.08110  149.65910   59.59580    8.19850    3.49140    0.00680    0.03860   -0.09240
 3699.50000   44.15150   49.29410   43.78510   88.37070  299.06960  216.15570  143.62440   76.78540    8.19870    3.37230    0.00680    0.05620   -0.08940
 3700.00000   45.50380   50.49500   45.94590   88.67570  205.00120  144.55440   63.68310   81.98220    8.19880    3.27330    0.00690    0.05740   -0.08260
 3700.50000   45.95380   51.39600   45.87980   88.35680  250.26260  363.40700  153.99060   65.52240    8.19900    3.27430    0.00670    0.05320   -0.08080
 3701.00000   45.14060   50.19810   45.53170   86.53880  414.11580  606.23400  470.71780   55.10600    8.19910    3.27530    0.00660    0.04350   -0.08580
 3701.50000   43.69590   49.00020   44.45150   85.32020  683.49450  968.29110 1520.47490   46.95270    8.19930    3.33640    0.00640    0.03100   -0.09580
 3702.00000   42.70230   48.10210   42.89580   84.96550 1458.56380  988.23800 1019.91280   47.23110    8.19940    3.35760    0.00620    0.02050   -0.09760
 3702.50000   41.97940   48.10360   42.34160   85.10230 1076.95620  707.21810  596.02810   50.06670    8.19960    3.42870    0.00610    0.01710   -0.09770
 3703.00000   42.15870   49.60430   42.34820   86.60290  762.92110  426.95160  394.33240   53.72460    8.19970    3.41970    0.00590    0.01630   -0.09770
 3703.50000   43.96210   51.70470   45.12180   89.17830  509.76360  203.89480  339.02430   58.12570    8.19980    3.35580    0.00580    0.03320   -0.09770
 3704.00000   46.03630   52.60580   46.99560   91.87830  239.24570   87.80120  373.57990   69.01620    8.20000    3.31170    0.00590    0.07290   -0.09230
 3704.50000   48.50140   52.90710   49.45530   92.61870  106.76490   67.76390   40.44820   85.87980    8.20020    3.22270    0.00440    0.10350   -0.06710
 3705.00000   49.94370   54.64770   50.44590   93.04350   66.35460   82.18820   26.68390   78.96300    8.20030    3.20870   -0.00150    0.10770   -0.05870
 3705.50000   49.10020   53.44290   48.73370   92.44020   82.79990  220.44660  244.29140   56.73990    8.20050    3.16470   -0.00140    0.09570   -0.05810
 3706.00000   47.23440   52.23910   45.94050   90.63820  411.04440  474.87520  503.13010   45.00010    8.20060    3.16570   -0.00140    0.05790   -0.06740
 3706.50000   45.51910   51.03520   44.13820   87.93660  479.54230  457.43900  415.03480   31.23790    8.20080    3.16670   -0.00130    0.04050   -0.08360
 3707.00000   44.22480   50.73090   43.59730   87.33390  396.70000  367.35580  309.94600   28.78910    8.20090    3.22800   -0.00130    0.02660   -0.09760
 3707.50000   43.81760   49.82690   44.04730   87.33090  353.65190  340.45930  206.76840   31.38120    8.20110    3.34920   -0.00120    0.02840   -0.09480
 3708.00000   44.13240   49.22280   44.13690   87.32800  411.86000  436.43780  213.72810   31.47170    8.20120    3.38020   -0.00060    0.03320   -0.08660
 3708.50000   43.99590   48.61870   43.95630   86.72530  486.31800  583.13680  392.19120   27.60180    8.20140    3.35120    0.00190    0.03200   -0.08620
 3709.00000   43.72410   49.51380   43.77570   86.12270  558.59480  633.37880  718.18130   23.69640    8.20150    3.11200    0.00200    0.02720   -0.09180
 3709.50000   43.58760   50.70870   43.76360   85.81990  668.75120  687.94960 1461.75980   21.59280    8.21930    3.11300    0.00210    0.02420   -0.09780
 3710.00000   43.72180   50.70430   43.86490   86.11670  687.80470  493.78700 1404.88380   20.99080    8.23200    3.11400    0.00140    0.02300   -0.09780
 3710.50000   44.21680   50.99970   44.13470   86.41360  522.07360  430.01220  829.81900   24.59290    8.26220    3.18530   -0.00080    0.02440   -0.09550
 3711.00000   44.45640   50.69540   44.31440   87.31020  407.37310  330.71110  238.59490   26.69350    8.26240    3.20640   -0.00080    0.02920   -0.09430
 3711.50000   44.57560   50.09130   44.49970   88.20680  331.31730  500.42830  222.06650   28.49390    8.26250    3.20740    0.00030    0.03260   -0.09490
 3712.00000   44.51430   49.48710   44.67390   87.30380  360.10790  531.08440 1541.81880   29.39330    8.26270    3.16350    0.00180    0.02910   -0.09670
 3712.50000   43.91180   49.48270   43.75000   84.90210  530.34120  410.22000  335.37340   23.38580    8.26280    3.10440    0.00240    0.01890   -0.10030
 3713.00000   43.36930   49.77810   43.59190   85.79860  468.58560  273.15300  554.69740   23.98490    8.26300    3.00020    0.00250    0.01760   -0.10660
 3713.50000   43.66870   49.77360   44.01970   87.29490  314.11060  248.43020  726.65970   27.88730    8.26310    3.00130    0.00250    0.02510   -0.10460
 3714.00000   45.20140   49.76910   44.95150   87.89210  263.94680  322.30680  121.54910   32.69070    8.26330    3.00240    0.00260    0.04190   -0.09730
 3714.50000   46.19280   49.76460   46.13610   86.08960  352.26930  444.31760  125.18490   41.16540    8.26340    3.10350    0.00110    0.04760   -0.08830
 3715.00000   46.19170   49.76010   46.29290   84.88730  498.63030  558.40610 1438.71890   39.34100    8.26360    3.22470   -0.00030    0.03630   -0.08710
 3715.50000   45.10780   49.78800   45.76150   84.58440  636.99320  799.80180 1710.23230   30.45220    8.26370    3.27590   -0.00020    0.02000   -0.09730
 3716.00000   43.93380   50.65100   44.60030   84.58150  881.08330  948.32350  411.25150   21.99500    8.26390    3.27690   -0.00070    0.01520   -0.10220
 3716.50000   43.03040   50.64620   43.34050   84.87840 1160.49260  607.86510 1095.20100   19.77030    8.26400    3.18790   -0.00210    0.01420   -0.10660
 3717.00000   42.87900   50.64170   43.13780   85.17530  799.86830  516.83950  573.18290   24.78610    8.26420    3.12880   -0.00310    0.01550   -0.10030
 3717.50000   43.17860   50.27480   43.65680   85.17230  579.84840  509.64630  212.51620   28.44570    8.26430    3.31000   -0.00300    0.02160   -0.09100
 3718.00000   43.53840   49.73310   44.21320   84.86950  522.26900  545.96520  254.37410   29.37560    8.26450    3.37110   -0.00290    0.02640   -0.08680
 3718.50000   44.12680   49.72860   44.48780   84.86650  540.91060  580.77910  379.63150   27.30630    8.26460    3.31210   -0.00290    0.02830   -0.08930
 3719.00000   44.55860   49.42430   44.48740   84.86360  600.52080  635.50570  308.87190   25.36930    8.26480    3.26320   -0.00280    0.02890   -0.09150
 3719.50000   44.33190   48.93500   44.28210   84.86060  666.22160  779.38610  251.30120   24.34700    8.26490    3.35440   -0.00270    0.02830   -0.09000
 3720.00000   43.87970   48.51570   43.58550   84.85760  787.04030 1077.24560  380.25240   23.66370    8.26510    3.43550   -0.00270    0.02530   -0.08900
 3720.50000   43.47260   48.21140   43.58510   84.47110  960.23300 1482.20430  768.59520   23.66220    8.26520    3.43660   -0.00110    0.01870   -0.08980
