~Version ---------------------------------------------------
VERS.   2.0 : CWLS log ASCII Standard -VERSION 2.0
WRAP.    NO : One line per depth step
DLM . SPACE : Column Data Section Delimiter
~Well ------------------------------------------------------
STRT .F                  185.0 : START DEPTH
STOP .F                 4349.0 : STOP DEPTH
STEP .F                    0.5 : STEP
NULL .                -9999.25 : NULL VALUE
COMP .                         : COMPANY
WELL .                         : WELL
FLD  .                         : FIELD
LOC  .                         : LOCATION
PROV .                         : PROVINCE
CNTY .                         : COUNTY
STAT .                         : STATE
CTRY .                         : COUNTRY
SRVC .                         : SERVICE COMPANY
DATE .                         : DATE
UWI  .                         : UNIQUE WELL ID
API  .                         : API NUMBER
SLAT .WGS84 3.0948621706700976 : SURFACE LATITUDE
SLON .WGS84  8.486843216905001 : SURFACE LONGITUDE
DATUM.F                3951.47 : DEPTH DATUM ELEV
~Curve Information -----------------------------------------
DEPT.F     : 
DT  .US/F  : DELTA-T (INTERVAL TRANSIT TIME)
DTCO.US/F  : DELTA-T COMPRESSIONAL
DTL .US/F  : DELTA-T LONG SPACING
DTSM.US/F  : DELTA-T SHEAR
LLD .OHMM  : LATEROLOG DEEP RESISTIVITY
LLS .OHMM  : LATEROLOG SHALLOW RESISTIVITY
MSFL.OHMM  : MICRO SPHERICALLY FOCUSED RESISTIVITY
SGR .GAPI  : SPECTROSCOPY GAMMA RAY
CALD.IN    : CALIPER FROM DENSITY LOG
PEF .B/E   : PHOTOELECTRIC FACTOR
DRHO.G/C3  : BULK DENSITY CORRECTION
NPHI.DEC   : NEUTRON POROSITY
DPHI.DEC   : DENSITY POROSITY
~Params ----------------------------------------------------
~Other -----------------------------------------------------
~ASCII -----------------------------------------------------
# ...
 3227.00000   55.19230   60.58470   55.48920  107.26590  114.02370  121.37130  164.61470   21.92190    9.85540    4.83150    0.00250    0.02400   -0.11730
 3227.50000   55.27990   60.52730   55.50300  106.01140  112.26010  106.21370   63.39860   23.12310    9.79520    4.98270    0.00250    0.02700   -0.10950
 3228.00000   53.02160   60.26990   53.41760  103.90350  124.75670  108.53760   23.58520   20.64070    9.73490    4.83360    0.00260    0.02270   -0.10770
 3228.50000   51.21440   60.26240   51.61720  101.43300  163.60730  174.93420  881.43730   15.02350    9.67220    4.41420    0.00260    0.01170   -0.13050
 3229.00000   50.21870   59.55480   50.53640   99.14530  323.26010  346.04830  487.03300    9.52140    9.60950    4.79580    0.00260   -0.00080   -0.15150
 3229.50000   49.61460   56.55930   49.90540   97.87300  741.67020  615.41600  868.77530    7.77660    9.49400    5.13720    0.00220   -0.00370   -0.15450
 3230.00000   49.25100   56.34180   49.45430   96.51190 1394.67900  993.27310 1660.33830    7.20720    9.48390    5.42850    0.00120   -0.00240   -0.15630
 3230.50000   48.88750   56.11430   49.08700   95.20970 1584.60520 1106.53310 1706.17930    7.75290    9.39730    5.31920    0.00270    0.00030   -0.14670
 3231.00000   48.43360   55.00740   48.71990   94.29790  682.56340  869.56670  175.32860   10.02600    9.32830    4.43450    0.00270    0.00510   -0.13830
 3231.50000   47.25800   54.09040   47.85780   92.98750  526.39940  512.02420  125.88310   10.81080    9.24420    4.09030    0.00500    0.01010   -0.13470
 3232.00000   46.47340   53.17340   46.78030   91.65860  475.13640  447.50130 1037.55690   11.11110    9.13250    3.91110    0.00580    0.01810   -0.13440
 3232.50000   45.77880   52.70610   45.87930   90.31020  500.26270  462.51610  339.63990   11.28130    9.10990    3.80700    0.00580    0.01970   -0.12700
 3233.00000   45.41520   52.69870   45.48820   89.32320  582.60180  526.25810  622.49290   13.96520    9.01200    3.70300    0.00590    0.02090   -0.11420
 3233.50000   45.32230   52.39130   45.48680   88.53830  618.51520  571.98990  432.29990   17.02280    8.98440    3.60390    0.00590    0.02090   -0.10660
 3234.00000   45.31960   52.38230   45.39550   88.37180  621.70200  604.76120  357.88910   18.01800    8.89160    3.42480    0.00590    0.01910   -0.10520
 3234.50000   45.31700   52.37500   45.27720   88.36880  666.45980  648.30070  635.72460   17.53340    8.87530    3.44580    0.00600    0.01670   -0.11080
 3235.00000   45.31440   52.66740   45.12290   88.36580  820.22990  755.00710 1026.21250   15.09520    8.83130    3.64720    0.00600    0.01490   -0.11290
 3235.50000   45.17630   52.95990   45.03160   88.36280 1081.63870 1009.47520 1333.16530   13.67470    8.77110    3.88850    0.00600    0.01370   -0.10900
 3236.00000   44.94810   53.25240   44.99430   88.05940 1312.94600 1112.45430 1248.49440   13.36140    8.77110    4.06970    0.00600    0.01250   -0.10630
 3236.50000   44.61440   53.84470   44.72010   87.75660 1487.39560 1160.06080  811.12760   13.97100    8.77110    4.07070    0.00760    0.01190   -0.10550
 3237.00000   44.40120   53.23760   44.57780   88.35380 1616.64700 1209.70460  825.54760   14.28030    8.77110    3.95160    0.00910    0.00950   -0.10550
 3237.50000   44.45860   51.73100   44.57650   87.75070 1709.26670 1279.01280 1088.40580   14.89000    8.77110    3.83250    0.00760    0.00710   -0.10790
 3238.00000   44.57630   51.72360   44.66510   88.04760 2281.34250 1429.08630 1807.05270   16.51650    8.77110    3.80350    0.00770    0.00770   -0.11690
 3238.50000   44.78410   52.91570   44.85560   89.54390 2461.56790 1618.97080 1673.47070   18.91890    8.77110    3.83460    0.00770    0.01430   -0.12130
 3239.00000   45.41300   53.10880   45.38170   88.94120 2054.01710 1280.84790  711.77370   21.02100    8.77110    3.93590    0.00770    0.01850   -0.11650
 3239.50000   45.53070   51.40170   45.41360   88.33860  758.31140  559.60940  233.14370   22.82280    8.77110    3.95700    0.00770    0.01900   -0.10730
 3240.00000   44.92600   51.69420   45.01930   88.33560  359.89990  340.56540  125.05510   24.92490    8.77110    3.95800    0.00780    0.01710   -0.09890
 3240.50000   44.56250   51.68670   44.74810   88.33270  549.78230  442.94640  617.15470   25.29630    8.77110    3.79880    0.00780    0.01340   -0.09770
 3241.00000   44.28910   51.65890   44.47690   88.32970 1036.25450  661.41160 1455.24270   22.82280    8.77110    3.59980    0.00710    0.00930   -0.10070
 3241.50000   44.19620   51.37180   44.29560   88.32680 1943.61660 1283.91250 1814.31690   18.31830    8.77110    3.60070    0.00640    0.00690   -0.10850
 3242.00000   43.92290   51.36430   44.11440   88.32380 2989.64580 1873.72790 1838.65440   14.41440    8.77110    3.70690    0.00240    0.00510   -0.11570
 3242.50000   43.73980   51.35680   43.84320   88.31340 6144.34180 1927.11690 1838.02810   13.21320    8.77110    3.84310    0.00050    0.00430   -0.12540
 3243.00000   43.46640   51.34930   43.57200   87.70120 9262.99020 1945.82040 1837.40200   13.21320    8.77110    4.04430    0.00050    0.00260   -0.13080
 3243.50000   43.28330   51.34180   43.39080   87.41540 7119.48290 1920.05350 1836.77600   13.81380    8.77110    4.18550    0.00500    0.00220   -0.12180
 3244.00000   43.46110   51.33430   43.92920   88.38370 4631.72900 1802.00060 1836.15040   14.41440    8.77110    4.04640    0.00800    0.00350   -0.10980
 3244.50000   43.90950   51.71660   44.64750   89.64500 2464.29960 1555.65810 1818.77500   14.11410    8.82470    3.66710    0.01250    0.01000   -0.10200
 3245.00000   45.17000   52.81830   45.63570   90.92370 2163.82080 1339.38170 1478.89340   17.22840    8.82530    3.51810    0.01260    0.02380   -0.09900
 3245.50000   46.97190   53.71200   47.09730   92.99410 1418.12940  755.22440  123.92650   24.57160    8.82590    3.60920    0.01560    0.04860   -0.09420
 3246.00000   47.78120   54.00450   47.88190   94.81890  182.99760  104.70200   19.17940   35.05820    8.82650    3.61020    0.01710    0.06680   -0.08640
 3246.50000   47.68830   53.86570   47.46650   95.79350  113.01100   97.26950   99.69690   34.01110    8.82710    3.61130    0.01270    0.06800   -0.07620
 3247.00000   46.87360   53.38830   46.76350   94.12570  222.72720  158.81230  424.06620   28.15980    8.82770    3.67240    0.00970    0.05120   -0.08170
 3247.50000   46.32960   53.38080   46.43850   92.28390  768.97970  337.09120 1374.22070   23.58330    8.82830    3.73340    0.00670    0.01960   -0.10030
 3248.00000   46.56710   53.37330   46.58110   91.88610 1298.04750  932.86790 1781.46300   19.92740    8.82890    3.97470    0.00680    0.00340   -0.12110
 3248.50000   46.92530   53.02570   46.94860   91.88310 1375.63040 1207.48790 1805.58470   19.51950    8.82950    4.21600    0.00680    0.00090   -0.13210
 3249.00000   47.40390   51.85760   47.31590   92.47980 1414.82150 1406.23320 1174.72600   26.04670    8.83010    4.06700    0.00600    0.00210   -0.13490
 3249.50000   47.79220   53.04960   47.77340   92.47680 1142.68080 1189.17900  170.73230   31.02210    8.83080    4.15820    0.00320    0.00630   -0.13230
 3250.00000   48.06020   53.94180   48.23110   92.17390  755.47750  828.58120  965.56780   27.83010    8.83140    4.47950    0.00090    0.00690   -0.13050
 3250.50000   47.75660   54.83400   47.77070   91.39260  499.69180  536.01210 1753.86350   20.99450    8.83200    4.66070    0.00090    0.01410   -0.12950
 3251.00000   46.88180   53.92710   47.05880   90.49970  463.29030  462.30040  230.99800   20.42040    8.83260    4.52170    0.00100    0.02130   -0.11740
 3251.50000   45.94660   53.32000   45.86100   89.46570  423.67020  410.43330  701.20850   20.54750    8.83320    4.14730    0.00100    0.02550   -0.10330
 3252.00000   45.58300   52.71290   45.83870   89.46270  392.08510  369.25170  649.25330   21.29300    8.83380    3.83310    0.00100    0.02610   -0.09550
 3252.50000   45.67070   53.60510   46.29010   90.65920  359.36840  352.77090  441.16550   22.81270    8.83430    3.62380    0.00110    0.02130   -0.09430
