~Version ---------------------------------------------------
VERS.   2.0 : CWLS log ASCII Standard -VERSION 2.0
WRAP.    NO : One line per depth step
DLM . SPACE : Column Data Section Delimiter
~Well ------------------------------------------------------
STRT .F                  185.0 : START DEPTH
STOP .F                 4349.0 : STOP DEPTH
STEP .F                    0.5 : STEP
NULL .                -9999.25 : NULL VALUE
COMP .                         : COMPANY
WELL .                         : WELL
FLD  .                         : FIELD
LOC  .                         : LOCATION
PROV .                         : PROVINCE
CNTY .                         : COUNTY
STAT .                         : STATE
CTRY .                         : COUNTRY
SRVC .                         : SERVICE COMPANY
DATE .                         : DATE
UWI  .                         : UNIQUE WELL ID
API  .                         : API NUMBER
SLAT .WGS84 3.0948621706700976 : SURFACE LATITUDE
SLON .WGS84  8.486843216905001 : SURFACE LONGITUDE
DATUM.F                3951.47 : DEPTH DATUM ELEV
~Curve Information -----------------------------------------
DEPT.F     : 
DT  .US/F  : DELTA-T (INTERVAL TRANSIT TIME)
DTCO.US/F  : DELTA-T COMPRESSIONAL
DTL .US/F  : DELTA-T LONG SPACING
DTSM.US/F  : DELTA-T SHEAR
LLD .OHMM  : LATEROLOG DEEP RESISTIVITY
LLS .OHMM  : LATEROLOG SHALLOW RESISTIVITY
MSFL.OHMM  : MICRO SPHERICALLY FOCUSED RESISTIVITY
SGR .GAPI  : SPECTROSCOPY GAMMA RAY
CALD.IN    : CALIPER FROM DENSITY LOG
PEF .B/E   : PHOTOELECTRIC FACTOR
DRHO.G/C3  : BULK DENSITY CORRECTION
NPHI.DEC   : NEUTRON POROSITY
DPHI.DEC   : DENSITY POROSITY
~Params ----------------------------------------------------
~Other -----------------------------------------------------
~ASCII -----------------------------------------------------
# ...
 3929.00000   49.02260   53.83150   49.03520   93.56680   64.21360  104.31210   15.83480   21.32130    8.32800    3.01650    0.05840    0.16030    0.04040
 3929.50000   48.93230   54.42680   49.12570   93.56760   52.84900   67.69600   11.64440   21.62160    8.14750    3.01730    0.10730    0.16570    0.04760
 3930.00000   49.06770   54.72260   49.30630   93.86820   47.55680   45.80430    8.40620   21.92190    7.90660    2.89790    0.12640    0.16390    0.04660
 3930.50000   49.51880   54.71780   49.48700   93.86890   45.62210   40.97400    6.17780   22.52250    7.99710    2.86860    0.11440    0.15010    0.03020
 3931.00000   50.06020   53.81380   50.02800   93.86970   50.34280   42.44550   17.13000   27.62760    8.11780    2.86930    0.09050    0.13870    0.00800
 3931.50000   50.55640   52.61000   50.92930   93.87040   60.65400   48.45310   34.96940   40.54050    8.23840    2.88010    0.06960    0.13260   -0.00460
 3932.00000   50.91730   52.28210   51.47030   94.77070   70.08160   56.14550   73.66790   41.44140    8.30200    2.90090    0.05170    0.14830   -0.00700
 3932.50000   51.23310   53.80050   51.56080   95.37110   68.67830   61.87730  108.43750   38.03360    8.35920    2.94170    0.02480    0.16340    0.00320
 3933.00000   51.59400   54.09300   51.74140   96.57130   62.76830   65.40670   43.07430   33.97470    8.39490    3.02260    0.01280    0.17190    0.02170
 3933.50000   51.95490   53.42290   51.83200   96.27210   61.06950   61.66190   28.89370   23.42340    8.42700    3.02330    0.01290    0.17790    0.03910
 3934.00000   52.28860   52.21400   51.73640   95.37330   61.51080   54.72270   55.26840   17.41740    8.45930    2.93390    0.01540    0.18140    0.04450
 3934.50000   51.95490   50.95980   51.18120   95.07420   64.87720   52.76840   46.86590   20.12010    8.48030    2.90460    0.02000    0.18400    0.04570
 3935.00000   51.06780   49.24540   50.53470   94.17540   69.87180   54.53050   40.85200   23.12310    8.48040    2.90540    0.02720    0.18760    0.04450
 3935.50000   48.87240   48.04110   49.62260   92.96970   83.43010   60.95950   50.26560   26.12610    8.48060    2.90620    0.03470    0.18720    0.04270
 3936.00000   47.72940   46.83650   47.81600   91.42960  105.86340   72.35310   25.59140   28.22820    8.48070    2.94690    0.03710    0.18110    0.03210
 3936.50000   46.16560   46.29690   46.12480   89.01890  129.15390   91.15480   43.83930   29.73560    8.48090    3.02780    0.03710    0.16870    0.01350
 3937.00000   45.35340   47.10650   45.70610   87.88150  177.00000  124.57040   66.33480   30.94500    8.48100    3.05860    0.03270    0.14850   -0.00850
 3937.50000   45.62420   48.32100   45.94610   88.85680  293.30380  173.61230   89.89070   31.83180    8.48120    3.14940    0.02370    0.11260   -0.03110
 3938.00000   47.24850   49.83520   47.52890   90.76560  421.04520  270.22290  115.27520   29.52500    8.48130    3.18020    0.01630    0.08000   -0.05010
 3938.50000   49.74440   50.96460   49.99030   92.79060  486.47810  456.92580  179.30380   25.22520    8.48150    3.18090    0.01180    0.07430   -0.05730
 3939.00000   51.05260   51.96380   51.92710   93.94460  367.70860  418.03410  548.09540   25.88400    8.48160    3.18170    0.00740    0.08250   -0.05590
 3939.50000   52.58010   52.89360   53.00860   94.92490  254.67700  274.22100  324.74920   26.42640    8.48180    3.15230    0.00740    0.13260   -0.03590
 3940.00000   53.22440   53.09370   53.36940   95.84210  180.78970  165.19210  200.54130   26.12610    8.48190    3.15310    0.00750    0.16140    0.00360
 3940.50000   52.63160   53.89790   52.64920   97.05930  135.70280  123.66020  128.61930   26.12610    8.48210    3.03380    0.00750    0.18480    0.03600
 3941.00000   52.04510   54.20310   52.10910   97.78260  122.35930   90.04850   43.83060   26.63030    8.48220    2.93440    0.01360    0.20400    0.05220
 3941.50000   52.13530   54.80760   52.37980   97.78340  109.59210   78.46640   28.95500   28.41830    8.47460    2.90510    0.02410    0.19680    0.04740
 3942.00000   52.45110   55.29240   52.58140   98.08400   91.73770   70.28870   53.87580   38.64640    8.41270    2.88590    0.03960    0.18480    0.03540
 3942.50000   52.36090   55.29240   52.47070   98.68440   65.52450   61.24810  319.41960   49.88070    8.36220    2.88670    0.05260    0.17880    0.03540
 3943.00000   52.31580   56.02190   52.38110   98.98500   40.98490   46.48690  195.80700   39.58240    8.33540    2.88740    0.07360    0.17340    0.04260
 3943.50000   52.09020   56.49180   52.29140   99.40430   30.38920   34.32210    8.93810   29.63120    8.24200    2.90310    0.10060    0.18540    0.04730
 3944.00000   51.93990   57.53130   51.93160  100.48580   27.45100   29.49740    6.53540   23.58050    8.14740    2.91890    0.12830    0.18900    0.05090
 3944.50000   51.66920   57.83610   51.75180   99.71720   26.58600   26.42320    7.46890   20.72070    8.00140    2.91970    0.14260    0.19200    0.05170
 3945.00000   51.42860   58.29090   51.30180   98.19330   25.86890   25.01360    6.61080   18.91890    7.88100    2.92040    0.15390    0.19200    0.04690
 3945.50000   51.21810   57.98100   51.03200   96.96930   25.63870   25.02380    5.44970   18.31830    7.82090    2.95130    0.15770    0.19320    0.04770
 3946.00000   50.85720   57.37120   50.49190   95.09160   26.85450   25.38210    4.77930   18.01800    7.88130    2.98200    0.16020    0.20190    0.05290
 3946.50000   50.07540   56.32690   49.77160   93.29320   27.99800   27.96950    4.95140   18.91890    8.00200    3.01280    0.15950    0.20480    0.05630
 3947.00000   48.87230   55.42220   49.04220   91.79470   31.27670   32.12420    5.61370   18.91890    8.00210    2.98350    0.15180    0.20630    0.05630
 3947.50000   47.60920   54.21780   47.76370   90.59610   41.23630   36.89600   19.82770   21.32130    8.12270    2.92420    0.12790    0.19390    0.04910
 3948.00000   46.25580   52.59370   46.38580   89.09760   60.71760   51.35230   39.90380   25.82580    8.18550    2.86480    0.10700    0.16770    0.03200
 3948.50000   44.72200   50.49480   45.12950   87.59900   90.64540   79.86320   68.35710   27.02700    8.24350    2.86560    0.08610    0.12850    0.01400
 3949.00000   43.87980   49.89510   44.24680   86.70020  133.46910  111.85870  142.62000   27.02700    8.24370    2.94650    0.06670    0.11030   -0.01750
 3949.50000   43.60900   49.89510   43.99580   85.80140  219.47810  154.29770  217.77390   27.02700    8.24380    3.07740    0.03830    0.08410   -0.05290
 3950.00000   43.51880   50.19490   43.82890   85.80220  360.91240  205.53840  315.43640   26.42640    8.24400    3.18820    0.01440    0.06610   -0.06770
 3950.50000   43.69920   50.49480   43.91940   85.80290  420.23030  265.39100  406.32610   26.11540    8.17820    3.28910   -0.00360    0.05850   -0.07990
 3951.00000   43.96990   51.39430   44.00990   86.40330  780.48180  310.55170  493.50690   25.82580    8.11000    3.21470   -0.00250    0.05460   -0.08350
 3951.50000   44.42110   51.69420   44.28070   87.00380  433.72530  364.08940  747.60000   25.85870    8.01780    3.17040    0.00250    0.05490   -0.08510
 3952.00000   44.69170   51.69420   45.09190   87.60420  346.78450  313.62180  476.24290   26.90250    8.00360    3.09600    0.00710    0.05910   -0.07930
 3952.50000   45.05260   50.49480   45.54280   88.20470  337.30240  250.98110  407.43670   28.28320    8.00380    3.05170    0.00860    0.07050   -0.07280
 3953.00000   45.32330   50.19490   45.45320   89.40740  349.32060  230.98790  287.19620   28.82880    8.03410    3.03250    0.00870    0.08130   -0.06680
 3953.50000   45.14290   49.89510   44.91160   90.30510  404.19540  229.48720  110.97920   28.90590    8.06430    3.02330    0.00340    0.09400   -0.05900
 3954.00000   44.60150   50.19490   44.64020   88.15250  457.58910  251.86690  129.22510   28.52850    8.12470    3.05400   -0.00220    0.09880   -0.04820
 3954.50000   44.33080   50.49480   44.45830   87.00820  497.10890  336.15550  368.70020   28.03000    8.12490    3.05490   -0.00320    0.10110   -0.03800
