~Version ---------------------------------------------------
VERS.   2.0 : CWLS log ASCII Standard -VERSION 2.0
WRAP.    NO : One line per depth step
DLM . SPACE : Column Data Section Delimiter
~Well ------------------------------------------------------
STRT .F                  185.0 : START DEPTH
STOP .F                 4349.0 : STOP DEPTH
STEP .F                    0.5 : STEP
NULL .                -9999.25 : NULL VALUE
COMP .                         : COMPANY
WELL .                         : WELL
FLD  .                         : FIELD
LOC  .                         : LOCATION
PROV .                         : PROVINCE
CNTY .                         : COUNTY
STAT .                         : STATE
CTRY .                         : COUNTRY
SRVC .                         : SERVICE COMPANY
DATE .                         : DATE
UWI  .                         : UNIQUE WELL ID
API  .                         : API NUMBER
SLAT .WGS84 3.0948621706700976 : SURFACE LATITUDE
SLON .WGS84  8.486843216905001 : SURFACE LONGITUDE
DATUM.F                3951.47 : DEPTH DATUM ELEV
~Curve Information -----------------------------------------
DEPT.F     : 
DT  .US/F  : DELTA-T (INTERVAL TRANSIT TIME)
DTCO.US/F  : DELTA-T COMPRESSIONAL
DTL .US/F  : DELTA-T LONG SPACING
DTSM.US/F  : DELTA-T SHEAR
LLD .OHMM  : LATEROLOG DEEP RESISTIVITY
LLS .OHMM  : LATEROLOG SHALLOW RESISTIVITY
MSFL.OHMM  : MICRO SPHERICALLY FOCUSED RESISTIVITY
SGR .GAPI  : SPECTROSCOPY GAMMA RAY
CALD.IN    : CALIPER FROM DENSITY LOG
PEF .B/E   : PHOTOELECTRIC FACTOR
DRHO.G/C3  : BULK DENSITY CORRECTION
NPHI.DEC   : NEUTRON POROSITY
DPHI.DEC   : DENSITY POROSITY
~Params ----------------------------------------------------
~Other -----------------------------------------------------
~ASCII -----------------------------------------------------
# ...
 4059.00000   63.04450   52.48540   47.06390   91.76530  368.67320  399.96860   95.28920   24.44740    8.15640    3.43810    0.00740    0.05040   -0.06160
 4059.50000   63.22450   52.17960   46.88330   92.06000  472.89570  469.38260  337.70900   24.57900    8.15650    3.46980    0.01040    0.04860   -0.07240
 4060.00000   63.40450   52.47380   47.24320   92.11400  479.66720  476.16560  197.23610   25.90560    8.15660    3.47140    0.01050    0.04810   -0.07540
 4060.50000   63.49430   52.46770   50.03550   92.04750  447.85010  465.69310  147.75330   28.18780    8.15680    3.35290    0.00760    0.05240   -0.07360
 4061.00000   62.77210   51.86200   54.71980   91.74180  418.14350  442.92860  261.66570   29.70070    8.15690    3.21460    0.00460    0.05410   -0.07060
 4061.50000   61.68890   50.05700   58.23280   91.13620  406.92000  419.38480  234.83720   30.14560    8.15710    3.11610    0.00170    0.05090   -0.07190
 4062.00000   61.50790   50.98260   60.21440   90.83050  430.20430  408.32650  167.50250   29.26660    8.15720    3.08770   -0.00120    0.04000   -0.07450
 4062.50000   61.92870   52.46870   63.00670   92.32380  567.27340  491.68790  689.58460   23.38580    8.15740    3.11940   -0.00420    0.03580   -0.07490
 4063.00000   63.73290   53.37120   64.98830   93.54120  559.72310  562.79350 1420.23830   22.63380    8.12740    3.28630   -0.00210    0.03790   -0.07330
 4063.50000   65.59700   53.63160   66.24910   94.43470  442.79420  468.95370  610.91690   25.77980    8.09740    3.45310   -0.00050    0.06510   -0.04830
 4064.00000   66.55890   53.62520   66.69910   94.74070  345.48850  369.93740  222.27000   27.53160    8.03730    3.48470    0.00210    0.08560   -0.02780
 4064.50000   66.19740   53.98000   66.15810   94.60290  255.28510  307.45090  189.04860   28.03480    8.03750    3.39620    0.00360    0.09390   -0.02440
 4065.00000   65.20450   54.21360   64.89030   93.37310  224.41530  258.96130  180.49370   26.50150    8.03210    3.20780    0.00820    0.09480   -0.02640
 4065.50000   64.43710   53.60720   63.97900   91.91630  204.73300  209.11900  108.25120   24.91130    7.97750    3.12920    0.01270    0.09270   -0.03440
 4066.00000   63.76000   53.03740   63.24740   91.29840  202.97590  188.44270  144.96600   25.34780    8.01610    3.13090    0.00980    0.08630   -0.04560
 4066.50000   62.99270   51.09930   62.53440   90.68050  234.44750  210.76460  133.24040   27.55910    8.03810    3.23260    0.00740    0.07520   -0.05370
 4067.00000   62.31550   49.99100   61.97660   90.36280  311.11520  254.62750  228.99980   28.02700    8.06010    3.37460    0.00290    0.05850   -0.06210
 4067.50000   61.53310   49.98500   61.51800   89.44530  413.82660  343.46580  303.23100   27.58000    8.11090    3.43630    0.00150    0.04440   -0.07410
 4068.00000   60.78080   49.97900   60.98620   89.12750  562.56010  488.60750  378.31180   27.12310    8.15900    3.49800    0.00110    0.03590   -0.08700
 4068.50000   60.63000   50.10580   60.72970   88.95350  733.51290  638.26230  625.83340   27.12160    8.15920    3.49960    0.00260    0.03350   -0.09160
 4069.00000   60.44910   50.70880   60.56850   88.94750  875.42860  784.90530  697.70840   28.08560    8.09910    3.50120    0.00270    0.03230   -0.09190
 4069.50000   60.56890   51.01150   60.56800   88.94150  931.59720  922.29360  970.29300   29.22070    8.03900    3.50280    0.00430    0.03170   -0.09220
 4070.00000   60.86910   51.15440   60.80180   88.93440  894.15910  935.46880 1012.86790   28.01770    8.00910    3.50440    0.00880    0.03160   -0.09250
 4070.50000   61.41000   51.91710   61.49470   88.92850  852.38100  885.74410  129.56780   25.01320    7.97910    3.56610    0.01040    0.03160   -0.09250
 4071.00000   62.13140   52.51970   62.49690   89.22240  818.12650  812.28290   94.49420   24.41110    7.91900    3.62780    0.01500    0.03160   -0.09210
 4071.50000   62.85280   53.23540   63.19270   90.41600  785.24850  751.41210  131.74400   25.61090    7.91910    3.68970    0.01500    0.03220   -0.07640
 4072.00000   63.21320   53.52920   63.77800   91.30960  738.32860  708.15700  116.28330   27.11090    7.91930    3.65520    0.01810    0.03760   -0.05400
 4072.50000   63.30300   53.52230   64.46850   92.20330  669.15080  667.48860   54.81460   28.91120    7.91940    3.59280    0.01860    0.05080   -0.04600
 4073.00000   63.57320   53.51640   65.10640   92.79710  599.41220  632.00840  119.63520   28.30910    7.91960    3.42440    0.02020    0.06340   -0.04540
 4073.50000   63.93370   53.21060   65.38480   93.39100  551.97740  598.41410  176.11620   24.70400    7.91970    3.39600    0.02130    0.07120   -0.04240
 4074.00000   64.20390   52.90490   64.69850   93.08520  494.45070  558.83520 1064.84500   22.30010    7.95000    3.39760    0.02140    0.07240   -0.03990
 4074.50000   63.84260   52.59910   63.87730   92.77950  446.94760  507.65850  200.93740   19.89630    7.98030    3.47430    0.02060    0.07300   -0.03990
 4075.00000   63.57150   52.59320   63.73130   92.77360  413.40450  461.16850  178.60570   18.69360    7.98290    3.52100    0.01700    0.07420   -0.03870
 4075.50000   64.26290   52.58730   64.34630   92.76760  382.47110  430.66700  118.63220   18.39180    8.04080    3.52270    0.01330    0.07480   -0.03630
 4076.00000   65.37500   51.98170   65.51700   92.43790  353.82120  370.20450   83.11770   18.09000    8.04100    3.52430    0.01180    0.07720   -0.03270
 4076.50000   65.07380   51.07620   64.88600   91.52040  330.35170  327.14150  120.44800   18.08850    8.04110    3.42580    0.01520    0.07950   -0.02430
 4077.00000   64.23120   49.87090   64.34500   90.85440  349.25470  331.89420  149.19100   18.08700    8.04130    3.24730    0.01780    0.08130   -0.01840
 4077.50000   63.44880   49.26530   63.44360   90.04500  418.10080  365.80160   85.04490   18.38590    8.04140    3.04890    0.02180    0.08190   -0.01780
 4078.00000   62.69650   49.55930   62.63240   89.36730  528.94150  420.22570   51.80210   18.98500    8.04160    3.05060    0.02190    0.07750   -0.02200
 4078.50000   61.58330   49.91700   62.18150   88.74970  669.16680  569.74900   15.83600   20.18470    8.04170    3.23230    0.02200    0.06240   -0.03880
 4079.00000   61.35730   52.31200   62.00090   88.52870 1131.35290 1032.33730   38.29540   21.39030    8.04190    3.38410    0.02200    0.03830   -0.05200
 4079.50000   61.71780   53.43960   62.18060   89.44590 1886.53500 1629.25710  140.05190   22.28380    8.04200    3.41580    0.02060    0.02330   -0.07120
 4080.00000   62.30370   53.47310   62.63060   90.55460 1994.48400 1978.04800  243.26400   22.60250    8.04220    3.41740    0.01620    0.01920   -0.08800
 4080.50000   63.11530   53.72760   63.44100   92.03630 2023.04370 1979.26430  138.30460   23.18170    8.04230    3.41900    0.01320    0.01760   -0.08800
 4081.00000   64.28780   54.07890   64.52160   93.74500 1862.94890 1800.73660  125.65750   23.18020    8.01230    3.42060    0.01030    0.01850   -0.08680
 4081.50000   65.52040   54.38170   65.60220   94.49480 1319.63430 1386.03480  146.32710   23.47910    7.98240    3.42250    0.00440    0.02740   -0.07880
 4082.00000   65.88090   54.60940   65.87390   93.72100  896.84050  997.55750  122.39060   22.87690    7.98260    3.40410    0.00150    0.03960   -0.07040
 4082.50000   65.48950   54.60270   65.23810   92.38260  690.16030  755.85780   86.75920   22.87540    7.98270    3.29560   -0.00150    0.04920   -0.06200
 4083.00000   64.70720   53.60330   64.31660   91.17740  593.14470  627.11260   76.68160   22.81190    7.98280    3.18710   -0.00540    0.05180   -0.05360
 4083.50000   63.59400   52.78260   63.31880   89.97210  546.20580  555.19240   70.63680   22.57210    7.98300    3.09880   -0.00730    0.05000   -0.04930
 4084.00000   62.20990   52.18590   62.32320   89.06660  577.46010  560.66650   77.84220   22.57060    7.98310    3.07030   -0.00800    0.04400   -0.04990
 4084.50000   61.75830   52.17990   61.59170   89.66050  642.60820  644.36270  109.94700   22.56910    7.98330    3.11700   -0.00270    0.03750   -0.04980
