~Version ---------------------------------------------------
VERS.   2.0 : CWLS log ASCII Standard -VERSION 2.0
WRAP.    NO : One line per depth step
DLM . SPACE : Column Data Section Delimiter
~Well ------------------------------------------------------
STRT .FT                 37.0 : START DEPTH
STOP .FT              13461.0 : STOP DEPTH
STEP .FT                  0.5 : STEP
NULL .               -9999.25 : NULL VALUE
COMP .                        : COMPANY
WELL .                        : WELL
FLD  .                        : FIELD
LOC  .                        : LOCATION
PROV .                        : PROVINCE
CNTY .                        : COUNTY
STAT .                        : STATE
CTRY .                        : COUNTRY
SRVC .                        : SERVICE COMPANY
DATE .                        : DATE
UWI  .                        : UNIQUE WELL ID
API  .                        : API NUMBER
SLAT .WGS84 4.538054270478895 : SURFACE LATITUDE
SLON .WGS84 2.167060486505804 : SURFACE LONGITUDE
DATUM.F                   nan : DEPTH DATUM ELEV
~Curve Information -----------------------------------------
DEPT   .FT    : 
AT10   .OHMM  : ARRAY INDUCTION TWO FOOT RESISTIVITY A10
AT30   .OHMM  : ARRAY INDUCTION TWO FOOT RESISTIVITY A30
AT90   .OHMM  : ARRAY INDUCTION TWO FOOT RESISTIVITY A90
CALD   .IN    : CALIPER FROM DENSITY LOG
DPHZ_LS.DEC   : HGRD STANDARD RESOLUTION DENSITY POROSITY
DTCO   .US/F  : DELTA-T COMPRESSIONAL
DTSM   .US/F  : DELTA-T SHEAR
GRD    .GAPI  : GAMMA RAY FROM DENSITY LOG
HDRA   .G/C3  : HRDD SPINE AND RIBS DENSITY CORRECTION
PEFZ   .B/E   : HRDD STANDARD RESOLUTION FORMATION PHOTOELECTRIC FACTOR
RHOZ   .G/C3  : HRDD STANDARD RESOLUTION FORMATION DENSITY
SPR    .MV    : SPONTANEOUS POTENTIAL FROM RESISTIVITY LOG
TNPH_LS.DEC   : THERMAL NEUTRON POROSITY [LIMESTONE]
~Params ----------------------------------------------------
~Other -----------------------------------------------------
~ASCII -----------------------------------------------------
# ...
 13401.00000   73.30320  500.23530  442.77260    8.34890   -0.00820   -9999.25   -9999.25  119.51530    0.17780    5.03250    2.72400   -9999.25    0.08150
 13401.50000   71.81230  515.04790  490.75940    8.35020   -0.00720   -9999.25   -9999.25  119.45290    0.17710    5.02900    2.72210   -9999.25    0.08180
 13402.00000   78.07600  490.17160  328.18580    8.34130   -0.00160   -9999.25   -9999.25  113.66080    0.17810    5.02550    2.71750   -9999.25    0.08870
 13402.50000  101.46910  921.25410  593.84910    8.35070   -0.00090   -9999.25   -9999.25  112.73170    0.17880    5.02210    2.70920   -9999.25    0.09430
 13403.00000  136.69140 1444.50610  903.04320    8.35460   -0.00160   -9999.25   -9999.25  111.69790    0.17690    5.02740    2.71230   -9999.25    0.09500
 13403.50000  186.75900 1309.11670  751.84800    8.35710    0.00020   -9999.25   -9999.25  112.07110    0.17490    5.03500    2.71020   -9999.25    0.09170
 13404.00000  215.98910 1016.44250  626.87540    8.35420    0.00110   -9999.25   -9999.25  111.15600    0.17160    5.04260    2.70900   -9999.25    0.09070
 13404.50000  178.00690  955.08280  740.94200    8.35140    0.00010   -9999.25   -9999.25  116.49690    0.16800    5.05020    2.71190   -9999.25    0.09150
 13405.00000  227.19290 1076.22100  627.06230    8.35200   -0.00490   -9999.25   -9999.25  120.84870    0.16780    5.05780    2.71880   -9999.25    0.09350
 13405.50000  272.29020  922.07120  677.40380    8.34470   -0.00460   -9999.25   -9999.25  120.22130    0.16780    5.06540    2.71970   -9999.25    0.09290
 13406.00000  329.68020 1254.20380  750.58820    8.35210   -0.00240   -9999.25   -9999.25  117.01500    0.16710    5.07300    2.71520   -9999.25    0.09240
 13406.50000  387.18250 1698.04350  680.70220    8.34980   -0.00150   -9999.25   -9999.25  111.59060    0.16650    5.08060    2.71320   -9999.25    0.09120
 13407.00000  432.88150 1682.10020  696.13990    8.34760   -0.00240   -9999.25   -9999.25  110.91290    0.16610    5.08490    2.71530   -9999.25    0.08740
 13407.50000  458.03250 1666.15690  703.76160    8.34540   -0.00210   -9999.25   -9999.25   -9999.25    0.16590    5.10060    2.71000   -9999.25    0.08700
 13408.00000  447.48010 1861.48670  750.14540    8.34320    0.00000   -9999.25   -9999.25   -9999.25    0.16570    5.09200    2.70860   -9999.25    0.08690
 13408.50000  440.36630 1936.27010  850.76700    8.34090    0.00170   -9999.25   -9999.25   -9999.25    0.16600    5.08330    2.70840   -9999.25    0.08940
 13409.00000  436.34810 1869.78640  987.61140    8.33870    0.00260   -9999.25   -9999.25   -9999.25    0.16790    5.08730    2.70750   -9999.25    0.09050
 13409.50000  429.23600 1680.12860  967.71290    8.32010    0.00260   -9999.25   -9999.25   -9999.25    0.16990    5.10910    2.70600   -9999.25    0.09030
 13410.00000  426.57820 1573.80340  791.36590    8.04940    0.00270   -9999.25   -9999.25   -9999.25    0.17260    5.13090    2.70610   -9999.25    0.09010
 13410.50000  421.34330 1573.21920  652.35170    5.99120    0.00270   -9999.25   -9999.25   -9999.25    0.17250    5.13570    2.70550   -9999.25    0.08980
 13411.00000  404.85400 1690.48950  718.94330    3.37300    0.00270   -9999.25   -9999.25   -9999.25    0.17120    5.12400    2.70580   -9999.25    0.09040
 13411.50000  389.31490 1787.38760  808.33100    3.37340    0.00240   -9999.25   -9999.25   -9999.25    0.16990    5.10390    2.70580   -9999.25    0.09120
 13412.00000  371.90310 1764.00130  853.41270    3.37340    0.00050   -9999.25   -9999.25   -9999.25    0.16910    5.08380    2.70720   -9999.25    0.09230
 13412.50000  344.43950 1568.71910 1075.45140    3.37430    0.00180   -9999.25   -9999.25   -9999.25    0.16730    5.09030    2.70460   -9999.25    0.09430
 13413.00000  319.03270 1407.63350 1592.36300    3.36980    0.00690   -9999.25   -9999.25   -9999.25    0.16540    5.12050    2.69610   -9999.25    0.09180
 13413.50000  290.29100 1527.19130 1391.94920    3.37350    0.01210   -9999.25   -9999.25   -9999.25    0.16050    5.11690    2.68960   -9999.25    0.09480
 13414.00000  249.79050 1200.53140  690.70280    3.36580    0.01350   -9999.25   -9999.25   -9999.25    0.15420    5.09650    2.68520   -9999.25    0.09780
 13414.50000  227.41020  851.80470  422.89970    3.37390    0.01220   -9999.25   -9999.25   -9999.25    0.15090    5.07600    2.68950   -9999.25    0.10090
 13415.00000  282.04410 1057.41850  720.48260    3.36420    0.00930   -9999.25   -9999.25   -9999.25    0.15890    5.05560    2.69340   -9999.25    0.10340
 13415.50000  264.40390  867.70010  807.73350    3.35910    0.00480   -9999.25   -9999.25   -9999.25    0.16360    5.05190    2.70090   -9999.25    0.09910
 13416.00000  255.82710 1249.03840 1025.05500    3.36100    0.00140   -9999.25   -9999.25   -9999.25    0.17220    5.05240    2.70540   -9999.25    0.09460
 13416.50000  205.41660  885.88120  467.96410    3.36280   -0.00200   -9999.25   -9999.25   -9999.25    0.17970    5.05290    2.71060   -9999.25    0.08960
 13417.00000  167.34620  649.16620  589.50400    3.36460   -0.00540   -9999.25   -9999.25   -9999.25    0.18150    5.09800    2.71790   -9999.25    0.08800
 13417.50000  159.37460  574.35110  391.97160    3.37050   -0.00580   -9999.25   -9999.25   -9999.25    0.18280    5.16540    2.72030   -9999.25    0.09240
 13418.00000  141.53720  395.54750  365.08310    3.37910   -0.00150   -9999.25   -9999.25   -9999.25    0.17950    5.16140    2.71410   -9999.25    0.09400
 13418.50000  160.53360  541.64410  403.08220    3.37890    0.00430   -9999.25   -9999.25   -9999.25    0.16460    5.11820    2.70250   -9999.25    0.09650
 13419.00000  157.91140  584.83250  365.94810    3.37310    0.00950   -9999.25   -9999.25   -9999.25    0.16220    5.05390    2.69320   -9999.25    0.09480
 13419.50000  169.23880  537.79160  333.10250    3.36980    0.00440   -9999.25   -9999.25   -9999.25    0.16110    5.00260    2.70130   -9999.25    0.09430
 13420.00000  149.79290  983.22250  454.91100    3.37040    0.00160   -9999.25   -9999.25   -9999.25    0.16000    4.96750    2.70490   -9999.25    0.09230
 13420.50000  127.27110 1075.96280  521.05090    3.37100    0.00610   -9999.25   -9999.25   -9999.25    0.15880    4.97090    2.69840   -9999.25    0.09790
 13421.00000  107.87830 1857.84020 1223.76020    3.37160    0.01200   -9999.25   -9999.25   -9999.25    0.15580    5.00670    2.69020   -9999.25    0.09670
 13421.50000   90.53040 1606.92030 1503.33050    3.37110    0.01510   -9999.25   -9999.25   -9999.25    0.15410    5.01670    2.68380   -9999.25    0.09510
 13422.00000   81.67350  931.95320  856.35170    3.36620    0.01480   -9999.25   -9999.25   -9999.25    0.15540    5.01800    2.68470   -9999.25    0.09370
 13422.50000   77.89760  339.54000  209.37290    3.36360    0.01310   -9999.25   -9999.25   -9999.25    0.15850    5.01470    2.68840   -9999.25   -9999.25
 13423.00000   86.12290  345.57030  208.07900    3.37070    0.01170   -9999.25   -9999.25   -9999.25    0.16160    4.99890    2.68780   -9999.25   -9999.25
 13423.50000  134.77640  629.68310  489.41890    3.36410    0.00800   -9999.25   -9999.25   -9999.25    0.16380    4.96560    2.69640   -9999.25   -9999.25
 13424.00000  182.61700 1163.00260  931.92470    3.35400    0.00720   -9999.25   -9999.25   -9999.25    0.16460    4.98190    2.69770   -9999.25   -9999.25
 13424.50000  217.12790 1722.88240  900.33940    3.35050    0.00880   -9999.25   -9999.25   -9999.25    0.16540    4.94270    2.69640   -9999.25   -9999.25
 13425.00000  209.13470 1137.59880  484.77730    3.35680    0.01050   -9999.25   -9999.25   -9999.25    0.16580    4.89360    2.69250   -9999.25   -9999.25
 13425.50000  188.96490  899.98220  692.41910    3.36060    0.00950   -9999.25   -9999.25   -9999.25    0.16800    4.87120    2.69440   -9999.25   -9999.25
 13426.00000  168.79510  748.09020  545.47420    3.35490    0.00510   -9999.25   -9999.25   -9999.25    0.17080    4.83950    2.69970   -9999.25   -9999.25
 13426.50000  155.53310  868.75760  582.51470    3.35350    0.00570   -9999.25   -9999.25   -9999.25    0.17020    4.81280    2.70040   -9999.25   -9999.25
