~Version ---------------------------------------------------
VERS.   2.0 : CWLS log ASCII Standard -VERSION 2.0
WRAP.    NO : One line per depth step
DLM . SPACE : Column Data Section Delimiter
~Well ------------------------------------------------------
STRT .FT                 37.0 : START DEPTH
STOP .FT              13461.0 : STOP DEPTH
STEP .FT                  0.5 : STEP
NULL .               -9999.25 : NULL VALUE
COMP .                        : COMPANY
WELL .                        : WELL
FLD  .                        : FIELD
LOC  .                        : LOCATION
PROV .                        : PROVINCE
CNTY .                        : COUNTY
STAT .                        : STATE
CTRY .                        : COUNTRY
SRVC .                        : SERVICE COMPANY
DATE .                        : DATE
UWI  .                        : UNIQUE WELL ID
API  .                        : API NUMBER
SLAT .WGS84 4.538054270478895 : SURFACE LATITUDE
SLON .WGS84 2.167060486505804 : SURFACE LONGITUDE
DATUM.F                   nan : DEPTH DATUM ELEV
~Curve Information -----------------------------------------
DEPT   .FT    : 
AT10   .OHMM  : ARRAY INDUCTION TWO FOOT RESISTIVITY A10
AT30   .OHMM  : ARRAY INDUCTION TWO FOOT RESISTIVITY A30
AT90   .OHMM  : ARRAY INDUCTION TWO FOOT RESISTIVITY A90
CALD   .IN    : CALIPER FROM DENSITY LOG
DPHZ_LS.DEC   : HGRD STANDARD RESOLUTION DENSITY POROSITY
DTCO   .US/F  : DELTA-T COMPRESSIONAL
DTSM   .US/F  : DELTA-T SHEAR
GRD    .GAPI  : GAMMA RAY FROM DENSITY LOG
HDRA   .G/C3  : HRDD SPINE AND RIBS DENSITY CORRECTION
PEFZ   .B/E   : HRDD STANDARD RESOLUTION FORMATION PHOTOELECTRIC FACTOR
RHOZ   .G/C3  : HRDD STANDARD RESOLUTION FORMATION DENSITY
SPR    .MV    : SPONTANEOUS POTENTIAL FROM RESISTIVITY LOG
TNPH_LS.DEC   : THERMAL NEUTRON POROSITY [LIMESTONE]
~Params ----------------------------------------------------
~Other -----------------------------------------------------
~ASCII -----------------------------------------------------
# ...
 3885.00000    3.93930    4.40430    5.10140   13.72600    0.06600   -9999.25   -9999.25  122.75580    0.07170    3.81630    2.59150  -31.64720    0.34390
 3885.50000    3.93410    4.40460    4.99630   13.94580    0.07330   -9999.25   -9999.25  125.39760    0.08120    3.85130    2.58400  -31.64720    0.32700
 3886.00000    3.92890    4.43840    4.89630   14.15170    0.07170   -9999.25   -9999.25  128.76940    0.08730    3.94680    2.58490  -32.69000    0.31010
 3886.50000    4.06080    4.54160    5.16230   13.49060    0.06920   -9999.25   -9999.25  128.04120    0.09860    4.00790    2.59120  -33.01140    0.32450
 3887.00000    4.05420    4.64500    5.30080   13.62790    0.07430   -9999.25   -9999.25  126.60780    0.10240    4.12160    2.58660  -33.28230    0.30520
 3887.50000    3.98910    4.46010    4.99600   13.48420    0.08570   -9999.25   -9999.25  122.09240    0.11180    4.23530    2.56550  -33.88110    0.29980
 3888.00000    3.92390    4.27520    4.68090   13.43430    0.09430   -9999.25   -9999.25  124.60480    0.12500    4.34900    2.54600  -33.60980    0.29020
 3888.50000    3.96340    4.27560    4.80380   13.79200    0.08860   -9999.25   -9999.25  124.05940    0.14390    4.46270    2.55510  -33.19150    0.27590
 3889.00000    3.98130    4.35340    4.92670   13.47480    0.07940   -9999.25   -9999.25  126.02700    0.15900    4.53970    2.57250  -33.07790    0.26160
 3889.50000    3.95800    4.43110    5.04960   13.50190    0.08010   -9999.25   -9999.25  121.40960    0.14160    4.52560    2.57740  -32.90760    0.27170
 3890.00000    3.96110    4.50890    5.07720   13.67870    0.09050   -9999.25   -9999.25  116.56900    0.11980    4.40820    2.55890  -32.91660    0.28860
 3890.50000    3.96420    4.47490    5.08830   13.78480    0.09580   -9999.25   -9999.25  122.54300    0.10000    4.27870    2.54680  -33.13180    0.29200
 3891.00000    4.01510    4.40780    5.04060   13.72700    0.09130   -9999.25   -9999.25  126.17440    0.08840    4.18320    2.55080  -33.34700    0.27970
 3891.50000    4.09790    4.50890    5.05000   13.66920    0.08520   -9999.25   -9999.25  131.44370    0.08200    4.14090    2.56160  -33.56220    0.29610
 3892.00000    4.18080    4.62510    5.18210   13.79740    0.08720   -9999.25   -9999.25  124.44970    0.08200    4.09860    2.56130  -33.95700    0.26440
 3892.50000    4.26360    4.71800    5.31420   13.73500    0.09110   -9999.25   -9999.25  117.63830    0.09070    4.09120    2.55430  -35.59210    0.26330
 3893.00000    4.34650    4.75380    5.44630   13.56230    0.07770   -9999.25   -9999.25  112.80010    0.11680    4.09260    2.56990  -36.96150    0.24100
 3893.50000    4.32700    4.87180    5.44630   13.57570    0.05780   -9999.25   -9999.25  109.17910    0.13760    4.05140    2.60570  -37.98340    0.22480
 3894.00000    4.38490    4.97420    5.51570   13.82330    0.05960   -9999.25   -9999.25  104.70680    0.13030    4.03860    2.60930  -40.58050    0.20800
 3894.50000    4.80580    5.24440    5.79980   13.82290    0.06570   -9999.25   -9999.25   95.64860    0.11190    4.00720    2.60100  -43.42960    0.18990
 3895.00000    5.39070    6.15640    6.94300   13.49340    0.07050   -9999.25   -9999.25   83.13570    0.09350    3.89210    2.58570  -45.11270    0.15320
 3895.50000    5.98070    7.02850    8.08620   13.22970    0.05720   -9999.25   -9999.25   70.67100    0.08110    3.77550    2.60560  -46.79590    0.11590
 3896.00000    6.33480    7.59410    8.52830   13.29820    0.04670   -9999.25   -9999.25   70.26730    0.08240    3.65680    2.62750  -48.47900    0.11190
 3896.50000    6.19280    7.59410    8.63500   13.25310    0.04330   -9999.25   -9999.25   73.89840    0.08500    3.59910    2.63450  -48.67940    0.12250
 3897.00000    5.85940    6.98410    8.19720   13.20640    0.04330   -9999.25   -9999.25   79.38490    0.09330    3.52740    2.63570  -48.43630    0.13350
 3897.50000    5.51260    6.38280    7.57580   13.24450    0.04140   -9999.25   -9999.25   84.16310    0.10550    3.49870    2.63950  -48.58330    0.14190
 3898.00000    5.16570    6.19280    7.07530   13.28270    0.04120   -9999.25   -9999.25   87.69850    0.11770    3.53890    2.63820  -49.03470    0.16030
 3898.50000    4.94210    5.55010    6.63730   13.57160    0.05340   -9999.25   -9999.25   89.50950    0.12340    3.61420    2.62040  -49.63320    0.19030
 3899.00000    4.45850    4.86280    5.40530   13.40580    0.06910   -9999.25   -9999.25   88.53120    0.11980    3.69180    2.59040  -49.23780    0.20810
 3899.50000    4.69800    5.10340    5.86370   13.74990    0.07290   -9999.25   -9999.25   86.63140    0.10420    3.71690    2.58390  -48.07730    0.20280
 3900.00000    5.08830    5.91830    6.85820   13.95610    0.06980   -9999.25   -9999.25   86.09880    0.10260    3.75430    2.58700  -45.93950    0.20970
 3900.50000    4.91160    5.38330    6.42400   13.74550    0.06060   -9999.25   -9999.25   88.10950    0.09820    3.81600    2.60570  -43.78320    0.22070
 3901.00000    4.59400    5.20490    5.78400   13.66130    0.05620   -9999.25   -9999.25   98.95850    0.09460    3.84980    2.61360  -41.62690    0.23180
 3901.50000    4.63510    5.20490    5.69230   13.71640    0.05420   -9999.25   -9999.25  105.48570    0.08860    3.84710    2.61720  -39.47070    0.23150
 3902.00000    4.51940    5.12700    5.87370   13.82240    0.05510   -9999.25   -9999.25  109.08280    0.08270    3.80760    2.61320  -38.29280    0.21900
 3902.50000    4.31920    4.93680    5.40190   13.98790    0.06270   -9999.25   -9999.25  117.35940    0.07190    3.76800    2.60300  -37.43660    0.20900
 3903.00000    4.20380    4.58700    4.86280   14.22610    0.07020   -9999.25   -9999.25  128.68630    0.05660    3.72460    2.58650  -35.73510    0.20920
 3903.50000    4.18080    4.40780    4.97740   13.82660    0.07010   -9999.25   -9999.25  138.99680    0.04960    3.71810    2.58810  -34.64090    0.23640
 3904.00000    4.25620    4.61230    5.17190   13.78440    0.06090   -9999.25   -9999.25  136.26330    0.05060    3.75870    2.61030  -33.53800    0.25410
 3904.50000    4.28550    4.82610    5.36640   13.75760    0.04820   -9999.25   -9999.25  132.05850    0.08040    3.81360    2.63600  -33.13940    0.26150
 3905.00000    4.30900    4.75380    5.44630   13.78010    0.04260   -9999.25   -9999.25  129.61440    0.09220    3.87170    2.63730  -33.87620    0.26440
 3905.50000    4.23970    4.76130    5.32340   13.79900    0.04660   -9999.25   -9999.25  129.84420    0.10060    3.92140    2.62790  -34.59770    0.25270
 3906.00000    4.17030    4.69000    5.20060   13.92300    0.05150   -9999.25   -9999.25  130.19290    0.10120    3.98250    2.62230  -34.40380    0.25700
 3906.50000    4.10090    4.57750    5.08940   13.67500    0.05750   -9999.25   -9999.25  131.73260    0.10190    4.04350    2.61030  -34.08140    0.27450
 3907.00000    3.96500    4.43480    4.90220   13.81280    0.06510   -9999.25   -9999.25  128.25350    0.10410    4.12040    2.59480  -33.75900    0.29190
 3907.50000    4.02340    4.24440    4.78980   13.68880    0.07260   -9999.25   -9999.25  125.01240    0.11290    4.16280    2.58700  -33.12210    0.28500
 3908.00000    4.25060    4.62250    5.09970   13.79290    0.06660   -9999.25   -9999.25  119.09450    0.12600    4.15040    2.60280  -33.03560    0.27990
 3908.50000    4.51710    5.09510    5.91400   13.67500    0.05140   -9999.25   -9999.25  116.54570    0.13910    4.10480    2.62660  -32.67450    0.25920
 3909.00000    4.52360    5.23710    6.23970   13.64750    0.04180   -9999.25   -9999.25  120.45890    0.14010    4.06310    2.64120  -31.64740    0.24930
 3909.50000    4.33220    5.00150    5.87490   13.64750    0.04370   -9999.25   -9999.25  126.66600    0.12410    4.02340    2.63630  -31.24600    0.24880
 3910.00000    4.17710    4.76600    5.51210   13.66020    0.04720   -9999.25   -9999.25  133.98890    0.10820    3.98370    2.62930  -30.62550    0.25150
 3910.50000    4.05710    4.56040    5.15250   13.65880    0.04910   -9999.25   -9999.25  131.41750    0.09630    3.96550    2.62530  -30.72780    0.25400
