~Version ---------------------------------------------------
VERS.   2.0 : CWLS log ASCII Standard -VERSION 2.0
WRAP.    NO : One line per depth step
DLM . SPACE : Column Data Section Delimiter
~Well ------------------------------------------------------
STRT .FT                 37.0 : START DEPTH
STOP .FT              13461.0 : STOP DEPTH
STEP .FT                  0.5 : STEP
NULL .               -9999.25 : NULL VALUE
COMP .                        : COMPANY
WELL .                        : WELL
FLD  .                        : FIELD
LOC  .                        : LOCATION
PROV .                        : PROVINCE
CNTY .                        : COUNTY
STAT .                        : STATE
CTRY .                        : COUNTRY
SRVC .                        : SERVICE COMPANY
DATE .                        : DATE
UWI  .                        : UNIQUE WELL ID
API  .                        : API NUMBER
SLAT .WGS84 4.538054270478895 : SURFACE LATITUDE
SLON .WGS84 2.167060486505804 : SURFACE LONGITUDE
DATUM.F                   nan : DEPTH DATUM ELEV
~Curve Information -----------------------------------------
DEPT   .FT    : 
AT10   .OHMM  : ARRAY INDUCTION TWO FOOT RESISTIVITY A10
AT30   .OHMM  : ARRAY INDUCTION TWO FOOT RESISTIVITY A30
AT90   .OHMM  : ARRAY INDUCTION TWO FOOT RESISTIVITY A90
CALD   .IN    : CALIPER FROM DENSITY LOG
DPHZ_LS.DEC   : HGRD STANDARD RESOLUTION DENSITY POROSITY
DTCO   .US/F  : DELTA-T COMPRESSIONAL
DTSM   .US/F  : DELTA-T SHEAR
GRD    .GAPI  : GAMMA RAY FROM DENSITY LOG
HDRA   .G/C3  : HRDD SPINE AND RIBS DENSITY CORRECTION
PEFZ   .B/E   : HRDD STANDARD RESOLUTION FORMATION PHOTOELECTRIC FACTOR
RHOZ   .G/C3  : HRDD STANDARD RESOLUTION FORMATION DENSITY
SPR    .MV    : SPONTANEOUS POTENTIAL FROM RESISTIVITY LOG
TNPH_LS.DEC   : THERMAL NEUTRON POROSITY [LIMESTONE]
~Params ----------------------------------------------------
~Other -----------------------------------------------------
~ASCII -----------------------------------------------------
# ...
 2299.00000    2.10120    2.42770    2.67940   12.24780    0.19000   -9999.25   -9999.25   91.49640    0.12210    4.36640    2.38270  -55.93190    0.30030
 2299.50000    1.96220    2.08990    2.22350   12.72540    0.18900   -9999.25   -9999.25  106.87760    0.11640    4.33960    2.39140  -52.49470    0.41280
 2300.00000    1.99820    2.10510    2.35040   13.36070    0.17320   -9999.25   -9999.25  128.45630    0.11060    4.14380    2.42880  -51.09190    0.42270
 2300.50000    2.17840    2.44160    2.65960   13.35450    0.15550   -9999.25   -9999.25  123.73890    0.10480    4.00490    2.44130  -49.86170    0.39720
 2301.00000    2.49150    2.77820    3.02570   13.38670    0.16280   -9999.25   -9999.25  112.50760    0.10200    4.14220    2.42910  -48.49220    0.33630
 2301.50000    2.83780    3.69330    3.76810   13.27000    0.16720   -9999.25   -9999.25  101.91660    0.11640    4.30480    2.42150  -47.58930    0.29970
 2302.00000    3.87450    4.21040    4.57550   12.86360    0.16220   -9999.25   -9999.25   90.55900    0.12770    4.59450    2.44040  -47.79370    0.25630
 2302.50000    3.64320    3.78050    4.01220   12.61980    0.14170   -9999.25   -9999.25   93.12890    0.13900    4.80110    2.46460  -45.44920    0.24680
 2303.00000    3.06500    3.28270    3.35610   12.86890    0.14860   -9999.25   -9999.25   98.89090    0.13410    4.81770    2.45570  -43.10460    0.26910
 2303.50000    2.99630    3.05070    3.18870   13.32240    0.15690   -9999.25   -9999.25  104.01830    0.12790    4.82610    2.44300  -40.03890    0.29140
 2304.00000    3.25610    2.95950    3.03960   12.93660    0.16110   -9999.25   -9999.25  100.30620    0.12180    4.67940    2.43420  -39.22600    0.30910
 2304.50000    3.19530    2.98000    2.91790   12.98920    0.15790   -9999.25   -9999.25  104.63700    0.11660    4.50610    2.44110  -40.34600    0.30800
 2305.00000    3.14970    3.01910    2.82050   13.11450    0.15880   -9999.25   -9999.25  105.56500    0.11520    4.33280    2.43690  -40.65450    0.30140
 2305.50000    3.11170    2.92280    2.79920   13.23970    0.16130   -9999.25   -9999.25  106.33840    0.11380    4.15950    2.43500  -41.78650    0.28970
 2306.00000    3.06500    2.82650    2.75220   13.21910    0.16090   -9999.25   -9999.25  103.55430    0.11180    4.07330    2.43310  -42.00260    0.29780
 2306.50000    2.91570    2.73020    2.64490   13.26730    0.16730   -9999.25   -9999.25  106.49300    0.10850    4.07130    2.41800  -42.22770    0.30120
 2307.00000    2.76630    2.63390    2.49220   13.37750    0.17560   -9999.25   -9999.25  115.35360    0.10490    4.18110    2.39830  -43.18120    0.31680
 2307.50000    2.79920    2.59540    2.48320   13.04690    0.18870   -9999.25   -9999.25  121.74960    0.10590    4.27850    2.38250  -44.31350    0.31140
 2308.00000    3.11580    2.87520    2.53720   13.30310    0.18540   -9999.25   -9999.25  124.12550    0.11300    4.36990    2.39870  -45.44580    0.31110
 2308.50000    3.57380    3.23330    2.79900   13.00550    0.16940   -9999.25   -9999.25  107.96030    0.11130    4.33740    2.42230  -44.58490    0.30320
 2309.00000    4.24390    3.72310    3.23540   13.17080    0.15390   -9999.25   -9999.25   99.36450    0.10590    4.18700    2.44750  -44.61080    0.27580
 2309.50000    4.91400    4.21300    3.67170   13.12160    0.14550   -9999.25   -9999.25   90.25260    0.09930    3.99530    2.46050  -45.20910    0.24580
 2310.00000    4.97230    4.47290    3.83440   13.10200    0.14560   -9999.25   -9999.25   91.33540    0.09410    3.88140    2.45770  -45.36030    0.21740
 2310.50000    3.90080    3.82160    3.33910   13.10200    0.15460   -9999.25   -9999.25   92.57290    0.09490    3.84600    2.43830  -46.02430    0.22020
 2311.00000    2.82940    3.09130    2.98560   13.46020    0.16000   -9999.25   -9999.25  100.83690    0.10720    3.77830    2.43440  -46.70730    0.23540
 2311.50000    2.58990    2.77820    2.90190   13.35000    0.15590   -9999.25   -9999.25  107.57470    0.12010    3.70850    2.44360  -46.78550    0.25710
 2312.00000    2.65990    2.77820    2.88520   13.59790    0.14660   -9999.25   -9999.25  111.28820    0.11750    3.58480    2.45870  -46.86380    0.27840
 2312.50000    2.71590    2.77820    2.88520   13.61170    0.14370   -9999.25   -9999.25  109.93540    0.10060    3.41160    2.46250  -48.36260    0.29530
 2313.00000    2.70050    2.82050    2.92980   13.94240    0.14370   -9999.25   -9999.25  111.62320    0.08360    3.29000    2.46340  -48.91210    0.27700
 2313.50000    2.64270    2.83830    3.01910   13.74260    0.14220   -9999.25   -9999.25  111.90520    0.07600    3.23960    2.46650  -49.46160    0.30070
 2314.00000    2.57680    2.81390    2.98560   13.65300    0.14050   -9999.25   -9999.25  114.07150    0.07590    3.24860    2.46810  -50.01110    0.30450
 2314.50000    2.53720    2.74390    2.88520   13.68060    0.13830   -9999.25   -9999.25  116.48870    0.07550    3.27110    2.47290  -50.45070    0.32940
 2315.00000    2.54830    2.75350    3.03370   14.06640    0.13600   -9999.25   -9999.25  117.93910    0.07500    3.30250    2.47700  -50.76500    0.35180
 2315.50000    2.57590    2.84750    3.21940   13.68060    0.13740   -9999.25   -9999.25  114.56580    0.06540    3.28930    2.47530  -50.45070    0.36970
 2316.00000    2.54100    2.87660    3.33080   13.72190    0.13420   -9999.25   -9999.25  112.43600    0.05590    3.27610    2.47810  -50.55290    0.35670
 2316.50000    2.50610    2.83360    3.31830   13.72190    0.13920   -9999.25   -9999.25  117.44650    0.05120    3.26290    2.47030  -51.12510    0.32420
 2317.00000    2.49730    2.80920    3.30570   13.88040    0.14070   -9999.25   -9999.25  124.81980    0.05440    3.27890    2.46940  -51.78480    0.30510
 2317.50000    2.49420    2.85920    3.39060   13.85970    0.14520   -9999.25   -9999.25  125.86390    0.07090    3.30290    2.46000  -49.89880    0.30730
 2318.00000    2.49110    2.90910    3.46140   13.85970    0.14630   -9999.25   -9999.25  125.21610    0.08740    3.31160    2.45930  -49.32590    0.30160
 2318.50000    2.48800    2.92910    3.50860   13.65300    0.14470   -9999.25   -9999.25  123.66190    0.09120    3.35440    2.46270  -48.91620    0.29880
 2319.00000    2.45120    2.90710    3.55590   14.06640    0.14160   -9999.25   -9999.25  124.58990    0.09130    3.40750    2.46920  -48.53360    0.28710
 2319.50000    2.40600    2.81150    3.56530   14.16280    0.13550   -9999.25   -9999.25  123.82150    0.08890    3.45330    2.47670  -48.15110    0.33160
 2320.00000    2.36080    2.71590    3.55380   13.96990    0.13880   -9999.25   -9999.25  125.27290    0.08640    3.49860    2.47010  -48.15200    0.35670
 2320.50000    2.31560    2.62510    3.47750   14.21790    0.14660   -9999.25   -9999.25  126.90960    0.08620    3.50430    2.45630  -48.32680    0.38600
 2321.00000    2.19760    2.53430    3.17270   14.14900    0.15890   -9999.25   -9999.25  125.98160    0.08630    3.54000    2.43610  -47.99810    0.39420
 2321.50000    2.20970    2.46170    3.16810   14.40390    0.16310   -9999.25   -9999.25  125.67230    0.08640    3.69240    2.42840  -48.41140    0.40940
 2322.00000    2.36070    2.61600    3.62550   14.38320    0.16040   -9999.25   -9999.25  123.90900    0.09040    3.80860    2.43640  -48.97240    0.38920
 2322.50000    2.78900    3.29410    4.36520   14.47280    0.14440   -9999.25   -9999.25  119.54960    0.10540    3.99970    2.47250  -50.40960    0.34030
 2323.00000    3.70530    5.30270    6.55030   14.33500    0.11520   -9999.25   -9999.25  109.04370    0.10340    4.20000    2.51740  -49.22440    0.30120
 2323.50000    5.20300    6.96960    9.74410   14.21790    0.09050   -9999.25   -9999.25   98.53770    0.10130    4.23490    2.55500  -48.66680    0.18090
 2324.00000    4.37720    5.73320    7.90240   13.79080    0.08350   -9999.25   -9999.25   87.93250    0.09960    4.15380    2.56550  -48.76600    0.15480
 2324.50000    3.32270    4.23170    5.03630   13.73570    0.10620   -9999.25   -9999.25   93.68460    0.09810    3.95730    2.52970  -49.25530    0.16350
