~Version ---------------------------------------------------
VERS.   2.0 : CWLS log ASCII Standard -VERSION 2.0
WRAP.    NO : One line per depth step
DLM . SPACE : Column Data Section Delimiter
~Well ------------------------------------------------------
STRT .FT                 37.0 : START DEPTH
STOP .FT              13461.0 : STOP DEPTH
STEP .FT                  0.5 : STEP
NULL .               -9999.25 : NULL VALUE
COMP .                        : COMPANY
WELL .                        : WELL
FLD  .                        : FIELD
LOC  .                        : LOCATION
PROV .                        : PROVINCE
CNTY .                        : COUNTY
STAT .                        : STATE
CTRY .                        : COUNTRY
SRVC .                        : SERVICE COMPANY
DATE .                        : DATE
UWI  .                        : UNIQUE WELL ID
API  .                        : API NUMBER
SLAT .WGS84 4.538054270478895 : SURFACE LATITUDE
SLON .WGS84 2.167060486505804 : SURFACE LONGITUDE
DATUM.F                   nan : DEPTH DATUM ELEV
~Curve Information -----------------------------------------
DEPT   .FT    : 
AT10   .OHMM  : ARRAY INDUCTION TWO FOOT RESISTIVITY A10
AT30   .OHMM  : ARRAY INDUCTION TWO FOOT RESISTIVITY A30
AT90   .OHMM  : ARRAY INDUCTION TWO FOOT RESISTIVITY A90
CALD   .IN    : CALIPER FROM DENSITY LOG
DPHZ_LS.DEC   : HGRD STANDARD RESOLUTION DENSITY POROSITY
DTCO   .US/F  : DELTA-T COMPRESSIONAL
DTSM   .US/F  : DELTA-T SHEAR
GRD    .GAPI  : GAMMA RAY FROM DENSITY LOG
HDRA   .G/C3  : HRDD SPINE AND RIBS DENSITY CORRECTION
PEFZ   .B/E   : HRDD STANDARD RESOLUTION FORMATION PHOTOELECTRIC FACTOR
RHOZ   .G/C3  : HRDD STANDARD RESOLUTION FORMATION DENSITY
SPR    .MV    : SPONTANEOUS POTENTIAL FROM RESISTIVITY LOG
TNPH_LS.DEC   : THERMAL NEUTRON POROSITY [LIMESTONE]
~Params ----------------------------------------------------
~Other -----------------------------------------------------
~ASCII -----------------------------------------------------
# ...
 12621.00000    4.47540    5.41370    6.31610    8.21370    0.04130   -9999.25   -9999.25  125.92810    0.01110    4.31970    2.63740   -9999.25    0.22900
 12621.50000    3.44410    3.69730    4.47700    8.22880    0.08470   -9999.25   -9999.25  136.46910    0.02250    3.79530    2.56010   -9999.25    0.26760
 12622.00000    3.09000    3.16940    3.49040    8.31450    0.11460   -9999.25   -9999.25  141.10730    0.03060    3.38990    2.51020   -9999.25    0.29840
 12622.50000    3.10660    3.21470    3.29980    8.56250    0.11430   -9999.25   -9999.25  141.42360    0.02680    3.23850    2.51440   -9999.25    0.36240
 12623.00000    3.12330    3.27120    3.36930    8.27320    0.11740   -9999.25   -9999.25  134.38720    0.02210    3.16830    2.50990   -9999.25    0.35160
 12623.50000    3.13670    3.27200    3.43880    8.32830    0.11240   -9999.25   -9999.25  127.71280    0.01730    3.20170    2.51730   -9999.25    0.33790
 12624.00000    3.17040    3.21740    3.40960    8.32000    0.10810   -9999.25   -9999.25  126.48430    0.01780    3.33960    2.52890   -9999.25    0.35090
 12624.50000    3.08840    3.13430    3.26690    8.23180    0.09410   -9999.25   -9999.25  125.71110    0.02910    3.48000    2.54910   -9999.25    0.36920
 12625.00000    2.98600    3.03030    3.12420    8.35580    0.08970   -9999.25   -9999.25  125.89910    0.03590    3.46110    2.55360   -9999.25    0.38420
 12625.50000    2.88360    2.92640    2.99080    8.21800    0.09980   -9999.25   -9999.25  130.24420    0.03060    3.27110    2.53650   -9999.25    0.37200
 12626.00000    2.84260    2.88480    2.98320    8.42470    0.11580   -9999.25   -9999.25  137.87090    0.01950    3.17270    2.51040   -9999.25    0.37230
 12626.50000    2.94160    2.98520    3.07340    8.30530    0.12650   -9999.25   -9999.25  135.32880    0.00850    3.12190    2.49140   -9999.25    0.37730
 12627.00000    3.06530    3.11070    3.29310    8.24560    0.12350   -9999.25   -9999.25  131.08350    0.00760    3.20660    2.49890   -9999.25    0.42550
 12627.50000    3.09400    3.14660    3.30830    8.27380    0.11900   -9999.25   -9999.25  133.99290    0.01740    3.35220    2.50900   -9999.25    0.41070
 12628.00000    3.15760    3.68980    3.99520    8.26970    0.11170   -9999.25   -9999.25  136.90970    0.02530    3.40020    2.51930   -9999.25    0.46380
 12628.50000    4.67270    6.08700    5.36620    8.28350    0.10880   -9999.25   -9999.25  145.33520    0.02300    3.29300    2.52430   -9999.25    0.44080
 12629.00000    7.03910    8.48420    7.68220    8.22680    0.11240   -9999.25   -9999.25  149.63050    0.01150    3.28970    2.51390   -9999.25    0.38340
 12629.50000    9.40560   10.88130    9.99830    8.14690    0.11630   -9999.25   -9999.25  160.69440    0.00140    3.35580    2.51750   -9999.25    0.31500
 12630.00000   11.77200   13.27850   13.40860    8.15110    0.10390   -9999.25   -9999.25  149.94830    0.00020    3.42180    2.54370   -9999.25    0.30060
 12630.50000   14.13840   15.67590   16.81910    8.13050    0.08470   -9999.25   -9999.25  134.67160   -0.00110    3.50410    2.57420   -9999.25    0.26970
 12631.00000   12.14580   13.79280   15.28770    8.11840    0.08340   -9999.25   -9999.25  132.71570   -0.00240    3.51280    2.56730   -9999.25    0.24960
 12631.50000    8.46580   10.82010   10.80240    8.11910    0.10140   -9999.25   -9999.25  136.37350   -0.00360    3.38020    2.53260   -9999.25    0.25860
 12632.00000    6.50800    7.84750    8.41190    8.13170    0.11670   -9999.25   -9999.25  137.24010   -0.00330    3.18250    2.51190   -9999.25    0.28090
 12632.50000    4.98150    4.87480    6.02140    8.12940    0.11770   -9999.25   -9999.25  130.88900   -0.00060    3.00050    2.50830   -9999.25    0.29870
 12633.00000    4.35100    4.47920    4.77460    8.17120    0.11840   -9999.25   -9999.25  123.76680    0.00220    2.95630    2.50730   -9999.25    0.33760
 12633.50000    4.01340    4.08360    4.36090    8.22640    0.12200   -9999.25   -9999.25  122.90770    0.00500    2.91200    2.50520   -9999.25    0.38660
 12634.00000    3.75100    3.80670    4.05340    8.30730    0.12670   -9999.25   -9999.25  120.94450    0.00580    2.92180    2.49060   -9999.25    0.34940
 12634.50000    3.66050    3.71480    3.81970    8.35580    0.13210   -9999.25   -9999.25  123.88200    0.00090    2.95640    2.48310   -9999.25    0.33990
 12635.00000    3.69460    3.74940    3.81970    8.32830    0.13850   -9999.25   -9999.25  127.94000   -0.00300    2.94370    2.47060   -9999.25    0.35450
 12635.50000    3.67790    3.73250    3.77450    8.21800    0.14150   -9999.25   -9999.25  132.77120   -0.00170    3.00120    2.46800   -9999.25    0.36960
 12636.00000    3.50610    3.55810    3.66820    8.33740    0.13770   -9999.25   -9999.25  135.79430    0.00050    3.08700    2.47320   -9999.25    0.39300
 12636.50000    3.44970    3.50090    3.58330    8.35730    0.13130   -9999.25   -9999.25  139.54940    0.00280    3.13620    2.48410   -9999.25    0.37490
 12637.00000    3.44990    3.50110    3.57200    8.25780    0.12820   -9999.25   -9999.25  132.77180    0.00500    3.15420    2.48950   -9999.25    0.34410
 12637.50000    3.49010    3.54190    3.58050    8.20430    0.12300   -9999.25   -9999.25  130.18290    0.00500    3.23610    2.50330   -9999.25    0.33790
 12638.00000    3.54020    3.59280    3.67920    8.26400    0.10800   -9999.25   -9999.25  124.56100    0.00460    3.38200    2.51700   -9999.25    0.36660
 12638.50000    3.64080    3.69480    3.77790    8.32830    0.09090   -9999.25   -9999.25  129.69040    0.00420    3.54880    2.54430   -9999.25    0.39500
 12639.00000    3.63130    3.68520    3.77980    8.27590    0.08160   -9999.25   -9999.25  132.25980    0.00410    3.53940    2.56670   -9999.25    0.38640
 12639.50000    3.55070    3.60340    3.67380    8.21800    0.08650   -9999.25   -9999.25  136.54690    0.00570    3.39720    2.56580   -9999.25    0.36630
 12640.00000    3.54120    3.59380    3.66450    8.27320    0.09370   -9999.25   -9999.25  132.98510    0.00740    3.22340    2.55180   -9999.25    0.33340
 12640.50000    3.59790    3.65130    3.74730    8.25970    0.10220   -9999.25   -9999.25  128.77330    0.00900    3.12700    2.53770   -9999.25    0.31160
 12641.00000    3.63170    3.68550    3.79660    8.41150    0.10260   -9999.25   -9999.25  127.13320    0.00820    3.14560    2.53120   -9999.25    0.34130
 12641.50000    3.61240    3.66600    3.76400    8.21900    0.10480   -9999.25   -9999.25  125.98590    0.00510    3.15950    2.53320   -9999.25    0.32420
 12642.00000    3.58860    3.64190    3.73150    8.23190    0.10800   -9999.25   -9999.25  125.82090    0.00210    3.11590    2.52850   -9999.25    0.35550
 12642.50000    3.56480    3.61780    3.69890    8.22610    0.11100   -9999.25   -9999.25  121.76110   -0.00120    3.10530    2.52190   -9999.25    0.32290
 12643.00000    3.54110    3.59360    3.66640    8.22030    0.11460   -9999.25   -9999.25  118.24600    0.00190    3.09460    2.51460   -9999.25    0.33270
 12643.50000    3.51730    3.56950    3.63380    8.21450    0.11230   -9999.25   -9999.25  119.30980    0.00500    3.08400    2.51750   -9999.25    0.34590
 12644.00000    3.51550    3.56770    3.60120    8.21590    0.10700   -9999.25   -9999.25  123.20880    0.00580    3.08820    2.52440   -9999.25    0.38220
 12644.50000    3.53360    3.58610    3.66930    8.22760    0.10280   -9999.25   -9999.25  127.28520    0.00580    3.11460    2.53230   -9999.25    0.37750
 12645.00000    3.55170    3.60440    3.73740    8.23580    0.10030   -9999.25   -9999.25  130.65060    0.00580    3.15580    2.53830   -9999.25    0.37470
 12645.50000    3.57990    3.63310    3.75910    8.24400    0.09450   -9999.25   -9999.25  129.36250    0.00670    3.16680    2.54800   -9999.25    0.34190
 12646.00000    3.58480    3.63800    3.73260    8.25830    0.09610   -9999.25   -9999.25  128.37140    0.01170    3.17190    2.54540   -9999.25    0.34030
 12646.50000    3.58970    3.64300    3.70600    8.27200    0.10110   -9999.25   -9999.25  128.59930    0.01840    3.19280    2.53900   -9999.25    0.33940
