~Version ---------------------------------------------------
VERS.   2.0 : CWLS log ASCII Standard -VERSION 2.0
WRAP.    NO : One line per depth step
DLM . SPACE : Column Data Section Delimiter
~Well ------------------------------------------------------
STRT .FT                 37.0 : START DEPTH
STOP .FT              13461.0 : STOP DEPTH
STEP .FT                  0.5 : STEP
NULL .               -9999.25 : NULL VALUE
COMP .                        : COMPANY
WELL .                        : WELL
FLD  .                        : FIELD
LOC  .                        : LOCATION
PROV .                        : PROVINCE
CNTY .                        : COUNTY
STAT .                        : STATE
CTRY .                        : COUNTRY
SRVC .                        : SERVICE COMPANY
DATE .                        : DATE
UWI  .                        : UNIQUE WELL ID
API  .                        : API NUMBER
SLAT .WGS84 4.538054270478895 : SURFACE LATITUDE
SLON .WGS84 2.167060486505804 : SURFACE LONGITUDE
DATUM.F                   nan : DEPTH DATUM ELEV
~Curve Information -----------------------------------------
DEPT   .FT    : 
AT10   .OHMM  : ARRAY INDUCTION TWO FOOT RESISTIVITY A10
AT30   .OHMM  : ARRAY INDUCTION TWO FOOT RESISTIVITY A30
AT90   .OHMM  : ARRAY INDUCTION TWO FOOT RESISTIVITY A90
CALD   .IN    : CALIPER FROM DENSITY LOG
DPHZ_LS.DEC   : HGRD STANDARD RESOLUTION DENSITY POROSITY
DTCO   .US/F  : DELTA-T COMPRESSIONAL
DTSM   .US/F  : DELTA-T SHEAR
GRD    .GAPI  : GAMMA RAY FROM DENSITY LOG
HDRA   .G/C3  : HRDD SPINE AND RIBS DENSITY CORRECTION
PEFZ   .B/E   : HRDD STANDARD RESOLUTION FORMATION PHOTOELECTRIC FACTOR
RHOZ   .G/C3  : HRDD STANDARD RESOLUTION FORMATION DENSITY
SPR    .MV    : SPONTANEOUS POTENTIAL FROM RESISTIVITY LOG
TNPH_LS.DEC   : THERMAL NEUTRON POROSITY [LIMESTONE]
~Params ----------------------------------------------------
~Other -----------------------------------------------------
~ASCII -----------------------------------------------------
# ...
 7057.00000    6.05810    8.78330    9.34650   13.40410    0.08400   75.30240  171.89080   96.14570    0.21310    5.14580    2.56910  -10.65730    0.22990
 7057.50000    5.55520    7.47600    8.27910   13.40370    0.08920   74.34860  165.65690   93.79970    0.19990    5.09220    2.55800  -12.10980    0.21750
 7058.00000    5.16930    6.16870    6.94540   13.55480    0.09140   73.63990  157.44020   95.86180    0.19250    5.00300    2.55260  -12.14990    0.21660
 7058.50000    5.24520    6.26440    6.62820   13.67840    0.09770   72.59860  140.88420   89.67460    0.18080    4.91390    2.53980  -12.18990    0.22250
 7059.00000    5.30510    6.44880    6.95600   13.89850    0.09240   72.98300  144.51220   92.65800    0.18140    4.82470    2.54810  -11.61790    0.22440
 7059.50000    5.19820    6.70720    7.13970   13.78780    0.08510   72.64490  148.03800   93.31710    0.18280    4.70710    2.56520  -11.82230    0.22640
 7060.00000    5.03420    7.03270    7.13840   12.89790    0.06890   72.01250  124.63480   97.46280    0.18430    4.64210    2.59250   -8.43940    0.20810
 7060.50000    5.12080    7.56470    6.98030   13.61670    0.06140   72.19260  131.24580   99.52120    0.16800    4.55170    2.60490   -9.01820    0.20080
 7061.00000    5.16290    7.18430    6.51360   13.38270    0.06560   71.14220  136.98020   99.01710    0.15840    4.47880    2.59320   -9.26550    0.21000
 7061.50000    4.67030    6.57580    6.08020   13.95470    0.08470   80.36660  141.02860  100.44690    0.15190    4.50090    2.56720   -8.89280    0.21360
 7062.00000    4.44270    5.96740    5.60110   14.00320    0.10070   80.31650  144.26780  100.28790    0.15900    4.61890    2.53660   -9.05800    0.21760
 7062.50000    4.18950    5.61720    5.65770   14.26520    0.11070   72.65150  135.78600   99.25340    0.18130    4.72310    2.52120  -10.59600    0.22070
 7063.00000    3.86300    5.38880    6.05760   13.81070    0.10530   74.56840  122.72670   95.48570    0.18600    4.74510    2.53050  -13.45730    0.22440
 7063.50000    3.50520    5.10520    5.59340   13.83380    0.11290   76.83140  120.05130   97.53900    0.18180    4.63790    2.52290  -16.25080    0.23360
 7064.00000    3.25730    4.57810    5.01320   13.74220    0.12570   78.77390   -9999.25  101.70990    0.14970    4.50360    2.50080  -16.41680    0.24960
 7064.50000    2.99750    4.18120    4.63050   13.63220    0.14250   80.22430   -9999.25  108.54090    0.11910    4.26580    2.46720  -16.28660    0.27730
 7065.00000    2.77700    3.86600    4.63050   13.84510    0.15830   80.09730   -9999.25  113.06480    0.09370    4.03610    2.43820  -16.15630    0.28890
 7065.50000    2.68700    3.92840    4.80650   14.36310    0.16450   80.09540   -9999.25  120.19220    0.09370    3.93810    2.42840  -15.15370    0.29310
 7066.00000    2.94550    4.32150    6.30830   14.18420    0.15450   80.47850   -9999.25  117.57420    0.10160    4.01180    2.44420  -17.36880    0.28750
 7066.50000    3.64570    5.39220   11.25520   14.34980    0.13200   76.10550   -9999.25  108.14240    0.12790    4.13360    2.47800  -21.72370    0.26700
 7067.00000    4.32060    9.15260   18.41640   14.01940    0.10960   74.34960   -9999.25   95.16180    0.15410    4.58420    2.51830  -24.51600    0.23020
 7067.50000    2.98310    6.03850   12.54580   14.12990    0.12820   74.08040   -9999.25   86.36960    0.18040    4.80500    2.49750  -27.27770    0.19460
 7068.00000    2.36370    3.53930    7.57760   13.27550    0.19070   70.00340   -9999.25   88.63790    0.19180    5.02580    2.40650  -28.50450    0.22370
 7068.50000    2.00480    2.77350    3.87110   14.14030    0.25470   94.94970   -9999.25   97.83530    0.18650    5.24660    2.28280  -29.84420    0.29970
 7069.00000    2.22880    2.75020    5.05990   14.79180    0.28250   94.54230   -9999.25  105.01950    0.18250    5.26780    2.22630  -30.82990    0.39530
 7069.50000    2.61520    4.42760   10.56570   14.44770    0.23640   97.11810   -9999.25  106.73350    0.19750    5.14990    2.30590  -28.64300    0.36930
 7070.00000    3.12360    5.29900   13.86910   14.61670    0.18850   78.89780   -9999.25  107.34450    0.21570    5.03820    2.38670  -27.58280    0.34490
 7070.50000    2.80860    4.47970    7.30000   13.59180    0.15920   82.87520   -9999.25  107.81560    0.23020    5.03860    2.44120  -26.27770    0.33670
 7071.00000    2.53690    3.66040    5.75740   14.24260    0.16790   81.46490   -9999.25  112.76480    0.22200    5.01300    2.42630  -23.40560    0.35220
 7071.50000    2.42120    3.19960    4.90510   13.72100    0.18530   84.57100   -9999.25  108.63990    0.20370    4.89530    2.40390  -22.20490    0.35840
 7072.00000    2.52990    3.30910    4.77080   14.71740    0.20670   88.58330   -9999.25  114.41400    0.18540    4.80210    2.35190  -23.18800    0.34530
 7072.50000    2.87160    4.17870    5.42980   13.68570    0.21960   90.02230   -9999.25  106.21610    0.16710    4.80150    2.33470  -21.29890    0.34280
 7073.00000    3.32590    4.99210    6.89820   13.72970    0.20850   90.58210   -9999.25  103.52660    0.15250    4.80090    2.35570  -19.32560    0.32720
 7073.50000    3.84710    5.48020    7.19190   13.80440    0.15430   89.64170   -9999.25  104.06720    0.14720    4.72480    2.44330  -17.35230    0.29940
 7074.00000    4.07670    5.48020    6.87690   13.70740    0.11080   93.60160   -9999.25  103.68890    0.14200    4.57680    2.53080  -14.28660    0.28170
 7074.50000    4.52960    5.64160    7.57530   13.98850    0.08940   88.26900  165.91560  108.89590    0.13670    4.44360    2.56020  -13.11870    0.28630
 7075.00000    5.04440    6.21690    7.92450   13.94720    0.08650   86.99700  165.84260  106.97330    0.13260    4.42420    2.56370  -12.24280    0.27760
 7075.50000    5.86980    7.63840    8.04370   14.07670    0.08820   84.49340  154.27960  105.49220    0.13040    4.51780    2.55980  -12.03840    0.26770
 7076.00000    6.92640   10.36660   11.15560   14.05520    0.08740   82.59170  148.04560  102.25580    0.12860    4.66030    2.56120  -11.83400    0.23890
 7076.50000   10.72220   18.32080   19.18080   13.72200    0.09020   82.04790  150.37060   99.30780    0.12770    4.69600    2.54900  -11.83400    0.21270
 7077.00000   12.14910   24.68420   28.47700   13.38880    0.11800   81.66650  161.53570   97.16910    0.11710    4.65580    2.50410  -12.17060    0.19140
 7077.50000    8.94130   18.13820   23.04140   13.14820    0.16840   81.70730  171.14230   94.70230    0.11940    4.59700    2.43050  -12.59140    0.20660
 7078.00000    5.73360   10.21420   16.24690   13.18550    0.20730   83.73950  170.61080   91.73640    0.15690    4.64200    2.34940  -13.01220    0.22320
 7078.50000    4.81250    6.10370    9.45250   14.72320    0.23430   82.22830  169.72510   91.71990    0.19440    4.72430    2.31060  -13.73630    0.23540
 7079.00000    4.09630    5.08080    5.33580   14.78880    0.22600   88.29170  168.83940   90.21970    0.23200    4.84720    2.32320  -14.91550    0.25040
 7079.50000    3.92760    4.79040    5.56880   15.00310    0.21080   90.94450  167.96760   90.64470    0.24680    4.85330    2.35060  -16.09460    0.29970
 7080.00000    3.89730    4.87170    5.87940   15.50010    0.17370   89.75670  167.10520   95.59460    0.24520    4.77190    2.39700  -16.10010    0.31330
 7080.50000    4.25360    5.03830    5.92340   15.56940    0.13410   86.72050  166.24280  102.59770    0.19900    4.54370    2.46950  -14.94870    0.33530
 7081.00000    4.81160    6.56310    7.40980   14.89190    0.12580   81.80220  165.38030  104.79600    0.15270    4.37320    2.50090  -14.17270    0.33320
 7081.50000    5.41200    8.08790   12.23850   14.06260    0.13290   76.20030  164.51790  101.03230    0.10650    4.22240    2.48130  -13.38450    0.30050
 7082.00000    5.61560    9.30770   16.10150   14.04600    0.13990   74.33730  163.65550   98.03540    0.08450    4.15000    2.47290  -12.59640    0.27290
 7082.50000    5.53210    8.38200   13.46940   14.45700    0.14130   83.23520  162.33530   99.89260    0.08830    4.08030    2.47220  -12.43700    0.24140
