~Version ---------------------------------------------------
VERS.   2.0 : CWLS log ASCII Standard -VERSION 2.0
WRAP.    NO : One line per depth step
DLM . SPACE : Column Data Section Delimiter
~Well ------------------------------------------------------
STRT .FT                 37.0 : START DEPTH
STOP .FT              13461.0 : STOP DEPTH
STEP .FT                  0.5 : STEP
NULL .               -9999.25 : NULL VALUE
COMP .                        : COMPANY
WELL .                        : WELL
FLD  .                        : FIELD
LOC  .                        : LOCATION
PROV .                        : PROVINCE
CNTY .                        : COUNTY
STAT .                        : STATE
CTRY .                        : COUNTRY
SRVC .                        : SERVICE COMPANY
DATE .                        : DATE
UWI  .                        : UNIQUE WELL ID
API  .                        : API NUMBER
SLAT .WGS84 4.538054270478895 : SURFACE LATITUDE
SLON .WGS84 2.167060486505804 : SURFACE LONGITUDE
DATUM.F                   nan : DEPTH DATUM ELEV
~Curve Information -----------------------------------------
DEPT   .FT    : 
AT10   .OHMM  : ARRAY INDUCTION TWO FOOT RESISTIVITY A10
AT30   .OHMM  : ARRAY INDUCTION TWO FOOT RESISTIVITY A30
AT90   .OHMM  : ARRAY INDUCTION TWO FOOT RESISTIVITY A90
CALD   .IN    : CALIPER FROM DENSITY LOG
DPHZ_LS.DEC   : HGRD STANDARD RESOLUTION DENSITY POROSITY
DTCO   .US/F  : DELTA-T COMPRESSIONAL
DTSM   .US/F  : DELTA-T SHEAR
GRD    .GAPI  : GAMMA RAY FROM DENSITY LOG
HDRA   .G/C3  : HRDD SPINE AND RIBS DENSITY CORRECTION
PEFZ   .B/E   : HRDD STANDARD RESOLUTION FORMATION PHOTOELECTRIC FACTOR
RHOZ   .G/C3  : HRDD STANDARD RESOLUTION FORMATION DENSITY
SPR    .MV    : SPONTANEOUS POTENTIAL FROM RESISTIVITY LOG
TNPH_LS.DEC   : THERMAL NEUTRON POROSITY [LIMESTONE]
~Params ----------------------------------------------------
~Other -----------------------------------------------------
~ASCII -----------------------------------------------------
# ...
 6277.00000    2.04060    2.51050    3.60820   13.96090    0.09610   85.49180  155.12840  130.60190    0.14570    4.11280    2.54680  -32.27510    0.32400
 6277.50000    1.95950    2.51110    4.64050   14.00230    0.11430   83.49790  163.01540  136.52650    0.14280    4.09150    2.51810  -30.19170    0.35040
 6278.00000    3.49270    4.68330    9.66320   13.78530    0.13900   77.83780  174.25290  139.38020    0.14280    4.20860    2.48460  -27.21630    0.37030
 6278.50000    5.02590   13.67380   14.68590   13.20320    0.13800  105.35060  183.19850  138.15950    0.14810    4.36650    2.47170  -25.34410    0.36480
 6279.00000    8.14910   22.66430   20.87370   13.93060    0.10590   97.47040  191.60600  131.50750    0.16930    4.49830    2.50530  -24.50230    0.31070
 6279.50000   10.90120   31.65480   24.58900   13.94370    0.06700   89.20800  200.17480  113.90710    0.16750    4.49360    2.58270  -24.41180    0.21290
 6280.00000   10.25840   31.27820   16.29220   13.24100    0.02800   88.11670  196.97380   94.31730    0.11710    4.32170    2.66370  -25.68510    0.15010
 6280.50000    8.85000   25.29230    9.78390   12.85320    0.00660   49.11700  180.91510   75.36880    0.06660    4.02860    2.69950  -26.95830    0.07510
 6281.00000    7.44170   20.92620    9.17970   12.72030    0.00360   55.48210  137.35490   63.31660    0.04380    3.83050    2.70110  -27.63960    0.05350
 6281.50000    6.16320   16.59650    8.71030   12.71300    0.02030   52.14840   93.15190   55.99480    0.04290    3.80020    2.68080  -28.49120    0.04490
 6282.00000    5.07550   12.40140    8.21990   12.76780    0.02340   51.37810   88.44990   50.91330    0.09360    3.92120    2.66990  -30.55290    0.05540
 6282.50000    4.31590    8.80750    7.61890   12.85010    0.02900   52.76000   96.82890   57.32500    0.16620    4.17830    2.66540  -32.75610    0.07290
 6283.00000    3.81690    6.93020    7.44190   13.09070    0.06130   62.05900   96.93020   70.50340    0.21400    4.36410    2.62230  -35.57920    0.09040
 6283.50000    3.41560    5.92990    7.87210   13.28760    0.10390   62.49290   82.95900   86.80720    0.22980    4.64270    2.52920  -37.12170    0.13870
 6284.00000    3.01780    4.85530    7.70970   13.71510    0.13010   64.30650   67.19270   99.00700    0.23870    4.73850    2.49230  -38.03350    0.20090
 6284.50000    2.62360    4.00950    7.05790   13.71270    0.13050   70.01730   97.13140  106.06330    0.24490    4.91470    2.48510  -40.02710    0.26300
 6285.00000    2.43860    3.73500    6.63290   13.21280    0.15070   76.50210   89.00630  113.53380    0.24730    5.00080    2.46240  -41.73690    0.30030
 6285.50000    2.12160    3.06010    6.12190   13.99720    0.17590   88.73840   75.97820  127.82730    0.23280    5.06920    2.41640  -43.37320    0.33530
 6286.00000    1.87200    2.41790    5.06520   13.87300    0.20050   87.30670   65.55550  136.33430    0.22590    5.08440    2.36840  -44.00540    0.38630
 6286.50000    1.70920    2.16220    3.80140   14.14770    0.23100   91.38930   92.83100  139.18200    0.21530    5.13960    2.32810  -43.97920    0.41090
 6287.00000    2.46830    2.89420    6.49370   13.67960    0.23730   96.80370  104.42600  138.11830    0.21410    5.15510    2.30390  -42.00970    0.37420
 6287.50000    3.73390    5.58600   13.29990   13.76640    0.19600  105.88930  111.15180  132.39950    0.21480    4.86610    2.36210  -39.37540    0.32840
 6288.00000    4.99950   10.29150   17.64310   13.81100    0.14570  109.57350  117.87750  125.82680    0.21700    4.56310    2.46200  -37.31180    0.30080
 6288.50000    6.01170   14.08230   15.17770   13.44410    0.10560  105.84920  125.67650  119.07430    0.22170    4.24990    2.52450  -37.53070    0.23320
 6289.00000    5.77780   14.32280    9.90520   13.04420    0.09410  103.23400  158.91360  112.90900    0.22840    4.06720    2.54920  -37.63590    0.21190
 6289.50000    5.28910   14.06800    7.53010   12.98870    0.09600   82.11700  147.60940  107.62450    0.24790    4.04440    2.54860  -38.24230    0.19060
 6290.00000    4.73750   14.17290    6.92730   13.28390    0.11320   70.71540  128.77050  102.94240    0.26930    4.22290    2.52370  -36.19470    0.16930
 6290.50000    4.36490   11.35250    6.58350   12.98280    0.14280   69.70960  133.10390   98.81110    0.27010    4.39220    2.46800  -34.89600    0.16050
 6291.00000    3.87580    6.95100    6.25010   12.96900    0.15930   69.22630  129.22040  101.53400    0.26750    4.52950    2.43340  -36.67360    0.17440
 6291.50000    3.25640    5.71200    5.10800   13.67160    0.15440   69.88230  139.58580  114.33340    0.26840    4.65000    2.43820  -35.17610    0.20840
 6292.00000    2.84270    4.47300    4.40310   14.37420    0.11960   72.62710  154.05430  125.41970    0.26930    4.72600    2.48530  -35.48550    0.27560
 6292.50000    2.74430    4.06420    5.25900   14.16760    0.13340   75.61660  148.58470  131.38570    0.25830    4.76930    2.49240  -36.09140    0.27900
 6293.00000    2.68430    4.28050    6.32880   13.93340    0.15630   78.11950  135.14780  129.12230    0.24710    4.81310    2.44950  -36.69720    0.29190
 6293.50000    2.61580    4.38260    7.76240   13.93340    0.17470   76.60700  144.31830  133.01490    0.23480    4.79070    2.40830  -37.77900    0.31570
 6294.00000    2.48170    3.86840    8.37340   13.50630    0.16480   77.48810  155.53620  137.18380    0.22040    4.68860    2.42300  -38.59650    0.34620
 6294.50000    2.27040    3.33370    6.61430   13.93340    0.15230   76.95650  155.01160  137.54840    0.20160    4.45810    2.44910  -38.39270    0.36450
 6295.00000    2.05910    2.85190    5.19580   14.13730    0.14740   78.28630  152.63590  140.71790    0.17270    4.34030    2.45730  -37.22720    0.35350
 6295.50000    2.01730    2.79820    4.37770   14.41560    0.15200   79.68700  146.59390  136.86590    0.13700    4.13760    2.45020  -37.77900    0.33970
 6296.00000    2.31330    3.75490    7.36880   14.34970    0.15610   74.06620  172.14100  143.21750    0.10850    3.95950    2.44350  -37.69720    0.30020
 6296.50000    2.93480    4.71150   10.35990   14.18140    0.15800   84.38060  174.89300  140.09940    0.09080    3.81280    2.43980  -38.13340    0.29730
 6297.00000    3.63780    6.97080   13.18130   13.85070    0.15290   96.92380  176.51510  141.13060    0.07670    3.73850    2.44790  -37.43140    0.34310
 6297.50000    3.69140    6.83220   11.62180   13.85070    0.14770   83.41470  178.13710  133.94510    0.08190    3.89750    2.45910  -35.43710    0.35360
 6298.00000    3.51710    6.13240    8.84570   13.02410    0.16580   75.36020  178.78600  130.80600    0.10800    4.10470    2.42160  -33.31230    0.30880
 6298.50000    3.71500    5.43260    6.89710   13.17560    0.19750   72.82570  159.52190  125.90870    0.13420    4.25260    2.37470  -31.74970    0.23340
 6299.00000    3.94050    5.49280    6.22720   13.69920    0.20470   73.20820  155.07630  121.00360    0.16710    4.22560    2.35750  -31.16720    0.21110
 6299.50000    4.03970    6.49010    7.50280   13.40990    0.17590   73.72270  155.07630  114.21820    0.17490    4.03150    2.41140  -31.73800    0.22710
 6300.00000    4.19250    7.48740    8.58770   13.63370    0.13900   74.74720  155.12780  111.52210    0.17590    3.85200    2.47880  -32.50150    0.24520
 6300.50000    4.55940    9.74820    8.65120   13.70820    0.11740   77.50680  162.33490  107.87520    0.17310    3.75620    2.50840  -34.33220    0.25120
 6301.00000    4.79750    8.96630    7.86120   13.44620    0.11130   75.19250  148.45550  108.13470    0.16950    3.70170    2.51910  -36.45610    0.25200
 6301.50000    4.75520    8.51640    7.01860   13.45980    0.11130   72.43160  142.08330  112.13560    0.17030    3.66450    2.52010  -36.00090    0.24230
 6302.00000    4.71420    8.46110    6.78620   13.65700    0.11410   70.08780  137.58790  117.41510    0.17210    3.69600    2.51280  -37.35990    0.22560
 6302.50000    4.57800    8.55460    6.71010   13.17460    0.11500   69.47950  133.20390  117.98730    0.17390    3.74550    2.51290  -37.54030    0.20430
