~Version ---------------------------------------------------
VERS.   2.0 : CWLS log ASCII Standard -VERSION 2.0
WRAP.    NO : One line per depth step
DLM . SPACE : Column Data Section Delimiter
~Well ------------------------------------------------------
STRT .FT                 37.0 : START DEPTH
STOP .FT              13461.0 : STOP DEPTH
STEP .FT                  0.5 : STEP
NULL .               -9999.25 : NULL VALUE
COMP .                        : COMPANY
WELL .                        : WELL
FLD  .                        : FIELD
LOC  .                        : LOCATION
PROV .                        : PROVINCE
CNTY .                        : COUNTY
STAT .                        : STATE
CTRY .                        : COUNTRY
SRVC .                        : SERVICE COMPANY
DATE .                        : DATE
UWI  .                        : UNIQUE WELL ID
API  .                        : API NUMBER
SLAT .WGS84 4.538054270478895 : SURFACE LATITUDE
SLON .WGS84 2.167060486505804 : SURFACE LONGITUDE
DATUM.F                   nan : DEPTH DATUM ELEV
~Curve Information -----------------------------------------
DEPT   .FT    : 
AT10   .OHMM  : ARRAY INDUCTION TWO FOOT RESISTIVITY A10
AT30   .OHMM  : ARRAY INDUCTION TWO FOOT RESISTIVITY A30
AT90   .OHMM  : ARRAY INDUCTION TWO FOOT RESISTIVITY A90
CALD   .IN    : CALIPER FROM DENSITY LOG
DPHZ_LS.DEC   : HGRD STANDARD RESOLUTION DENSITY POROSITY
DTCO   .US/F  : DELTA-T COMPRESSIONAL
DTSM   .US/F  : DELTA-T SHEAR
GRD    .GAPI  : GAMMA RAY FROM DENSITY LOG
HDRA   .G/C3  : HRDD SPINE AND RIBS DENSITY CORRECTION
PEFZ   .B/E   : HRDD STANDARD RESOLUTION FORMATION PHOTOELECTRIC FACTOR
RHOZ   .G/C3  : HRDD STANDARD RESOLUTION FORMATION DENSITY
SPR    .MV    : SPONTANEOUS POTENTIAL FROM RESISTIVITY LOG
TNPH_LS.DEC   : THERMAL NEUTRON POROSITY [LIMESTONE]
~Params ----------------------------------------------------
~Other -----------------------------------------------------
~ASCII -----------------------------------------------------
# ...
 1519.00000    2.28620   24.92170    4.20890   12.57020   -9999.25   -9999.25   -9999.25   57.77170   -0.22580    9.27870    3.34910  -88.75760    0.49140
 1519.50000    1.50480    2.59430    2.02250   12.57030   -9999.25   -9999.25   -9999.25   71.16080    0.24690    7.77620    3.00190  -74.28480    0.47170
 1520.00000    0.88690    1.15620    1.91000   12.66680    0.24180   -9999.25   -9999.25   84.57150    0.13190    6.27370    2.54710  -66.18930    0.43970
 1520.50000    0.97440    1.59280    1.78960   13.26100    0.26900   -9999.25   -9999.25   97.82940    0.05520    4.77120    2.28510  -59.47290    0.40780
 1521.00000    1.93450    3.26980    4.21120   13.17190    0.28510   -9999.25   -9999.25  104.48230    0.09400    4.29090    2.21780  -55.35570    0.40150
 1521.50000    4.56690    6.44290    6.83570   13.33090    0.27960   -9999.25   -9999.25  104.48230    0.13270    4.20520    2.23330  -55.16100    0.38890
 1522.00000    7.19920   15.60110   12.40840   12.82270    0.26330   -9999.25   -9999.25  103.70900    0.17150    4.10520    2.25940  -54.20690    0.35710
 1522.50000    5.35530   13.26770   11.05870   13.23550    0.23220   -9999.25   -9999.25  100.04110    0.19300    4.00530    2.29820  -53.36090    0.32530
 1523.00000    4.67010    7.36200    6.34690   12.94800    0.21740   -9999.25   -9999.25   92.52850    0.14890    3.70410    2.34990  -54.79270    0.29980
 1523.50000    3.65090    4.73130    4.95300   13.47060    0.18590   -9999.25   -9999.25   85.01590    0.10470    3.38910    2.40420  -53.52750    0.28820
 1524.00000    4.39450    3.67920    4.05890   13.67690    0.15200   -9999.25   -9999.25   76.79620    0.06470    3.17220    2.46090  -50.33660    0.26760
 1524.50000    5.54070    4.58580    4.13790   13.29960    0.12800   -9999.25   -9999.25   80.16430    0.05040    3.10760    2.49740  -49.62060    0.26320
 1525.00000    6.68690    5.49250    4.33440   13.43100    0.12150   -9999.25   -9999.25   85.54710    0.03900    3.04470    2.50220  -49.52320    0.25770
 1525.50000    7.31970    5.44420    4.53090   13.25580    0.13160   -9999.25   -9999.25   97.11780    0.05110    3.02850    2.47760  -49.42590    0.25930
 1526.00000    6.84680    5.11300    4.68830   13.22530    0.15910   -9999.25   -9999.25   90.69410    0.06130    3.06310    2.42030  -44.79320    0.26850
 1526.50000    6.07320    5.03920    4.79640   13.29470    0.20170   -9999.25   -9999.25   83.74170    0.07730    3.10720    2.36800  -46.81760    0.27600
 1527.00000    5.38700    5.33090    4.87030   13.10600    0.22830   -9999.25   -9999.25   75.55880    0.09350    3.22360    2.30350  -48.36630    0.28970
 1527.50000    5.05010    5.62260    4.98290   12.90010    0.24710   -9999.25   -9999.25   80.42710    0.11290    3.34550    2.28580  -52.60580    0.27300
 1528.00000    4.65740    5.49750    5.05920   12.70800    0.24260   -9999.25   -9999.25   82.72530    0.13770    3.47570    2.30050  -56.84530    0.26400
 1528.50000    4.63910    5.06190    5.37510   12.13710    0.22930   -9999.25   -9999.25   80.51680    0.16230    3.58080    2.31740  -61.08480    0.27390
 1529.00000    4.49070    4.62630    5.12610   11.91510    0.23810   -9999.25   -9999.25   75.14540    0.16530    3.70820    2.29430  -60.71380    0.27100
 1529.50000    4.07470    4.19070    4.67800   11.90250    0.25430   -9999.25   -9999.25   72.43780    0.16750    3.88470    2.25980  -59.57130    0.26970
 1530.00000    3.65860    4.19070    4.80700   12.59820    0.26940   -9999.25   -9999.25   72.40810    0.16800    4.04480    2.25060  -60.99430    0.28170
 1530.50000    3.87490    4.38470    5.26590   12.15650    0.26480   -9999.25   -9999.25   72.82720    0.16890    4.36630    2.27230  -62.83790    0.29380
 1531.00000    4.14530    4.70730    5.58280   11.86340    0.24450   -9999.25   -9999.25   69.43290    0.16970    4.58910    2.29190  -65.16240    0.31710
 1531.50000    4.25310    4.99810    5.66680   11.95890    0.24490   -9999.25   -9999.25   64.96180    0.17190    4.78120    2.28740  -66.27640    0.30960
 1532.00000    4.47460    5.31140    5.67680   11.86150    0.24910   -9999.25   -9999.25   64.35390    0.16920    4.91700    2.27940  -66.04930    0.30170
 1532.50000    4.69620    5.67850    5.97410   11.98420    0.25520   -9999.25   -9999.25   66.02420    0.16490    4.92940    2.26960  -65.82210    0.25800
 1533.00000    4.97160    6.05900    6.63800   11.96550    0.26040   -9999.25   -9999.25   70.68470    0.16040    4.92980    2.26470  -64.45310    0.26430
 1533.50000    5.82110    6.43950    7.11060   11.94100    0.25810   -9999.25   -9999.25   72.86070    0.15460    4.93000    2.27240  -62.32490    0.26280
 1534.00000    5.90050    6.27940    7.48840   11.91290    0.25060   -9999.25   -9999.25   75.25320    0.14720    4.88940    2.29090  -58.69150    0.27380
 1534.50000    4.03020    5.23670    5.87960   11.92970    0.24280   -9999.25   -9999.25   79.50410    0.13130    4.68880    2.29760  -55.05800    0.27560
 1535.00000    3.24790    4.03300    4.61180   12.36740    0.23910   -9999.25   -9999.25   84.93410    0.10890    4.45300    2.29940  -51.42450    0.28650
 1535.50000    2.77700    3.21200    3.59740   12.43550    0.24040   -9999.25   -9999.25   89.82290    0.08660    4.28980    2.29520  -49.63320    0.29770
 1536.00000    3.08800    3.54320    4.49400   12.14570    0.23760   -9999.25   -9999.25   91.20170    0.06420    4.14440    2.30470  -49.76600    0.37380
 1536.50000    3.43570    4.09530    5.58090   12.16770    0.22630   -9999.25   -9999.25   89.17420    0.06110    4.12530    2.32540  -49.89880    0.39600
 1537.00000    3.73870    4.64740    6.66780   12.49110    0.21390   -9999.25   -9999.25   85.97420    0.08580    4.01150    2.35540  -50.04190    0.33410
 1537.50000    4.00840    5.24610    7.87980   12.72180    0.19640   -9999.25   -9999.25   84.27270    0.12470    3.76810    2.38220  -46.62460    0.32370
 1538.00000    4.16990    5.87350    9.12320   13.15450    0.19030   -9999.25   -9999.25   86.99920    0.14030    3.47240    2.38090  -42.06830    0.31990
 1538.50000    4.17270    5.74110    9.96560   13.42730    0.21150   -9999.25   -9999.25  102.39220    0.11840    3.29250    2.33810  -48.86020    0.32080
 1539.00000    3.81510    5.22770    8.67620   13.32110    0.24320   -9999.25   -9999.25  108.37420    0.08200    3.03560    2.28070  -53.01850    0.32260
 1539.50000    3.36270    4.64900    6.89990   13.35740    0.27640   -9999.25   -9999.25  110.20520    0.05110    2.96450    2.22900  -52.45360    0.34960
 1540.00000    3.03160    4.05390    5.04660   12.96600    0.29390   -9999.25   -9999.25   98.91420    0.04840    2.97850    2.20340  -53.20040    0.41260
 1540.50000    2.91630    3.56500    4.73190   12.97870    0.30080   -9999.25   -9999.25   96.94860    0.05730    3.10480    2.18770  -53.94720    0.46730
 1541.00000    3.01660    3.58300    4.77440   13.02750    0.30070   -9999.25   -9999.25   95.34730    0.08580    3.27250    2.16470  -55.15620    0.43810
 1541.50000    3.22040    3.72570    5.10770   13.16550    0.30060   -9999.25   -9999.25   93.03710    0.11430    3.50780    2.15330  -56.97660    0.38950
 1542.00000    3.69590    4.51520    6.12110   12.36800    0.30060   -9999.25   -9999.25   86.47650    0.14340    3.90100    2.14180  -57.49380    0.35090
 1542.50000    4.43380    5.89630    9.56140   12.50310    0.30050   -9999.25   -9999.25   84.02460    0.16670    4.29420    2.17310  -57.57940    0.31900
 1543.00000    4.12350    6.36480   10.17260   12.01140    0.29110   -9999.25   -9999.25   81.02460    0.18690    4.53010    2.20650  -55.94440    0.30020
 1543.50000    3.46900    5.06790    6.00830   12.65840    0.28520   -9999.25   -9999.25   79.76340    0.17990    4.44660    2.22210  -55.04630    0.29990
 1544.00000    3.03730    3.77090    4.87150   13.63310    0.28710   -9999.25   -9999.25   84.24070    0.17100    4.27870    2.22460  -65.23170    0.36800
 1544.50000    2.89430    3.35760    4.68770   12.79910    0.29490   -9999.25   -9999.25   89.51580    0.15830    4.11070    2.20480  -58.41890    0.41660
