~Version ---------------------------------------------------
VERS.   2.0 : CWLS log ASCII Standard -VERSION 2.0
WRAP.    NO : One line per depth step
DLM . SPACE : Column Data Section Delimiter
~Well ------------------------------------------------------
STRT .FT                 37.0 : START DEPTH
STOP .FT              13461.0 : STOP DEPTH
STEP .FT                  0.5 : STEP
NULL .               -9999.25 : NULL VALUE
COMP .                        : COMPANY
WELL .                        : WELL
FLD  .                        : FIELD
LOC  .                        : LOCATION
PROV .                        : PROVINCE
CNTY .                        : COUNTY
STAT .                        : STATE
CTRY .                        : COUNTRY
SRVC .                        : SERVICE COMPANY
DATE .                        : DATE
UWI  .                        : UNIQUE WELL ID
API  .                        : API NUMBER
SLAT .WGS84 4.538054270478895 : SURFACE LATITUDE
SLON .WGS84 2.167060486505804 : SURFACE LONGITUDE
DATUM.F                   nan : DEPTH DATUM ELEV
~Curve Information -----------------------------------------
DEPT   .FT    : 
AT10   .OHMM  : ARRAY INDUCTION TWO FOOT RESISTIVITY A10
AT30   .OHMM  : ARRAY INDUCTION TWO FOOT RESISTIVITY A30
AT90   .OHMM  : ARRAY INDUCTION TWO FOOT RESISTIVITY A90
CALD   .IN    : CALIPER FROM DENSITY LOG
DPHZ_LS.DEC   : HGRD STANDARD RESOLUTION DENSITY POROSITY
DTCO   .US/F  : DELTA-T COMPRESSIONAL
DTSM   .US/F  : DELTA-T SHEAR
GRD    .GAPI  : GAMMA RAY FROM DENSITY LOG
HDRA   .G/C3  : HRDD SPINE AND RIBS DENSITY CORRECTION
PEFZ   .B/E   : HRDD STANDARD RESOLUTION FORMATION PHOTOELECTRIC FACTOR
RHOZ   .G/C3  : HRDD STANDARD RESOLUTION FORMATION DENSITY
SPR    .MV    : SPONTANEOUS POTENTIAL FROM RESISTIVITY LOG
TNPH_LS.DEC   : THERMAL NEUTRON POROSITY [LIMESTONE]
~Params ----------------------------------------------------
~Other -----------------------------------------------------
~ASCII -----------------------------------------------------
# ...
 8643.00000    3.67150    4.52600    5.01080   14.12870    0.11800   82.51850  159.76860  120.95270    0.12990    3.78040    2.50290  -17.94350    0.25410
 8643.50000    3.65240    4.51010    4.93830   14.07310    0.11440   81.83660  156.63460  121.36520    0.12410    3.80280    2.51280  -18.09680    0.25000
 8644.00000    3.76680    4.70620    5.18600   14.21030    0.11250   81.43420  158.67850  121.09020    0.11830    3.82520    2.51730  -18.30050    0.25230
 8644.50000    3.90790    4.95130    5.49580   14.25120    0.11030   81.02140  158.37190  118.64300    0.11090    3.82650    2.52200  -18.19530    0.25670
 8645.00000    4.06880    5.19650    5.74350   13.89240    0.11390   80.89050  159.14400  117.40560    0.10440    3.82780    2.51520  -18.38110    0.26000
 8645.50000    4.03260    5.24510    5.53110   14.08480    0.11960   80.85260  161.67040  116.62190    0.11080    3.86460    2.50620  -18.56690    0.26150
 8646.00000    3.94020    5.10140    5.41440   14.11060    0.12540   81.02970  163.85380  117.79310    0.11870    3.91670    2.49780  -18.36250    0.25340
 8646.50000    3.88120    4.98640    5.41390   13.93470    0.12100   81.33890  159.68300  118.45700    0.13610    3.92520    2.50190  -18.11700    0.24360
 8647.00000    3.87380    4.98590    5.58600   13.78020    0.11590   80.86510  151.04130  120.33400    0.13790    3.91340    2.50950  -17.72820    0.23930
 8647.50000    3.95730    5.12280    5.80130   13.77970    0.11030   79.58600  158.48090  119.54690    0.13560    3.86510    2.52080  -17.69280    0.23790
 8648.00000    4.06660    5.25970    6.15070   13.83420    0.10630   78.11710  138.88710  117.43870    0.13600    3.86930    2.53020  -17.65740    0.24720
 8648.50000    4.22430    5.75020    6.58950   13.79790    0.11480   78.44930  127.74700  117.30370    0.14520    4.01880    2.51640  -18.07050    0.24470
 8649.00000    4.03470    5.50720    6.23240   13.70780    0.12520   78.98830  131.25940  114.84420    0.16660    4.15670    2.50400  -18.11210    0.26640
 8649.50000    3.69980    5.10240    5.69260   13.65360    0.14310   79.41250  135.65010  118.27430    0.18800    4.30180    2.46640  -18.15380    0.26470
 8650.00000    3.48890    4.77840    5.47950   13.65780    0.16540   80.39080  131.42600  120.53020    0.19480    4.26800    2.43610  -18.19540    0.27300
 8650.50000    3.46960    4.65980    5.41110   13.71900    0.16980   81.50610  139.32880  124.17910    0.18640    4.17860    2.41820  -18.23710    0.27670
 8651.00000    3.48030    4.66020    5.41160   13.87440    0.15360   82.75980  126.52020  124.28080    0.17800    4.08520    2.43780  -18.23230    0.29280
 8651.50000    3.48650    4.66050    5.34000   13.08980    0.13170   82.46490  141.17510  124.21270    0.16960    4.03360    2.48720  -18.15790    0.30040
 8652.00000    3.48570    4.66090    5.23360   13.51390    0.11560   81.82960  161.87130  121.58760    0.17250    4.03350    2.51220  -18.31630    0.31700
 8652.50000    3.48320    4.58360    5.19000   13.68300    0.11110   82.22090  172.61100  119.98160    0.17560    4.05600    2.51790  -17.88290    0.31700
 8653.00000    3.50610    4.50750    5.19000   13.81810    0.12010   81.50420  165.21890  122.30280    0.17550    4.02970    2.50610  -16.74880    0.30440
 8653.50000    3.48530    4.47020    5.19110   13.58780    0.12560   82.03770  167.49000  122.18290    0.15960    4.00910    2.49760  -16.57910    0.28280
 8654.00000    3.48920    4.48000    5.47610   13.69160    0.12000   81.85730  159.39080  120.93970    0.15650    3.96220    2.50400  -16.02770    0.26620
 8654.50000    3.56240    4.56630    5.64730   13.47860    0.11520   81.91130  149.92650  119.54900    0.14360    3.81820    2.51090  -15.54180    0.24910
 8655.00000    3.61240    4.66470    5.76840   13.44760    0.10880   81.44630  146.99620  127.92750    0.13580    3.74440    2.52420  -15.26930    0.23120
 8655.50000    3.75010    4.76310    5.89080   13.42440    0.10710   81.75960  158.83950  130.52340    0.12590    3.71570    2.52680  -14.99680    0.24000
 8656.00000    3.86660    4.78310    5.94100   13.53870    0.10750   83.18560  144.35420  122.12390    0.12290    3.71130    2.52590  -14.88060    0.25100
 8656.50000    3.66210    4.59780    5.41670   13.47610    0.10750   83.64690  134.77820  115.19410    0.12110    3.74970    2.52700  -14.55220    0.27990
 8657.00000    3.48680    4.28860    4.65640   13.42590    0.09980   83.07620  126.82700  118.36660    0.11950    3.79320    2.54110  -14.07030    0.26270
 8657.50000    4.33890    4.93350    4.93910   13.42640    0.08490   81.93180  120.19290  122.79470    0.12020    3.83190    2.57350  -13.93490    0.26010
 8658.00000    6.15240    7.60860   11.18670   13.46850    0.05110   66.04010  110.40470  105.17630    0.12690    3.86650    2.61910  -13.97340    0.23750
 8658.50000    7.96590   10.28370   17.43430   12.98400    0.00260   61.56350   90.81920   77.07770    0.13160    3.90110    2.71540  -14.01180    0.16200
 8659.00000   12.00290   22.06250   24.45570   12.57400   -0.04330   60.42930  106.62560   55.06280    0.12890    3.87530    2.78820  -14.07030    0.09360
 8659.50000   16.59580   34.28010   34.45680   12.52820   -0.06360   54.26630  108.21550   43.08510    0.10250    3.81020    2.81950  -13.82500    0.05620
 8660.00000   21.08660   44.05510   47.83440   12.53450   -0.05120   52.25250  107.06170   39.84020    0.07600    3.74500    2.80110  -13.66150    0.03820
 8660.50000   23.78100   38.43540   39.44280   12.56200   -0.03730   51.81870  104.60880   40.70180    0.05480    3.67990    2.77160  -13.88880    0.03010
 8661.00000   18.81010   29.06920   31.05110   12.57000   -0.03130   52.65510   93.95280   43.76910    0.05560    3.61470    2.76080  -13.66000    0.02980
 8661.50000   14.15240   21.92420   24.91880   12.58700   -0.03010   56.53850  102.60200   47.02000    0.06800    3.54960    2.76510  -13.43120    0.03180
 8662.00000   10.74780   17.43770   20.29260   12.61740   -0.01330   61.16170  111.80350   56.25720    0.08040    3.49130    2.73370  -13.17950    0.04280
 8662.50000    9.62140   14.28050   15.66640   12.64240    0.01820   64.32260  103.90010   68.05520    0.09270    3.48180    2.68560  -12.84430    0.06610
 8663.00000    8.51190   11.17510   12.40070   12.64560    0.03340   65.91230  111.37510   77.62710    0.10510    3.50820    2.65860  -12.35190    0.10660
 8663.50000    7.84620    9.78090   10.09750   12.69700    0.03540   66.98410  116.84520   82.49120    0.11750    3.54000    2.64670  -12.22170    0.14720
 8664.00000    8.61900   10.38210   10.81930   12.83550    0.02020   67.50920  105.39900   81.76180    0.12170    3.53160    2.67030  -13.23250    0.15470
 8664.50000    9.39190   11.13350   11.61510   12.60460    0.01050   67.16370  119.97930   79.34620    0.11000    3.44190    2.69040  -12.84430    0.13060
 8665.00000    9.80270   12.12770   12.64300   12.57230    0.00740   66.53520  119.20060   78.44680    0.09200    3.31470    2.69680  -12.23110    0.12510
 8665.50000   10.78930   13.72540   14.59970   12.57450    0.01850   66.44940  118.66200   77.87490    0.07390    3.24890    2.68170  -11.20920    0.12830
 8666.00000   10.51410   14.18620   14.63400   12.56370    0.02040   66.21190  118.75290   77.73060    0.07390    3.26010    2.67510  -11.64590    0.13390
 8666.50000   10.17530   13.11990   13.82790   12.55920    0.01960   65.06120  114.50130   75.42840    0.08630    3.34210    2.67760  -11.73340    0.14380
 8667.00000    9.97210   12.80040   13.66670   12.46810    0.01250   62.72150  116.54520   73.21060    0.09860    3.45170    2.69170  -11.54620    0.14970
 8667.50000   10.95870   13.66350   14.01580   12.57810    0.01330   59.50930  113.93810   71.88420    0.09290    3.47290    2.68700  -11.35900    0.13770
 8668.00000   11.86990   14.92160   15.36180   12.47360    0.01850   56.89330  117.25390   69.48360    0.08580    3.45960    2.67930  -11.20920    0.11910
 8668.50000   12.44270   15.92820   16.30600   12.43460    0.02010   59.97920  108.94190   68.12830    0.08750    3.47330    2.67500  -11.05590    0.10650
