~Version ---------------------------------------------------
VERS.   2.0 : CWLS log ASCII Standard -VERSION 2.0
WRAP.    NO : One line per depth step
DLM . SPACE : Column Data Section Delimiter
~Well ------------------------------------------------------
STRT .FT                 37.0 : START DEPTH
STOP .FT              13461.0 : STOP DEPTH
STEP .FT                  0.5 : STEP
NULL .               -9999.25 : NULL VALUE
COMP .                        : COMPANY
WELL .                        : WELL
FLD  .                        : FIELD
LOC  .                        : LOCATION
PROV .                        : PROVINCE
CNTY .                        : COUNTY
STAT .                        : STATE
CTRY .                        : COUNTRY
SRVC .                        : SERVICE COMPANY
DATE .                        : DATE
UWI  .                        : UNIQUE WELL ID
API  .                        : API NUMBER
SLAT .WGS84 4.538054270478895 : SURFACE LATITUDE
SLON .WGS84 2.167060486505804 : SURFACE LONGITUDE
DATUM.F                   nan : DEPTH DATUM ELEV
~Curve Information -----------------------------------------
DEPT   .FT    : 
AT10   .OHMM  : ARRAY INDUCTION TWO FOOT RESISTIVITY A10
AT30   .OHMM  : ARRAY INDUCTION TWO FOOT RESISTIVITY A30
AT90   .OHMM  : ARRAY INDUCTION TWO FOOT RESISTIVITY A90
CALD   .IN    : CALIPER FROM DENSITY LOG
DPHZ_LS.DEC   : HGRD STANDARD RESOLUTION DENSITY POROSITY
DTCO   .US/F  : DELTA-T COMPRESSIONAL
DTSM   .US/F  : DELTA-T SHEAR
GRD    .GAPI  : GAMMA RAY FROM DENSITY LOG
HDRA   .G/C3  : HRDD SPINE AND RIBS DENSITY CORRECTION
PEFZ   .B/E   : HRDD STANDARD RESOLUTION FORMATION PHOTOELECTRIC FACTOR
RHOZ   .G/C3  : HRDD STANDARD RESOLUTION FORMATION DENSITY
SPR    .MV    : SPONTANEOUS POTENTIAL FROM RESISTIVITY LOG
TNPH_LS.DEC   : THERMAL NEUTRON POROSITY [LIMESTONE]
~Params ----------------------------------------------------
~Other -----------------------------------------------------
~ASCII -----------------------------------------------------
# ...
 4691.00000    3.08990    3.39780    3.75000   11.77240    0.12370   -9999.25   -9999.25   85.48020    0.06970    3.17420    2.49770  -39.08510    0.33460
 4691.50000    3.12920    3.50050    3.80690   11.94350    0.13030   -9999.25   -9999.25   84.80390    0.04970    3.00570    2.48720  -39.19870    0.33350
 4692.00000    3.19150    3.60320    3.86390   11.90710    0.12840   -9999.25   -9999.25   82.51830    0.02390    2.90300    2.49350  -39.16570    0.31820
 4692.50000    3.30360    3.70580    3.98290   11.85230    0.13830   -9999.25   -9999.25   81.45960    0.00850    2.79240    2.46360  -38.88700    0.30560
 4693.00000    3.36960    3.81660    4.07790   11.87560    0.13700   -9999.25   -9999.25   75.60860    0.02240    2.81380    2.48520  -38.60820    0.25280
 4693.50000    3.31880    3.69530    4.11580   11.87580    0.12380   -9999.25   -9999.25   73.79910    0.04420    2.88170    2.50070  -38.88700    0.25950
 4694.00000    3.26330    3.57400    3.87770   11.90380    0.11450   -9999.25   -9999.25   70.32400    0.06600    2.94420    2.51480  -39.16570    0.26480
 4694.50000    3.12370    3.45270    3.63950   12.01900    0.11830   -9999.25   -9999.25   74.80980    0.05800    2.95510    2.50250  -38.81260    0.24870
 4695.00000    3.02430    3.35570    3.56470   11.93190    0.12790   -9999.25   -9999.25   72.48990    0.04220    2.95110    2.48490  -37.79070    0.24220
 4695.50000    3.01940    3.35550    3.57790   11.90470    0.13750   -9999.25   -9999.25   77.55340    0.04220    3.04670    2.47110  -37.41600    0.25200
 4696.00000    3.14040    3.45490    3.67350   11.72590    0.14050   -9999.25   -9999.25   81.96960    0.06780    3.15960    2.46940  -37.58630    0.26620
 4696.50000    3.33290    3.64040    3.91710   11.71700    0.13530   -9999.25   -9999.25   87.04800    0.09980    3.41620    2.47550  -36.56440    0.28030
 4697.00000    3.52750    3.82580    4.18680   11.94730    0.13130   -9999.25   -9999.25   90.79940    0.11540    3.50440    2.48240  -35.54250    0.27000
 4697.50000    3.62840    4.01130    4.42670   12.09030    0.12200   -9999.25   -9999.25   92.44390    0.12380    3.56700    2.49930  -34.92940    0.25030
 4698.00000    3.66700    4.19680    4.54730   11.76840    0.11040   -9999.25   -9999.25   89.74850    0.12410    3.52810    2.52050  -34.92940    0.25630
 4698.50000    3.69280    4.26440    4.73660   11.73090    0.10940   -9999.25   -9999.25   87.95900    0.12430    3.50310    2.52360  -34.46220    0.26420
 4699.00000    3.69760    4.25330    4.89210   11.71390    0.11120   -9999.25   -9999.25   88.88730    0.12490    3.47820    2.52480  -34.36730    0.29890
 4699.50000    3.64130    4.24230    4.89210   11.76940    0.11110   -9999.25   -9999.25   91.09310    0.12640    3.46140    2.51820  -35.64470    0.30320
 4700.00000    3.71610    4.28370    4.99760   11.65950    0.12120   -9999.25   -9999.25   89.20650    0.12750    3.43460    2.50360  -36.92210    0.33520
 4700.50000    3.87080    4.51340    5.17440   11.77700    0.13350   -9999.25   -9999.25   79.73430    0.12380    3.40780    2.48210  -37.64470    0.30630
 4701.00000    3.81310    4.60550    5.31600   11.69630    0.14370   -9999.25   -9999.25   71.87450    0.10970    3.36090    2.46210  -38.19950    0.30540
 4701.50000    3.69560    4.46810    4.84590   12.15280    0.13080   -9999.25   -9999.25   71.50640    0.08930    3.23360    2.49390  -38.71040    0.26950
 4702.00000    3.61070    4.23890    4.54800   11.76230    0.10880   -9999.25   -9999.25   71.22640    0.06870    3.15490    2.52130  -37.72260    0.27530
 4702.50000    3.52610    4.00970    4.31300   11.89970    0.10700   -9999.25   -9999.25   75.96970    0.04820    3.04340    2.52900  -35.54250    0.26820
 4703.00000    3.44150    3.81430    4.25470   11.91320    0.10970   -9999.25   -9999.25   72.55830    0.03130    2.94790    2.52130  -35.54250    0.25250
 4703.50000    3.35690    3.79820    4.20810   11.87840    0.10620   -9999.25   -9999.25   71.91410    0.03160    2.90290    2.52560  -36.85060    0.26330
 4704.00000    3.27230    3.73550    4.02900   11.82650    0.10010   -9999.25   -9999.25   71.57550    0.03330    2.82910    2.53650  -38.58780    0.28080
 4704.50000    3.22260    3.60910    3.83550   11.84890    0.10170   -9999.25   -9999.25   74.20530    0.03430    2.77900    2.53650  -39.61880    0.28790
 4705.00000    3.16800    3.48270    3.72490   11.87070    0.10900   -9999.25   -9999.25   76.82330    0.02860    2.72740    2.52180  -39.56200    0.27670
 4705.50000    3.14720    3.38130    3.71240   11.87030    0.11320   -9999.25   -9999.25   79.88560    0.01890    2.72660    2.51600  -39.50530    0.26140
 4706.00000    3.14490    3.44620    3.70950   11.87860    0.11920   -9999.25   -9999.25   79.40260    0.01400    2.72590    2.50720  -39.44850    0.25410
 4706.50000    3.15090    3.48250    3.71840   11.88090    0.12910   -9999.25   -9999.25   76.51750    0.00770    2.74200    2.49050  -38.71040    0.24750
 4707.00000    3.15690    3.51170    3.68760   11.87400    0.13750   -9999.25   -9999.25   75.53690    0.00270    2.75810    2.47440  -38.13140    0.23510
 4707.50000    3.15930    3.54100    3.73140   11.86710    0.13750   -9999.25   -9999.25   71.40600    0.00560    2.77670    2.47260  -38.81260    0.22260
 4708.00000    3.18760    3.57020    3.84510   11.86020    0.11990   -9999.25   -9999.25   70.59540    0.02000    2.79820    2.50040  -39.22140    0.21020
 4708.50000    3.22270    3.59360    3.95190   11.85460    0.11020   -9999.25   -9999.25   70.97160    0.03450    2.76810    2.51920  -38.32030    0.21420
 4709.00000    3.25780    3.56040    3.99480   11.82680    0.10680   -9999.25   -9999.25   76.54410    0.04010    2.76790    2.52880  -36.81840    0.24640
 4709.50000    3.20840    3.52720    3.96510   11.73010    0.11230   -9999.25   -9999.25   78.71210    0.04240    2.78730    2.51870  -37.96220    0.27840
 4710.00000    3.22530    3.49400    3.92800   12.11450    0.11950   -9999.25   -9999.25   76.43850    0.03750    2.77630    2.50410  -39.63020    0.26900
 4710.50000    3.20450    3.48720    3.90570   11.92880    0.12450   -9999.25   -9999.25   73.58080    0.02510    2.76800    2.49690  -39.88560    0.25030
 4711.00000    3.20860    3.59390    3.98340   12.14920    0.12330   -9999.25   -9999.25   75.70130    0.01780    2.72750    2.49760  -40.70880    0.25060
 4711.50000    3.22320    3.59380    4.08070   11.92880    0.11220   -9999.25   -9999.25   77.65410    0.02860    2.77550    2.51570  -43.03620    0.26710
 4712.00000    3.19130    3.59350    4.07680   12.09410    0.10590   -9999.25   -9999.25   80.38720    0.04660    2.82710    2.53080  -44.57470    0.27730
 4712.50000    3.15940    3.59310    3.99630   11.90130    0.11070   -9999.25   -9999.25   74.75270    0.06460    2.87870    2.52030  -46.47090    0.27200
 4713.00000    3.14760    3.51020    3.92530   11.94260    0.11680   -9999.25   -9999.25   71.74370    0.06820    2.93020    2.51120  -45.95430    0.27740
 4713.50000    3.08950    3.41730    3.78660   11.92880    0.11750   -9999.25   -9999.25   68.78760    0.06560    2.98180    2.50790  -46.29730    0.28100
 4714.00000    3.03130    3.32440    3.66580   12.09410    0.11520   -9999.25   -9999.25   77.60420    0.04990    2.93160    2.51150  -46.46620    0.29380
 4714.50000    2.99640    3.31650    3.64000   12.52120    0.11290   -9999.25   -9999.25   73.73760    0.03730    2.82410    2.51640  -46.48660    0.29550
 4715.00000    3.01890    3.34360    3.68450   11.98390    0.11170   -9999.25   -9999.25   76.37670    0.02610    2.71380    2.51860  -45.80290    0.29610
 4715.50000    3.05100    3.37070    3.75100   12.17680    0.12100   -9999.25   -9999.25   69.56200    0.01500    2.70590    2.50300  -45.43170    0.28960
 4716.00000    3.10460    3.39790    3.77310   11.91500    0.13940   -9999.25   -9999.25   72.65570    0.01190    2.77770    2.46970  -44.97280    0.25880
 4716.50000    3.15820    3.42500    3.84460   11.91500    0.14390   -9999.25   -9999.25   75.05140    0.01870    2.88660    2.46350  -44.11490    0.22980
