~Version ---------------------------------------------------
VERS.   2.0 : CWLS log ASCII Standard -VERSION 2.0
WRAP.    NO : One line per depth step
DLM . SPACE : Column Data Section Delimiter
~Well ------------------------------------------------------
STRT .FT                 37.0 : START DEPTH
STOP .FT              13461.0 : STOP DEPTH
STEP .FT                  0.5 : STEP
NULL .               -9999.25 : NULL VALUE
COMP .                        : COMPANY
WELL .                        : WELL
FLD  .                        : FIELD
LOC  .                        : LOCATION
PROV .                        : PROVINCE
CNTY .                        : COUNTY
STAT .                        : STATE
CTRY .                        : COUNTRY
SRVC .                        : SERVICE COMPANY
DATE .                        : DATE
UWI  .                        : UNIQUE WELL ID
API  .                        : API NUMBER
SLAT .WGS84 4.538054270478895 : SURFACE LATITUDE
SLON .WGS84 2.167060486505804 : SURFACE LONGITUDE
DATUM.F                   nan : DEPTH DATUM ELEV
~Curve Information -----------------------------------------
DEPT   .FT    : 
AT10   .OHMM  : ARRAY INDUCTION TWO FOOT RESISTIVITY A10
AT30   .OHMM  : ARRAY INDUCTION TWO FOOT RESISTIVITY A30
AT90   .OHMM  : ARRAY INDUCTION TWO FOOT RESISTIVITY A90
CALD   .IN    : CALIPER FROM DENSITY LOG
DPHZ_LS.DEC   : HGRD STANDARD RESOLUTION DENSITY POROSITY
DTCO   .US/F  : DELTA-T COMPRESSIONAL
DTSM   .US/F  : DELTA-T SHEAR
GRD    .GAPI  : GAMMA RAY FROM DENSITY LOG
HDRA   .G/C3  : HRDD SPINE AND RIBS DENSITY CORRECTION
PEFZ   .B/E   : HRDD STANDARD RESOLUTION FORMATION PHOTOELECTRIC FACTOR
RHOZ   .G/C3  : HRDD STANDARD RESOLUTION FORMATION DENSITY
SPR    .MV    : SPONTANEOUS POTENTIAL FROM RESISTIVITY LOG
TNPH_LS.DEC   : THERMAL NEUTRON POROSITY [LIMESTONE]
~Params ----------------------------------------------------
~Other -----------------------------------------------------
~ASCII -----------------------------------------------------
# ...
 5471.00000    7.54380    5.68060    3.64790   11.98320    0.09140   -9999.25   -9999.25   60.86650    0.07720    3.77080    2.55670  -70.44690    0.12250
 5471.50000    7.35770    5.55890    3.56650   11.83140    0.10050   -9999.25   -9999.25   65.64960    0.06990    3.74170    2.53960  -72.48550    0.11890
 5472.00000    7.16950    5.53060    3.51050   11.98270    0.11070   -9999.25   -9999.25   58.37620    0.06680    3.70380    2.51930  -73.63710    0.12540
 5472.50000    6.99450    5.50230    3.49270   11.94790    0.11670   -9999.25   -9999.25   54.98220    0.05940    3.60480    2.50960  -71.67980    0.13560
 5473.00000    6.79000    5.50310    3.47480   11.86150    0.12200   -9999.25   -9999.25   51.72490    0.05330    3.52410    2.49850  -69.69390    0.13950
 5473.50000    6.71800    5.51110    3.50800   11.84400    0.11450   -9999.25   -9999.25   56.05110    0.05020    3.53810    2.51090  -67.57050    0.13360
 5474.00000    6.64080    5.51920    3.54890   11.89680    0.10930   -9999.25   -9999.25   56.90460    0.07050    3.63210    2.52250  -64.43880    0.12940
 5474.50000    6.45000    5.52720    3.69630   11.95360    0.10810   -9999.25   -9999.25   61.44580    0.08250    3.72620    2.52590  -61.30710    0.12890
 5475.00000    6.18710    5.53530    3.81660   11.91200    0.11140   -9999.25   -9999.25   67.45190    0.08650    3.79710    2.51950  -58.16920    0.13880
 5475.50000    6.01800    5.54340    4.01150   11.84280    0.10800   -9999.25   -9999.25   73.45810    0.09290    3.84490    2.52430  -55.00680    0.14860
 5476.00000    6.15130    5.64440    4.31830   11.85620    0.10590   -9999.25   -9999.25   77.01830    0.09700    3.82470    2.52560  -51.84430    0.17100
 5476.50000    6.50360    5.88500    4.62510   12.10320    0.09820   -9999.25   -9999.25   80.04870    0.10080    3.79500    2.53990  -50.13700    0.17570
 5477.00000    6.78100    6.12560    4.92780   12.00010    0.09040   -9999.25   -9999.25   77.18940    0.11410    3.76940    2.55360  -48.77050    0.17190
 5477.50000    6.97290    6.36620    5.22460   12.18510    0.08450   -9999.25   -9999.25   77.02780    0.11410    3.64180    2.56520  -48.89780    0.16320
 5478.00000    7.12330    6.68280    5.52140   12.94250    0.09130   -9999.25   -9999.25   75.38350    0.09800    3.49920    2.55270  -49.55040    0.16080
 5478.50000    7.74320    7.30320    6.21960   12.15690    0.10060   -9999.25   -9999.25   72.35770    0.08200    3.36790    2.53880  -50.20300    0.15620
 5479.00000    8.67860    7.92370    7.18550   12.48710    0.09500   -9999.25   -9999.25   65.46030    0.07870    3.25640    2.54660  -51.58570    0.15150
 5479.50000    8.09090    7.42390    6.66900   12.10100    0.09900   -9999.25   -9999.25   65.39760    0.09460    3.24600    2.55180  -54.06350    0.16060
 5480.00000    6.61790    6.01400    5.64500   12.51400    0.13260   -9999.25   -9999.25   72.52640    0.11970    3.40810    2.49400  -59.60500    0.18230
 5480.50000    5.64610    5.44590    5.09790   11.94260    0.16620   -9999.25   -9999.25   79.22730    0.14720    3.60020    2.42420  -62.52110    0.20390
 5481.00000    5.28910    5.07730    4.86880   12.79680    0.18640   -9999.25   -9999.25   84.28460    0.18500    3.71930    2.38840  -54.74350    0.21640
 5481.50000    5.00350    4.90850    4.63960   13.30650    0.17530   -9999.25   -9999.25   85.94420    0.20940    3.83550    2.40140  -49.87850    0.23700
 5482.00000    5.38070    4.81810    4.67480   12.40550    0.16380   -9999.25   -9999.25   84.39190    0.21000    3.90910    2.43070  -52.69910    0.24050
 5482.50000    6.76160    5.88570    5.17150   12.96210    0.16610   -9999.25   -9999.25   75.38510    0.18130    3.96080    2.42560  -53.47710    0.21980
 5483.00000    9.19080    7.99670    6.48860   12.82430    0.17000   -9999.25   -9999.25   65.95930    0.13450    3.95840    2.42010  -50.05370    0.18710
 5483.50000   11.61990   10.62530    8.05180   12.71210    0.15110   -9999.25   -9999.25   56.13720    0.09450    3.90650    2.43460  -51.59530    0.15710
 5484.00000   13.48020   13.25390   11.21260   12.90890    0.10880   -9999.25   -9999.25   49.67370    0.08120    3.80790    2.52450  -54.42750    0.13450
 5484.50000   14.51110   13.66040   12.66680   12.36970    0.05400   -9999.25   -9999.25   43.51320    0.06930    3.77690    2.62130  -58.62610    0.09840
 5485.00000   12.39810   13.74700   12.32880   12.83810    0.00730   -9999.25   -9999.25   41.96170    0.06310    3.81010    2.70330  -63.63340    0.10090
 5485.50000   12.39580   13.83370   11.78640   12.20050   -0.01840   -9999.25   -9999.25   39.99960    0.05730    3.84340    2.74440  -62.95280    0.10710
 5486.00000   12.95710   14.36160   11.56940   12.18040   -0.00430   -9999.25   -9999.25   41.05090    0.05460    3.88900    2.71930  -61.85530    0.10950
 5486.50000   12.76020   15.18380   11.11330   12.16740    0.01680   -9999.25   -9999.25   45.64550    0.06960    3.83040    2.68210  -62.35160    0.09920
 5487.00000   12.26320   15.05310   10.12830   12.15440    0.03030   -9999.25   -9999.25   46.06460    0.08470    3.73830    2.65680  -62.97190    0.08840
 5487.50000   11.76610   14.39980    9.14320   12.03900    0.03170   -9999.25   -9999.25   43.40060    0.09970    3.63060    2.65670  -63.59220    0.08590
 5488.00000   11.26910   13.74650    8.49860   12.19060    0.02790   -9999.25   -9999.25   38.12460    0.10570    3.56500    2.66090  -62.99200    0.08130
 5488.50000   10.77200   13.27560    8.08090   12.06660    0.02300   -9999.25   -9999.25   40.13560    0.09760    3.52660    2.66910  -62.23340    0.07550
 5489.00000   10.27500   13.38410    7.66330   12.15270    0.02090   -9999.25   -9999.25   42.07010    0.07720    3.45500    2.67220  -62.72860    0.06970
 5489.50000   10.45170   13.49250    7.66660   12.23440    0.02090   -9999.25   -9999.25   44.06110    0.05690    3.44110    2.67850  -60.00490    0.06480
 5490.00000   10.72790   14.54460    8.10100   12.30970    0.01570   -9999.25   -9999.25   43.32580    0.03660    3.49250    2.68430  -55.79630    0.06080
 5490.50000    9.61990   15.41480    8.19880   12.32050    0.02030   -9999.25   -9999.25   47.67450    0.02210    3.57570    2.67340  -53.78300    0.05690
 5491.00000    8.51180   14.28260    7.79180   12.27360    0.03240   -9999.25   -9999.25   48.43190    0.01660    3.94700    2.65390  -57.20040    0.05560
 5491.50000    7.40370   13.05530    7.41000   12.31460    0.05140   -9999.25   -9999.25   46.06800    0.01200    4.36680    2.62520  -59.25090    0.06130
 5492.00000    6.44800   13.05530    8.23090   12.30860    0.06240   -9999.25   -9999.25   38.83780    0.00940    4.71800    2.60420  -54.40210    0.06780
 5492.50000    6.22260   14.90820    9.25710   12.25930    0.06970   -9999.25   -9999.25   31.49680    0.00760    4.95720    2.59020  -51.76740    0.08930
 5493.00000    6.27140   22.78970   12.63970   12.20990    0.07560   -9999.25   -9999.25   29.51020    0.00760    5.01910    2.57910  -48.76740    0.10910
 5493.50000    6.10390   32.31010   19.55660   12.20820    0.06920   -9999.25   -9999.25   29.42640    0.00760    4.89580    2.59080  -44.53530    0.12210
 5494.00000    4.85500   23.97310   23.35160   12.20640    0.08530   -9999.25   -9999.25   36.43820    0.01630    4.77250    2.57020  -39.68120    0.15510
 5494.50000    3.52460   10.07790   13.86590   12.20220    0.12190   -9999.25   -9999.25   50.54330    0.03740    4.64920    2.50070  -35.76040    0.20250
 5495.00000    2.31040    4.45940    7.84820   12.20860    0.18290   -9999.25   -9999.25   72.25040    0.05840    4.42470    2.42700  -33.23970    0.27160
 5495.50000    1.78820    2.84310    4.11160   12.70230    0.22030   -9999.25   -9999.25   98.58300    0.07950    4.31690    2.34790  -30.71900    0.29920
 5496.00000    1.63990    2.45530    4.08060   13.43050    0.23920   -9999.25   -9999.25  107.41900    0.10060    4.24530    2.29980  -28.87210    0.31370
 5496.50000    1.60870    2.43020    4.23230   13.41670    0.23470   -9999.25   -9999.25  107.90280    0.09930    4.13550    2.30540  -28.03600    0.30250
