~Version ---------------------------------------------------
VERS.   2.0 : CWLS log ASCII Standard -VERSION 2.0
WRAP.    NO : One line per depth step
DLM . SPACE : Column Data Section Delimiter
~Well ------------------------------------------------------
STRT .FT                 37.0 : START DEPTH
STOP .FT              13461.0 : STOP DEPTH
STEP .FT                  0.5 : STEP
NULL .               -9999.25 : NULL VALUE
COMP .                        : COMPANY
WELL .                        : WELL
FLD  .                        : FIELD
LOC  .                        : LOCATION
PROV .                        : PROVINCE
CNTY .                        : COUNTY
STAT .                        : STATE
CTRY .                        : COUNTRY
SRVC .                        : SERVICE COMPANY
DATE .                        : DATE
UWI  .                        : UNIQUE WELL ID
API  .                        : API NUMBER
SLAT .WGS84 4.538054270478895 : SURFACE LATITUDE
SLON .WGS84 2.167060486505804 : SURFACE LONGITUDE
DATUM.F                   nan : DEPTH DATUM ELEV
~Curve Information -----------------------------------------
DEPT   .FT    : 
AT10   .OHMM  : ARRAY INDUCTION TWO FOOT RESISTIVITY A10
AT30   .OHMM  : ARRAY INDUCTION TWO FOOT RESISTIVITY A30
AT90   .OHMM  : ARRAY INDUCTION TWO FOOT RESISTIVITY A90
CALD   .IN    : CALIPER FROM DENSITY LOG
DPHZ_LS.DEC   : HGRD STANDARD RESOLUTION DENSITY POROSITY
DTCO   .US/F  : DELTA-T COMPRESSIONAL
DTSM   .US/F  : DELTA-T SHEAR
GRD    .GAPI  : GAMMA RAY FROM DENSITY LOG
HDRA   .G/C3  : HRDD SPINE AND RIBS DENSITY CORRECTION
PEFZ   .B/E   : HRDD STANDARD RESOLUTION FORMATION PHOTOELECTRIC FACTOR
RHOZ   .G/C3  : HRDD STANDARD RESOLUTION FORMATION DENSITY
SPR    .MV    : SPONTANEOUS POTENTIAL FROM RESISTIVITY LOG
TNPH_LS.DEC   : THERMAL NEUTRON POROSITY [LIMESTONE]
~Params ----------------------------------------------------
~Other -----------------------------------------------------
~ASCII -----------------------------------------------------
# ...
 3105.00000    1.87650    2.89990    4.25460   14.08700    0.19640   -9999.25   -9999.25  100.87010    0.07660    3.74420    2.37500  -36.48070    0.33990
 3105.50000    1.87340    2.88410    4.25370   13.61860    0.19820   -9999.25   -9999.25  103.06140    0.07000    3.74000    2.36900  -37.03960    0.35370
 3106.00000    1.85570    2.72730    3.85230   13.58190    0.20370   -9999.25   -9999.25  106.20290    0.06340    3.73580    2.36320  -39.41390    0.35630
 3106.50000    1.74480    2.56250    3.62780   13.71500    0.21760   -9999.25   -9999.25  110.22440    0.06930    3.78890    2.33730  -38.51720    0.35880
 3107.00000    1.66160    2.36590    3.46620   13.17770    0.23700   -9999.25   -9999.25  113.31860    0.08190    3.89410    2.30550  -37.69690    0.38670
 3107.50000    1.61110    2.16930    2.74170   13.32930    0.24900   -9999.25   -9999.25  112.69920    0.09450    4.06630    2.28400  -39.93050    0.39230
 3108.00000    1.68110    2.28300    3.00010   13.45330    0.23430   -9999.25   -9999.25  105.20650    0.09960    4.19030    2.29970  -39.93050    0.37520
 3108.50000    1.87030    2.77140    3.46540   13.08820    0.21000   -9999.25   -9999.25   98.14330    0.09780    4.24480    2.34520  -39.18230    0.34880
 3109.00000    2.11170    3.25970    3.90050   12.81950    0.18330   -9999.25   -9999.25   93.90500    0.08900    4.21310    2.38470  -37.91900    0.32240
 3109.50000    2.25590    3.52920    4.31560   12.87460    0.17060   -9999.25   -9999.25   96.89630    0.08020    4.15850    2.41050  -37.26400    0.30090
 3110.00000    2.33240    3.79870    4.75150   12.88840    0.16570   -9999.25   -9999.25   95.62460    0.07660    4.14550    2.42270  -36.44350    0.29580
 3110.50000    2.41240    3.90690    5.20640   13.20530    0.16180   -9999.25   -9999.25   92.52410    0.07840    4.13250    2.43050  -36.15560    0.30010
 3111.00000    2.14200    3.62730    4.56320   12.96190    0.15830   -9999.25   -9999.25   88.30250    0.08130    4.11950    2.43820  -42.08270    0.30260
 3111.50000    1.93860    3.00050    3.77810   12.53020    0.17560   -9999.25   -9999.25   85.16350    0.08430    4.00500    2.41800  -48.00980    0.30020
 3112.00000    1.99470    3.02400    3.46460   13.23280    0.18370   -9999.25   -9999.25   89.49360    0.08720    3.81580    2.39400  -50.39430    0.28540
 3112.50000    2.70670    4.63120    9.81670   12.79200    0.16260   -9999.25   -9999.25   79.96520    0.07750    3.78240    2.42380  -51.27990    0.25480
 3113.00000    3.69080    8.67310   14.89890   12.61440    0.14150   -9999.25   -9999.25   75.08190    0.06690    3.86030    2.45500  -51.79090    0.21390
 3113.50000    3.01030    9.51600   13.80620   12.48430    0.14980   -9999.25   -9999.25   79.78300    0.06720    3.98580    2.44850  -54.34570    0.20160
 3114.00000    2.07310    5.64300    9.44540   12.40620    0.19670   -9999.25   -9999.25   95.28990    0.06750    3.86460    2.36710  -57.41140    0.26220
 3114.50000    1.67520    2.48240    5.08470   13.05370    0.24720   -9999.25   -9999.25  113.61670    0.06770    3.66280    2.30210  -58.91640    0.29860
 3115.00000    1.52880    2.17190    3.02830   12.95730    0.24540   -9999.25   -9999.25  116.70950    0.06780    3.46090    2.28490  -59.38090    0.39570
 3115.50000    1.51250    2.13980    3.36700   12.92980    0.25250   -9999.25   -9999.25  111.49030    0.06510    3.28110    2.27690  -60.34090    0.37210
 3116.00000    1.60230    2.37660    4.35350   13.06750    0.25750   -9999.25   -9999.25  109.65410    0.06070    3.27740    2.26750  -61.38230    0.35380
 3116.50000    1.75790    2.71690    5.14290   12.88840    0.25080   -9999.25   -9999.25  111.57630    0.05630    3.32660    2.27940  -59.77640    0.35040
 3117.00000    1.75780    2.75980    4.95360   12.50270    0.22820   -9999.25   -9999.25  113.89340    0.05370    3.36540    2.31650  -59.45530    0.35620
 3117.50000    1.68210    2.39950    4.19590   12.73690    0.19510   -9999.25   -9999.25  113.24250    0.05840    3.32760    2.37640  -59.86400    0.35110
 3118.00000    1.70480    2.31040    4.17200   12.73690    0.18060   -9999.25   -9999.25  115.37420    0.06430    3.33240    2.40330  -62.17260    0.33030
 3118.50000    1.88380    2.66460    4.67320   13.42570    0.17210   -9999.25   -9999.25  113.60700    0.07010    3.37660    2.41570  -63.71170    0.30950
 3119.00000    2.11790    2.85610    4.66740   12.98490    0.18780   -9999.25   -9999.25  113.77310    0.07490    3.37880    2.38830  -62.97940    0.32470
 3119.50000    2.12770    2.78060    4.18240   13.30170    0.19900   -9999.25   -9999.25  109.89960    0.07040    3.31790    2.36630  -64.34600    0.30660
 3120.00000    2.14110    2.70500    3.70680   12.91600    0.20420   -9999.25   -9999.25  108.67080    0.06480    3.24400    2.36730  -66.14890    0.32070
 3120.50000    2.27040    2.62950    3.37410   12.81970    0.17800   -9999.25   -9999.25  107.66320    0.05930    3.15070    2.42370  -67.65500    0.31150
 3121.00000    2.51500    2.90260    3.35860   12.80610    0.14510   -9999.25   -9999.25   98.76010    0.05370    2.98920    2.46980  -65.56520    0.30310
 3121.50000    2.81410    3.17570    3.34820   12.56510    0.12500   -9999.25   -9999.25   87.03400    0.04820    2.87220    2.49720  -59.06500    0.30010
 3122.00000    2.81710    3.19960    3.05700   12.36550    0.12900   -9999.25   -9999.25   79.74550    0.04390    2.82720    2.48700  -55.95970    0.21190
 3122.50000    2.79260    2.92210    2.76570   12.33810    0.13280   -9999.25   -9999.25   83.73530    0.05160    2.87950    2.48220  -55.96800    0.19340
 3123.00000    2.79260    2.85640    2.47440   12.32450    0.12740   -9999.25   -9999.25   87.53920    0.06440    2.97920    2.49400  -57.07720    0.18090
 3123.50000    2.79220    2.89300    2.52810   12.29710    0.11600   -9999.25   -9999.25   85.88900    0.06960    2.85330    2.51240  -54.58070    0.19670
 3124.00000    2.72950    3.07700    2.70890   12.36610    0.11000   -9999.25   -9999.25   87.74460    0.05230    2.70680    2.52030  -51.42950    0.19320
 3124.50000    2.57150    3.12670    2.74190   12.22850    0.11000   -9999.25   -9999.25   86.09430    0.02360    2.57070    2.52060  -51.94870    0.18900
 3125.00000    2.41350    3.02310    2.80800   12.24250    0.11570   -9999.25   -9999.25   89.79640    0.00070    2.47640    2.50650  -53.88430    0.16640
 3125.50000    2.26940    2.91950    2.88960   12.29770    0.12960   -9999.25   -9999.25   83.29980    0.00070    2.50090    2.47210  -55.69730    0.17690
 3126.00000    2.18030    2.88140    2.97120   12.28410    0.15760   -9999.25   -9999.25   88.61880    0.02590    2.65700    2.42610  -57.61420    0.18960
 3126.50000    2.09120    2.79460    3.12650   12.21080    0.19370   -9999.25   -9999.25   96.05850    0.05630    2.94660    2.37160  -58.47000    0.22000
 3127.00000    2.00200    2.70780    3.30030   12.20170    0.22500   -9999.25   -9999.25  104.88870    0.08670    3.41790    2.32440  -57.00450    0.25040
 3127.50000    1.91290    2.83410    3.47400   12.75300    0.24280   -9999.25   -9999.25  110.56270    0.11710    3.71280    2.29400  -56.70660    0.28080
 3128.00000    1.80010    2.76640    3.77130   12.69800    0.25320   -9999.25   -9999.25  109.06880    0.14750    4.00780    2.27040  -57.49500    0.29900
 3128.50000    1.68960    2.49220    3.70580   12.45850    0.26560   -9999.25   -9999.25  107.09510    0.15970    4.08740    2.25000  -58.12460    0.33490
 3129.00000    1.62650    2.32760    4.10440   12.79480    0.27060   -9999.25   -9999.25  112.04660    0.15410    4.04320    2.24760  -57.37570    0.33480
 3129.50000    1.88920    3.05450    6.87820   13.52410    0.24900   -9999.25   -9999.25  119.02530    0.14710    3.77540    2.29830  -55.04150    0.34420
 3130.00000    2.04690    4.38870   10.07150   12.86920    0.21480   -9999.25   -9999.25  115.93460    0.13450    3.65290    2.34100  -54.51450    0.33620
 3130.50000    1.96720    4.02980    8.85100   12.34800    0.20190   -9999.25   -9999.25  111.67990    0.11340    3.60790    2.36360  -58.01200    0.31970
