~Version ---------------------------------------------------
VERS.   2.0 : CWLS log ASCII Standard -VERSION 2.0
WRAP.    NO : One line per depth step
DLM . SPACE : Column Data Section Delimiter
~Well ------------------------------------------------------
STRT .FT                 37.0 : START DEPTH
STOP .FT              13461.0 : STOP DEPTH
STEP .FT                  0.5 : STEP
NULL .               -9999.25 : NULL VALUE
COMP .                        : COMPANY
WELL .                        : WELL
FLD  .                        : FIELD
LOC  .                        : LOCATION
PROV .                        : PROVINCE
CNTY .                        : COUNTY
STAT .                        : STATE
CTRY .                        : COUNTRY
SRVC .                        : SERVICE COMPANY
DATE .                        : DATE
UWI  .                        : UNIQUE WELL ID
API  .                        : API NUMBER
SLAT .WGS84 4.538054270478895 : SURFACE LATITUDE
SLON .WGS84 2.167060486505804 : SURFACE LONGITUDE
DATUM.F                   nan : DEPTH DATUM ELEV
~Curve Information -----------------------------------------
DEPT   .FT    : 
AT10   .OHMM  : ARRAY INDUCTION TWO FOOT RESISTIVITY A10
AT30   .OHMM  : ARRAY INDUCTION TWO FOOT RESISTIVITY A30
AT90   .OHMM  : ARRAY INDUCTION TWO FOOT RESISTIVITY A90
CALD   .IN    : CALIPER FROM DENSITY LOG
DPHZ_LS.DEC   : HGRD STANDARD RESOLUTION DENSITY POROSITY
DTCO   .US/F  : DELTA-T COMPRESSIONAL
DTSM   .US/F  : DELTA-T SHEAR
GRD    .GAPI  : GAMMA RAY FROM DENSITY LOG
HDRA   .G/C3  : HRDD SPINE AND RIBS DENSITY CORRECTION
PEFZ   .B/E   : HRDD STANDARD RESOLUTION FORMATION PHOTOELECTRIC FACTOR
RHOZ   .G/C3  : HRDD STANDARD RESOLUTION FORMATION DENSITY
SPR    .MV    : SPONTANEOUS POTENTIAL FROM RESISTIVITY LOG
TNPH_LS.DEC   : THERMAL NEUTRON POROSITY [LIMESTONE]
~Params ----------------------------------------------------
~Other -----------------------------------------------------
~ASCII -----------------------------------------------------
# ...
 11035.00000    2.41250    2.58760    2.67350    8.29570    0.12590   -9999.25   -9999.25  120.45530    0.03440    3.70330    2.49770   -9999.25    0.35710
 11035.50000    2.46540    2.63960    2.72730    8.42300    0.10920   -9999.25   -9999.25  113.74620    0.04950    3.83050    2.50860   -9999.25    0.38150
 11036.00000    2.51820    2.69170    2.78100    8.42280    0.09010   -9999.25   -9999.25  116.05240    0.06450    3.88100    2.55620   -9999.25    0.34320
 11036.50000    2.49310    2.68900    2.77830    8.42280    0.07940   -9999.25   -9999.25  121.93970    0.06040    3.69170    2.57660   -9999.25    0.35900
 11037.00000    2.43660    2.63020    2.71750    8.42280    0.09440   -9999.25   -9999.25  125.46540    0.04000    3.50240    2.54680   -9999.25    0.32830
 11037.50000    2.38000    2.57150    2.65680    8.42280    0.12440   -9999.25   -9999.25  120.32790    0.02370    3.46420    2.49760   -9999.25    0.32970
 11038.00000    2.35640    2.57200    2.65740    8.42280    0.16480   -9999.25   -9999.25  115.68190    0.03780    3.82980    2.44850   -9999.25    0.34580
 11038.50000    2.44570    2.59250    2.67850    8.43740    0.18810   -9999.25   -9999.25  116.80920    0.07070    4.28700    2.39220   -9999.25    0.38250
 11039.00000    2.47200    2.58480    2.67060    8.47550    0.18420   -9999.25   -9999.25  120.31880    0.09710    4.74420    2.37930   -9999.25    0.41320
 11039.50000    2.48280    2.57710    2.66260    8.49060    0.15350   -9999.25   -9999.25  121.70900    0.08600    4.74370    2.42860   -9999.25    0.41320
 11040.00000    2.46000    2.58240    2.67190    8.49060    0.11970   -9999.25   -9999.25  119.60140    0.06070    4.25410    2.50390   -9999.25    0.38700
 11040.50000    2.47360    2.61700    2.72660    8.48960    0.12260   -9999.25   -9999.25  121.73180    0.03530    3.63060    2.50370   -9999.25    0.36800
 11041.00000    2.49620    2.65160    2.78140    8.46910    0.12600   -9999.25   -9999.25  125.23700    0.01510    3.46860    2.49540   -9999.25    0.35300
 11041.50000    2.51870    2.68620    2.83620    8.45270    0.12190   -9999.25   -9999.25  125.20930    0.01880    3.71390    2.50080   -9999.25    0.33140
 11042.00000    2.53690    2.72080    2.89100    8.50450    0.09360   -9999.25   -9999.25  121.27170    0.03750    3.99180    2.53050   -9999.25    0.34600
 11042.50000    2.54150    2.75550    2.91310    8.55640    0.09580   -9999.25   -9999.25  119.23220    0.04870    3.94370    2.54370   -9999.25    0.31520
 11043.00000    2.55550    2.78320    2.89270    8.48070    0.10090   -9999.25   -9999.25  120.72810    0.04870    3.74810    2.53500   -9999.25    0.30670
 11043.50000    2.52580    2.76400    2.85830    8.59110    0.11120   -9999.25   -9999.25  119.28870    0.03680    3.52270    2.51090   -9999.25    0.30020
 11044.00000    2.47230    2.73170    2.82400    9.03250    0.12340   -9999.25   -9999.25  116.54120    0.02660    3.48180    2.49750   -9999.25    0.31130
 11044.50000    2.45770    2.69940    2.78960    8.48120    0.12090   -9999.25   -9999.25  124.11910    0.02690    3.53270    2.50440   -9999.25    0.33770
 11045.00000    2.45270    2.66300    2.75140    8.74310    0.11820   -9999.25   -9999.25  134.92590    0.02900    3.53250    2.50580   -9999.25    0.36320
 11045.50000    2.44700    2.65850    2.74680    8.63580    0.11370   -9999.25   -9999.25  143.24530    0.03020    3.44800    2.51900   -9999.25    0.38030
 11046.00000    2.43850    2.64670    2.73460    8.55050    0.11760   -9999.25   -9999.25  128.64830    0.02520    3.30040    2.50470   -9999.25    0.36640
 11046.50000    2.43000    2.63490    2.72240    8.55070    0.12490   -9999.25   -9999.25  120.05320    0.02050    3.31720    2.49420   -9999.25    0.35710
 11047.00000    2.42850    2.63040    2.71780    8.56460    0.13200   -9999.25   -9999.25  115.87000    0.02610    3.38930    2.48290   -9999.25    0.35730
 11047.50000    2.49300    2.68000    2.76900    8.73010    0.12480   -9999.25   -9999.25  116.00680    0.03530    3.66020    2.50150   -9999.25    0.37030
 11048.00000    2.55520    2.73410    2.82490    8.59530    0.11430   -9999.25   -9999.25  117.31260    0.03410    3.68800    2.52020   -9999.25    0.34970
 11048.50000    2.58320    2.78820    2.88080    8.71850    0.10660   -9999.25   -9999.25  118.12910    0.02670    3.68420    2.52950   -9999.25    0.32290
 11049.00000    2.53920    2.71690    2.80710    8.90970    0.09840   -9999.25   -9999.25  118.18420    0.03230    3.73570    2.54530   -9999.25    0.30000
 11049.50000    2.43060    2.62490    2.71210    8.66190    0.09070   -9999.25   -9999.25  115.11250    0.04190    3.87820    2.55590   -9999.25    0.29770
 11050.00000    2.30870    2.53300    2.61710    8.81620    0.09600   -9999.25   -9999.25  114.79670    0.05150    3.95650    2.54440   -9999.25    0.31210
 11050.50000    2.37870    2.53400    2.62650    8.57610    0.11000   -9999.25   -9999.25  115.46220    0.05620    3.95720    2.51940   -9999.25    0.32980
 11051.00000    2.41760    2.53970    2.67380    8.79640    0.12120   -9999.25   -9999.25  121.20770    0.04800    3.95800    2.50500   -9999.25    0.35040
 11051.50000    2.42560    2.54530    2.69780    8.86510    0.11170   -9999.25   -9999.25  122.95570    0.03780    3.70060    2.52110   -9999.25    0.37090
 11052.00000    2.42190    2.55100    2.73030    8.60320    0.11890   -9999.25   -9999.25  124.32690    0.02760    3.53950    2.50580   -9999.25    0.36840
 11052.50000    2.41830    2.55670    2.70520    8.61330    0.11890   -9999.25   -9999.25  121.28810    0.01730    3.37400    2.50670   -9999.25    0.35320
 11053.00000    2.41460    2.56240    2.66570    8.63390    0.12920   -9999.25   -9999.25  123.27950    0.01030    3.25960    2.49100   -9999.25    0.32870
 11053.50000    2.41850    2.56850    2.65380    8.61520    0.11990   -9999.25   -9999.25  123.27180    0.01030    3.23050    2.50640   -9999.25    0.32550
 11054.00000    2.42610    2.58790    2.67390    8.59180    0.11470   -9999.25   -9999.25  128.91100    0.01030    3.23050    2.51710   -9999.25    0.33390
 11054.50000    2.45270    2.60740    2.69400    8.56850    0.10720   -9999.25   -9999.25  135.44320    0.01120    3.23050    2.52880   -9999.25    0.35830
 11055.00000    2.47050    2.62690    2.71410    8.60480    0.10780   -9999.25   -9999.25  130.52020    0.00930    3.23050    2.52070   -9999.25    0.39290
 11055.50000    2.46010    2.62740    2.71470    8.53030    0.11970   -9999.25   -9999.25  122.32050    0.00600    3.23670    2.49960   -9999.25    0.38940
 11056.00000    2.44970    2.62200    2.70910    8.58900    0.13170   -9999.25   -9999.25  115.27310    0.00330    3.25000    2.47930   -9999.25    0.38420
 11056.50000    2.46050    2.61660    2.70350    8.62470    0.13920   -9999.25   -9999.25  113.32100    0.00330    3.26330    2.47170   -9999.25    0.37860
 11057.00000    2.46870    2.60620    2.69270    8.87710    0.12700   -9999.25   -9999.25  120.01940    0.00680    3.27400    2.49840   -9999.25    0.37350
 11057.50000    2.45520    2.57070    2.65610    8.53260    0.11250   -9999.25   -9999.25  122.20920    0.01030    3.24280    2.51390   -9999.25    0.36440
 11058.00000    2.38870    2.53530    2.61950    8.56000    0.11250   -9999.25   -9999.25  124.99740    0.01400    3.21120    2.51610   -9999.25    0.37070
 11058.50000    2.40540    2.51390    2.59740    8.57360    0.12000   -9999.25   -9999.25  126.62210    0.01250    3.25680    2.49750   -9999.25    0.36180
 11059.00000    2.42760    2.57160    2.65700    8.68370    0.12320   -9999.25   -9999.25  125.94880    0.00870    3.37970    2.50020   -9999.25    0.36930
 11059.50000    2.41220    2.62920    2.71650    8.57930    0.10820   -9999.25   -9999.25  125.60930    0.01750    3.48030    2.52820   -9999.25    0.36570
 11060.00000    2.37390    2.56530    2.65050    8.56950    0.10460   -9999.25   -9999.25  125.60970    0.02030    3.48860    2.52980   -9999.25    0.38090
 11060.50000    2.35120    2.53030    2.61440    8.55500    0.12340   -9999.25   -9999.25  121.60300    0.01620    3.43310    2.49820   -9999.25    0.35900
