~Version ---------------------------------------------------
VERS.   2.0 : CWLS log ASCII Standard -VERSION 2.0
WRAP.    NO : One line per depth step
DLM . SPACE : Column Data Section Delimiter
~Well ------------------------------------------------------
STRT .FT                 37.0 : START DEPTH
STOP .FT              13461.0 : STOP DEPTH
STEP .FT                  0.5 : STEP
NULL .               -9999.25 : NULL VALUE
COMP .                        : COMPANY
WELL .                        : WELL
FLD  .                        : FIELD
LOC  .                        : LOCATION
PROV .                        : PROVINCE
CNTY .                        : COUNTY
STAT .                        : STATE
CTRY .                        : COUNTRY
SRVC .                        : SERVICE COMPANY
DATE .                        : DATE
UWI  .                        : UNIQUE WELL ID
API  .                        : API NUMBER
SLAT .WGS84 4.538054270478895 : SURFACE LATITUDE
SLON .WGS84 2.167060486505804 : SURFACE LONGITUDE
DATUM.F                   nan : DEPTH DATUM ELEV
~Curve Information -----------------------------------------
DEPT   .FT    : 
AT10   .OHMM  : ARRAY INDUCTION TWO FOOT RESISTIVITY A10
AT30   .OHMM  : ARRAY INDUCTION TWO FOOT RESISTIVITY A30
AT90   .OHMM  : ARRAY INDUCTION TWO FOOT RESISTIVITY A90
CALD   .IN    : CALIPER FROM DENSITY LOG
DPHZ_LS.DEC   : HGRD STANDARD RESOLUTION DENSITY POROSITY
DTCO   .US/F  : DELTA-T COMPRESSIONAL
DTSM   .US/F  : DELTA-T SHEAR
GRD    .GAPI  : GAMMA RAY FROM DENSITY LOG
HDRA   .G/C3  : HRDD SPINE AND RIBS DENSITY CORRECTION
PEFZ   .B/E   : HRDD STANDARD RESOLUTION FORMATION PHOTOELECTRIC FACTOR
RHOZ   .G/C3  : HRDD STANDARD RESOLUTION FORMATION DENSITY
SPR    .MV    : SPONTANEOUS POTENTIAL FROM RESISTIVITY LOG
TNPH_LS.DEC   : THERMAL NEUTRON POROSITY [LIMESTONE]
~Params ----------------------------------------------------
~Other -----------------------------------------------------
~ASCII -----------------------------------------------------
# ...
 7863.00000    5.91710    8.69260    9.76700   12.38830    0.14810   71.80090  120.58060  104.04150    0.14850    3.54000    2.44640  -19.38360    0.24170
 7863.50000    6.26910    9.04210   10.27330   12.16740    0.13090   71.93250  131.54400  107.74790    0.16760    3.58540    2.47950  -20.37220    0.23460
 7864.00000    7.10670    9.54460   12.34230   12.34620    0.11200   68.83340  131.03540  106.00140    0.16790    3.65850    2.51210  -22.84590    0.25390
 7864.50000    9.17870   12.48750   16.85750   12.47180    0.09170   67.45730  129.12450   99.40220    0.16210    3.67920    2.54520  -22.59790    0.24340
 7865.00000   10.31610   18.69620   21.17340   12.20570    0.07070   66.37420  127.07160   93.57600    0.14740    3.60820    2.59490  -22.43110    0.22650
 7865.50000    8.86030   15.90220   20.47550   12.14390    0.05390   65.13630  123.33110   88.16250    0.13050    3.55590    2.61810  -26.70150    0.18660
 7866.00000    7.64690   12.40930   13.37740   12.22070    0.05100   65.59620  121.80950   86.11590    0.12030    3.53160    2.62250  -30.97200    0.16640
 7866.50000    6.86920    9.97760   11.29490   12.08260    0.06280   65.18740  121.07240   87.43780    0.13450    3.52870    2.60210  -30.52920    0.17750
 7867.00000    6.06890    8.55900   10.20030   12.24760    0.08700   68.28660  121.58250   90.36280    0.16350    3.61110    2.57150  -27.29000    0.22380
 7867.50000    5.58750    8.18640    9.12170   11.83460    0.11570   71.14720  125.66130   92.26180    0.17710    3.73210    2.52340  -24.05050    0.25790
 7868.00000    5.76810    7.81370    8.19460   11.85500    0.14310   72.85610  131.38430   91.70160    0.18500    3.85360    2.47480  -25.06940    0.27030
 7868.50000    5.57480    7.64290    8.19540   12.08160    0.13700   75.36380  136.93560   91.03640    0.18380    3.93970    2.46600  -25.52640    0.25410
 7869.00000    6.06940    7.93860    9.13210   11.91590    0.12920   75.58330  141.79980   90.63720    0.18420    3.98700    2.48740  -26.28970    0.24140
 7869.50000    6.63970    9.67570   11.32800   11.92990    0.12750   73.94720  142.66050   94.96800    0.18660    3.99170    2.49580  -22.81240    0.25440
 7870.00000    8.07240   12.98320   14.38910   12.43760    0.08530   72.68510  137.23520   98.47390    0.18950    3.93490    2.55600  -27.52570    0.24560
 7870.50000    9.90750   18.12060   20.44360   12.67970    0.04310   70.06030  131.90640   95.62100    0.19000    3.78250    2.62520  -32.74920    0.22680
 7871.00000   11.96720   23.25790   25.28650   12.01840    0.01120   67.32950  126.96380   88.93580    0.15670    3.56880    2.68130  -38.49670    0.20040
 7871.50000   12.07390   20.73980   24.14080   11.97700    0.01180   68.55410  121.89800   83.78920    0.13180    3.46540    2.69140  -39.98310    0.16210
 7872.00000   10.02480   13.82340   18.20300   11.97020    0.01940   61.16240  115.50090   78.28930    0.11950    3.47850    2.67990  -41.46960    0.12380
 7872.50000    8.70890   13.93860   16.32570   11.96330    0.02500   59.67900  109.10390   77.14480    0.13340    3.54320    2.66710  -41.55130    0.12530
 7873.00000    8.39770   14.83700   16.32370   11.90820    0.03800   61.09640  111.25290   79.56740    0.13620    3.60320    2.65040  -41.68760    0.13910
 7873.50000    8.14140   14.90500   15.78210   11.88060    0.05590   63.34710  113.34330   83.78020    0.11590    3.58270    2.61720  -41.82380    0.14990
 7874.00000    7.89220   12.75160   13.66170   11.93300    0.07220   66.71390  112.42880   89.02360    0.09060    3.49830    2.58890  -41.34930    0.15490
 7874.50000    6.74190   10.59820   12.15900   12.03210    0.08210   68.63590  120.35030   90.37990    0.08050    3.44380    2.57460  -40.02680    0.15920
 7875.00000    5.34040    8.31110    9.45420   12.07350    0.10010   70.89650  118.74670   89.31820    0.11470    3.54460    2.54450  -38.70440    0.16660
 7875.50000    4.44620    6.26810    6.74950   12.09640    0.12930   70.20020  121.67990   87.54380    0.15740    3.70650    2.49530  -37.38190    0.18930
 7876.00000    4.37310    7.25360    7.81500   12.12860    0.15720   71.78800  132.02670   94.38800    0.20010    3.81440    2.44250  -25.32330    0.23520
 7876.50000    5.05050    8.89630   10.33720   12.47760    0.17320   72.17930  146.16540  105.79500    0.21040    3.85520    2.41560  -26.49120    0.28450
 7877.00000    5.49190    8.73550   11.65240   13.12050    0.16620   71.70710  152.02190  116.09160    0.19450    3.79160    2.43160  -27.36710    0.27760
 7877.50000    4.85510    7.60580   10.19680   13.10670    0.15000   72.67560  151.39730  114.95510    0.17460    3.72580    2.45700  -23.96070    0.25440
 7878.00000    4.26500    6.37150    8.62060   12.25260    0.14060   73.40120  150.26770  108.85740    0.17000    3.69420    2.46910  -23.27940    0.26000
 7878.50000    3.75770    5.85930    7.04430   12.14240    0.17620   74.40980  149.00550  108.83530    0.16710    3.70610    2.39780  -23.27940    0.26880
 7879.00000    3.84190    5.80790    7.25070   12.84500    0.23780   74.93370  150.50460  115.44640    0.16470    3.74120    2.30360  -21.87430    0.29930
 7879.50000    4.26820    6.53220    9.34330   12.65900    0.24800   76.31550  154.32560  115.88300    0.16710    3.77300    2.28490  -20.46920    0.31730
 7880.00000    4.54980    6.98610    9.44150   12.22510    0.21780   79.86820  152.18510  112.19700    0.19220    3.79130    2.33770  -19.06400    0.30880
 7880.50000    4.58030    6.90940    8.64160   12.01880    0.18320   78.16660  149.33250  107.31130    0.21740    3.80970    2.40940  -19.04310    0.29440
 7881.00000    4.57760    6.81340    8.32220   12.14310    0.15870   78.32760  153.96540  107.73620    0.24260    3.82930    2.43610  -19.69350    0.29150
 7881.50000    4.76150    6.81410    9.40990   12.46950    0.15950   78.09390  158.59830  109.70910    0.23810    3.85540    2.43940  -20.21370    0.29480
 7882.00000    5.14460    7.86620   10.68150   12.37810    0.15420   76.89310  154.20380  108.93740    0.23060    3.83190    2.44870  -21.03120    0.29030
 7882.50000    5.76560    8.91830   11.95320   12.19930    0.14730   75.73030  146.87970  106.93260    0.22580    3.83350    2.46760  -19.44160    0.28320
 7883.00000    5.95000    8.99450   11.54420   12.40080    0.12800   75.07320  141.02040  106.95920    0.22200    3.83510    2.49720  -18.16990    0.27600
 7883.50000    5.97770    8.94590    9.76810   12.44800    0.10220   73.51670  162.82250  104.13790    0.20680    3.80580    2.53900  -18.98740    0.26250
 7884.00000    6.00840    8.69880    9.76890   12.20380    0.07630   75.45840  166.41980   98.87160    0.19580    3.78880    2.58000  -18.98740    0.24750
 7884.50000    6.11940    8.36060    8.90710   12.10430    0.09460   70.91450  166.77410   92.18140    0.20090    3.88150    2.55060  -18.70870    0.23240
 7885.00000    6.22610    8.13450    8.83350   12.15980    0.10470   71.62990  153.88090   91.37960    0.20720    3.97420    2.52820  -18.43000    0.22860
 7885.50000    6.14480    7.85070    8.63920   12.31150    0.10960   70.38230  137.76430   92.20450    0.21360    4.05660    2.52170  -18.37430    0.24080
 7886.00000    6.17070    7.29400    8.15230   11.99460    0.09860   71.50400  132.93840   94.84420    0.21870    4.10140    2.53620  -18.30610    0.24280
 7886.50000    6.19170    7.29470    7.98820   12.43920    0.09910   73.36730  124.72130   98.72310    0.21750    4.05680    2.53970  -18.19260    0.24710
 7887.00000    6.21260    8.00220    8.70220   12.07860    0.12290   73.31910  127.84530  101.00020    0.21130    4.04190    2.49500  -18.07900    0.25160
 7887.50000    6.25920    8.03680    9.85830   12.43710    0.13490   73.30740  129.76610  101.08120    0.20460    3.98630    2.47700  -17.96550    0.25390
 7888.00000    6.36480    9.00110   12.06100   12.12060    0.11730   71.99290  134.63440   98.32550    0.18170    3.91800    2.50220  -18.57860    0.24430
 7888.50000    6.17410    8.70830   12.58300   12.12100    0.09540   71.50280  142.31070   94.98860    0.15880    3.77950    2.54190  -19.60060    0.23440
