~Version ---------------------------------------------------
VERS.   2.0 : CWLS log ASCII Standard -VERSION 2.0
WRAP.    NO : One line per depth step
DLM . SPACE : Column Data Section Delimiter
~Well ------------------------------------------------------
STRT .FT                 37.0 : START DEPTH
STOP .FT              13461.0 : STOP DEPTH
STEP .FT                  0.5 : STEP
NULL .               -9999.25 : NULL VALUE
COMP .                        : COMPANY
WELL .                        : WELL
FLD  .                        : FIELD
LOC  .                        : LOCATION
PROV .                        : PROVINCE
CNTY .                        : COUNTY
STAT .                        : STATE
CTRY .                        : COUNTRY
SRVC .                        : SERVICE COMPANY
DATE .                        : DATE
UWI  .                        : UNIQUE WELL ID
API  .                        : API NUMBER
SLAT .WGS84 4.538054270478895 : SURFACE LATITUDE
SLON .WGS84 2.167060486505804 : SURFACE LONGITUDE
DATUM.F                   nan : DEPTH DATUM ELEV
~Curve Information -----------------------------------------
DEPT   .FT    : 
AT10   .OHMM  : ARRAY INDUCTION TWO FOOT RESISTIVITY A10
AT30   .OHMM  : ARRAY INDUCTION TWO FOOT RESISTIVITY A30
AT90   .OHMM  : ARRAY INDUCTION TWO FOOT RESISTIVITY A90
CALD   .IN    : CALIPER FROM DENSITY LOG
DPHZ_LS.DEC   : HGRD STANDARD RESOLUTION DENSITY POROSITY
DTCO   .US/F  : DELTA-T COMPRESSIONAL
DTSM   .US/F  : DELTA-T SHEAR
GRD    .GAPI  : GAMMA RAY FROM DENSITY LOG
HDRA   .G/C3  : HRDD SPINE AND RIBS DENSITY CORRECTION
PEFZ   .B/E   : HRDD STANDARD RESOLUTION FORMATION PHOTOELECTRIC FACTOR
RHOZ   .G/C3  : HRDD STANDARD RESOLUTION FORMATION DENSITY
SPR    .MV    : SPONTANEOUS POTENTIAL FROM RESISTIVITY LOG
TNPH_LS.DEC   : THERMAL NEUTRON POROSITY [LIMESTONE]
~Params ----------------------------------------------------
~Other -----------------------------------------------------
~ASCII -----------------------------------------------------
# ...
 11815.00000    2.14740    2.19300    2.26150    8.60040    0.13310   -9999.25   -9999.25  120.42790    0.07750    4.49510    2.48260   -9999.25    0.36490
 11815.50000    2.14070    2.18620    2.24240    9.01370    0.12470   -9999.25   -9999.25  119.30590    0.07870    4.48290    2.49310   -9999.25    0.35400
 11816.00000    2.13390    2.17930    2.23860    8.66920    0.11880   -9999.25   -9999.25  117.04270    0.07980    4.38790    2.50760   -9999.25    0.34650
 11816.50000    2.12720    2.17240    2.23860    8.66010    0.11250   -9999.25   -9999.25  118.51930    0.08170    4.28310    2.51700   -9999.25    0.33050
 11817.00000    2.14610    2.19170    2.26730    8.73810    0.11450   -9999.25   -9999.25  121.18630    0.08620    4.38020    2.51340   -9999.25    0.33590
 11817.50000    2.25370    2.30160    2.40900    8.77950    0.14040   -9999.25   -9999.25  120.68920    0.08990    4.75540    2.47940   -9999.25    0.35070
 11818.00000    2.33990    2.38960    2.46580    8.62790    0.16640   -9999.25   -9999.25  117.10040    0.09110    5.00420    2.44410   -9999.25    0.35130
 11818.50000    2.23350    2.28100    2.35370    8.80500    0.16530   -9999.25   -9999.25  111.33510    0.09110    5.16000    2.42770   -9999.25    0.34750
 11819.00000    2.12710    2.17230    2.24170    8.79780    0.14420   -9999.25   -9999.25  114.75870    0.08810    4.98790    2.45900   -9999.25    0.32460
 11819.50000    2.07140    2.11540    2.18400    8.61410    0.13260   -9999.25   -9999.25  117.00000    0.08060    4.81990    2.47850   -9999.25    0.36340
 11820.00000    2.06020    2.10400    2.19010    8.74500    0.14610   -9999.25   -9999.25  123.28960    0.09260    4.83450    2.46730   -9999.25    0.36270
 11820.50000    2.07030    2.11430    2.19620    8.75190    0.14610   -9999.25   -9999.25  125.54260    0.11050    4.84900    2.45950   -9999.25    0.35870
 11821.00000    2.08040    2.12460    2.20220    8.71060    0.14610   -9999.25   -9999.25  120.32050    0.12120    4.91170    2.45940   -9999.25    0.35480
 11821.50000    2.08440    2.12870    2.20830    8.76570    0.13830   -9999.25   -9999.25  114.85810    0.11280    4.74090    2.47360   -9999.25    0.33420
 11822.00000    2.08820    2.13260    2.21370    8.60230    0.15200   -9999.25   -9999.25  111.33510    0.09180    4.58270    2.45520   -9999.25    0.33840
 11822.50000    2.09210    2.13650    2.22110    8.54980    0.15750   -9999.25   -9999.25  115.31880    0.08190    4.47990    2.44070   -9999.25    0.34860
 11823.00000    2.09590    2.14040    2.22850    8.68760    0.14460   -9999.25   -9999.25  115.00320    0.07340    4.37710    2.45610   -9999.25    0.36530
 11823.50000    2.10100    2.14570    2.23600    8.85520    0.12260   -9999.25   -9999.25  119.18800    0.06780    4.19730    2.49850   -9999.25    0.37340
 11824.00000    2.10710    2.15180    2.24340    8.62790    0.10770   -9999.25   -9999.25  114.84820    0.05540    4.09390    2.51930   -9999.25    0.33350
 11824.50000    2.11310    2.15800    2.25080    8.64170    0.12060   -9999.25   -9999.25  121.46120    0.04790    3.96460    2.51050   -9999.25    0.32250
 11825.00000    2.11910    2.16420    2.25830    8.69680    0.14500   -9999.25   -9999.25  121.35770    0.03630    3.96780    2.47100   -9999.25    0.33950
 11825.50000    2.12470    2.16980    2.26570    8.62790    0.15750   -9999.25   -9999.25  121.32330    0.04120    4.12200    2.44200   -9999.25    0.35850
 11826.00000    2.12840    2.17360    2.25310    8.81530    0.15190   -9999.25   -9999.25  121.92650    0.05100    4.19890    2.45730   -9999.25    0.34540
 11826.50000    2.13200    2.17730    2.25440    8.61410    0.12010   -9999.25   -9999.25  123.11960    0.06500    4.11240    2.50980   -9999.25    0.35380
 11827.00000    2.13570    2.18110    2.25570    8.62330    0.11010   -9999.25   -9999.25  126.21420    0.07000    4.05520    2.51850   -9999.25    0.34500
 11827.50000    2.13510    2.18050    2.25700    8.68300    0.11880   -9999.25   -9999.25  121.94820    0.07470    4.09440    2.50340   -9999.25    0.38330
 11828.00000    2.13010    2.17540    2.25830    8.54520    0.12550   -9999.25   -9999.25  117.77580    0.07660    4.18650    2.49650   -9999.25    0.37830
 11828.50000    2.12510    2.17020    2.25960    8.76570    0.13550   -9999.25   -9999.25  117.01880    0.07390    4.35620    2.47740   -9999.25    0.38720
 11829.00000    2.12680    2.17200    2.26090    8.72430    0.14880   -9999.25   -9999.25  117.79300    0.07310    4.51290    2.45900   -9999.25    0.37820
 11829.50000    2.13300    2.17830    2.26210    8.52460    0.15610   -9999.25   -9999.25  123.11440    0.07230    4.76390    2.44070   -9999.25    0.39270
 11830.00000    2.13910    2.18450    2.26340    8.79320    0.13910   -9999.25   -9999.25  119.44950    0.09400    4.97430    2.47470   -9999.25    0.36180
 11830.50000    2.14530    2.19080    2.26470    8.55890    0.12800   -9999.25   -9999.25  117.02670    0.11240    5.01930    2.49240   -9999.25    0.34710
 11831.00000    2.14800    2.19590    2.26600    8.64480    0.13090   -9999.25   -9999.25  115.91610    0.11680    4.93530    2.48450   -9999.25    0.37140
 11831.50000    2.13710    2.19590    2.26730    8.75140    0.13460   -9999.25   -9999.25  123.68890    0.12030    4.74350    2.47830   -9999.25    0.40390
 11832.00000    2.12620    2.19590    2.26860    8.64110    0.12410   -9999.25   -9999.25  129.90620    0.12030    4.55180    2.50130   -9999.25    0.38640
 11832.50000    2.11530    2.19590    2.26990    8.64090    0.10630   -9999.25   -9999.25  123.94800    0.10710    4.35550    2.53150   -9999.25    0.34470
 11833.00000    2.10440    2.19590    2.27120    8.53050    0.11230   -9999.25   -9999.25  119.28580    0.09380    4.31870    2.51020   -9999.25    0.32160
 11833.50000    2.09710    2.19590    2.27250    8.75080    0.13350   -9999.25   -9999.25  115.83800    0.08590    4.48590    2.48340   -9999.25    0.34070
 11834.00000    2.10410    2.19590    2.27380    8.58540    0.13860   -9999.25   -9999.25  121.19820    0.09680    4.67320    2.48350   -9999.25    0.37220
 11834.50000    2.11100    2.19590    2.27510    8.67240    0.12040   -9999.25   -9999.25  118.18900    0.11040    4.75160    2.50810   -9999.25    0.40360
 11835.00000    2.11800    2.19590    2.27640    8.69520    0.10780   -9999.25   -9999.25  112.94110    0.11850    4.63480    2.52560   -9999.25    0.41930
 11835.50000    2.12500    2.19590    2.27770    8.54350    0.11550   -9999.25   -9999.25  107.53590    0.11010    4.54310    2.51320   -9999.25    0.39690
 11836.00000    2.13200    2.19590    2.27890    8.80520    0.12880   -9999.25   -9999.25  103.21100    0.09610    4.44730    2.49330   -9999.25    0.37670
 11836.50000    2.13900    2.19590    2.28020    8.64660    0.13520   -9999.25   -9999.25  108.84040    0.08210    4.38020    2.48020   -9999.25    0.37620
 11837.00000    2.14600    2.19590    2.27850    8.83240    0.13600   -9999.25   -9999.25  117.85350    0.07080    4.43670    2.47780   -9999.25    0.36620
 11837.50000    2.15020    2.19590    2.27360    8.68680    0.13030   -9999.25   -9999.25  127.34960    0.07350    4.51480    2.48690   -9999.25    0.35060
 11838.00000    2.15020    2.19590    2.26860    8.57030    0.11830   -9999.25   -9999.25  118.82350    0.09280    4.68440    2.51390   -9999.25    0.33680
 11838.50000    2.15170    2.19740    2.26370    8.78710    0.12050   -9999.25   -9999.25  114.62900    0.10550    4.75690    2.50440   -9999.25    0.34840
 11839.00000    2.15950    2.20530    2.25870    8.74450    0.13690   -9999.25   -9999.25  110.47410    0.10660    4.85620    2.47740   -9999.25    0.36360
 11839.50000    2.16720    2.21320    2.25380    8.81050    0.15340   -9999.25   -9999.25  114.49440    0.10760    5.00610    2.44910   -9999.25    0.37570
 11840.00000    2.17490    2.22110    2.24880    8.64170    0.15350   -9999.25   -9999.25  117.83900    0.10960    5.15610    2.43880   -9999.25    0.33440
 11840.50000    2.16840    2.21450    2.24390    8.92430    0.14360   -9999.25   -9999.25  120.25680    0.11290    5.19500    2.46360   -9999.25    0.31660
