~Version ---------------------------------------------------
VERS.   2.0 : CWLS log ASCII Standard -VERSION 2.0
WRAP.    NO : One line per depth step
DLM . SPACE : Column Data Section Delimiter
~Well ------------------------------------------------------
STRT .FT                 37.0 : START DEPTH
STOP .FT              13461.0 : STOP DEPTH
STEP .FT                  0.5 : STEP
NULL .               -9999.25 : NULL VALUE
COMP .                        : COMPANY
WELL .                        : WELL
FLD  .                        : FIELD
LOC  .                        : LOCATION
PROV .                        : PROVINCE
CNTY .                        : COUNTY
STAT .                        : STATE
CTRY .                        : COUNTRY
SRVC .                        : SERVICE COMPANY
DATE .                        : DATE
UWI  .                        : UNIQUE WELL ID
API  .                        : API NUMBER
SLAT .WGS84 4.538054270478895 : SURFACE LATITUDE
SLON .WGS84 2.167060486505804 : SURFACE LONGITUDE
DATUM.F                   nan : DEPTH DATUM ELEV
~Curve Information -----------------------------------------
DEPT   .FT    : 
AT10   .OHMM  : ARRAY INDUCTION TWO FOOT RESISTIVITY A10
AT30   .OHMM  : ARRAY INDUCTION TWO FOOT RESISTIVITY A30
AT90   .OHMM  : ARRAY INDUCTION TWO FOOT RESISTIVITY A90
CALD   .IN    : CALIPER FROM DENSITY LOG
DPHZ_LS.DEC   : HGRD STANDARD RESOLUTION DENSITY POROSITY
DTCO   .US/F  : DELTA-T COMPRESSIONAL
DTSM   .US/F  : DELTA-T SHEAR
GRD    .GAPI  : GAMMA RAY FROM DENSITY LOG
HDRA   .G/C3  : HRDD SPINE AND RIBS DENSITY CORRECTION
PEFZ   .B/E   : HRDD STANDARD RESOLUTION FORMATION PHOTOELECTRIC FACTOR
RHOZ   .G/C3  : HRDD STANDARD RESOLUTION FORMATION DENSITY
SPR    .MV    : SPONTANEOUS POTENTIAL FROM RESISTIVITY LOG
TNPH_LS.DEC   : THERMAL NEUTRON POROSITY [LIMESTONE]
~Params ----------------------------------------------------
~Other -----------------------------------------------------
~ASCII -----------------------------------------------------
# ...
 10229.00000    2.62430    4.21280    4.76160   13.15390    0.11270   80.97520  143.29240   98.01800    0.23850    4.47560    2.51770    7.21360    0.25340
 10229.50000    2.72090    4.80240    6.00420   13.16200    0.11690   81.05360  149.16140   96.87200    0.22910    4.45270    2.50900    7.63010    0.24840
 10230.00000    2.89430    5.62670    7.55720   13.17200    0.12780   80.25800  152.38010   97.50840    0.20560    4.43740    2.49460    7.65680    0.24980
 10230.50000    3.33280    6.80310    8.79970   13.44920    0.12570   80.31090  154.84770   97.87530    0.18210    4.41490    2.48960    8.20730    0.24300
 10231.00000    3.33960    6.67970    7.33200   13.12920    0.10410   78.49760  155.76030   98.16850    0.15860    4.35740    2.53100    8.30270    0.24780
 10231.50000    2.71900    5.47290    5.99940   13.76530    0.07850   75.95080  155.21520   97.37880    0.13510    4.18810    2.58290    7.81290    0.21560
 10232.00000    2.35720    4.46980    5.08800   13.57750    0.05420   71.89290  145.51860   95.89860    0.11160    4.08700    2.62010    8.20730    0.17530
 10232.50000    2.15890    4.07490    4.56720   13.26850    0.04950   72.41900  137.24170   92.92430    0.10600    4.08130    2.62380    6.99690    0.15120
 10233.00000    2.11010    3.97340    4.45340   13.31530    0.06990   73.39290  132.75120   96.80700    0.10870    4.13140    2.57550    6.76100    0.16110
 10233.50000    2.09610    3.87450    4.18300   13.41330    0.11970   77.16560  142.38700  101.33240    0.14070    4.30950    2.49940    6.58980    0.19210
 10234.00000    2.08030    3.74850    4.02660   13.69430    0.14820   83.60450  161.89210  105.88380    0.17970    4.49770    2.46190    6.98100    0.24560
 10234.50000    2.06450    3.62240    3.95890   13.34950    0.14990   83.59040  158.62180  106.62770    0.21870    4.60490    2.45060    7.43350    0.28890
 10235.00000    2.05410    3.62240    4.05460   13.51170    0.14060   82.40340  163.96510  100.22680    0.24740    4.64450    2.46400    7.88610    0.27840
 10235.50000    2.04550    3.74780    4.17430   13.34590    0.13380   84.28190  167.34700   97.39230    0.27890    4.68960    2.48080    8.24820    0.28670
 10236.00000    2.03660    3.87320    4.27010   13.32070    0.13080   83.98790  175.10960   95.94020    0.30830    4.71270    2.48550    7.12060    0.29250
 10236.50000    2.04840    3.97340    4.37440   13.36160    0.14490   83.52150  170.51880   98.83480    0.30830    4.78420    2.46290    6.29970    0.29800
 10237.00000    2.05030    4.05800    4.41610   13.27850    0.17220   82.93280  161.71670   96.17540    0.28390    4.92360    2.40980    6.01140    0.29570
 10237.50000    2.04870    4.07490    4.41610   12.90690    0.19550   82.20730  172.17750   94.52950    0.25940    4.99270    2.37330    6.12540    0.27860
 10238.00000    1.99920    4.00010    4.31160   13.58080    0.19020   82.43880  164.78270   92.81740    0.23150    4.99710    2.38280    5.42770    0.27470
 10238.50000    1.99140    3.94020    4.19890   13.41510    0.17940   83.68920  162.79140   94.96800    0.23060    4.98600    2.40400    1.98230    0.28910
 10239.00000    1.99330    3.97340    4.26490   13.01020    0.18650   81.98210  170.20410   98.08860    0.23220    4.96150    2.38730    2.75020    0.29770
 10239.50000    2.01880    4.12700    4.42990   13.26270    0.19000   81.86500  167.95330  100.86860    0.24020    4.96150    2.38380    9.14570    0.31160
 10240.00000    2.03100    4.26800    4.54180   13.03080    0.17860   82.20090  165.21570  100.75490    0.24820    5.06440    2.41070   10.03750    0.30500
 10240.50000    1.99940    4.32280    4.45840   13.18090    0.16550   81.30750  162.78180  101.17410    0.26380    5.16740    2.43360   10.92930    0.28720
 10241.00000    1.93220    4.16070    4.18510   13.47710    0.14980   79.96280  161.98160  100.84550    0.27940    5.27030    2.45970   11.62630    0.29240
 10241.50000    1.87060    3.88450    4.06210   13.10980    0.14010   79.59310  163.15900   91.18960    0.29500    5.35260    2.47220   11.32320    0.28770
 10242.00000    1.79600    3.56450    4.02880   13.29800    0.14240   80.31730  165.53230   86.61570    0.29500    5.30560    2.45920   10.65990    0.29740
 10242.50000    1.72150    3.35890    3.83840   13.52770    0.16330   81.73050  160.93840   87.87520    0.27290    5.18840    2.40900    9.99160    0.28500
 10243.00000    1.66650    3.15340    3.36160   13.64250    0.19960   84.20030  168.30000   93.14140    0.25080    5.07130    2.35210    9.55480    0.29940
 10243.50000    1.64680    2.98900    3.26660   13.57360    0.22090   86.39800  177.50200   95.60750    0.22700    4.97750    2.32530   10.16850    0.30640
 10244.00000    1.65370    3.16590    3.46020   13.41510    0.21580   88.04900  178.33740   97.75320    0.22800    4.90950    2.33580   10.67160    0.31240
 10244.50000    1.65300    3.30750    3.65390   13.67000    0.19760   86.85240  177.71730  101.14450    0.22920    4.85220    2.37100   10.15980    0.30320
 10245.00000    1.65230    3.33580    3.70770   13.67690    0.18110   85.83540  178.97090  103.76360    0.22970    4.76200    2.40550    9.64800    0.31020
 10245.50000    1.62120    3.05870    3.58180   13.72970    0.17470   86.34150  177.29180  108.30040    0.22660    4.73540    2.41080    9.16730    0.30940
 10246.00000    1.55390    2.84450    3.29700   13.24290    0.17520   86.84210  182.10890  109.99210    0.22130    4.69820    2.40930    9.09120    0.30210
 10246.50000    1.52080    2.86940    3.34120   14.19810    0.17410   87.87020  186.00920  106.64050    0.21930    4.65850    2.41110    9.25730    0.29860
 10247.00000    1.52820    2.99260    3.56050   14.78600    0.17590   88.75140  184.87700  105.51510    0.22210    4.64390    2.40420    7.14550    0.29480
 10247.50000    1.54220    3.04010    3.68980   15.26810    0.19370   89.73460  186.84870  107.94300    0.22260    4.75800    2.35690    6.02500    0.29780
 10248.00000    1.56140    3.02240    3.71100   15.81580    0.22760   89.99750  190.03670  114.22920    0.21700    4.87840    2.32180    8.69560    0.29620
 10248.50000    1.54430    2.94510    3.69790   16.28560    0.22970   90.96090  192.37610  114.06890    0.20990    4.95140    2.31420    9.07280    0.30010
 10249.00000    1.55850    2.87130    3.68120   16.02380    0.21910   91.84100  181.97320  109.93670    0.21170    5.02450    2.33560    8.47200    0.30050
 10249.50000    1.59740    2.89270    3.77100   13.65620    0.23220   91.71180  182.80670  104.35140    0.21820    5.09760    2.31030    8.48170    0.30800
 10250.00000    1.63620    2.92110    3.90560   13.95930    0.27920   91.76650  185.41110  105.89810    0.21600    5.17070    2.25680    9.19720    0.34620
 10250.50000    1.65220    2.90180    3.87290   14.08330    0.27770   91.14970  187.14090  107.34170    0.21060    5.22920    2.24040    8.60460    0.37460
 10251.00000    1.64760    2.85350    3.74190   13.89040    0.24830   90.22190  184.51230  109.23860    0.22110    5.21160    2.28920    6.81990    0.36530
 10251.50000    1.62670    2.84840    3.41420   14.11090    0.20420   88.42440  177.41070  107.54490    0.22740    4.97690    2.34550    7.67450    0.31890
 10252.00000    1.66790    3.13910    3.44300   14.09710    0.18350   84.00020  167.23560  105.73980    0.20990    4.74210    2.39760    9.28560    0.28320
 10252.50000    1.81670    3.60650    4.07320   13.72510    0.15180   80.12940  155.95980  103.02030    0.16620    4.38690    2.45860    9.67910    0.28380
 10253.00000    2.01920    4.22430    4.47830   13.84910    0.11630   79.40760  153.33910  105.14370    0.13030    4.09730    2.50810    8.61630    0.27630
 10253.50000    2.14930    4.38310    4.94170   13.76640    0.10350   79.36500  152.84010  105.42970    0.12850    3.88480    2.53270    7.53310    0.26850
 10254.00000    2.14550    4.44660    4.77570   14.33130    0.10200   79.27220  153.91030  104.98190    0.13800    3.95940    2.52330    6.81680    0.25760
 10254.50000    2.12670    4.19980    4.60980   13.88850    0.11140   79.08840  157.96350  101.11140    0.15720    4.12730    2.51770    7.82710    0.25410
