~Version ---------------------------------------------------
VERS.   2.0 : CWLS log ASCII Standard -VERSION 2.0
WRAP.    NO : One line per depth step
DLM . SPACE : Column Data Section Delimiter
~Well ------------------------------------------------------
STRT .FT                 37.0 : START DEPTH
STOP .FT              13461.0 : STOP DEPTH
STEP .FT                  0.5 : STEP
NULL .               -9999.25 : NULL VALUE
COMP .                        : COMPANY
WELL .                        : WELL
FLD  .                        : FIELD
LOC  .                        : LOCATION
PROV .                        : PROVINCE
CNTY .                        : COUNTY
STAT .                        : STATE
CTRY .                        : COUNTRY
SRVC .                        : SERVICE COMPANY
DATE .                        : DATE
UWI  .                        : UNIQUE WELL ID
API  .                        : API NUMBER
SLAT .WGS84 4.538054270478895 : SURFACE LATITUDE
SLON .WGS84 2.167060486505804 : SURFACE LONGITUDE
DATUM.F                   nan : DEPTH DATUM ELEV
~Curve Information -----------------------------------------
DEPT   .FT    : 
AT10   .OHMM  : ARRAY INDUCTION TWO FOOT RESISTIVITY A10
AT30   .OHMM  : ARRAY INDUCTION TWO FOOT RESISTIVITY A30
AT90   .OHMM  : ARRAY INDUCTION TWO FOOT RESISTIVITY A90
CALD   .IN    : CALIPER FROM DENSITY LOG
DPHZ_LS.DEC   : HGRD STANDARD RESOLUTION DENSITY POROSITY
DTCO   .US/F  : DELTA-T COMPRESSIONAL
DTSM   .US/F  : DELTA-T SHEAR
GRD    .GAPI  : GAMMA RAY FROM DENSITY LOG
HDRA   .G/C3  : HRDD SPINE AND RIBS DENSITY CORRECTION
PEFZ   .B/E   : HRDD STANDARD RESOLUTION FORMATION PHOTOELECTRIC FACTOR
RHOZ   .G/C3  : HRDD STANDARD RESOLUTION FORMATION DENSITY
SPR    .MV    : SPONTANEOUS POTENTIAL FROM RESISTIVITY LOG
TNPH_LS.DEC   : THERMAL NEUTRON POROSITY [LIMESTONE]
~Params ----------------------------------------------------
~Other -----------------------------------------------------
~ASCII -----------------------------------------------------
# ...
 9449.00000    4.45840    5.97960    5.07140   18.86510    0.30040   92.84190  146.07350  101.46390    0.15160    4.61180    1.99140  -11.76890    0.36890
 9449.50000    5.61660    7.08080    5.47200   17.22650    0.30040   91.98220  158.77560  101.63420    0.14920    4.52270    2.10390  -11.73510    0.32100
 9450.00000    6.90030    8.18210   11.54400   17.46260    0.30040   94.05170  140.58450  103.51610    0.14680    4.36410    2.17270  -11.18920    0.29950
 9450.50000    7.99420   10.52370   19.03010   17.36640    0.25240  106.36500  110.26590   96.48330    0.14980    4.20540    2.26190  -11.13910    0.25310
 9451.00000    7.56500   13.69220   26.51620   14.31150    0.28400  114.00570   96.36710   88.15340    0.15430    4.24700    2.24120  -11.02970    0.27790
 9451.50000    6.08530   10.92270   29.28750   14.15180    0.29950  103.48280   99.00150   82.13960    0.11980    4.40020    2.07300  -11.12290    0.29780
 9452.00000    4.60550    9.30050   23.92480   17.84950    0.29950   95.85070   99.50110   89.10290    0.10210    4.76210    1.95140  -11.27050    0.34760
 9452.50000    4.12230    8.68200   19.29120   19.33120    0.29950   87.02230   99.50110   80.94070    0.11990    4.88350    1.92050  -12.31740    0.48050
 9453.00000    3.67340    7.41160   19.29120   20.30380    0.29950   78.04790   -9999.25   77.20080    0.16440    4.94250    2.06990  -12.22160    0.48470
 9453.50000    3.28450    6.52920   19.00050   19.76630    0.29950   80.14440   -9999.25   73.72730    0.20880    4.89560    2.12380  -12.44420    0.48860
 9454.00000    3.08900    5.95430   19.67220   19.75290    0.29950   81.31190   -9999.25   74.27050    0.24520    4.88360    2.14810  -12.66690    0.51470
 9454.50000    2.81310    5.37930   20.34390   19.76710    0.29950   85.61250   -9999.25   75.44950    0.25070    4.84720    2.16460  -14.85960    0.49190
 9455.00000    2.55210    4.90890   22.78940   19.75960    0.29950   90.01820   -9999.25   75.92200    0.25900    4.86150    2.17510  -14.75540    0.43750
 9455.50000    2.33390    4.34070   28.90300   19.72070    0.29940   85.23720   -9999.25   79.01950    0.26410    4.90680    2.17340  -12.08800    0.39260
 9456.00000    2.42580    3.81450   32.57110   19.74080    0.29940   89.36590   -9999.25   74.70090    0.26070    4.96100    2.18000  -12.08800    0.39550
 9456.50000    2.56150    3.68840   21.82280   19.74120    0.29940   96.32600   -9999.25   78.20040    0.24810    5.00770    2.19460  -12.73700    0.41020
 9457.00000    2.35960    4.44750   16.44860   19.53500    0.29940   92.04090   -9999.25   75.76210    0.24560    5.01340    2.19100  -16.34420    0.42360
 9457.50000    2.47840    5.54660   24.97170   20.90080    0.29940   88.24970   -9999.25   73.88730    0.22310    5.01910    2.15250  -16.74630    0.40500
 9458.00000    2.88420    7.24710   21.79710   19.85270    0.29940   84.01990   -9999.25   70.88630    0.21080    5.02480    2.10860  -14.94240    0.36930
 9458.50000    3.17920    9.69760   16.50610   18.74920    0.29940   79.86440  146.78440   68.94560    0.21080    5.00570    2.12880  -12.90360    0.32650
 9459.00000    3.48850   17.91930   11.21510   19.21970    0.28320   76.28770  146.78440   78.36200    0.21080    4.85160    2.23200  -11.91510    0.30080
 9459.50000    3.55260   10.63970    9.02990   17.72830    0.24280   73.14300  129.07020   85.82890    0.20640    4.65000    2.31880  -11.35240    0.24500
 9460.00000    3.51870    9.30050    7.93200   15.98850    0.19930   72.37550  142.86690   88.37660    0.18460    4.46090    2.36650  -10.85180    0.26870
 9460.50000    3.25850    8.62260    7.24560   14.24040    0.19340   72.25730  151.28110   88.38710    0.17190    4.34490    2.37550  -11.13120    0.29830
 9461.00000    2.99750    7.72980    7.69320   14.15730    0.19580   70.98060  146.02520   89.70310    0.17240    4.21070    2.37470  -12.84670    0.33530
 9461.50000    2.88170    7.34020    8.25260   14.43930    0.19100   87.82820  140.82780   91.00150    0.16260    4.10850    2.38540  -14.37770    0.33050
 9462.00000    2.84280    6.92950    8.81210   14.14260    0.18790  100.90250  136.76910   92.69870    0.16010    4.00760    2.38870  -14.59710    0.31440
 9462.50000    2.70970    6.40530    9.37150   14.16970    0.22320  102.08270  138.89360   92.78030    0.14520    3.99500    2.33710  -14.81650    0.28990
 9463.00000    2.55230    5.80790    9.59530   14.61600    0.27450  102.50070  141.46400   90.38120    0.14130    4.22030    2.17480  -14.68360    0.28370
 9463.50000    2.30850    5.25310    9.30840   14.80250    0.29900  102.98940  144.03440   81.88530    0.13680    4.47490    2.03320  -14.48510    0.29910
 9464.00000    2.01730    4.10820    9.37920   13.87940    0.29900  103.18320  146.60480   73.42930    0.16770    4.57050    2.07270  -14.16400    0.33900
 9464.50000    2.03240    4.34020   12.34180   18.05360    0.27960  103.22390  149.20450   75.63430    0.20010    4.16380    2.23570  -12.85940    0.37640
 9465.00000    2.75370    6.31610   24.59540   15.98850    0.12410   83.27890  151.84800   70.49120    0.21390    3.75710    2.51400  -13.14890    0.40620
 9465.50000    3.17120    7.10650   23.12150   12.85030    0.06720   77.23350  154.49150   66.98590    0.14230    3.35050    2.59800  -15.59460    0.36710
 9466.00000    3.20660    6.49540   18.52010   12.62950    0.05760   77.22810  157.13500   62.52210    0.07070    2.80970    2.60940  -17.13620    0.30240
 9466.50000    3.31370    6.00650   13.91870   12.60160    0.07100   79.54560  159.77850   59.74860    0.02060    2.56670    2.58780  -17.98730    0.23350
 9467.00000    3.74000    7.15910   16.51320   12.60140    0.07520   70.09200  161.36460   57.73200    0.00620    2.52920    2.58180  -18.50020    0.18870
 9467.50000    4.72250   14.34320   29.48610   12.60090    0.07390   59.16480  145.31960   55.76680    0.01850    2.62840    2.57860  -16.50400    0.14720
 9468.00000    6.10690   19.82150   32.08060   12.52820    0.08810   54.37870  134.84440   53.00680    0.03810    2.76420    2.55700  -14.50790    0.10570
 9468.50000    7.95130   19.07770   13.50250   12.45010    0.11510   58.45870  109.92520   53.40570    0.05770    3.02880    2.51570  -12.63980    0.07210
 9469.00000    8.99390   17.21810   14.06600   12.35030    0.12580   61.20580  105.49670   56.42300    0.07740    3.20040    2.49660  -13.04860    0.07390
 9469.50000   10.03660   17.04930   13.79610   12.36520    0.11350   58.87400  101.06810   56.31370    0.09210    3.26710    2.51610  -12.91600    0.07590
 9470.00000   11.09740   19.92450   12.14110   13.46600    0.10490   57.72380  115.71640   54.86050    0.10300    3.30770    2.53850  -12.27700    0.07460
 9470.50000   11.96120   19.26230   13.46510   12.11070    0.10530   55.21700  119.80430   53.92630    0.10570    3.45000    2.51990  -12.21460    0.08290
 9471.00000   12.77560   16.59830   14.23930   12.20750    0.12620   55.89080  128.79770   56.89060    0.10420    3.62310    2.49190  -11.82230    0.08250
 9471.50000   13.52790   15.27360   14.13160   12.20790    0.11820   51.11890  121.24870   53.47060    0.10270    3.64410    2.52250  -12.56260    0.07060
 9472.00000   13.62910   15.70890   14.23930   12.95220    0.09410   49.57540  119.25930   49.53270    0.10130    3.61550    2.55590  -14.61010    0.05830
 9472.50000   12.16750   14.81410   17.27320   12.68620    0.10600   53.65590  119.25930   45.03250    0.09980    3.62640    2.50360  -14.61060    0.06950
 9473.00000   10.28560   11.86850   21.96670   12.69120    0.16510   55.32940   -9999.25   50.46310    0.09950    3.92050    2.38670  -14.10110    0.07660
 9473.50000    8.90350   14.40070   24.78280   13.08850    0.24880   56.42800   -9999.25   62.60240    0.10170    4.52400    2.25900  -12.90960    0.07380
 9474.00000    7.87730   12.88210   21.63870   15.14540    0.29930   59.68940   -9999.25   79.97540    0.10730    5.18830    2.15240  -13.66380    0.12110
 9474.50000    7.22700    9.68620   16.71100   14.73220    0.30020   68.41070   -9999.25   97.38510    0.10840    5.38270    2.13770  -14.66300    0.19570
