~Version ---------------------------------------------------
VERS.   2.0 : CWLS log ASCII Standard -VERSION 2.0
WRAP.    NO : One line per depth step
DLM . SPACE : Column Data Section Delimiter
~Well ------------------------------------------------------
STRT .F                    5.0 : START DEPTH
STOP .F                12071.0 : STOP DEPTH
STEP .F                    0.5 : STEP
NULL .                -9999.25 : NULL VALUE
COMP .                         : COMPANY
WELL .                         : WELL
FLD  .                         : FIELD
LOC  .                         : LOCATION
PROV .                         : PROVINCE
CNTY .                         : COUNTY
STAT .                         : STATE
CTRY .                         : COUNTRY
SRVC .                         : SERVICE COMPANY
DATE .                         : DATE
UWI  .                         : UNIQUE WELL ID
API  .                         : API NUMBER
SLAT .WGS84 2.5902191814258018 : SURFACE LATITUDE
SLON .WGS84  7.031471104654003 : SURFACE LONGITUDE
DATUM.F                    nan : DEPTH DATUM ELEV
~Curve Information -----------------------------------------
DEPT    .F     : 1 MEASURED DEPTH
SGRDD   .GAPI  : SPECTROSCOPY GAMMA RAY FROM DENSITY LOG
TNPH_LS .DEC   : THERMAL NEUTRON POROSITY [LIMESTONE]
DPHZ_LS .DEC   : HGRD STANDARD RESOLUTION DENSITY POROSITY
CALD    .IN    : CALIPER FROM DENSITY LOG
PEFZ    .B/E   : HRDD STANDARD RESOLUTION FORMATION PHOTOELECTRIC FACTOR
HDRA    .G/C3  : HRDD SPINE AND RIBS DENSITY CORRECTION
RHOZ    .G/C3  : HRDD STANDARD RESOLUTION FORMATION DENSITY
RLA5    .OHMM  : APPARENT RESISTIVITY FROM COMPUTED FOCUSING MODE 5
RLA4    .OHMM  : APPARENT RESISTIVITY FROM COMPUTED FOCUSING MODE 4
RLA3    .OHMM  : APPARENT RESISTIVITY FROM COMPUTED FOCUSING MODE 3
DTCO    .US/F  : DELTA-T COMPRESSIONAL
DTSM    .US/F  : DELTA-T SHEAR
GRD     .GAPI  : GAMMA RAY FROM DENSITY LOG
CNPOR_LS.DEC   : COMPENSATED ENHANCED THERMAL NEUTRON POROSITY IN SELECTED LITHOLOGY LIMESTONE
~Params ----------------------------------------------------
~Other -----------------------------------------------------
~ASCII -----------------------------------------------------
# ...
 11703.50000  102.39320    0.27560    0.05650    8.81050    3.70730    0.04100    2.61880    4.64230    4.57730    4.51690   83.04020  166.87860   -9999.25   -9999.25
 11704.00000  102.93680    0.29420    0.05440    8.81420    3.68280    0.04300    2.62250    4.48710    4.42380    4.36550   82.38040  164.26680   -9999.25   -9999.25
 11704.50000  105.73010    0.30190    0.05630    8.82410    3.65510    0.05010    2.62070    4.33300    4.27700    4.22710   81.67420  161.76700   -9999.25   -9999.25
 11705.00000  107.18040    0.29510    0.06200    8.80710    3.64450    0.05490    2.61110    4.42220    4.36680    4.31580   81.54330  161.10280   -9999.25   -9999.25
 11705.50000  104.91680    0.28250    0.07120    8.81860    3.66810    0.04730    2.59750    4.38170    4.29860    4.22260   81.37590  160.55930   -9999.25   -9999.25
 11706.00000  102.26270    0.28820    0.07090    8.80140    3.73020    0.03760    2.59010    4.11650    4.03870    3.96700   81.36050  160.27280   -9999.25   -9999.25
 11706.50000   99.16080    0.29360    0.05610    8.80320    3.81390    0.02790    2.62650    5.52520    5.22140    4.77090   81.36680  159.81580   -9999.25   -9999.25
 11707.00000   95.73560    0.26310    0.04370    8.80570    3.87530    0.01820    2.64030    5.96170    5.88880    5.82150   81.43040  159.20480   -9999.25   -9999.25
 11707.50000   94.24380    0.24660    0.04640    8.81430    3.82540    0.00920    2.63960    5.92840    5.84190    5.76220   81.62260  159.63660   -9999.25   -9999.25
 11708.00000   95.96410    0.24570    0.05890    8.82020    3.65950    0.01050    2.61670    5.71040    5.62710    5.55040   81.79850  160.29020   -9999.25   -9999.25
 11708.50000   98.21830    0.25940    0.07080    8.78480    3.55270    0.01620    2.59860    5.51830    5.44260    5.37280   81.96470  160.62280   -9999.25   -9999.25
 11709.00000  100.74760    0.27370    0.07180    8.80980    3.52590    0.02180    2.58740    5.33170    5.20840    5.09540   82.32780  160.29960   -9999.25   -9999.25
 11709.50000  105.03860    0.28510    0.07760    8.85520    3.49030    0.02750    2.58570    4.90830    4.79440    4.69020   82.17340  159.38170   -9999.25   -9999.25
 11710.00000  108.11380    0.28320    0.07470    8.82680    3.54880    0.03310    2.58820    4.51850    4.41340    4.31720   81.80510  159.03910   -9999.25   -9999.25
 11710.50000  108.66700    0.28190    0.07210    8.80200    3.60790    0.03880    2.59990    4.24100    4.18680    4.13680   81.54440  158.77620   -9999.25   -9999.25
 11711.00000  107.31480    0.28070    0.06670    8.82010    3.66820    0.04440    2.61130    4.13880    4.08470    4.03480   81.79710  157.78380   -9999.25   -9999.25
 11711.50000  104.77930    0.29250    0.05430    8.81520    3.78020    0.04260    2.61900    4.73880    4.35600    4.02800   81.73320  157.23790   -9999.25   -9999.25
 11712.00000  100.84090    0.29890    0.03840    8.80460    3.95220    0.03620    2.64760    6.50700    6.07840    5.62220   81.71740  156.69130   -9999.25   -9999.25
 11712.50000   94.91580    0.25870    0.02350    8.82470    4.08060    0.02970    2.67290    7.32130    7.21730    6.97410   81.69570  156.30760   -9999.25   -9999.25
 11713.00000   91.12980    0.22710    0.03520    8.86080    4.06010    0.02330    2.64590    7.34500    7.24420    7.02520   81.88740  155.74410   -9999.25   -9999.25
 11713.50000   89.99860    0.22050    0.06200    8.87230    3.82750    0.01680    2.61870    6.33720    6.02040    5.73690   82.12860  155.84530   -9999.25   -9999.25
 11714.00000   90.24750    0.23150    0.08720    8.87180    3.60590    0.01040    2.57990    5.57460    5.48200    5.42310   82.27080  156.73130   -9999.25   -9999.25
 11714.50000   90.52950    0.24690    0.09100    8.82080    3.50920    0.01280    2.56680    5.51500    5.45150    5.39290   82.93230  157.19600   -9999.25   -9999.25
 11715.00000   90.98720    0.25730    0.08860    8.80400    3.51890    0.01970    2.56640    5.42910    5.36190    5.29980   83.15680  158.06170   -9999.25   -9999.25
 11715.50000   92.11720    0.26380    0.08990    8.80060    3.47350    0.02540    2.56490    5.32470    5.25880    5.19790   83.12550  158.68540   -9999.25   -9999.25
 11716.00000   93.73090    0.26390    0.09280    8.84400    3.44370    0.01530    2.56040    5.19210    5.11880    5.05120   83.10840  159.17520   -9999.25   -9999.25
 11716.50000   95.83690    0.26770    0.09740    8.85500    3.36910    0.00240    2.55640    5.05750    4.99980    4.94640   83.17010  159.65230   -9999.25   -9999.25
 11717.00000   97.35680    0.26880    0.09570    8.82910    3.36690   -0.00010    2.55620    5.11530    5.05450    4.99840   83.05450  160.12950   -9999.25   -9999.25
 11717.50000   96.94980    0.26420    0.09540    8.85680    3.38120    0.00160    2.55690    5.13260    5.07280    5.01770   82.78870  159.74190   -9999.25   -9999.25
 11718.00000   95.25410    0.25900    0.09360    8.86250    3.39550    0.00460    2.56030    5.08670    5.02740    4.97270   82.35980  159.25870   -9999.25   -9999.25
 11718.50000   94.40860    0.25800    0.09090    8.86190    3.41520    0.00750    2.56680    5.04110    4.98240    4.92820   82.16960  158.96570   -9999.25   -9999.25
 11719.00000   95.30780    0.26690    0.08300    8.86170    3.48360    0.01130    2.57860    4.90700    4.81370    4.72840   82.07550  158.63080   -9999.25   -9999.25
 11719.50000   96.69220    0.26370    0.07230    8.85060    3.59190    0.02290    2.59590    4.61410    4.52660    4.44640   81.97140  158.32850   -9999.25   -9999.25
 11720.00000   95.86060    0.25990    0.06260    8.82520    3.66280    0.03870    2.60880    4.34640    4.28410    4.22670   81.86720  158.65100   -9999.25   -9999.25
 11720.50000   94.38690    0.26010    0.05660    8.81560    3.71040    0.03970    2.61680    4.84930    4.67820    4.52370   81.76300  158.99150   -9999.25   -9999.25
 11721.00000   91.27400    0.25630    0.05290    8.83020    3.74880    0.03210    2.62270    5.01210    4.94510    4.88320   81.66690  159.04830   -9999.25   -9999.25
 11721.50000   90.80710    0.24980    0.05330    8.83070    3.77580    0.02460    2.62590    5.13060    5.06980    5.01380   81.69730  159.24260   -9999.25   -9999.25
 11722.00000   92.38170    0.25480    0.05220    8.83920    3.82240    0.01800    2.62670    5.06790    5.00780    4.95250   81.71660  159.08590   -9999.25   -9999.25
 11722.50000   96.26860    0.25720    0.05720    8.84770    3.81560    0.01190    2.62340    5.03430    4.97610    4.92220   81.98060  159.09680   -9999.25   -9999.25
 11723.00000   98.33970    0.25560    0.06240    8.85610    3.70490    0.00790    2.60760    5.02890    4.96640    4.90890   82.39790  159.22630   -9999.25   -9999.25
 11723.50000   98.48870    0.24700    0.07750    8.86460    3.62220    0.00590    2.58730    4.93070    4.86950    4.81300   82.31590  159.71890   -9999.25   -9999.25
 11724.00000   97.46560    0.25800    0.08250    8.86590    3.55610    0.00290    2.57760    4.83450    4.77450    4.71900   82.71770  160.31400   -9999.25   -9999.25
 11724.50000   96.31940    0.25760    0.08000    8.86160    3.54200    0.00410    2.57910    4.81430    4.75920    4.70840   82.87550  160.27690   -9999.25   -9999.25
 11725.00000   95.53010    0.26510    0.07250    8.86200    3.54200    0.00790    2.59210    4.82080    4.76570    4.71480   82.81550  160.35090   -9999.25   -9999.25
 11725.50000   96.07390    0.25750    0.06880    8.86340    3.53850    0.01090    2.59820    4.82740    4.77220    4.72130   82.96030  161.38330   -9999.25   -9999.25
 11726.00000   97.38280    0.26570    0.07030    8.86480    3.53350    0.00860    2.59660    4.83400    4.77880    4.72770   83.26600  161.03990   -9999.25   -9999.25
 11726.50000   98.05600    0.27120    0.07150    8.86630    3.52680    0.00680    2.59500    4.84070    4.78530    4.73420   83.39660  162.19620   -9999.25   -9999.25
 11727.00000   98.63090    0.26510    0.07210    8.86770    3.52420    0.00500    2.59690    4.81090    4.75410    4.70160   83.31540  162.65280   -9999.25   -9999.25
