~Version ---------------------------------------------------
VERS.   2.0 : CWLS log ASCII Standard -VERSION 2.0
WRAP.    NO : One line per depth step
DLM . SPACE : Column Data Section Delimiter
~Well ------------------------------------------------------
STRT .F                    5.0 : START DEPTH
STOP .F                12071.0 : STOP DEPTH
STEP .F                    0.5 : STEP
NULL .                -9999.25 : NULL VALUE
COMP .                         : COMPANY
WELL .                         : WELL
FLD  .                         : FIELD
LOC  .                         : LOCATION
PROV .                         : PROVINCE
CNTY .                         : COUNTY
STAT .                         : STATE
CTRY .                         : COUNTRY
SRVC .                         : SERVICE COMPANY
DATE .                         : DATE
UWI  .                         : UNIQUE WELL ID
API  .                         : API NUMBER
SLAT .WGS84 2.5902191814258018 : SURFACE LATITUDE
SLON .WGS84  7.031471104654003 : SURFACE LONGITUDE
DATUM.F                    nan : DEPTH DATUM ELEV
~Curve Information -----------------------------------------
DEPT    .F     : 1 MEASURED DEPTH
SGRDD   .GAPI  : SPECTROSCOPY GAMMA RAY FROM DENSITY LOG
TNPH_LS .DEC   : THERMAL NEUTRON POROSITY [LIMESTONE]
DPHZ_LS .DEC   : HGRD STANDARD RESOLUTION DENSITY POROSITY
CALD    .IN    : CALIPER FROM DENSITY LOG
PEFZ    .B/E   : HRDD STANDARD RESOLUTION FORMATION PHOTOELECTRIC FACTOR
HDRA    .G/C3  : HRDD SPINE AND RIBS DENSITY CORRECTION
RHOZ    .G/C3  : HRDD STANDARD RESOLUTION FORMATION DENSITY
RLA5    .OHMM  : APPARENT RESISTIVITY FROM COMPUTED FOCUSING MODE 5
RLA4    .OHMM  : APPARENT RESISTIVITY FROM COMPUTED FOCUSING MODE 4
RLA3    .OHMM  : APPARENT RESISTIVITY FROM COMPUTED FOCUSING MODE 3
DTCO    .US/F  : DELTA-T COMPRESSIONAL
DTSM    .US/F  : DELTA-T SHEAR
GRD     .GAPI  : GAMMA RAY FROM DENSITY LOG
CNPOR_LS.DEC   : COMPENSATED ENHANCED THERMAL NEUTRON POROSITY IN SELECTED LITHOLOGY LIMESTONE
~Params ----------------------------------------------------
~Other -----------------------------------------------------
~ASCII -----------------------------------------------------
# ...
 7673.00000   59.42770    0.12160    0.02680    8.84130    4.27910    0.00010    2.68210   62.71070   69.00840   75.01300   76.96700  130.85750   35.11440    0.12160
 7673.50000   51.97960    0.09200    0.00980    8.82820    4.48070   -0.00000    2.69630   45.85010   49.91020   55.98850   78.33770  131.18320   40.72190    0.12650
 7674.00000   65.54080    0.10450    0.02660    8.81510    4.52570   -0.00020    2.63670   20.13790   23.27140   28.30230   79.66520  132.06230   67.05920    0.16320
 7674.50000   84.04040    0.15460    0.07260    8.80200    4.52570   -0.00040    2.58360   15.82630   16.32320   19.00230   80.21250  133.92830   69.27980    0.26910
 7675.00000  102.54000    0.24420    0.11860    8.79540    4.53540   -0.00050    2.48490   13.37850   13.70110   15.68760   80.48070  133.65910   60.55450    0.36970
 7675.50000  115.25470    0.28540    0.15320    8.80580    4.54520   -0.00070    2.46090   11.25430   11.85070   13.65370   69.07420  132.81770   59.88430    0.35140
 7676.00000  116.93180    0.28180    0.14850    8.83930    4.51860   -0.00050    2.46650   11.20600   11.58660   11.95260   77.94670  131.68480   70.07950    0.23230
 7676.50000  116.47370    0.26460    0.13570    8.88010    4.46700   -0.00030    2.49990   11.39930   11.98730   12.29160   77.54490  130.34220   71.52200    0.15070
 7677.00000  106.99830    0.26350    0.11410    8.91670    4.40350   -0.00020    2.55180   11.28930   11.76810   12.26180   72.11550  126.80430   62.21320    0.17330
 7677.50000   91.35300    0.21040    0.09610    8.90020    4.34000    0.00000    2.58660   13.90460   15.64520   17.28410   72.70040  122.21420   47.70970    0.15200
 7678.00000   74.71580    0.17020    0.07510    8.88380    4.27650    0.00020    2.59980   28.69750   32.82250   58.87510   69.20710  120.14120   37.53690    0.10060
 7678.50000   57.88800    0.13130    0.07050    8.87050    4.21460    0.00030    2.59140   52.30070   60.02900   65.71400   67.92910  118.97940   43.87730    0.08280
 7679.00000   52.73000    0.11460    0.08580    8.86860    4.18570    0.00050    2.56280   53.65770   58.43350   59.57620   68.13720  117.01120   46.32750    0.09100
 7679.50000   50.51900    0.12650    0.10220    8.86670    4.15680    0.00070    2.53570   52.53450   56.96610   58.43870   69.41710  115.69550   42.13650    0.11070
 7680.00000   48.41990    0.12240    0.10740    8.86490    4.12560    0.00080    2.53460   52.62710   55.47730   60.40480   70.96940  117.05610   31.50260    0.11400
 7680.50000   46.36150    0.11430    0.09880    8.86300    4.05080    0.00100    2.55380   53.26030   54.36150   59.42520   72.52160  118.68710   26.28040    0.11620
 7681.00000   44.54330    0.10620    0.08740    8.86120    3.97610    0.00120    2.57200   60.21210   67.49450   78.24790   73.55780  121.47800   26.80540    0.15050
 7681.50000   47.83690    0.10540    0.09050    8.85930    3.84120    0.00150    2.57110   68.98940   88.43030  151.58230   75.43480  123.53170   34.38670    0.17870
 7682.00000   61.65890    0.14030    0.12170    8.85750    3.54920    0.00200    2.52080   32.64940   34.89910   39.96660   75.48910  124.32290   46.92490    0.15290
 7682.50000   75.17560    0.17680    0.16460    8.85570    3.31760    0.00260    2.44420   21.96460   22.22230   26.60750   75.25400  124.66970   51.38520    0.15990
 7683.00000   84.24030    0.20960    0.18250    8.83760    3.15570    0.00300    2.41670   20.33850   20.57820   21.43630   75.13940  124.88510   49.87370    0.18830
 7683.50000   88.24270    0.23150    0.18330    8.81630    3.17970    0.00480    2.41780   19.64690   19.79410   20.47180   74.32670  123.38200   47.96080    0.19980
 7684.00000   83.26460    0.21880    0.16200    8.79500    3.31060    0.00740    2.44060   20.52460   20.76040   21.43030   73.07630  122.85470   45.64360    0.21030
 7684.50000   75.80360    0.18650    0.13820    8.77660    3.44140    0.00970    2.49230   22.45260   22.90380   27.95410   71.62700  121.58510   42.29880    0.19460
 7685.00000   63.43850    0.15260    0.10790    8.77470    3.68100    0.01140    2.54900   31.24900   33.04880   40.40220   69.17820  117.58740   39.78910    0.16340
 7685.50000   52.71650    0.13310    0.08870    8.77270    3.92240    0.01300    2.57650   47.55270   48.28770   53.43350   67.23280  116.15330   37.41550    0.13580
 7686.00000   49.32430    0.11530    0.06840    8.77080    4.10900    0.01450    2.60420   53.77430   63.93440   84.26980   65.54300  114.85400   34.65850    0.09540
 7686.50000   47.95580    0.10460    0.05550    8.76880    4.20390    0.01830    2.63110   48.19160   50.86570   52.21490   63.16900  109.83760   29.43660    0.08100
 7687.00000   47.98830    0.10340    0.05030    8.76690    4.21330    0.02520    2.63110   50.99270   55.17840   59.56450   61.69090  109.28130   25.51610    0.07290
 7687.50000   49.22370    0.10220    0.05790    8.76490    4.21730    0.02200    2.61890   52.85230   57.86870   65.25440   60.74930  107.43580   25.56840    0.06750
 7688.00000   47.92510    0.10110    0.06030    8.77720    4.22130    0.01120    2.61270   42.22010   42.78460   44.14800   60.52730  105.85360   25.21740    0.06830
 7688.50000   44.69740    0.08830    0.05960    8.79890    4.24500    0.00670    2.61350   54.40800   59.34700   89.52780   60.45060  104.94320   25.19020    0.06950
 7689.00000   41.41510    0.07530    0.04780    8.82060    4.43260    0.00320    2.63070   93.95810   99.09500  109.19080   60.23280  104.11180   27.57380    0.06510
 7689.50000   37.95470    0.06450    0.03420    8.84230    4.61570    0.00320    2.65290   84.16930   95.96610  114.12800   59.32610  103.71860   26.79090    0.05710
 7690.00000   36.22640    0.05440    0.02820    8.85480    4.66690    0.00480    2.67410  232.41700  275.11070  267.00820   59.03950  103.66940   25.32950    0.05600
 7690.50000   35.55040    0.04750    0.02000    8.85790    4.67000    0.00640    2.68020  292.62150  302.09900  328.01170   58.43580  103.47070   26.90240    0.05630
 7691.00000   42.07280    0.05910    0.02870    8.86520    4.51450    0.00530    2.66160   89.79640  101.80520  183.80740   58.30550  102.92520   29.30210    0.05260
 7691.50000   52.37830    0.07880    0.04830    8.87260    4.36130    0.00470    2.61970   34.12590   38.64410   58.54490   58.02320  102.47930   28.47960    0.05380
 7692.00000   51.43120    0.09360    0.05230    8.88000    4.41160    0.00590    2.62160   33.75600   39.15530   44.83550   57.73690  101.90950   24.40700    0.05760
 7692.50000   44.03410    0.08060    0.03690    8.88580    4.65110    0.00710    2.66760   76.32610   85.94030  176.13940   57.66480  101.12040   19.69120    0.05040
 7693.00000   35.21640    0.04320    0.01250    8.87110    4.88770    0.01230    2.69780  193.08470  344.47810  555.48490   57.93410  100.71790   19.91770    0.04370
 7693.50000   31.52910    0.03550   -0.00080    8.86840    4.96060    0.01910    2.71230  209.66800  221.10560  229.88140   58.26590  100.44210   22.91010    0.03860
 7694.00000   34.09770    0.03650    0.00440    8.87030    4.92860    0.01810    2.70510  139.14890  146.83010  157.71800   58.81030  101.38750   23.25220    0.03700
 7694.50000   33.89870    0.04410    0.01160    8.86380    4.78240    0.01680    2.68860  102.11880  107.78530  116.01230   59.56790  102.47030   22.27840    0.04110
 7695.00000   31.21330    0.04970    0.02160    8.85380    4.65170    0.01550    2.67340  155.13830  166.91200  196.37620   60.20350  103.05790   21.28830    0.04690
 7695.50000   28.92070    0.05630    0.03280    8.84380    4.52260    0.01520    2.66000  158.93880  164.82850  184.48630   60.80700  103.40750   21.15800    0.04950
 7696.00000   30.75360    0.06060    0.05300    8.83380    4.45210    0.00670    2.62560  131.49630  135.00900  139.90740   60.61850  104.05920   22.86010    0.05610
 7696.50000   34.32970    0.06970    0.06780    8.82380    4.41860    0.00300    2.59980  108.86100  111.59890  115.43700   60.30690  104.48180   26.62690    0.06170
 7697.00000   36.66920    0.07920    0.07350    8.83620    4.40830    0.00270    2.59110   94.67760   95.25000   96.02880   59.22380  103.49340   28.44780    0.06250
