~Version ---------------------------------------------------
VERS.   2.0 : CWLS log ASCII Standard -VERSION 2.0
WRAP.    NO : One line per depth step
DLM . SPACE : Column Data Section Delimiter
~Well ------------------------------------------------------
STRT .F                    5.0 : START DEPTH
STOP .F                12071.0 : STOP DEPTH
STEP .F                    0.5 : STEP
NULL .                -9999.25 : NULL VALUE
COMP .                         : COMPANY
WELL .                         : WELL
FLD  .                         : FIELD
LOC  .                         : LOCATION
PROV .                         : PROVINCE
CNTY .                         : COUNTY
STAT .                         : STATE
CTRY .                         : COUNTRY
SRVC .                         : SERVICE COMPANY
DATE .                         : DATE
UWI  .                         : UNIQUE WELL ID
API  .                         : API NUMBER
SLAT .WGS84 2.5902191814258018 : SURFACE LATITUDE
SLON .WGS84  7.031471104654003 : SURFACE LONGITUDE
DATUM.F                    nan : DEPTH DATUM ELEV
~Curve Information -----------------------------------------
DEPT    .F     : 1 MEASURED DEPTH
SGRDD   .GAPI  : SPECTROSCOPY GAMMA RAY FROM DENSITY LOG
TNPH_LS .DEC   : THERMAL NEUTRON POROSITY [LIMESTONE]
DPHZ_LS .DEC   : HGRD STANDARD RESOLUTION DENSITY POROSITY
CALD    .IN    : CALIPER FROM DENSITY LOG
PEFZ    .B/E   : HRDD STANDARD RESOLUTION FORMATION PHOTOELECTRIC FACTOR
HDRA    .G/C3  : HRDD SPINE AND RIBS DENSITY CORRECTION
RHOZ    .G/C3  : HRDD STANDARD RESOLUTION FORMATION DENSITY
RLA5    .OHMM  : APPARENT RESISTIVITY FROM COMPUTED FOCUSING MODE 5
RLA4    .OHMM  : APPARENT RESISTIVITY FROM COMPUTED FOCUSING MODE 4
RLA3    .OHMM  : APPARENT RESISTIVITY FROM COMPUTED FOCUSING MODE 3
DTCO    .US/F  : DELTA-T COMPRESSIONAL
DTSM    .US/F  : DELTA-T SHEAR
GRD     .GAPI  : GAMMA RAY FROM DENSITY LOG
CNPOR_LS.DEC   : COMPENSATED ENHANCED THERMAL NEUTRON POROSITY IN SELECTED LITHOLOGY LIMESTONE
~Params ----------------------------------------------------
~Other -----------------------------------------------------
~ASCII -----------------------------------------------------
# ...
 12039.50000   -9999.25   -9999.25    0.11510    8.70310    3.35900    0.00290    2.52560   22.22650   21.64530   21.11520   86.16980  155.20880   -9999.25   -9999.25
 12040.00000   -9999.25   -9999.25    0.12720    8.69220    3.41290    0.00330    2.50960   30.10340   27.31320   24.92290   86.35360  155.12680   -9999.25   -9999.25
 12040.50000   -9999.25   -9999.25    0.12090    8.67190    3.55580    0.00380    2.51190   44.11910   40.83390   37.00720   87.34510  155.26980   -9999.25   -9999.25
 12041.00000   -9999.25   -9999.25    0.11060    8.65310    3.71360    0.00870    2.53090   46.55980   45.74620   44.99490   88.12550  157.33870   -9999.25   -9999.25
 12041.50000   -9999.25   -9999.25    0.10260    8.63430    3.84250    0.01470    2.54520   46.11510   45.50890   44.94910   88.81790  158.43780   -9999.25   -9999.25
 12042.00000   -9999.25   -9999.25    0.10550    8.61560    3.78820    0.02070    2.54240   44.06030   43.22360   42.45600   88.71130  158.10840   -9999.25   -9999.25
 12042.50000   -9999.25   -9999.25    0.11630    8.61720    3.68310    0.02660    2.52940   41.43210   40.64270   39.78590   88.38920  157.15350   -9999.25   -9999.25
 12043.00000   -9999.25   -9999.25    0.11750    8.61970    3.58630    0.03260    2.52390   34.89660   32.69350   30.76810   87.06820  157.00980   -9999.25   -9999.25
 12043.50000   -9999.25   -9999.25    0.12300    8.62030    3.54270    0.03470    2.51450   26.97860   25.28550   24.02810   89.94770  152.37600   -9999.25   -9999.25
 12044.00000   -9999.25   -9999.25    0.13080    8.63330    3.51740    0.03560    2.49980   23.64260   23.25310   22.89400   83.30140  149.27530   -9999.25   -9999.25
 12044.50000   -9999.25   -9999.25    0.13300    8.65670    3.51010    0.03540    2.49380   22.69840   22.43550   22.19250   80.70140  146.79340   -9999.25   -9999.25
 12045.00000   -9999.25   -9999.25    0.10920    8.67370    3.60710    0.03460    2.53140   26.42840   22.82010   22.33290   80.16360  144.96930   -9999.25   -9999.25
 12045.50000   -9999.25   -9999.25    0.04750    8.69360    3.89790    0.03350    2.59590   45.67270   42.96600   36.94730   79.89280  142.96420   -9999.25   -9999.25
 12046.00000   -9999.25   -9999.25   -0.00690    8.71430    4.18940    0.03020    2.70420   52.92610   52.23140   51.05280   80.80780  143.22440   -9999.25   -9999.25
 12046.50000   -9999.25   -9999.25   -0.01610    8.71790    4.22930    0.02680    2.73540   54.31960   53.55050   51.79120   81.55920  144.10520   -9999.25   -9999.25
 12047.00000   -9999.25   -9999.25    0.02670    8.72080    4.10070    0.02400    2.68560   45.74830   42.04040   38.86210   85.04840  145.02680   -9999.25   -9999.25
 12047.50000   -9999.25   -9999.25    0.07810    8.72380    3.85330    0.02110    2.57980   35.47370   34.96440   34.49610   87.80390  150.55930   -9999.25   -9999.25
 12048.00000   -9999.25   -9999.25    0.12790    8.72670    3.60590    0.01830    2.51540   34.51980   34.07960   33.67260   89.48930  155.04000   -9999.25   -9999.25
 12048.50000   -9999.25   -9999.25    0.14750    8.72960    3.52840    0.01540    2.47620   32.79520   31.17800   29.73540   90.43230  160.52400   -9999.25   -9999.25
 12049.00000   -9999.25   -9999.25    0.15390    8.73250    3.54960    0.01260    2.46960   26.91400   25.58820   24.40950   91.93610  164.68050   -9999.25   -9999.25
 12049.50000   -9999.25   -9999.25    0.15430    8.73540    3.58470    0.00980    2.46950   22.08740   21.30760   20.95670   93.49620  167.81320   -9999.25   -9999.25
 12050.00000   -9999.25   -9999.25    0.15180    8.73830    3.59680    0.00690    2.46930   20.64660   20.40510   20.18240   94.98520  170.17760   -9999.25   -9999.25
 12050.50000   -9999.25   -9999.25   -9999.25   -9999.25   -9999.25   -9999.25   -9999.25   20.50560   20.20620   19.92970   96.16760  170.91160   -9999.25   -9999.25
 12051.00000   -9999.25   -9999.25   -9999.25   -9999.25   -9999.25   -9999.25   -9999.25   19.76180   19.23430   18.47400   96.35480  172.51340   -9999.25   -9999.25
 12051.50000   -9999.25   -9999.25   -9999.25   -9999.25   -9999.25   -9999.25   -9999.25   16.99740   16.28540   15.64250   96.56310  172.92400   -9999.25   -9999.25
 12052.00000   -9999.25   -9999.25   -9999.25   -9999.25   -9999.25   -9999.25   -9999.25   14.39240   13.95600   13.70860   96.54760  172.68240   -9999.25   -9999.25
 12052.50000   -9999.25   -9999.25   -9999.25   -9999.25   -9999.25   -9999.25   -9999.25   15.95020   15.18580   14.52240   95.82030  172.18520   -9999.25   -9999.25
 12053.00000   -9999.25   -9999.25   -9999.25   -9999.25   -9999.25   -9999.25   -9999.25   18.28270   17.51640   16.82350   95.10690  171.53980   -9999.25   -9999.25
 12053.50000   -9999.25   -9999.25   -9999.25   -9999.25   -9999.25   -9999.25   -9999.25   20.67540   20.20470   19.48920   94.15100  170.95530   -9999.25   -9999.25
 12054.00000   -9999.25   -9999.25   -9999.25   -9999.25   -9999.25   -9999.25   -9999.25   21.80590   21.42640   21.07860   93.63530  169.86600   -9999.25   -9999.25
 12054.50000   -9999.25   -9999.25   -9999.25   -9999.25   -9999.25   -9999.25   -9999.25   22.88240   22.54570   22.23250   92.59850  167.67460   -9999.25   -9999.25
 12055.00000   -9999.25   -9999.25   -9999.25   -9999.25   -9999.25   -9999.25   -9999.25   23.76500   23.41750   23.09450   91.32340  165.48320   -9999.25   -9999.25
 12055.50000   -9999.25   -9999.25   -9999.25   -9999.25   -9999.25   -9999.25   -9999.25   24.20040   23.80460   23.43860   90.05560  163.49180   -9999.25   -9999.25
 12056.00000   -9999.25   -9999.25   -9999.25   -9999.25   -9999.25   -9999.25   -9999.25   23.32370   23.00390   22.70950   89.64390  163.02090   -9999.25   -9999.25
 12056.50000   -9999.25   -9999.25   -9999.25   -9999.25   -9999.25   -9999.25   -9999.25   24.05200   23.72210   23.41870   89.64390  163.20850   -9999.25   -9999.25
 12057.00000   -9999.25   -9999.25   -9999.25   -9999.25   -9999.25   -9999.25   -9999.25   24.64580   24.35730   24.09120   89.73970  163.26680   -9999.25   -9999.25
 12057.50000   -9999.25   -9999.25   -9999.25   -9999.25   -9999.25   -9999.25   -9999.25   24.90000   24.60830   24.33930   90.09180  164.02900   -9999.25   -9999.25
 12058.00000   -9999.25   -9999.25   -9999.25   -9999.25   -9999.25   -9999.25   -9999.25   24.34540   23.94880   23.58280   91.16510  166.28250   -9999.25   -9999.25
 12058.50000   -9999.25   -9999.25   -9999.25   -9999.25   -9999.25   -9999.25   -9999.25   23.22230   22.91950   22.66610   91.86660  168.58380   -9999.25   -9999.25
 12059.00000   -9999.25   -9999.25   -9999.25   -9999.25   -9999.25   -9999.25   -9999.25   24.39230   24.08670   23.80570   92.04090  170.60880   -9999.25   -9999.25
 12059.50000   -9999.25   -9999.25   -9999.25   -9999.25   -9999.25   -9999.25   -9999.25   22.68460   21.68510   19.93530   92.28140  172.57130   -9999.25   -9999.25
 12060.00000   -9999.25   -9999.25   -9999.25   -9999.25   -9999.25   -9999.25   -9999.25   16.58450   15.14880   13.92770   91.91320  172.11470   -9999.25   -9999.25
 12060.50000   -9999.25   -9999.25   -9999.25   -9999.25   -9999.25   -9999.25   -9999.25   12.42350   11.87590   11.38930   91.05670  167.89500   -9999.25   -9999.25
 12061.00000   -9999.25   -9999.25   -9999.25   -9999.25   -9999.25   -9999.25   -9999.25   10.51700   10.38270   10.25890   89.53400  168.04220   -9999.25   -9999.25
 12061.50000   -9999.25   -9999.25   -9999.25   -9999.25   -9999.25   -9999.25   -9999.25   10.51000   10.34960   10.21580   87.50370  164.17460   -9999.25   -9999.25
 12062.00000   -9999.25   -9999.25   -9999.25   -9999.25   -9999.25   -9999.25   -9999.25   29.87700   21.22930   15.18920   86.80450  162.93260   -9999.25   -9999.25
 12062.50000   -9999.25   -9999.25   -9999.25   -9999.25   -9999.25   -9999.25   -9999.25   59.97640   59.22630   51.04730   86.32960  162.10300   -9999.25   -9999.25
 12063.00000   -9999.25   -9999.25   -9999.25   -9999.25   -9999.25   -9999.25   -9999.25   59.38280   58.18790   57.08460   86.50090  160.41410   -9999.25   -9999.25
