~Version ---------------------------------------------------
VERS.   2.0 : CWLS log ASCII Standard -VERSION 2.0
WRAP.    NO : One line per depth step
DLM . SPACE : Column Data Section Delimiter
~Well ------------------------------------------------------
STRT .F                    5.0 : START DEPTH
STOP .F                12071.0 : STOP DEPTH
STEP .F                    0.5 : STEP
NULL .                -9999.25 : NULL VALUE
COMP .                         : COMPANY
WELL .                         : WELL
FLD  .                         : FIELD
LOC  .                         : LOCATION
PROV .                         : PROVINCE
CNTY .                         : COUNTY
STAT .                         : STATE
CTRY .                         : COUNTRY
SRVC .                         : SERVICE COMPANY
DATE .                         : DATE
UWI  .                         : UNIQUE WELL ID
API  .                         : API NUMBER
SLAT .WGS84 2.5902191814258018 : SURFACE LATITUDE
SLON .WGS84  7.031471104654003 : SURFACE LONGITUDE
DATUM.F                    nan : DEPTH DATUM ELEV
~Curve Information -----------------------------------------
DEPT    .F     : 1 MEASURED DEPTH
SGRDD   .GAPI  : SPECTROSCOPY GAMMA RAY FROM DENSITY LOG
TNPH_LS .DEC   : THERMAL NEUTRON POROSITY [LIMESTONE]
DPHZ_LS .DEC   : HGRD STANDARD RESOLUTION DENSITY POROSITY
CALD    .IN    : CALIPER FROM DENSITY LOG
PEFZ    .B/E   : HRDD STANDARD RESOLUTION FORMATION PHOTOELECTRIC FACTOR
HDRA    .G/C3  : HRDD SPINE AND RIBS DENSITY CORRECTION
RHOZ    .G/C3  : HRDD STANDARD RESOLUTION FORMATION DENSITY
RLA5    .OHMM  : APPARENT RESISTIVITY FROM COMPUTED FOCUSING MODE 5
RLA4    .OHMM  : APPARENT RESISTIVITY FROM COMPUTED FOCUSING MODE 4
RLA3    .OHMM  : APPARENT RESISTIVITY FROM COMPUTED FOCUSING MODE 3
DTCO    .US/F  : DELTA-T COMPRESSIONAL
DTSM    .US/F  : DELTA-T SHEAR
GRD     .GAPI  : GAMMA RAY FROM DENSITY LOG
CNPOR_LS.DEC   : COMPENSATED ENHANCED THERMAL NEUTRON POROSITY IN SELECTED LITHOLOGY LIMESTONE
~Params ----------------------------------------------------
~Other -----------------------------------------------------
~ASCII -----------------------------------------------------
# ...
 10047.50000   18.33740   -0.00320    0.01160    8.86150    4.92970    0.00460    2.68970 3011.33980 2676.78660 1389.83700   49.20800   93.49530   11.47940    0.01250
 10048.00000   17.92550   -0.00380    0.00210    8.86150    5.04320    0.00560    2.70800 3484.87890 3127.82620 1525.24660   49.09810   92.37080   12.64370    0.01280
 10048.50000   17.02130   -0.00520   -0.00460    8.86140    5.09940    0.00760    2.71550 4639.67630 4521.60400 1844.28140   49.06940   91.74530   13.25050    0.01310
 10049.00000   16.81130   -0.00600   -0.00850    8.86140    5.15320    0.00800    2.72270 4573.40040 4136.42870 1874.46550   49.74020   91.79340   14.74300    0.01370
 10049.50000   19.00810   -0.00510   -0.00820    8.86130    5.17300    0.00840    2.72270 4580.45610 4075.42580 1873.60230   49.38610   91.93460   17.17570    0.01430
 10050.00000   20.89110   -0.00400   -0.00490    8.86130    5.17790    0.00870    2.71990 4165.91310 3233.90480 1643.11050   48.97050   93.07280   17.50940    0.01220
 10050.50000   22.63490   -0.00290   -0.00390    8.86100    5.17480    0.00910    2.71520 2658.27340 2179.21220 1396.64660   48.84230   94.38900   19.09100    0.00840
 10051.00000   23.73620   -0.00190   -0.00270    8.86380    5.07280    0.00950    2.70860 2222.20870 1682.25220 1119.97090   50.68580   94.23650   21.02970    0.00760
 10051.50000   25.24980   -0.00100    0.00510    8.86840    4.92290    0.00610    2.70180 2084.92800 1649.43240 1094.87020   51.14750   93.82430   21.65030    0.00950
 10052.00000   25.94180   -0.00020    0.00690    8.86350    4.82850    0.00670    2.69850 2481.01830 1923.63940 1230.34080   51.28350   93.26190   21.64410    0.01220
 10052.50000   26.17100   -0.00010    0.00540    8.86080    4.81700    0.00730    2.70190 1865.69090 1672.69340 1040.51000   51.55490   93.16220   20.08760    0.01290
 10053.00000   25.97650    0.00000    0.00510    8.86090    4.81980    0.00740    2.70480 1610.61470 1371.92030  909.74670   51.75160   95.08760   18.15020    0.01200
 10053.50000   24.60010    0.00060    0.00800    8.86110    4.80740    0.00590    2.70360 2323.67500 1641.22310 1143.89860   51.53220   96.24470   16.49180    0.01050
 10054.00000   23.41180    0.00200    0.01460    8.86120    4.75210    0.00440    2.68370 2052.54350 1910.52600 1229.62980   51.15680   96.41610   17.62230    0.00970
 10054.50000   22.87050    0.00430    0.02770    8.86130    4.71080    0.00290    2.66190 1270.93430 1182.15720  879.95050   51.13640   96.42590   18.74630    0.00940
 10055.00000   23.52840    0.00850    0.03820    8.86130    4.66780    0.00270    2.64920 1053.04370  901.76200  734.17070   51.19840   95.94110   17.87230    0.01140
 10055.50000   23.73750    0.01370    0.03470    8.86120    4.64170    0.00310    2.64960  783.60650  715.27860  602.94210   52.61300   95.98270   16.28630    0.01400
 10056.00000   22.93840    0.01500    0.02550    8.86120    4.71580    0.00870    2.67140 1042.69490 1002.49770  765.50970   51.88490   97.12220   14.86900    0.01500
 10056.50000   22.61130    0.01440    0.01920    8.86120    4.75650    0.00900    2.67680 1239.74340 1175.28640  851.61350   50.96490   97.71030   16.39400    0.01580
 10057.00000   25.15920    0.01290    0.02790    8.86110    4.74570    0.00930    2.66750 1244.88650 1066.03740  815.11100   50.68230   97.80580   16.99070    0.02030
 10057.50000   28.05820    0.01380    0.04080    8.86110    4.67490    0.00570    2.64730  484.33760  378.40030  316.50950   50.46870   97.08820   17.51850    0.02510
 10058.00000   31.23970    0.01720    0.04220    8.86110    4.66030    0.00170    2.64130  403.61610  325.76340  251.12280   50.38740   96.44160   19.16260    0.02670
 10058.50000   31.79220    0.01660    0.03980    8.86110    4.74700    0.00010    2.64400  512.10100  454.71490  378.45320   50.43790   96.02040   19.15420    0.02140
 10059.00000   26.92740    0.01110    0.03220    8.86100    4.87290    0.00100    2.65510  968.09670  793.50640  694.85030   50.32180   95.47210   17.04250    0.01490
 10059.50000   21.47330    0.00500    0.02330    8.86100    4.94920    0.00260    2.67420 5106.42290 1882.42350 1581.30580   49.70780   95.06480   15.93360    0.01120
 10060.00000   18.61810    0.00170    0.01480    8.86100    5.01760    0.00420    2.69360 3263.88310 1427.78270 1147.60140   49.31720   94.73200   13.87850    0.01190
 10060.50000   18.36310   -0.00100    0.00720    8.86090    5.07530    0.00580    2.70740 1421.34340 1019.62340  787.46090   49.56540   94.44430   12.78680    0.01240
 10061.00000   18.86720   -0.00330   -0.00030    8.86090    5.10140    0.00610    2.71320 1679.65450 1273.47300  933.51620   50.23570   95.04090   16.34630    0.01120
 10061.50000   18.76330   -0.00540   -0.00500    8.86040    5.10240    0.00630    2.71680 1722.35100 1242.75520  888.16950   50.04200   95.38440   21.04250    0.01150
 10062.00000   18.24690   -0.00540   -0.00430    8.85940    5.07870    0.00660    2.71920 2157.58400 1626.10110  937.81710   49.76530   93.79130   20.03300    0.01430
 10062.50000   18.64080   -0.00350   -0.00310    8.85780    5.02630    0.00700    2.71860 2516.85060 2397.45900 1056.49240   49.98790   94.25170   16.34990    0.01510
 10063.00000   19.26610   -0.00100   -0.00190    8.85600    4.98000    0.00760    2.71470 4222.89790 3168.81710 1482.41480   49.40040   93.63270   14.76700    0.01390
 10063.50000   20.92930    0.00190   -0.00200    8.85420    4.96320    0.00930    2.71240 5706.85740 3741.91480 1846.53550   49.76510   94.33570   15.24680    0.01460
 10064.00000   23.74270    0.00520   -0.00770    8.86140    4.94400    0.01200    2.71950 3445.92310 2286.37430 1355.18040   51.14330   95.60610   16.34290    0.01360
 10064.50000   25.56420    0.00640   -0.00650    8.86150    4.90970    0.02310    2.72450 2291.09470 1797.64820 1053.97950   56.73710   96.87640   16.92590    0.01240
 10065.00000   25.06000    0.00630    0.00260    8.86200    4.81710    0.01790    2.70870 2283.55570 1968.18410 1159.68200   53.62130   98.14680   16.81260    0.01250
 10065.50000   22.17800    0.00470    0.01310    8.86240    4.73660    0.00990    2.68680 1836.85270 1579.13880  982.29380   56.93760   99.38940   15.23720    0.01310
 10066.00000   19.29610    0.00390    0.01500    8.86290    4.72900    0.00780    2.68480 1509.48630 1480.28490  940.63180   56.55540  100.54630   17.96470    0.01810
 10066.50000   18.69920    0.00830    0.01170    8.86340    4.67260    0.00560    2.69010 1441.00560 1190.95480  907.19520   59.18730  102.34450   31.08720    0.02530
 10067.00000   29.40960    0.02030    0.01690    8.86390    4.48530    0.00460    2.69370  581.83750  504.92850  363.26900   60.10160  104.14270   42.67460    0.03180
 10067.50000   53.21010    0.04210    0.03420    8.86440    4.17490    0.00430    2.69240   71.61500   64.39810   54.76720   61.88640  106.40180   51.72430    0.04890
 10068.00000   74.53630    0.07810    0.05150    8.86490    3.84870    0.00410    2.62190  133.48190   98.49660   74.14640   62.09310  107.82590   52.80990    0.10110
 10068.50000   77.04040    0.10310    0.06120    8.86540    3.60260    0.00380    2.60860  410.14820  263.09830  143.90730   62.12350  107.60600   54.06420    0.13500
 10069.00000   76.93520    0.10960    0.07220    8.86590    3.38490    0.00260    2.59630  128.49110   93.76780   75.20160   62.06460  106.95040   61.17500    0.11340
 10069.50000   88.24450    0.10940    0.08940    8.86590    3.19990    0.00210    2.58410   52.07890   48.27230   40.64140   61.49460  105.73840   64.76800    0.07930
 10070.00000   96.13950    0.11100    0.10550    8.86550    3.22810    0.00240    2.57180   94.73890   57.62980   45.48530   60.73630  104.62290   52.14800    0.07040
 10070.50000   84.69530    0.12940    0.10090    8.86510    3.37230    0.00270    2.56370  417.56420  151.12910  142.43190   58.69170  103.49520   34.22290    0.06350
 10071.00000   62.40960    0.10360    0.08770    8.86470    3.57280    0.00300    2.56330 1565.13980 1088.08560  687.65920   55.17560  102.22730   24.53600    0.04790
