~Version ---------------------------------------------------
VERS.   2.0 : CWLS log ASCII Standard -VERSION 2.0
WRAP.    NO : One line per depth step
DLM . SPACE : Column Data Section Delimiter
~Well ------------------------------------------------------
STRT .F                    5.0 : START DEPTH
STOP .F                12071.0 : STOP DEPTH
STEP .F                    0.5 : STEP
NULL .                -9999.25 : NULL VALUE
COMP .                         : COMPANY
WELL .                         : WELL
FLD  .                         : FIELD
LOC  .                         : LOCATION
PROV .                         : PROVINCE
CNTY .                         : COUNTY
STAT .                         : STATE
CTRY .                         : COUNTRY
SRVC .                         : SERVICE COMPANY
DATE .                         : DATE
UWI  .                         : UNIQUE WELL ID
API  .                         : API NUMBER
SLAT .WGS84 2.5902191814258018 : SURFACE LATITUDE
SLON .WGS84  7.031471104654003 : SURFACE LONGITUDE
DATUM.F                    nan : DEPTH DATUM ELEV
~Curve Information -----------------------------------------
DEPT    .F     : 1 MEASURED DEPTH
SGRDD   .GAPI  : SPECTROSCOPY GAMMA RAY FROM DENSITY LOG
TNPH_LS .DEC   : THERMAL NEUTRON POROSITY [LIMESTONE]
DPHZ_LS .DEC   : HGRD STANDARD RESOLUTION DENSITY POROSITY
CALD    .IN    : CALIPER FROM DENSITY LOG
PEFZ    .B/E   : HRDD STANDARD RESOLUTION FORMATION PHOTOELECTRIC FACTOR
HDRA    .G/C3  : HRDD SPINE AND RIBS DENSITY CORRECTION
RHOZ    .G/C3  : HRDD STANDARD RESOLUTION FORMATION DENSITY
RLA5    .OHMM  : APPARENT RESISTIVITY FROM COMPUTED FOCUSING MODE 5
RLA4    .OHMM  : APPARENT RESISTIVITY FROM COMPUTED FOCUSING MODE 4
RLA3    .OHMM  : APPARENT RESISTIVITY FROM COMPUTED FOCUSING MODE 3
DTCO    .US/F  : DELTA-T COMPRESSIONAL
DTSM    .US/F  : DELTA-T SHEAR
GRD     .GAPI  : GAMMA RAY FROM DENSITY LOG
CNPOR_LS.DEC   : COMPENSATED ENHANCED THERMAL NEUTRON POROSITY IN SELECTED LITHOLOGY LIMESTONE
~Params ----------------------------------------------------
~Other -----------------------------------------------------
~ASCII -----------------------------------------------------
# ...
 10383.50000   79.28220    0.12820    0.04140    8.88150    3.69400    0.00170    2.64230   46.97230   43.09790   37.83370   75.96950  126.54250   56.55610    0.14710
 10384.00000   88.45050    0.14630    0.05220    8.88150    3.53260    0.00230    2.62160   34.69610   32.95970   31.99340   76.61660  128.33010   64.79970    0.15090
 10384.50000   95.60810    0.15960    0.06730    8.88150    3.40110    0.00300    2.59540   29.93140   29.17180   27.45010   77.03470  129.30510   73.76460    0.16140
 10385.00000   99.97240    0.17680    0.07940    8.88150    3.27940    0.00330    2.58300   26.75680   26.07880   24.55660   77.10140  129.53490   79.30430    0.16960
 10385.50000  105.21610    0.19260    0.08430    8.88160    3.15770    0.00350    2.57400   23.91880   23.31370   21.76620   77.14920  129.01730   82.40540    0.14240
 10386.00000  107.60630    0.20290    0.08610    8.88160    3.03600    0.00370    2.57320   21.44130   21.13370   20.28970   76.88260  128.19710   74.91830    0.09580
 10386.50000  107.04410    0.19850    0.08040    8.88280    2.98060    0.00390    2.58490   21.07250   20.85710   20.52750   76.47280  127.77130   69.49670    0.09880
 10387.00000  102.39960    0.18290    0.06930    8.88410    2.89890    0.00410    2.60240   24.41120   22.98450   22.49340   76.30050  127.07350   70.14930    0.12320
 10387.50000   95.80620    0.16420    0.06300    8.88550    2.83650    0.00440    2.60990   33.76690   31.39680   29.14700   76.20420  125.16640   73.17090    0.15530
 10388.00000   94.68640    0.14630    0.06410    8.88480    2.78250    0.00460    2.60730   34.25500   32.67630   30.82560   76.39670  125.16640   64.87940    0.14930
 10388.50000   97.71280    0.14880    0.07510    8.88390    2.75520    0.00360    2.58770   27.68790   26.71950   26.36130   76.66130  125.16640   56.60830    0.12830
 10389.00000  102.34590    0.15660    0.08250    8.88290    2.76280    0.00220    2.57820   28.32710   27.03640   26.15600   77.02130  127.32870   53.50180    0.11430
 10389.50000  107.40010    0.15740    0.08580    8.88200    2.75210    0.00090    2.57400   40.61080   37.61990   34.48440   77.95200  128.27970   53.26750    0.10340
 10390.00000  110.61220    0.15700    0.08670    8.87970    2.76000    0.00050    2.57130   36.67680   37.47620   33.97870   78.32870  128.80480   56.54570    0.10860
 10390.50000  112.34190    0.15920    0.08760    8.87640    2.78590    0.00060    2.56870   26.61470   24.20280   21.01810   78.69070  129.77020   61.34280    0.11500
 10391.00000  113.41000    0.17140    0.08930    8.87310    2.81180    0.00080    2.56800   24.33710   22.97160   21.70840   78.90690  130.50490   63.27290    0.12690
 10391.50000  112.16140    0.17720    0.08930    8.88040    2.83930    0.00100    2.56800   27.27130   26.07120   21.50920   79.06970  130.28430   62.71290    0.13220
 10392.00000  109.06770    0.17170    0.08800    8.88130    2.82610    0.00110    2.56850   22.33660   20.85150   19.95240   79.05530  130.59820   62.55020    0.10440
 10392.50000  106.03610    0.16340    0.08750    8.88140    2.82530    0.00130    2.56880   23.37130   21.27240   20.36710   78.98950  131.84390   65.30480    0.08860
 10393.00000  104.63060    0.16020    0.08880    8.88150    2.82590    0.00130    2.56750   21.02710   20.05880   18.52490   78.89770  131.16640   65.84780    0.09740
 10393.50000  101.77810    0.16630    0.09290    8.87830    2.82670    0.00130    2.56100   19.92340   19.02390   18.54330   78.80100  131.29120   64.95690    0.11420
 10394.00000   98.13950    0.17230    0.09590    8.87560    2.84310    0.00130    2.55500   25.07720   22.94650   20.93800   78.73670  131.31850   58.29000    0.13490
 10394.50000   96.25880    0.17620    0.09670    8.87430    2.84240    0.00130    2.55870   23.21880   22.30470   19.80420   78.97240  131.33120   50.41970    0.15800
 10395.00000   94.50310    0.17620    0.09010    8.87290    2.83890    0.00130    2.57100   21.59190   20.33370   18.61340   79.00400  131.48480   49.35650    0.17330
 10395.50000   92.74520    0.17140    0.08240    8.88270    2.81300    0.00130    2.58270   20.24650   18.53690   18.09670   78.90080  131.78050   50.70770    0.17200
 10396.00000   93.99490    0.16690    0.07220    8.88210    2.80400    0.00340    2.59680   19.55900   17.38230   16.84320   79.35950  132.16020   55.26790    0.13630
 10396.50000   96.14240    0.16880    0.06950    8.88150    2.81140    0.00510    2.59840   18.31020   17.69740   15.87700   79.71280  132.66420   66.95400    0.12620
 10397.00000   97.54460    0.17170    0.07280    8.88120    2.81960    0.00420    2.59090   18.58190   18.37880   16.53180   79.96760  133.01830   72.49430    0.14640
 10397.50000  101.97760    0.18120    0.08160    8.87950    2.82780    0.00120    2.57510   19.84890   17.76650   17.25270   79.78760  134.65730   75.02970    0.15970
 10398.00000  105.63360    0.18010    0.09270    8.87640    2.82520   -0.00080    2.56100   19.22560   18.32410   17.10440   79.59390  133.77220   73.29340    0.13940
 10398.50000  110.72660    0.18160    0.09510    8.87340    2.82420    0.00010    2.54500   20.29270   18.03730   17.10520   79.48150  133.07240   62.95890    0.11870
 10399.00000  109.42020    0.18420    0.10290    8.87960    2.82600   -0.00020    2.54710   18.88200   16.82920   16.42460   78.93750  133.33560   53.32740    0.11330
 10399.50000  108.48570    0.18650    0.10210    8.88250    2.84460   -0.00120    2.55940   17.46060   16.39900   16.24090   78.20080  132.28240   51.43070    0.11380
 10400.00000  104.58030    0.18630    0.09420    8.88210    2.87760   -0.00170    2.56920   16.84590   15.65750   15.41450   77.62830  130.84390   52.48680    0.11420
 10400.50000   98.18240    0.17670    0.08140    8.88120    2.91570   -0.00000    2.57870   17.10200   16.16730   15.55060   77.13090  129.57110   54.55540    0.12300
 10401.00000   92.85890    0.16570    0.07540    8.87990    2.95400    0.00100    2.58750   22.55110   19.71170   19.10200   77.01170  128.51500   57.39370    0.14530
 10401.50000   88.58200    0.15700    0.07620    8.87850    2.94420    0.00210    2.59240   22.02960   19.69710   19.45060   76.53920  127.94430   57.77470    0.16450
 10402.00000   85.46940    0.16830    0.07050    8.87950    2.93720    0.00320    2.59790   21.85050   19.93780   19.67260   76.53410  128.28030   54.10750    0.15550
 10402.50000   82.61680    0.15900    0.06510    8.88080    2.92250    0.00510    2.60700   30.48630   26.33840   24.19950   77.58900  128.78960   47.87280    0.14730
 10403.00000   81.26320    0.15850    0.06300    8.88150    2.90680    0.00710    2.61030   33.98920   30.00110   29.68080   77.83670  128.35360   47.26730    0.14870
 10403.50000   84.98290    0.16280    0.07210    8.87420    2.90780    0.00520    2.58690   28.67850   27.01820   25.67590   78.84990  131.08750   53.98950    0.14180
 10404.00000   92.78350    0.16660    0.08500    8.87900    2.91130    0.00310    2.57250   24.74280   21.81510   21.11200   79.99190  133.16890   59.22210    0.16300
 10404.50000   97.28750    0.16970    0.08570    8.88490    2.91470    0.00230    2.57720   22.14870   19.36940   19.12130   81.50710  137.54290   55.76450    0.19600
 10405.00000   95.86360    0.17150    0.07910    8.88500    2.91920    0.00200    2.59540   20.67570   19.16260   18.94190   82.36460  140.19370   55.39700    0.19710
 10405.50000   94.07670    0.19830    0.07000    8.90000    2.93540    0.00270    2.59820   20.56060   18.56060   17.37650   82.74580  141.51020   58.92430    0.18960
 10406.00000   99.07970    0.22100    0.07200    8.89210    2.95170    0.00300    2.59170   14.00120   12.61120   11.43380   83.21340  143.27740   64.81520    0.17600
 10406.50000  106.54100    0.23090    0.07650    8.89960    2.96790    0.00330    2.58310   11.16190   10.65810   10.52960   83.30880  144.04210   67.76770    0.17900
 10407.00000  115.25770    0.23340    0.07910    8.89080    2.98420    0.00350    2.58430   10.88620   10.34570   10.14160   83.28220  145.03890   67.40580    0.18930
