~Version ---------------------------------------------------
VERS.   2.0 : CWLS log ASCII Standard -VERSION 2.0
WRAP.    NO : One line per depth step
DLM . SPACE : Column Data Section Delimiter
~Well ------------------------------------------------------
STRT .F                    5.0 : START DEPTH
STOP .F                12071.0 : STOP DEPTH
STEP .F                    0.5 : STEP
NULL .                -9999.25 : NULL VALUE
COMP .                         : COMPANY
WELL .                         : WELL
FLD  .                         : FIELD
LOC  .                         : LOCATION
PROV .                         : PROVINCE
CNTY .                         : COUNTY
STAT .                         : STATE
CTRY .                         : COUNTRY
SRVC .                         : SERVICE COMPANY
DATE .                         : DATE
UWI  .                         : UNIQUE WELL ID
API  .                         : API NUMBER
SLAT .WGS84 2.5902191814258018 : SURFACE LATITUDE
SLON .WGS84  7.031471104654003 : SURFACE LONGITUDE
DATUM.F                    nan : DEPTH DATUM ELEV
~Curve Information -----------------------------------------
DEPT    .F     : 1 MEASURED DEPTH
SGRDD   .GAPI  : SPECTROSCOPY GAMMA RAY FROM DENSITY LOG
TNPH_LS .DEC   : THERMAL NEUTRON POROSITY [LIMESTONE]
DPHZ_LS .DEC   : HGRD STANDARD RESOLUTION DENSITY POROSITY
CALD    .IN    : CALIPER FROM DENSITY LOG
PEFZ    .B/E   : HRDD STANDARD RESOLUTION FORMATION PHOTOELECTRIC FACTOR
HDRA    .G/C3  : HRDD SPINE AND RIBS DENSITY CORRECTION
RHOZ    .G/C3  : HRDD STANDARD RESOLUTION FORMATION DENSITY
RLA5    .OHMM  : APPARENT RESISTIVITY FROM COMPUTED FOCUSING MODE 5
RLA4    .OHMM  : APPARENT RESISTIVITY FROM COMPUTED FOCUSING MODE 4
RLA3    .OHMM  : APPARENT RESISTIVITY FROM COMPUTED FOCUSING MODE 3
DTCO    .US/F  : DELTA-T COMPRESSIONAL
DTSM    .US/F  : DELTA-T SHEAR
GRD     .GAPI  : GAMMA RAY FROM DENSITY LOG
CNPOR_LS.DEC   : COMPENSATED ENHANCED THERMAL NEUTRON POROSITY IN SELECTED LITHOLOGY LIMESTONE
~Params ----------------------------------------------------
~Other -----------------------------------------------------
~ASCII -----------------------------------------------------
# ...
 8016.00000   73.95120    0.18690    0.13590    8.76420    3.09910    0.00120    2.48790   89.73250   93.94890  105.88200   68.59700  116.09590   52.69890    0.08870
 8016.50000   77.02850    0.19900    0.13690    8.74860    3.19100    0.00080    2.50650   70.01820   71.08030   80.50670   66.32590  113.93370   43.14920    0.08590
 8017.00000   74.11260    0.17810    0.12620    8.73310    3.43080    0.00040    2.55580  101.18120  114.95910  148.76000   65.44790  111.81190   36.46250    0.10010
 8017.50000   59.88500    0.13600    0.10280    8.76000    3.70560    0.00470    2.57550  253.79070  289.26690  321.58150   63.40340  109.36800   31.53930    0.08700
 8018.00000   47.42730    0.10020    0.08060    8.79650    4.09070    0.00940    2.61590  397.35420  407.40680  414.16730   61.64000  107.38910   29.31660    0.05660
 8018.50000   38.14760    0.06750    0.06030    8.83300    4.33920    0.01410    2.63050  450.38760  487.00470  586.64340   60.81330  105.60100   24.67850    0.04200
 8019.00000   32.20450    0.04860    0.05040    8.86950    4.53300    0.01560    2.64910  792.71090  863.54700 1004.54490   60.23710  103.70130   19.49790    0.04130
 8019.50000   28.20900    0.03820    0.04530    8.88410    4.74080    0.01450    2.65730  853.29400  993.37880 1112.47170   59.97330  102.46780   15.94290    0.04400
 8020.00000   28.22170    0.03290    0.04000    8.89760    4.85330    0.01340    2.66870  887.28350 1070.00020 1166.60770   59.75500  101.55150   15.66990    0.05200
 8020.50000   28.37240    0.03270    0.03480    8.91100    4.93560    0.01210    2.67010  922.96790 1193.24610 1271.42700   59.55660  100.68970   15.65190    0.05570
 8021.00000   28.80200    0.03550    0.03150    8.92450    4.98070    0.00980    2.66320  969.61470 1330.68760 1388.75170   59.47690  100.35040   19.91420    0.05030
 8021.50000   29.36460    0.03930    0.03120    8.93800    4.98760    0.00750    2.65630 1010.70430 1385.38000 1420.63110   59.18710   99.87620   23.05450    0.04730
 8022.00000   30.98170    0.04220    0.03450    8.94840    4.91890    0.00740    2.64960  990.61290 1321.82030 1385.35490   58.81600  100.25150   23.29780    0.04570
 8022.50000   32.15230    0.04620    0.03880    8.92940    4.85550    0.00760    2.64410  967.01740 1264.94600 1325.73740   58.58700  100.71690   21.02470    0.04570
 8023.00000   32.02070    0.04880    0.04230    8.90310    4.83480    0.00800    2.64220  963.66710 1235.11580 1297.90200   58.60370  100.96640   19.56110    0.04640
 8023.50000   32.38780    0.05270    0.04270    8.87670    4.81410    0.00840    2.64190  963.66710 1219.38570 1282.05130   58.41470  100.84150   18.22600    0.04230
 8024.00000   32.94180    0.05470    0.04260    8.85550    4.80940    0.01160    2.64350  959.22080 1198.21400 1275.87890   58.37200  100.70660   19.02980    0.03340
 8024.50000   33.73580    0.05430    0.03690    8.85820    4.80970    0.01490    2.66020  914.75420 1161.76760 1263.66130   58.39660  100.64440   25.76330    0.03040
 8025.00000   34.62890    0.05200    0.02820    8.86080    4.81580    0.01650    2.66620  852.46480 1100.60620 1166.77800   58.58780  100.94660   31.34980    0.03150
 8025.50000   35.01340    0.05050    0.03010    8.86350    4.80860    0.01650    2.66370  888.77190 1117.73880 1185.85690   59.10260  100.76630   31.22480    0.03750
 8026.00000   33.47530    0.05000    0.03540    8.86620    4.80790    0.01460    2.65040  854.94500 1121.71350 1185.74240   59.16860  100.62990   25.71330    0.04240
 8026.50000   32.14640    0.04960    0.03820    8.86880    4.80690    0.01380    2.64680  822.40510 1080.84140 1119.58970   59.14930  100.51160   23.02250    0.03770
 8027.00000   32.10270    0.05080    0.04010    8.87060    4.80550    0.01160    2.63880  797.72660 1029.48600 1059.24400   59.14270  101.26540   23.37870    0.03390
 8027.50000   35.06020    0.05200    0.04940    8.86990    4.77060    0.00800    2.62850  791.94100 1040.24500 1076.45060   59.10460  101.18290   24.57580    0.03770
 8028.00000   38.61280    0.05320    0.05740    8.86930    4.73980    0.00490    2.62800  890.83820 1207.94060 1230.18620   58.50250  102.36730   29.40860    0.04560
 8028.50000   39.55080    0.05380    0.05530    8.86860    4.67880    0.00440    2.63290  895.25350 1209.43420 1224.47050   58.18590  101.82450   30.29130    0.04500
 8029.00000   38.81560    0.05320    0.04770    8.86800    4.58120    0.00400    2.63620  804.44460 1015.20530 1025.37130   58.21120  101.69710   30.19450    0.04330
 8029.50000   36.96220    0.05260    0.04600    8.86730    4.56960    0.00350    2.63810  726.68590  939.49490  954.66290   58.43420  101.69710   28.80270    0.04890
 8030.00000   37.51140    0.05350    0.04560    8.86670    4.57110    0.00320    2.63810  664.61710  826.15690  834.27230   58.59280  101.52610   27.85510    0.06190
 8030.50000   38.16110    0.05630    0.04580    8.86610    4.57290    0.00310    2.63460  664.00730  809.98070  816.47420   58.64780  101.39190   30.37930    0.06820
 8031.00000   38.40750    0.05990    0.04720    8.86540    4.58010    0.00290    2.62580  676.52060  818.11870  838.86070   58.62430  101.51420   31.40040    0.06890
 8031.50000   38.35370    0.06420    0.05220    8.86480    4.59880    0.00360    2.62520  653.01700  802.79410  825.80230   58.69620  102.39790   28.42470    0.06100
 8032.00000   38.55780    0.06750    0.05210    8.86530    4.64150    0.00580    2.62790  626.26060  783.62850  800.71930   58.91610  102.52030   26.53470    0.05190
 8032.50000   39.47850    0.07090    0.05120    8.86610    4.67920    0.00770    2.63300  619.53270  759.22270  775.25160   59.25980  102.16870   29.26250    0.05190
 8033.00000   40.70830    0.07460    0.04650    8.86680    4.74030    0.00970    2.63530  608.12960  728.74810  747.59890   59.31570  102.18850   32.66760    0.05490
 8033.50000   40.94580    0.07840    0.04700    8.86760    4.70260    0.01140    2.63560  580.24360  683.30790  700.89980   59.53260  101.42090   35.88720    0.05450
 8034.00000   39.86020    0.07780    0.04640    8.86840    4.67640    0.01110    2.63640  553.63640  637.22410  654.94820   59.61780  101.83530   35.49370    0.05400
 8034.50000   38.55560    0.07720    0.04560    8.86910    4.66840    0.00950    2.64000  528.48680  596.58910  614.02000   59.62930  102.05960   31.32230    0.05140
 8035.00000   37.67580    0.07610    0.04110    8.86990    4.66030    0.01220    2.64760  507.23030  559.06620  575.64940   59.72320  101.94130   30.55570    0.04930
 8035.50000   37.55680    0.07480    0.03800    8.87070    4.65940    0.01220    2.64810  489.51200  528.43540  539.67660   59.79000  104.10310   33.27410    0.05030
 8036.00000   38.56500    0.07430    0.04030    8.87100    4.65210    0.01220    2.64210  472.41230  507.34230  519.06120   59.56950  101.79150   31.23120    0.05950
 8036.50000   40.08560    0.07490    0.04430    8.87100    4.65070    0.01240    2.63080  464.66430  500.21590  508.78370   59.58070   99.02850   29.45130    0.05520
 8037.00000   41.60610    0.07420    0.05070    8.87100    4.65140    0.01310    2.62550  471.08840  500.24550  514.58720   59.74630  101.41260   30.32900    0.04620
 8037.50000   40.93850    0.07350    0.05000    8.87100    4.65930    0.01390    2.62960  498.43330  528.42440  562.08110   60.58970  100.95080   29.82600    0.04160
 8038.00000   40.97220    0.07720    0.04680    8.87100    4.66010    0.01890    2.63840  500.22910  553.19860  569.61370   60.99640  107.26000   28.23170    0.04400
 8038.50000   41.33660    0.08090    0.04450    8.87100    4.66150    0.02410    2.63870  474.35880  533.53930  547.73130   61.22290  105.35310   26.52760    0.05560
 8039.00000   42.00020    0.08460    0.04490    8.87100    4.67050    0.02340    2.63610  454.02870  507.85110  528.29590   59.33070  103.07110   24.81050    0.06580
 8039.50000   42.79520    0.08790    0.04630    8.87100    4.73040    0.02150    2.63700  628.51650  707.55630 1152.84560   61.34530  106.41790   23.23610    0.06570
 8040.00000   42.91790    0.08160    0.04370    8.87090    4.67160    0.02000    2.64560 1450.50440 1730.48750 2377.75610   62.96530  106.79650   22.28500    0.06260
