~Version ---------------------------------------------------
VERS.   2.0 : CWLS log ASCII Standard -VERSION 2.0
WRAP.    NO : One line per depth step
DLM . SPACE : Column Data Section Delimiter
~Well ------------------------------------------------------
STRT .F                    5.0 : START DEPTH
STOP .F                12071.0 : STOP DEPTH
STEP .F                    0.5 : STEP
NULL .                -9999.25 : NULL VALUE
COMP .                         : COMPANY
WELL .                         : WELL
FLD  .                         : FIELD
LOC  .                         : LOCATION
PROV .                         : PROVINCE
CNTY .                         : COUNTY
STAT .                         : STATE
CTRY .                         : COUNTRY
SRVC .                         : SERVICE COMPANY
DATE .                         : DATE
UWI  .                         : UNIQUE WELL ID
API  .                         : API NUMBER
SLAT .WGS84 2.5902191814258018 : SURFACE LATITUDE
SLON .WGS84  7.031471104654003 : SURFACE LONGITUDE
DATUM.F                    nan : DEPTH DATUM ELEV
~Curve Information -----------------------------------------
DEPT    .F     : 1 MEASURED DEPTH
SGRDD   .GAPI  : SPECTROSCOPY GAMMA RAY FROM DENSITY LOG
TNPH_LS .DEC   : THERMAL NEUTRON POROSITY [LIMESTONE]
DPHZ_LS .DEC   : HGRD STANDARD RESOLUTION DENSITY POROSITY
CALD    .IN    : CALIPER FROM DENSITY LOG
PEFZ    .B/E   : HRDD STANDARD RESOLUTION FORMATION PHOTOELECTRIC FACTOR
HDRA    .G/C3  : HRDD SPINE AND RIBS DENSITY CORRECTION
RHOZ    .G/C3  : HRDD STANDARD RESOLUTION FORMATION DENSITY
RLA5    .OHMM  : APPARENT RESISTIVITY FROM COMPUTED FOCUSING MODE 5
RLA4    .OHMM  : APPARENT RESISTIVITY FROM COMPUTED FOCUSING MODE 4
RLA3    .OHMM  : APPARENT RESISTIVITY FROM COMPUTED FOCUSING MODE 3
DTCO    .US/F  : DELTA-T COMPRESSIONAL
DTSM    .US/F  : DELTA-T SHEAR
GRD     .GAPI  : GAMMA RAY FROM DENSITY LOG
CNPOR_LS.DEC   : COMPENSATED ENHANCED THERMAL NEUTRON POROSITY IN SELECTED LITHOLOGY LIMESTONE
~Params ----------------------------------------------------
~Other -----------------------------------------------------
~ASCII -----------------------------------------------------
# ...
 9020.50000   91.43170    0.17310    0.12520    8.86570    3.11670    0.00300    2.50380  170.98970  168.17790  156.40450   73.71670  120.72540   51.32260    0.20100
 9021.00000   91.41910    0.17300    0.13040    8.86570    3.06400    0.00170    2.50050  141.73340  130.30920  118.87070   74.18900  120.25000   51.56020    0.20280
 9021.50000   88.93620    0.15770    0.12170    8.86570    3.01760    0.00040    2.51470  397.25980  289.02550  182.93090   74.25610  120.43530   56.02020    0.19380
 9022.00000   86.92460    0.15840    0.12110    8.86570    2.99530    0.00030    2.51580  288.04640  264.71650  233.29960   74.30410  120.39550   61.84700    0.15500
 9022.50000   87.34530    0.16260    0.12710    8.86570    2.96180    0.00040    2.49210  280.84600  256.85220  249.11780   74.38910  119.97560   57.08620    0.13630
 9023.00000   88.20950    0.16260    0.13860    8.86560    2.88930    0.00030    2.48070  319.54680  294.93810  285.07710   74.14350  119.72810   56.75380    0.13650
 9023.50000   86.79550    0.15370    0.14900    8.86560    2.86620    0.00020    2.46630  623.45420  539.71720  355.34980   74.43020  120.31030   61.20550    0.13410
 9024.00000   86.12680    0.14370    0.14750    8.86560    2.88750    0.00010    2.47200 1043.26920  899.12290  785.65810   74.17380  117.53670   59.55170    0.13210
 9024.50000   84.96530    0.13810    0.14270    8.86560    2.90180   -0.00000    2.48070  864.68550  737.04070  666.07450   73.47730  118.56340   49.18540    0.13160
 9025.00000   84.59870    0.13640    0.14250    8.86560    2.92430   -0.00020    2.48200  805.06840  749.27820  644.40060   71.80810  118.37600   44.41620    0.12620
 9025.50000   86.45760    0.14470    0.15060    8.86550    2.99120   -0.00130    2.45560  756.02140  667.79750  611.29430   71.73460  116.67140   45.78890    0.12430
 9026.00000   88.50650    0.15440    0.16250    8.86550    3.04980   -0.00230    2.44610  560.51820  524.43400  446.70750   70.65320  115.45160   50.46870    0.13370
 9026.50000   89.64610    0.15310    0.16560    8.86550    3.10840   -0.00340    2.44530  611.89970  562.38670  523.71810   71.06530  115.52670   54.84990    0.13640
 9027.00000   87.25470    0.14610    0.15360    8.86550    3.19430   -0.00340    2.47510  883.82560  874.07040  689.28140   71.41130  116.06330   53.89790    0.12290
 9027.50000   77.16620    0.12260    0.13020    8.86550    3.38810   -0.00100    2.51460 1085.80370  903.90470  768.82760   71.29130  115.99350   43.00480    0.09850
 9028.00000   65.61400    0.09920    0.10690    8.86550    3.55040    0.00140    2.56230 2298.44310 2005.54870 1070.14250   71.24440  116.06730   27.93490    0.08080
 9028.50000   54.99590    0.08410    0.09090    8.86540    3.64120    0.00300    2.56300 2298.08080 2074.46900 1395.26940   71.22540  116.36050   32.02310    0.07700
 9029.00000   64.16210    0.09190    0.10260    8.86540    3.58580    0.00310    2.51410 1510.96040 1354.61800  983.31990   72.01910  116.45840   39.36690    0.08670
 9029.50000   75.97080    0.11580    0.12150    8.86540    3.36020    0.00320    2.48510 1080.92030 1031.65970  807.68860   72.71770  116.70990   42.94590    0.09790
 9030.00000   84.59590    0.13230    0.13710    8.86540    3.15910    0.00300    2.46660  928.71130  881.91010  690.34210   74.26350  119.23390   46.65450    0.11800
 9030.50000   91.97120    0.14410    0.14840    8.86540    2.98420    0.00160    2.45690  824.94730  739.94640  595.67930   75.61270  121.68160   48.28420    0.14850
 9031.00000   92.72420    0.14960    0.15780    8.86540    2.86030    0.00020    2.45200  524.87290  514.80640  447.91200   76.54600  122.39140   43.79610    0.17290
 9031.50000   89.22140    0.15340    0.16130    8.86540    2.80460   -0.00120    2.44870  544.18960  531.91410  450.55230   77.05510  124.31890   42.34400    0.17090
 9032.00000   86.32100    0.14970    0.16450    8.86540    2.77790   -0.00250    2.44540  598.81600  585.24800  471.84910   77.44340  124.24220   48.47020    0.13760
 9032.50000   87.22340    0.15560    0.16680    8.86540    2.76790   -0.00250    2.43540  737.99140  688.57300  561.35770   77.60160  124.72450   55.01470    0.11080
 9033.00000   91.00760    0.16700    0.17480    8.86550    2.79800   -0.00240    2.43050  686.03410  626.41710  565.08230   77.90140  126.22660   60.17360    0.11620
 9033.50000   97.13650    0.17770    0.17340    8.86550    2.78050   -0.00240    2.43060  437.15960  395.73280  356.84860   78.03950  126.53440   62.28630    0.13490
 9034.00000   98.97520    0.18650    0.16920    8.86550    2.67800   -0.00100    2.43600  290.19750  270.37130  251.34650   78.23200  127.15220   53.98300    0.13280
 9034.50000  102.30010    0.18580    0.16420    8.86560    2.57460    0.00080    2.45260  247.25050  241.00430  238.47120   78.30510  126.73720   47.45250    0.14560
 9035.00000   98.23720    0.17940    0.15680    8.86560    2.52430    0.00290    2.46350  328.27130  324.37290  317.29100   77.90220  125.23240   46.94710    0.17050
 9035.50000   93.15760    0.17200    0.14740    8.86560    2.50520    0.00330    2.47270  295.55140  211.72170  177.02670   77.15590  125.34090   50.03210    0.19210
 9036.00000   95.70080    0.16570    0.14600    8.86570    2.51590    0.00300    2.47740  129.60210  120.37820  113.63890   76.47950  124.79920   56.37600    0.18540
 9036.50000  100.50650    0.16980    0.14630    8.86570    2.54250    0.00240    2.47280  118.24140  111.65200  110.50740   75.92780  124.10390   68.35970    0.14020
 9037.00000  110.19620    0.18330    0.15410    8.86570    2.63310    0.00180    2.45880  128.01280  121.99780  120.50090   75.47350  123.42470   75.28740    0.12870
 9037.50000  111.51520    0.19670    0.15660    8.86580    2.69520    0.00130    2.45820  126.42020  120.92240  119.57250   75.46630  123.34260   74.53500    0.11790
 9038.00000  104.44120    0.18580    0.15550    8.86580    2.73380    0.00070    2.46890  299.99040  225.05310  167.21860   75.41590  123.29150   67.82510    0.11330
 9038.50000   97.13110    0.16710    0.14580    8.86580    2.77610    0.00080    2.49060  382.60180  359.79280  327.41360   75.30620  122.62450   65.49680    0.12810
 9039.00000   94.18750    0.14670    0.13120    8.86590    2.81060    0.00230    2.51220  372.13410  347.07330  320.65900   75.05130  122.23190   65.25110    0.13890
 9039.50000   95.68700    0.13500    0.12210    8.86590    2.81850    0.00320    2.51450  299.66080  287.35220  273.17380   74.26530  120.47850   62.76300    0.14350
 9040.00000   95.68230    0.13880    0.12550    8.86590    2.82640    0.00330    2.50050  206.27270  179.18390  174.81240   74.16180  120.74910   60.91180    0.11600
 9040.50000   95.18790    0.14740    0.13780    8.86600    2.81990    0.00350    2.48380  233.42740  216.12240  204.42490   74.16580  121.58780   65.29090    0.08160
 9041.00000   94.11580    0.14880    0.14350    8.86600    2.72770    0.00370    2.47880  326.49480  264.09450  214.97620   74.64560  121.40280   67.87590    0.07570
 9041.50000   91.97740    0.14910    0.13940    8.86600    2.66090    0.00380    2.48910  171.95150  144.47220  130.07240   74.64120  120.74530   62.49120    0.10200
 9042.00000   88.35940    0.14880    0.12870    8.86610    2.70670    0.00400    2.50300  193.61810  168.51760  146.73440   74.65330  121.39310   52.65030    0.13990
 9042.50000   82.84350    0.14200    0.11980    8.86610    2.75630    0.00590    2.52310  236.77650  228.88440  202.83100   74.57700  121.33780   47.20070    0.15120
 9043.00000   80.18760    0.13620    0.11570    8.86610    2.81900    0.00630    2.52470  240.57180  232.75310  217.56650   74.01520  120.37560   43.46780    0.12640
 9043.50000   83.53940    0.13470    0.12480    8.86610    2.80710    0.00320    2.51140  221.55640  124.77320  121.07300   73.46130  122.44150   39.84950    0.10850
 9044.00000   88.07920    0.14500    0.13800    8.86620    2.86730   -0.00110    2.47790  131.78060  125.15360  116.89950   73.19360  121.05510   40.93650    0.11080
 9044.50000   92.61980    0.15460    0.14450    8.86620    2.96130   -0.00400    2.47800  220.95850  215.97490  200.24760   73.05410  119.93510   49.63650    0.10270
