~Version ---------------------------------------------------
VERS.   2.0 : CWLS log ASCII Standard -VERSION 2.0
WRAP.    NO : One line per depth step
DLM . SPACE : Column Data Section Delimiter
~Well ------------------------------------------------------
STRT .F                    5.0 : START DEPTH
STOP .F                12071.0 : STOP DEPTH
STEP .F                    0.5 : STEP
NULL .                -9999.25 : NULL VALUE
COMP .                         : COMPANY
WELL .                         : WELL
FLD  .                         : FIELD
LOC  .                         : LOCATION
PROV .                         : PROVINCE
CNTY .                         : COUNTY
STAT .                         : STATE
CTRY .                         : COUNTRY
SRVC .                         : SERVICE COMPANY
DATE .                         : DATE
UWI  .                         : UNIQUE WELL ID
API  .                         : API NUMBER
SLAT .WGS84 2.5902191814258018 : SURFACE LATITUDE
SLON .WGS84  7.031471104654003 : SURFACE LONGITUDE
DATUM.F                    nan : DEPTH DATUM ELEV
~Curve Information -----------------------------------------
DEPT    .F     : 1 MEASURED DEPTH
SGRDD   .GAPI  : SPECTROSCOPY GAMMA RAY FROM DENSITY LOG
TNPH_LS .DEC   : THERMAL NEUTRON POROSITY [LIMESTONE]
DPHZ_LS .DEC   : HGRD STANDARD RESOLUTION DENSITY POROSITY
CALD    .IN    : CALIPER FROM DENSITY LOG
PEFZ    .B/E   : HRDD STANDARD RESOLUTION FORMATION PHOTOELECTRIC FACTOR
HDRA    .G/C3  : HRDD SPINE AND RIBS DENSITY CORRECTION
RHOZ    .G/C3  : HRDD STANDARD RESOLUTION FORMATION DENSITY
RLA5    .OHMM  : APPARENT RESISTIVITY FROM COMPUTED FOCUSING MODE 5
RLA4    .OHMM  : APPARENT RESISTIVITY FROM COMPUTED FOCUSING MODE 4
RLA3    .OHMM  : APPARENT RESISTIVITY FROM COMPUTED FOCUSING MODE 3
DTCO    .US/F  : DELTA-T COMPRESSIONAL
DTSM    .US/F  : DELTA-T SHEAR
GRD     .GAPI  : GAMMA RAY FROM DENSITY LOG
CNPOR_LS.DEC   : COMPENSATED ENHANCED THERMAL NEUTRON POROSITY IN SELECTED LITHOLOGY LIMESTONE
~Params ----------------------------------------------------
~Other -----------------------------------------------------
~ASCII -----------------------------------------------------
# ...
 11031.50000   17.49030    0.01320    0.01820    8.87860    5.13060    0.01480    2.67960   78.52490   74.63930   72.69240   52.53530   98.26940   -9999.25   -9999.25
 11032.00000   15.89620    0.01260    0.01320    8.87790    5.10990    0.01430    2.68850  133.16060  102.08710   91.62370   52.48640   98.24660   -9999.25   -9999.25
 11032.50000   14.45150    0.01200    0.00930    8.87730    5.07930    0.01350    2.69560  207.61390  187.45130  163.00060   52.23300   98.16770   -9999.25   -9999.25
 11033.00000   14.45150    0.01230    0.00990    8.87660    5.09090    0.01270    2.69490  295.11360  244.48060  241.53080   51.90010   98.43660   -9999.25   -9999.25
 11033.50000   16.38490    0.01340    0.01320    8.87130    5.12030    0.01200    2.68810  262.86030  238.54310  227.03370   52.02540  100.10630   -9999.25   -9999.25
 11034.00000   20.54570    0.01580    0.02220    8.86750    5.14340    0.01120    2.67260  172.71750  144.15410  112.28750   53.41390   99.13210   -9999.25   -9999.25
 11034.50000   23.65540    0.01730    0.02950    8.88130    5.17440    0.01050    2.65690   73.11620   70.38310   67.67190   54.92900   99.97480   -9999.25   -9999.25
 11035.00000   26.01770    0.01860    0.03490    8.88070    5.07100    0.00970    2.65430  100.01600   81.74410   78.57350   56.18570  100.64940   -9999.25   -9999.25
 11035.50000   24.80990    0.01930    0.02340    8.88020    5.05530    0.00880    2.65910  215.55750  185.31510  153.37720   57.10280  104.56060   -9999.25   -9999.25
 11036.00000   24.77220    0.02010    0.01480    8.88040    5.05000    0.01090    2.66720  350.06290  311.02370  236.62850   57.13850  106.28590   -9999.25   -9999.25
 11036.50000   27.18560    0.02470    0.02040    8.88070    4.95530    0.07650    2.68140  392.84300  291.69480  199.52800   57.00410  106.93340   -9999.25   -9999.25
 11037.00000   48.80710    0.04500    0.01750    8.88100    4.86210    0.15600    2.68430   91.11300   40.55210   31.08090   56.52950  107.30980   -9999.25   -9999.25
 11037.50000   76.36770    0.07760    0.01780    8.88130    4.74240    0.18690    2.68650   14.42560   13.37180   10.86700   55.80930  106.21670   -9999.25   -9999.25
 11038.00000   86.49460    0.07390    0.00080    8.88030    4.64790    0.17820    2.68810   34.71040   21.70820   17.20000   55.08580  105.01270   -9999.25   -9999.25
 11038.50000   67.35850    0.03160   -0.01100    8.87410    4.78810    0.12990    2.68910  250.25440  184.42960  135.74830   54.36220  102.47820   -9999.25   -9999.25
 11039.00000   35.70910    0.00490   -0.00930    8.86790    5.01040    0.05390    2.69020  672.20320  557.09410  347.20880   53.42440   99.99840   -9999.25   -9999.25
 11039.50000   16.81400   -0.01170   -0.00530    8.86180    5.13150    0.02870    2.69240  669.73130  503.86300  324.85990   52.33720   97.01730   -9999.25   -9999.25
 11040.00000   13.17140   -0.01370    0.00550    8.85560    5.15180    0.01660    2.69510  384.76330  322.15540  288.08340   50.80070   96.31930   -9999.25   -9999.25
 11040.50000   13.24520   -0.01290    0.01130    8.86410    5.14460    0.00770    2.69820  329.00630  310.05750  269.51040   49.39130   95.53740   -9999.25   -9999.25
 11041.00000   13.31110   -0.01190    0.00740    8.87060    5.13330    0.00900    2.70260  440.38810  402.10070  323.94310   49.41460   94.81500   -9999.25   -9999.25
 11041.50000   13.27710   -0.01100    0.00280    8.86320    5.13800    0.01160    2.70670  473.44790  464.93880  317.57590   49.68250   95.13140   -9999.25   -9999.25
 11042.00000   13.24300   -0.01000    0.00140    8.87100    5.13610    0.01080    2.70750  559.26450  507.54840  329.58360   50.05450   95.49300   -9999.25   -9999.25
 11042.50000   13.20890   -0.00840    0.00460    8.86330    5.12730    0.00840    2.70350  664.60070  616.60340  415.28360   50.46580   95.84070   -9999.25   -9999.25
 11043.00000   13.17490   -0.00450    0.00540    8.85550    5.11330    0.01180    2.69870  518.09300  458.57470  328.55710   50.72630   95.97940   -9999.25   -9999.25
 11043.50000   13.02420   -0.00040   -0.00170    8.86530    5.18400    0.02150    2.71140  449.64520  376.75860  298.64690   51.02460   95.41660   -9999.25   -9999.25
 11044.00000   13.08010    0.00370   -0.00570    8.87080    5.25970    0.02380    2.71900  425.33330  382.08400  321.02310   51.44430   96.43850   -9999.25   -9999.25
 11044.50000   13.59940    0.00830    0.00080    8.87790    5.26360    0.02460    2.71680  333.63550  281.70050  250.53960   51.63520   97.35740   -9999.25   -9999.25
 11045.00000   14.26860    0.01350    0.01340    8.88440    5.16060    0.01500    2.68850  298.59000  248.80180  226.11700   51.70380   97.04880   -9999.25   -9999.25
 11045.50000   13.60920    0.01500    0.02750    8.91190    5.05920    0.00720    2.66760  218.69220  170.78160  147.77830   51.70310   97.36470   -9999.25   -9999.25
 11046.00000   13.13040    0.01350    0.03230    8.97130    4.98550    0.00720    2.65790  198.54350  167.92680  134.86900   51.70280   97.71610   -9999.25   -9999.25
 11046.50000   14.30490    0.01190    0.02590    8.97330    5.06300    0.00910    2.66200  455.38210  319.26680  274.67130   51.66430   97.76500   -9999.25   -9999.25
 11047.00000   15.81610    0.00860    0.01070    8.96310    5.18190    0.01780    2.69270  495.46210  432.10220  383.27910   51.48940   97.36710   -9999.25   -9999.25
 11047.50000   16.68790    0.00370    0.00240    8.93370    5.30170    0.02680    2.70930  444.52440  413.72850  338.76960   51.28040   96.94590   -9999.25   -9999.25
 11048.00000   16.03720    0.00500    0.00380    8.89990    5.32030    0.02660    2.70900  568.39580  449.68100  442.80240   50.93900   96.68290   -9999.25   -9999.25
 11048.50000   15.63650    0.00750    0.01300    8.88970    5.23220    0.01480    2.68830  553.24660  476.82740  423.22020   50.71710   96.25540   -9999.25   -9999.25
 11049.00000   16.65720    0.00810    0.01960    8.89430    5.16250    0.01040    2.67940  421.48330  368.35840  332.22090   50.52430   96.05940   -9999.25   -9999.25
 11049.50000   16.53960    0.00820    0.01820    8.88390    5.13700    0.00600    2.68130  322.85890  300.34000  292.29220   50.38680   95.85500   -9999.25   -9999.25
 11050.00000   15.99440    0.00750    0.01610    8.88150    5.16580    0.00520    2.68880  383.70230  302.92390  281.05530   50.26770   95.02470   -9999.25   -9999.25
 11050.50000   14.97420    0.00310    0.01400    8.87630    5.21160    0.00480    2.69030  460.19450  404.46650  352.58930   50.13270   94.61730   -9999.25   -9999.25
 11051.00000   14.57000   -0.00550    0.01060    8.87120    5.21690    0.00440    2.69360  721.43150  625.80900  560.05960   49.99410   94.66270   -9999.25   -9999.25
 11051.50000   16.09890   -0.01110    0.00260    8.87910    5.16080    0.00560    2.70180 1585.45730 1210.95030  969.87290   50.01300   93.99670   -9999.25   -9999.25
 11052.00000   21.23180   -0.01310   -0.00680    8.87670    5.10950    0.00720    2.72350 2588.22340 1461.42350 1330.21880   50.08630   93.89120   -9999.25   -9999.25
 11052.50000   31.14870   -0.01200   -0.00960    8.87430    4.95040    0.00510    2.72720 1767.42570 1280.40750  774.23080   50.20840   93.86960   -9999.25   -9999.25
 11053.00000   46.49340   -0.00990   -0.00260    8.87190    4.75420    0.00300    2.72070  547.47400  501.08660  461.81680   50.38890   93.58480   -9999.25   -9999.25
 11053.50000   50.94250   -0.00610    0.00480    8.86950    4.57730    0.00210    2.70620  384.90420  352.50740  341.12210   50.52150   93.06820   -9999.25   -9999.25
 11054.00000   46.74770   -0.00250    0.00360    8.86710    4.54000    0.00220    2.70660  330.13820  322.98530  312.41690   50.66690   93.01260   -9999.25   -9999.25
 11054.50000   42.01410   -0.00080   -0.00120    8.86470    4.43670    0.00240    2.71300  287.26420  275.16930  264.26490   50.77480   92.94400   -9999.25   -9999.25
 11055.00000   40.54970    0.00060   -0.00520    8.86230    4.37020    0.00180    2.71860  336.02800  317.34840  300.64180   50.95320   92.48590   -9999.25   -9999.25
