~Version ---------------------------------------------------
VERS.   2.0 : CWLS log ASCII Standard -VERSION 2.0
WRAP.    NO : One line per depth step
DLM . SPACE : Column Data Section Delimiter
~Well ------------------------------------------------------
STRT .F                    5.0 : START DEPTH
STOP .F                12071.0 : STOP DEPTH
STEP .F                    0.5 : STEP
NULL .                -9999.25 : NULL VALUE
COMP .                         : COMPANY
WELL .                         : WELL
FLD  .                         : FIELD
LOC  .                         : LOCATION
PROV .                         : PROVINCE
CNTY .                         : COUNTY
STAT .                         : STATE
CTRY .                         : COUNTRY
SRVC .                         : SERVICE COMPANY
DATE .                         : DATE
UWI  .                         : UNIQUE WELL ID
API  .                         : API NUMBER
SLAT .WGS84 2.5902191814258018 : SURFACE LATITUDE
SLON .WGS84  7.031471104654003 : SURFACE LONGITUDE
DATUM.F                    nan : DEPTH DATUM ELEV
~Curve Information -----------------------------------------
DEPT    .F     : 1 MEASURED DEPTH
SGRDD   .GAPI  : SPECTROSCOPY GAMMA RAY FROM DENSITY LOG
TNPH_LS .DEC   : THERMAL NEUTRON POROSITY [LIMESTONE]
DPHZ_LS .DEC   : HGRD STANDARD RESOLUTION DENSITY POROSITY
CALD    .IN    : CALIPER FROM DENSITY LOG
PEFZ    .B/E   : HRDD STANDARD RESOLUTION FORMATION PHOTOELECTRIC FACTOR
HDRA    .G/C3  : HRDD SPINE AND RIBS DENSITY CORRECTION
RHOZ    .G/C3  : HRDD STANDARD RESOLUTION FORMATION DENSITY
RLA5    .OHMM  : APPARENT RESISTIVITY FROM COMPUTED FOCUSING MODE 5
RLA4    .OHMM  : APPARENT RESISTIVITY FROM COMPUTED FOCUSING MODE 4
RLA3    .OHMM  : APPARENT RESISTIVITY FROM COMPUTED FOCUSING MODE 3
DTCO    .US/F  : DELTA-T COMPRESSIONAL
DTSM    .US/F  : DELTA-T SHEAR
GRD     .GAPI  : GAMMA RAY FROM DENSITY LOG
CNPOR_LS.DEC   : COMPENSATED ENHANCED THERMAL NEUTRON POROSITY IN SELECTED LITHOLOGY LIMESTONE
~Params ----------------------------------------------------
~Other -----------------------------------------------------
~ASCII -----------------------------------------------------
# ...
 10719.50000   33.76740    0.04490    0.02180    8.87560    4.14010   -0.00040    2.67900 2468.92700 2219.69820 1353.71260   57.74520  100.65810   29.00110    0.04870
 10720.00000   31.67370    0.04450    0.02910    8.87600    4.17100    0.00050    2.66130 2161.42750 1802.05910 1173.81560   57.99040  100.61800   31.45620    0.05540
 10720.50000   36.77490    0.04700    0.03390    8.87620    4.17230    0.00140    2.65830 1853.92800 1596.57340 1081.16720   58.52820  101.12160   34.50730    0.06260
 10721.00000   43.26200    0.05610    0.03370    8.87610    4.13760    0.00230    2.66360  858.92720  671.60380  527.87790   60.48210  101.94810   35.46220    0.06640
 10721.50000   49.31690    0.05870    0.02500    8.87610    4.11520    0.00320    2.69000 1329.27200  718.03580  519.09140   62.68660  104.32530   34.13530    0.06370
 10722.00000   51.13740    0.05880    0.01310    8.87600    4.17290    0.00450    2.70000 2455.07620 1737.32780 1167.75650   64.55170  105.79890   35.07530    0.04880
 10722.50000   59.21380    0.06020    0.00700    8.87590    4.07920    0.00590    2.69710 1869.47510 1409.76530  932.20830   66.21450  108.53600   40.81900    0.04990
 10723.00000   71.00090    0.06530    0.01270    8.87590    3.94750    0.00730    2.67730 1686.84290 1315.72660  874.96530   67.44540  110.42020   47.11230    0.06130
 10723.50000   88.35310    0.08380    0.04230    8.87580    3.77690    0.00370    2.61760  640.93070  466.56990  373.55640   69.40190  113.92030   53.82850    0.06820
 10724.00000   97.92190    0.10540    0.05940    8.87580    3.68150    0.00330    2.60320  220.92520  179.48400  163.71930   70.50230  115.65830   53.86000    0.07780
 10724.50000   98.47030    0.12680    0.07490    8.87640    3.56090    0.00290    2.57920  152.19510  120.98990  110.59810   71.28700  117.03600   52.51970    0.09260
 10725.00000   93.61190    0.14920    0.08320    8.87710    3.47500    0.00250    2.57610  137.72920  107.16120  105.65930   71.94580  118.68040   53.97090    0.10690
 10725.50000   88.98320    0.14350    0.08460    8.87790    3.42170    0.00180    2.57510  141.43600  109.91940  108.64290   72.86960  121.21360   59.88340    0.12070
 10726.00000   84.98760    0.13690    0.08430    8.87860    3.41230    0.00210    2.57640  143.13150  122.90480  115.02770   73.77380  122.50730   60.58110    0.13160
 10726.50000   85.17750    0.13030    0.08120    8.87940    3.45030    0.00250    2.58470  185.39440  163.39720  152.65900   74.61540  123.73760   54.56560    0.13140
 10727.00000   85.84730    0.12600    0.07560    8.88010    3.48300    0.00240    2.59670  231.93000  182.95140  179.34610   75.30540  124.62900   54.60360    0.12090
 10727.50000   92.17520    0.12380    0.06980    8.88090    3.53250    0.00270    2.59880  206.13230  169.65370  159.97570   76.72660  126.46450   66.00310    0.11660
 10728.00000  103.59310    0.13180    0.06920    8.88160    3.47710    0.00280    2.59440  150.63860  130.86810  122.69230   78.08570  128.40490   78.96210    0.13230
 10728.50000  113.84750    0.14670    0.07830    8.88180    3.42170    0.00290    2.56850  118.57150  106.48750   90.06230   79.23660  130.40980   80.84760    0.15210
 10729.00000  120.94120    0.16690    0.08910    8.88180    3.31800    0.00300    2.55620  118.43440  108.34850   90.95790   80.48960  132.41460   81.81940    0.17220
 10729.50000  123.78970    0.18520    0.09590    8.88180    3.28870    0.00300    2.55390  129.06030  111.52360   95.28020   82.33770  136.14130   82.98390    0.20110
 10730.00000  124.92770    0.19470    0.09530    8.88180    3.26370    0.00300    2.55650  130.56150  110.99320   94.07240   83.54510  139.22380   78.10240    0.20190
 10730.50000  125.41880    0.20010    0.09330    8.88180    3.24700    0.00290    2.56090  112.12940   94.94080   80.84340   84.91800  140.99150   71.27630    0.17390
 10731.00000  125.07140    0.21120    0.09150    8.88180    3.28850    0.00280    2.56390  135.38050  105.60630   94.88600   85.93020  143.98280   65.93990    0.14270
 10731.50000  122.25190    0.22570    0.08850    8.88180    3.30430    0.00270    2.57470  127.80490  106.33850   96.32810   88.49850  145.81580   68.42250    0.12870
 10732.00000  122.32330    0.23400    0.08260    8.88180    3.26330    0.00260    2.58170   94.18720   75.84720   69.87260   89.31970  148.92900   72.70780    0.15840
 10732.50000  124.73220    0.22760    0.08030    8.88180    3.24350    0.00250    2.57810   92.06220   67.11090   62.26280   89.98870  149.83840   79.58090    0.22030
 10733.00000  129.50210    0.23130    0.08970    8.88170    3.23340    0.00270    2.54320  114.10600   79.49880   69.26620   90.87290  151.68970   91.54790    0.28450
 10733.50000  137.24600    0.24280    0.12120    8.88150    3.22330    0.00280    2.48890  162.23140  110.13420   97.59600   91.09130  151.14280   96.67980    0.27740
 10734.00000  145.79610    0.25440    0.14520    8.88140    3.19330    0.00280    2.47280  201.23600  145.60600  125.01260   91.26050  151.08400   92.32620    0.25620
 10734.50000  148.92630    0.26140    0.15670    8.88450    3.16010    0.00270    2.45440  208.10520  153.01260  127.84120   91.25550  151.97120   84.36180    0.28690
 10735.00000  145.13660    0.26250    0.16170    8.89710    3.14930    0.00250    2.44980  198.38460  156.08700  126.21940   91.02010  152.82740   85.24990    0.29160
 10735.50000  144.25390    0.25600    0.16280    8.90970    3.10580    0.00240    2.44800  223.32240  177.64160  143.17670   90.33430  151.65060   89.79820    0.25750
 10736.00000  152.04180    0.26040    0.16350    8.86450    3.06130    0.00250    2.44260  301.10290  234.19350  196.05390   87.79450  150.52640   95.04860    0.22990
 10736.50000  159.82960    0.24960    0.16650    8.86700    3.05510    0.00130    2.44400  406.29580  346.94300  264.91810   85.47350  148.24040  102.15430    0.21140
 10737.00000  161.82020    0.24350    0.16300    8.86990    3.08680   -0.00000    2.45430  294.36030  268.37170  193.41420   82.20500  147.29270  100.99380    0.21820
 10737.50000  156.86820    0.24040    0.15500    8.88920    3.15220   -0.00120    2.47950  128.51830  103.58160   84.88450   79.84010  146.52930   90.19330    0.23610
 10738.00000  154.76920    0.24530    0.13030    8.87800    3.28680    0.00060    2.52250   89.32390   86.63770   80.55140   77.59470  144.83230   73.39490    0.25280
 10738.50000  144.71030    0.23100    0.10830    8.86670    3.53130    0.00230    2.55750   84.92830   77.67300   73.96130   75.85280  143.13530   60.24900    0.23850
 10739.00000  125.43130    0.17940    0.07540    8.88760    3.73380    0.01660    2.59450   56.35750   48.09820   41.50580   72.66410  137.90530   54.84110    0.19010
 10739.50000  107.38240    0.14500    0.04810    8.92620    3.95480    0.03510    2.63230   30.12250   27.47290   24.66270   70.53040  134.53430   54.99770    0.13600
 10740.00000   96.13790    0.14370    0.04130    8.96470    3.92760    0.05350    2.64780   24.44520   22.85570   22.25070   69.27960  129.22190   57.31150    0.10480
 10740.50000  101.62590    0.16870    0.03360    8.99480    3.85500    0.06950    2.65870   23.57410   22.71560   22.05590   67.41200  123.90940   58.60890    0.08740
 10741.00000  103.81670    0.16240    0.02930    8.96570    3.92960    0.06950    2.67810   62.26900   47.02460   36.22830   65.28370  117.46760   56.89640    0.08060
 10741.50000   98.60200    0.13970    0.01040    8.93850    4.00520    0.04970    2.69610   94.28420   88.33900   87.00940   63.24990  113.19560   52.23390    0.08190
 10742.00000   86.80120    0.12230    0.00570    8.91230    4.04490    0.02770    2.70690   86.67120   83.95820   81.51040   60.65910  109.98640   49.34300    0.09820
 10742.50000   75.50690    0.11660    0.00270    8.88610    4.08460    0.00980    2.70570   78.81880   74.58300   72.58270   59.05110  107.85390   51.85810    0.10290
 10743.00000   66.31690    0.10280    0.00810    8.86850    4.13630    0.00380    2.69560  102.33200   94.84890   88.25380   57.41050  105.82600   52.01390    0.09010
