~Version ---------------------------------------------------
VERS.   2.0 : CWLS log ASCII Standard -VERSION 2.0
WRAP.    NO : One line per depth step
DLM . SPACE : Column Data Section Delimiter
~Well ------------------------------------------------------
STRT .F                    5.0 : START DEPTH
STOP .F                12071.0 : STOP DEPTH
STEP .F                    0.5 : STEP
NULL .                -9999.25 : NULL VALUE
COMP .                         : COMPANY
WELL .                         : WELL
FLD  .                         : FIELD
LOC  .                         : LOCATION
PROV .                         : PROVINCE
CNTY .                         : COUNTY
STAT .                         : STATE
CTRY .                         : COUNTRY
SRVC .                         : SERVICE COMPANY
DATE .                         : DATE
UWI  .                         : UNIQUE WELL ID
API  .                         : API NUMBER
SLAT .WGS84 2.5902191814258018 : SURFACE LATITUDE
SLON .WGS84  7.031471104654003 : SURFACE LONGITUDE
DATUM.F                    nan : DEPTH DATUM ELEV
~Curve Information -----------------------------------------
DEPT    .F     : 1 MEASURED DEPTH
SGRDD   .GAPI  : SPECTROSCOPY GAMMA RAY FROM DENSITY LOG
TNPH_LS .DEC   : THERMAL NEUTRON POROSITY [LIMESTONE]
DPHZ_LS .DEC   : HGRD STANDARD RESOLUTION DENSITY POROSITY
CALD    .IN    : CALIPER FROM DENSITY LOG
PEFZ    .B/E   : HRDD STANDARD RESOLUTION FORMATION PHOTOELECTRIC FACTOR
HDRA    .G/C3  : HRDD SPINE AND RIBS DENSITY CORRECTION
RHOZ    .G/C3  : HRDD STANDARD RESOLUTION FORMATION DENSITY
RLA5    .OHMM  : APPARENT RESISTIVITY FROM COMPUTED FOCUSING MODE 5
RLA4    .OHMM  : APPARENT RESISTIVITY FROM COMPUTED FOCUSING MODE 4
RLA3    .OHMM  : APPARENT RESISTIVITY FROM COMPUTED FOCUSING MODE 3
DTCO    .US/F  : DELTA-T COMPRESSIONAL
DTSM    .US/F  : DELTA-T SHEAR
GRD     .GAPI  : GAMMA RAY FROM DENSITY LOG
CNPOR_LS.DEC   : COMPENSATED ENHANCED THERMAL NEUTRON POROSITY IN SELECTED LITHOLOGY LIMESTONE
~Params ----------------------------------------------------
~Other -----------------------------------------------------
~ASCII -----------------------------------------------------
# ...
 9363.50000   75.92580    0.10130    0.06240    8.94490    2.82490    0.00600    2.61150   25.05370   24.58370   23.45910   68.86980  112.56710   55.32630    0.08770
 9364.00000   83.31500    0.10440    0.06220    8.94380    2.85130    0.00720    2.61070   21.99470   21.27830   20.55700   68.67720  112.90890   59.98100    0.09570
 9364.50000   89.59270    0.10790    0.05910    8.94270    2.91710    0.00790    2.61270   20.03080   19.72240   19.50520   68.45010  113.06400   60.61190    0.11740
 9365.00000   87.18980    0.11160    0.04980    8.94180    3.22960    0.00900    2.63340   26.32890   23.89460   22.14780   67.63950  113.36310   59.86790    0.13500
 9365.50000   78.53110    0.10550    0.03790    8.94380    3.58430    0.01000    2.64140   61.15880   51.41630   32.30940   66.09370  113.01330   57.55850    0.13440
 9366.00000   72.96560    0.09170    0.02500    8.94590    3.73630    0.01100    2.67120  128.81440  102.69270   83.16130   64.43560  111.91260   51.73230    0.11510
 9366.50000   76.92560    0.08660    0.02720    8.94610    3.60640    0.01000    2.66950   39.21990   37.07750   34.80880   63.15560  110.76730   49.43420    0.10360
 9367.00000   85.85350    0.09760    0.03920    8.91460    3.27090    0.00830    2.64730   24.18040   22.02400   20.85500   62.35370  109.11730   49.03170    0.09980
 9367.50000   83.61050    0.10420    0.05290    8.91300    3.07610    0.00610    2.62560   21.70570   21.40270   21.09270   61.80120  107.19500   44.01900    0.10190
 9368.00000   72.94740    0.09820    0.05380    8.90430    3.10860    0.00340    2.62100   31.61970   28.92560   26.38260   61.33130  105.42560   35.17900    0.08180
 9368.50000   62.63150    0.08430    0.04180    8.89470    3.21670    0.00070    2.63550   43.23000   41.04350   38.92060   61.21080  104.26710   30.85710    0.05480
 9369.00000   58.59090    0.07030    0.02580    8.88500    3.38380    0.00000    2.67350   54.68350   51.93450   48.23950   61.31600  103.18240   29.66770    0.05280
 9369.50000   54.64210    0.06780    0.01090    8.87530    3.53760    0.00010    2.69150   64.74890   60.17410   56.71620   61.99110  103.37760   29.46630    0.06190
 9370.00000   57.95970    0.06960    0.01160    8.86570    3.60560    0.00010    2.69030   66.51670   62.64430   60.43450   63.20490  104.58600   30.23230    0.08460
 9370.50000   60.04740    0.07590    0.01870    8.85600    3.64120    0.00090    2.68360   60.31290   58.04330   55.76090   64.02250  105.84330   32.17990    0.08690
 9371.00000   61.05660    0.08120    0.02640    8.85500    3.57860    0.00350    2.67570   50.73140   48.81920   46.90410   65.01850  107.26110   35.56020    0.08030
 9371.50000   62.18900    0.07950    0.02710    8.86250    3.47520    0.00670    2.66770   43.76890   42.79420   42.34130   65.71330  109.42350   40.70430    0.08060
 9372.00000   68.04170    0.07830    0.02490    8.87000    3.38460    0.00980    2.66640   50.69210   45.34030   43.33220   65.91780  110.19770   48.61600    0.10500
 9372.50000   80.25690    0.07950    0.02230    8.87760    3.31630    0.01100    2.67650   51.93420   52.12960   49.30560   66.03250  110.93600   53.11580    0.11700
 9373.00000   94.76440    0.09030    0.03050    8.88510    3.14040    0.00920    2.67020   53.86440   54.38830   52.32230   66.19070  111.89160   55.14530    0.09630
 9373.50000  107.76980    0.10940    0.04260    8.89270    3.03750    0.00750    2.64730   51.35910   52.25440   55.07390   66.62730  113.09310   56.12630    0.08360
 9374.00000  109.09720    0.12560    0.05440    8.90020    2.92160    0.00560    2.62380   43.38260   43.58200   45.06100   66.77420  112.71320   60.53230    0.10730
 9374.50000  104.24560    0.12020    0.05600    8.90420    2.81500    0.00380    2.62140   41.67530   43.32650   47.27150   66.72560  112.17790   62.99620    0.12590
 9375.00000   98.33840    0.10180    0.05540    8.92050    2.75390    0.00200    2.62080   55.39850   57.35750   59.38840   65.30300  111.48160   61.96220    0.11910
 9375.50000   92.56760    0.08950    0.05840    8.92750    2.73410    0.00100    2.61790   56.90070   57.84740   57.83660   64.44300  109.74250   59.17000    0.09260
 9376.00000   89.00270    0.08550    0.06200    8.93450    2.73370    0.00060    2.61210   51.44760   53.28670   53.53130   63.60420  109.13000   57.62260    0.07260
 9376.50000   85.45160    0.08650    0.06520    8.94150    2.73340    0.00010    2.60930   49.05220   49.91340   50.19980   62.80630  106.90410   52.99290    0.06160
 9377.00000   81.97110    0.08630    0.06700    8.94850    2.76530   -0.00040    2.60340   46.71920   48.27560   49.40950   62.26250  106.55890   48.17090    0.06110
 9377.50000   79.67610    0.08260    0.07040    8.95550    2.87730   -0.00120    2.60170   44.72090   46.87440   47.99420   62.25120  106.22460   42.15800    0.07020
 9378.00000   72.99950    0.08060    0.06870    8.96250    3.03590   -0.00250    2.60040   51.09750   54.73040   57.15220   62.71150  105.78090   35.93450    0.09000
 9378.50000   63.47410    0.07700    0.06730    8.96950    3.31880   -0.00390    2.60300   70.40650   79.69380   89.89730   63.22130  106.33070   35.06040    0.07960
 9379.00000   55.78340    0.06920    0.06310    8.96590    3.49550   -0.00360    2.60970  111.33660  120.20210  127.48970   63.79840  107.08600   41.04130    0.05740
 9379.50000   58.96660    0.06530    0.06440    8.95680    3.41020   -0.00150    2.60820  118.58500   95.11070   82.57690   64.70310  107.47190   47.97330    0.04530
 9380.00000   69.71380    0.07080    0.06670    8.94780    3.19840    0.00060    2.60350   61.86840   56.45570   54.11570   65.92590  108.09650   53.05310    0.05160
 9380.50000   81.32660    0.08850    0.06860    8.93870    2.99450    0.00060    2.59970   50.43490   49.60720   44.08680   67.33500  109.40440   53.78650    0.05790
 9381.00000   88.84840    0.10260    0.07060    8.92970    2.88970    0.00060    2.59740   32.66020   31.89000   30.41920   68.49500  111.24680   54.02300    0.06310
 9381.50000   87.08830    0.10830    0.07190    8.92070    2.85410    0.00050    2.59510   35.46950   32.93260   31.34300   69.95690  112.64560   56.33500    0.08540
 9382.00000   81.36710    0.10580    0.07250    8.91160    2.81850    0.00050    2.59320   50.08440   46.49760   43.05430   71.28810  114.86450   56.88350    0.12880
 9382.50000   80.80740    0.10170    0.07360    8.90260    2.74750    0.00140    2.59080   66.60730   65.00780   60.77550   72.34910  116.12110   58.68970    0.15470
 9383.00000   88.02980    0.11030    0.07800    8.90030    2.72610    0.00290    2.58290   67.55420   65.79470   56.18950   72.73900  116.46750   64.54600    0.14750
 9383.50000   99.02740    0.13280    0.08740    8.89280    2.72440    0.00450    2.57540   47.14210   41.49120   38.26700   73.17000  116.88370   68.89420    0.12190
 9384.00000  105.31340    0.15520    0.10240    8.89150    2.72220    0.00390    2.54240   53.98270   47.38350   44.07350   73.69370  117.62940   67.43000    0.11470
 9384.50000  105.71780    0.16600    0.11110    8.89090    2.72000    0.00270    2.53720   67.38810   62.75500   53.91700   74.18550  118.87170   62.96940    0.12630
 9385.00000  106.81130    0.16540    0.11360    8.89090    2.68830    0.00160    2.52750   51.03860   50.47370   48.08970   74.25670  118.72470   59.11620    0.14720
 9385.50000  106.23030    0.16010    0.11480    8.89220    2.68670    0.00150    2.52720   51.84530   51.29680   49.95680   74.00980  118.54540   58.31310    0.15790
 9386.00000  107.30300    0.15830    0.11370    8.89550    2.70660    0.00180    2.52840   52.38840   51.41020   49.25690   73.30010  118.38610   64.78820    0.13550
 9386.50000  104.24730    0.16090    0.10850    8.89410    2.75180    0.00220    2.53030   51.12710   49.32580   47.99050   72.36890  117.47370   72.17340    0.11520
 9387.00000   99.76770    0.15220    0.09580    8.89010    2.79540    0.00260    2.55840   76.54310   72.65540   63.66070   71.80630  118.20410   72.46010    0.11580
 9387.50000   95.36420    0.14770    0.09120    8.88610    2.82720    0.00260    2.56430   84.72380   72.62050   71.48480   71.45830  116.88420   70.21020    0.11560
