~Version ---------------------------------------------------
VERS.   2.0 : CWLS log ASCII Standard -VERSION 2.0
WRAP.    NO : One line per depth step
DLM . SPACE : Column Data Section Delimiter
~Well ------------------------------------------------------
STRT .F                    5.0 : START DEPTH
STOP .F                12071.0 : STOP DEPTH
STEP .F                    0.5 : STEP
NULL .                -9999.25 : NULL VALUE
COMP .                         : COMPANY
WELL .                         : WELL
FLD  .                         : FIELD
LOC  .                         : LOCATION
PROV .                         : PROVINCE
CNTY .                         : COUNTY
STAT .                         : STATE
CTRY .                         : COUNTRY
SRVC .                         : SERVICE COMPANY
DATE .                         : DATE
UWI  .                         : UNIQUE WELL ID
API  .                         : API NUMBER
SLAT .WGS84 2.5902191814258018 : SURFACE LATITUDE
SLON .WGS84  7.031471104654003 : SURFACE LONGITUDE
DATUM.F                    nan : DEPTH DATUM ELEV
~Curve Information -----------------------------------------
DEPT    .F     : 1 MEASURED DEPTH
SGRDD   .GAPI  : SPECTROSCOPY GAMMA RAY FROM DENSITY LOG
TNPH_LS .DEC   : THERMAL NEUTRON POROSITY [LIMESTONE]
DPHZ_LS .DEC   : HGRD STANDARD RESOLUTION DENSITY POROSITY
CALD    .IN    : CALIPER FROM DENSITY LOG
PEFZ    .B/E   : HRDD STANDARD RESOLUTION FORMATION PHOTOELECTRIC FACTOR
HDRA    .G/C3  : HRDD SPINE AND RIBS DENSITY CORRECTION
RHOZ    .G/C3  : HRDD STANDARD RESOLUTION FORMATION DENSITY
RLA5    .OHMM  : APPARENT RESISTIVITY FROM COMPUTED FOCUSING MODE 5
RLA4    .OHMM  : APPARENT RESISTIVITY FROM COMPUTED FOCUSING MODE 4
RLA3    .OHMM  : APPARENT RESISTIVITY FROM COMPUTED FOCUSING MODE 3
DTCO    .US/F  : DELTA-T COMPRESSIONAL
DTSM    .US/F  : DELTA-T SHEAR
GRD     .GAPI  : GAMMA RAY FROM DENSITY LOG
CNPOR_LS.DEC   : COMPENSATED ENHANCED THERMAL NEUTRON POROSITY IN SELECTED LITHOLOGY LIMESTONE
~Params ----------------------------------------------------
~Other -----------------------------------------------------
~ASCII -----------------------------------------------------
# ...
 8677.50000   95.95850    0.13730    0.08650    9.10940    2.99670    0.00390    2.57160   16.25150   14.67870   14.56060   65.32160  109.57730   57.77270    0.11440
 8678.00000   83.24430    0.12510    0.07960    9.08410    3.06180    0.00370    2.57450   16.66940   16.31030   15.91520   65.35660  109.14340   45.38770    0.11620
 8678.50000   72.38190    0.09630    0.06890    9.08250    3.20980    0.00350    2.59530   30.62840   25.63030   24.06270   65.38670  108.89640   38.88910    0.11030
 8679.00000   64.77530    0.08000    0.05300    9.10880    3.29640    0.00250    2.61720   48.25710   40.44810   33.83770   65.36250  108.99690   38.67750    0.08740
 8679.50000   68.43940    0.07480    0.05440    9.13510    3.22970    0.00160    2.62680   35.15260   30.72560   29.31210   65.60180  108.94930   38.72940    0.07580
 8680.00000   73.56690    0.08250    0.06530    9.16140    3.16300    0.00060    2.62340   25.60680   23.94870   23.37060   65.89150  108.86450   40.97770    0.08010
 8680.50000   77.84930    0.09050    0.07530    9.18770    3.08490   -0.00030    2.60020   20.78920   20.15450   19.59510   66.05100  108.82580   43.99120    0.08100
 8681.00000   80.95860    0.10250    0.08240    9.19950    2.94570   -0.00050    2.58060   17.00860   16.48800   15.50210   66.04630  109.70170   44.36630    0.08970
 8681.50000   81.61600    0.11910    0.08700    9.12970    2.82280   -0.00060    2.57210   14.68120   14.32990   13.60160   65.96940  109.46970   39.29150    0.13540
 8682.00000   80.13010    0.13110    0.08860    9.04290    2.84280   -0.00070    2.56570   14.51840   14.08640   13.49680   65.99210  109.55040   34.25020    0.14050
 8682.50000   79.11010    0.12400    0.08640    9.08040    2.89570   -0.00080    2.56660   15.20580   14.46170   14.31090   66.11380  109.89850   37.11690    0.10850
 8683.00000   77.13380    0.11010    0.07910    9.13710    2.93710   -0.00060    2.58240   15.11180   15.09820   15.00300   66.83390  109.73830   41.23490    0.10610
 8683.50000   74.28190    0.10130    0.06890    9.15880    2.97430   -0.00000    2.58970   17.83520   16.34510   15.89450   67.71130  108.99770   40.69890    0.11530
 8684.00000   71.28650    0.09640    0.06650    9.13750    2.98900    0.00050    2.60290   21.14680   19.86480   19.40790   68.29130  108.97240   38.97030    0.10260
 8684.50000   71.20510    0.09470    0.06620    9.12480    2.98340    0.00140    2.60720   22.40500   21.55420   21.29080   68.49110  109.13940   42.20720    0.08460
 8685.00000   71.74420    0.09760    0.06840    9.13940    2.91090    0.00220    2.60320   24.74000   23.17080   22.97500   68.70170  109.47100   45.01230    0.08950
 8685.50000   73.47950    0.10620    0.07710    9.15390    2.83110    0.00310    2.59550   23.15340   22.11070   21.54560   69.15340  110.10380   49.27250    0.09890
 8686.00000   81.04030    0.11500    0.10300    9.16830    2.81660    0.00470    2.55750   22.60810   21.14700   20.96720   68.79230  110.79960   54.35960    0.08630
 8686.50000   89.43680    0.13070    0.11520    9.08660    2.83420    0.00670    2.53430   26.88800   23.65420   22.54210   67.98330  111.36230   56.19530    0.07580
 8687.00000  100.44140    0.15020    0.11690    8.98930    2.91410    0.00870    2.52130   42.09180   34.44050   32.15410   67.73610  111.72240   55.76280    0.07660
 8687.50000   99.52690    0.16010    0.11050    8.89200    3.03270    0.01050    2.52430   58.84840   55.40920   48.05060   66.62170  111.73640   57.65870    0.08020
 8688.00000   94.18040    0.14750    0.09890    8.86760    3.15070    0.01220    2.55280   58.23720   56.39870   47.33870   65.74320  110.40390   63.31530    0.07400
 8688.50000   88.07150    0.12720    0.09220    8.86360    3.26650    0.01480    2.55830   69.58800   62.45230   56.17450   65.31140  109.30470   60.12690    0.07080
 8689.00000   82.54350    0.11510    0.07910    8.85960    3.37370    0.02300    2.58690   87.40440   70.87370   64.53730   64.07970  108.33480   53.44940    0.08650
 8689.50000   76.95540    0.10350    0.06300    8.85560    3.39050    0.03140    2.60530   78.80090   68.24470   61.88570   63.28620  107.06020   52.25360    0.10460
 8690.00000   73.03280    0.10280    0.06290    8.91830    3.31670    0.02720    2.61570   75.33250   65.80540   58.70670   63.07610  106.39510   51.82300    0.09810
 8690.50000   75.22140    0.10650    0.07680    8.99090    3.20510    0.02180    2.60080   62.67420   56.20790   52.92490   63.24100  106.09760   47.05400    0.10880
 8691.00000   77.43240    0.11790    0.09580    9.06340    3.01910    0.01010    2.56420   76.05230   67.22820   63.25200   63.38040  106.60540   40.10460    0.13350
 8691.50000   73.08560    0.12190    0.10200    9.13600    3.00020    0.00270    2.54560  108.72420   95.34110   90.82110   64.55860  106.95120   34.12760    0.12000
 8692.00000   68.44010    0.11010    0.09320    9.20860    3.02280    0.00320    2.54580  129.85440  118.32990  115.85790   65.42900  107.29830   32.68460    0.08040
 8692.50000   66.59860    0.09850    0.08310    9.22250    3.18020    0.00380    2.56210  101.84970   92.32920   88.09090   66.05190  107.83560   44.49300    0.06350
 8693.00000   66.07250    0.09140    0.06940    9.06930    3.33760    0.00410    2.59460   79.70340   78.35410   66.93980   66.47890  108.30520   52.08320    0.08250
 8693.50000   70.74880    0.08460    0.06690    9.09200    3.41990    0.00380    2.60280   76.94710   71.92120   64.43930   67.00920  109.10090   52.63310    0.09760
 8694.00000   75.98460    0.09310    0.06860    9.20730    3.47200    0.00360    2.60310   87.47920   82.65160   76.05320   67.43980  110.42480   47.55500    0.09290
 8694.50000   80.75280    0.11160    0.07890    9.26260    3.47760    0.00330    2.58800   97.49300   84.18670   85.03410   67.84700  111.11880   42.52990    0.10150
 8695.00000   85.52100    0.12880    0.08560    9.18200    3.47920    0.00560    2.57190  148.81330  145.22790  135.59930   68.14360  111.37400   42.83370    0.11500
 8695.50000   84.52440    0.11980    0.07930    9.02090    3.46600    0.01710    2.57280  109.58970   99.68940   91.29070   68.29680  111.76940   46.77150    0.11400
 8696.00000   80.92430    0.10980    0.06280    8.91810    3.42440    0.01860    2.60430   62.64440   57.75940   52.82190   68.23790  111.65030   49.85960    0.10010
 8696.50000   77.86200    0.09990    0.05710    8.88410    3.38510    0.01760    2.61830   50.46770   50.04650   48.03920   68.02990  111.22340   57.47360    0.08310
 8697.00000   82.78180    0.09590    0.06180    8.87810    3.34590    0.01700    2.62040   50.80500   50.42530   46.32120   67.88890  110.93180   68.50260    0.07950
 8697.50000   90.77320    0.11640    0.07280    8.87400    3.30730    0.01810    2.60200   40.78250   40.30850   38.78640   67.82040  110.53200   77.69810    0.08970
 8698.00000   89.77170    0.11950    0.07680    8.86990    3.30360    0.01930    2.58630   52.58370   50.16140   47.39040   68.12700  109.82460   74.98670    0.14210
 8698.50000   84.41050    0.11820    0.07060    8.86770    3.31540    0.02050    2.59080   58.09590   57.21760   56.43050   68.25130  109.94540   69.70530    0.13700
 8699.00000   76.90370    0.11430    0.06610    8.86610    3.28580    0.02100    2.60630   58.02240   56.39650   54.46830   68.60180  110.17140   64.44210    0.11470
 8699.50000   78.51900    0.11170    0.07170    8.86450    3.17230    0.01800    2.59650   49.18790   47.57200   45.71240   68.71170  110.42700   58.71700    0.11120
 8700.00000   83.04880    0.11660    0.08440    8.90410    3.01170    0.00870    2.58060   41.35220   39.58770   38.68760   68.93600  111.66040   54.69310    0.14300
 8700.50000   88.79820    0.12910    0.10100    8.94630    2.91900   -0.00050    2.56160   40.09090   39.61300   39.12380   68.99110  112.56000   50.53640    0.14930
 8701.00000   94.54760    0.13380    0.11440    8.91800    2.89650    0.00010    2.53500   40.88780   40.46170   40.05960   68.35770  112.36690   47.77550    0.14380
 8701.50000   96.74680    0.13310    0.11610    8.88900    2.87660    0.00140    2.52240   42.46670   40.97230   40.46980   68.79870  112.19490   49.49420    0.13150
