~Version ---------------------------------------------------
VERS.   2.0 : CWLS log ASCII Standard -VERSION 2.0
WRAP.    NO : One line per depth step
DLM . SPACE : Column Data Section Delimiter
~Well ------------------------------------------------------
STRT .F                    5.0 : START DEPTH
STOP .F                12071.0 : STOP DEPTH
STEP .F                    0.5 : STEP
NULL .                -9999.25 : NULL VALUE
COMP .                         : COMPANY
WELL .                         : WELL
FLD  .                         : FIELD
LOC  .                         : LOCATION
PROV .                         : PROVINCE
CNTY .                         : COUNTY
STAT .                         : STATE
CTRY .                         : COUNTRY
SRVC .                         : SERVICE COMPANY
DATE .                         : DATE
UWI  .                         : UNIQUE WELL ID
API  .                         : API NUMBER
SLAT .WGS84 2.5902191814258018 : SURFACE LATITUDE
SLON .WGS84  7.031471104654003 : SURFACE LONGITUDE
DATUM.F                    nan : DEPTH DATUM ELEV
~Curve Information -----------------------------------------
DEPT    .F     : 1 MEASURED DEPTH
SGRDD   .GAPI  : SPECTROSCOPY GAMMA RAY FROM DENSITY LOG
TNPH_LS .DEC   : THERMAL NEUTRON POROSITY [LIMESTONE]
DPHZ_LS .DEC   : HGRD STANDARD RESOLUTION DENSITY POROSITY
CALD    .IN    : CALIPER FROM DENSITY LOG
PEFZ    .B/E   : HRDD STANDARD RESOLUTION FORMATION PHOTOELECTRIC FACTOR
HDRA    .G/C3  : HRDD SPINE AND RIBS DENSITY CORRECTION
RHOZ    .G/C3  : HRDD STANDARD RESOLUTION FORMATION DENSITY
RLA5    .OHMM  : APPARENT RESISTIVITY FROM COMPUTED FOCUSING MODE 5
RLA4    .OHMM  : APPARENT RESISTIVITY FROM COMPUTED FOCUSING MODE 4
RLA3    .OHMM  : APPARENT RESISTIVITY FROM COMPUTED FOCUSING MODE 3
DTCO    .US/F  : DELTA-T COMPRESSIONAL
DTSM    .US/F  : DELTA-T SHEAR
GRD     .GAPI  : GAMMA RAY FROM DENSITY LOG
CNPOR_LS.DEC   : COMPENSATED ENHANCED THERMAL NEUTRON POROSITY IN SELECTED LITHOLOGY LIMESTONE
~Params ----------------------------------------------------
~Other -----------------------------------------------------
~ASCII -----------------------------------------------------
# ...
 8334.50000   98.96360    0.21850    0.12640    8.94330    3.30510    0.00020    2.50340   27.44860   27.84190   28.39740   83.97120  138.14480   79.95690    0.19480
 8335.00000  103.94630    0.23950    0.13030    8.94020    3.22150   -0.00160    2.49830   25.13520   25.39390   25.89720   81.94580  134.92700   79.40320    0.20990
 8335.50000  107.26360    0.25300    0.13340    8.93700    3.09320   -0.00100    2.49260   25.89230   26.95280   28.55750   80.56000  133.39000   76.41930    0.19640
 8336.00000  108.21400    0.26190    0.14460    8.93380    3.02350    0.00000    2.47980   30.12960   30.94540   34.40530   79.73860  132.06520   70.42060    0.17070
 8336.50000  108.23070    0.26590    0.15250    8.91990    3.00700    0.00050    2.46540   30.37840   31.06120   32.94390   76.69860  130.77970   57.82340    0.18300
 8337.00000  100.12830    0.27000    0.15170    8.90510    3.14420    0.00090    2.46420   32.21940   33.26600   35.44330   72.29300  126.23200   49.88160    0.18740
 8337.50000   88.52820    0.23330    0.12550    8.91220    3.42950    0.00130    2.53870   45.67820   50.79710   59.40030   68.12190  121.90830   47.78000    0.17010
 8338.00000   77.55950    0.18360    0.07280    8.90450    3.73820    0.00730    2.61040   61.34690   74.58280   85.96380   65.88000  117.71840   49.53830    0.11100
 8338.50000   70.62650    0.15350    0.03360    8.90060    4.02410    0.01360    2.66120   39.07310   41.57120   45.35090   63.70640  114.53320   50.22870    0.08520
 8339.00000   69.27170    0.14990    0.01460    8.89720    4.26260    0.00860    2.67820   30.10430   31.37360   33.18440   62.27610  110.44220   44.66590    0.08840
 8339.50000   64.70030    0.15210    0.01730    8.89370    4.38790    0.00360    2.68740   40.20350   43.37670   49.38790   60.30150  106.61380   37.35700    0.10060
 8340.00000   56.95570    0.14910    0.01420    8.89020    4.50230    0.00330    2.68880   77.90010   85.64780   97.48240   60.11760  105.14530   30.70540    0.09110
 8340.50000   50.78260    0.11230    0.00810    8.88670    4.61570    0.00310    2.69580  198.84870  236.73100  362.90900   60.11130  103.86190   25.35490    0.07520
 8341.00000   44.93990    0.08660    0.00390    8.88320    4.75600    0.00330    2.70310  509.08100  610.83240  628.26540   60.31670  104.14150   23.55930    0.06810
 8341.50000   39.24630    0.06560    0.00240    8.88030    4.88180    0.00630    2.70960  593.35740  715.87380  834.16600   60.38790  105.29330   24.35160    0.06770
 8342.00000   33.64720    0.06440    0.00190    8.88110    4.89460    0.00940    2.71040 1053.41550 1101.63750 2359.81050   61.57600  105.68870   29.76750    0.07560
 8342.50000   39.11410    0.06690    0.00330    8.88600    4.88370    0.01100    2.70620 1251.66440 1409.56090 1296.61650   63.09580  106.57040   38.29070    0.09030
 8343.00000   47.83300    0.08800    0.00840    8.91050    4.65960    0.01110    2.69360  114.94630  150.08020  233.42240   66.20030  109.78550   44.59180    0.09570
 8343.50000   60.24320    0.10910    0.01750    8.93510    4.30950    0.01120    2.68110   80.86820   84.97530   90.89100   68.43200  112.37450   44.19260    0.09140
 8344.00000   63.79300    0.12930    0.01890    8.95970    4.16800    0.01130    2.67710   79.03710   79.61690   80.42840   71.29990  114.80770   42.57970    0.11210
 8344.50000   63.01500    0.13650    0.01850    8.96180    4.02650    0.01140    2.68580   82.71450   83.55290   85.88690   74.15330  117.03780   43.02060    0.16160
 8345.00000   62.98600    0.13780    0.01680    8.96420    3.92190    0.01150    2.68510   86.91550   95.95180   99.80680   76.71890  122.05560   46.09390    0.18590
 8345.50000   69.11970    0.14510    0.03730    8.96690    3.84420    0.01160    2.64710   83.69710   85.49800   88.28870   79.72570  126.72060   55.28860    0.20240
 8346.00000   78.35980    0.16790    0.06800    8.96970    3.64460    0.00980    2.59360   77.80100   79.77190   82.59020   81.90310  128.97560   67.70580    0.23330
 8346.50000   84.15230    0.19060    0.10850    8.97250    3.41710    0.00620    2.54120   86.66400   87.34210   96.75460   83.92600  130.94310   67.71320    0.26590
 8347.00000   86.34730    0.21280    0.13980    8.97080    3.25480    0.00340    2.48340   68.73400   71.01710   74.39370   84.88990  133.18730   60.96330    0.25600
 8347.50000   89.01440    0.22910    0.16480    8.95920    3.14360    0.00170    2.45000   56.92010   60.10080   61.56890   85.14890  135.44790   56.64680    0.22080
 8348.00000   90.26400    0.23000    0.17500    8.94990    3.08940    0.00010    2.43280   69.06860   76.66340   80.43810   85.41700  136.87290   57.08250    0.16820
 8348.50000   90.75760    0.23960    0.17410    8.94070    3.03920   -0.00110    2.42760   76.56880   82.11420   86.08380   85.49830  136.70640   58.27620    0.16280
 8349.00000   89.69330    0.24620    0.16930    8.92550    2.98890   -0.00010    2.43900   69.69590   75.08760   77.00070   85.47000  136.58540   54.84270    0.18830
 8349.50000   88.82680    0.25410    0.16810    8.91650    2.94440    0.00090    2.43930   67.77820   69.69880   70.39820   85.47640  136.60710   47.76230    0.20920
 8350.00000   87.77120    0.25820    0.17040    8.90740    2.92720    0.00180    2.43410   76.29470   78.68160   79.44830   85.39470  136.62890   45.17400    0.22790
 8350.50000   86.64240    0.25860    0.17250    8.90350    2.89470    0.00290    2.43260   78.23570   79.39520   80.15700   85.24930  136.64580   48.37000    0.24750
 8351.00000   85.51650    0.24020    0.16930    8.90880    2.86190    0.00420    2.44080   75.64820   77.88550   79.49000   85.23710  136.64460   51.83900    0.24210
 8351.50000   85.21190    0.24040    0.16510    8.96110    2.82910    0.00550    2.44550   76.14590   77.14620   79.10310   85.40230  136.69840   56.18780    0.25350
 8352.00000   86.23960    0.24860    0.16430    8.94190    2.87140    0.00600    2.44730   76.73410   78.56140   79.60330   85.54500  137.32870   63.63010    0.22920
 8352.50000   87.65420    0.25670    0.16610    8.91300    2.89770    0.00640    2.44430   78.83350   80.36720   81.16140   85.82060  138.47560   64.38220    0.17430
 8353.00000   89.06880    0.25430    0.16650    8.89290    2.91640    0.00690    2.44210   84.81960   85.72640   86.48480   85.97350  138.20280   58.11630    0.17070
 8353.50000   88.35280    0.24730    0.16530    8.88280    2.94370    0.00730    2.44290   83.02640   84.03330   85.61840   85.99750  139.17300   54.62480    0.21270
 8354.00000   86.93740    0.24210    0.16020    8.88150    2.92560    0.00730    2.45570   71.44910   73.08280   75.87100   85.87020  139.69460   55.40100    0.30730
 8354.50000   85.57980    0.24200    0.15960    8.88340    2.90760    0.00720    2.45470   62.36470   63.45800   65.27470   85.74930  139.69650   56.19810    0.33880
 8355.00000   85.59940    0.24640    0.16350    8.89080    2.83680    0.00700    2.44410   60.41020   61.72450   63.91140   85.77820  139.71530   54.47780    0.28720
 8355.50000   86.81630    0.25200    0.16990    8.89160    2.82490    0.00350    2.43690   54.36440   56.07020   58.55130   85.90890  139.94040   53.50820    0.23560
 8356.00000   89.02040    0.25680    0.16290    8.89190    2.87470    0.00360    2.43950   53.94150   55.44010   57.56920   86.05290  140.16540   54.87220    0.18190
 8356.50000   89.96630    0.25980    0.15250    8.90700    2.96630    0.00390    2.46490   63.26280   66.47340   69.56130   86.19240  140.43110   49.43730    0.19960
 8357.00000   89.04260    0.25410    0.13250    8.92210    3.05590    0.00890    2.50000   53.32420   54.82190   56.95450   86.26550  140.60330   44.94490    0.23290
 8357.50000   87.70170    0.25490    0.12710    8.93720    3.06560    0.00860    2.51010   46.94920   47.42200   48.32900   86.64090  140.80030   44.43750    0.23240
 8358.00000   91.28660    0.25880    0.14040    8.95230    2.99110    0.00810    2.48600   51.59770   52.40550   56.30180   86.70650  140.99720   49.62660    0.22420
 8358.50000   96.05890    0.26090    0.15710    8.96480    2.91420    0.00580    2.44630   49.62780   50.14850   52.23170   86.70560  141.23770   57.51590    0.27410
