~Version ---------------------------------------------------
VERS.   2.0 : CWLS log ASCII Standard -VERSION 2.0
WRAP.    NO : One line per depth step
DLM . SPACE : Column Data Section Delimiter
~Well ------------------------------------------------------
STRT .F                    5.0 : START DEPTH
STOP .F                12071.0 : STOP DEPTH
STEP .F                    0.5 : STEP
NULL .                -9999.25 : NULL VALUE
COMP .                         : COMPANY
WELL .                         : WELL
FLD  .                         : FIELD
LOC  .                         : LOCATION
PROV .                         : PROVINCE
CNTY .                         : COUNTY
STAT .                         : STATE
CTRY .                         : COUNTRY
SRVC .                         : SERVICE COMPANY
DATE .                         : DATE
UWI  .                         : UNIQUE WELL ID
API  .                         : API NUMBER
SLAT .WGS84 2.5902191814258018 : SURFACE LATITUDE
SLON .WGS84  7.031471104654003 : SURFACE LONGITUDE
DATUM.F                    nan : DEPTH DATUM ELEV
~Curve Information -----------------------------------------
DEPT    .F     : 1 MEASURED DEPTH
SGRDD   .GAPI  : SPECTROSCOPY GAMMA RAY FROM DENSITY LOG
TNPH_LS .DEC   : THERMAL NEUTRON POROSITY [LIMESTONE]
DPHZ_LS .DEC   : HGRD STANDARD RESOLUTION DENSITY POROSITY
CALD    .IN    : CALIPER FROM DENSITY LOG
PEFZ    .B/E   : HRDD STANDARD RESOLUTION FORMATION PHOTOELECTRIC FACTOR
HDRA    .G/C3  : HRDD SPINE AND RIBS DENSITY CORRECTION
RHOZ    .G/C3  : HRDD STANDARD RESOLUTION FORMATION DENSITY
RLA5    .OHMM  : APPARENT RESISTIVITY FROM COMPUTED FOCUSING MODE 5
RLA4    .OHMM  : APPARENT RESISTIVITY FROM COMPUTED FOCUSING MODE 4
RLA3    .OHMM  : APPARENT RESISTIVITY FROM COMPUTED FOCUSING MODE 3
DTCO    .US/F  : DELTA-T COMPRESSIONAL
DTSM    .US/F  : DELTA-T SHEAR
GRD     .GAPI  : GAMMA RAY FROM DENSITY LOG
CNPOR_LS.DEC   : COMPENSATED ENHANCED THERMAL NEUTRON POROSITY IN SELECTED LITHOLOGY LIMESTONE
~Params ----------------------------------------------------
~Other -----------------------------------------------------
~ASCII -----------------------------------------------------
# ...
 7330.00000   32.78990    0.01400   -0.01620    9.30150    5.29240    0.02690    2.74210 2145.53560 1336.43680 1035.39140   50.11100   96.23600   25.14540    0.01680
 7330.50000   33.63240    0.01380   -0.01940    9.29810    5.28860    0.02550    2.74080 1458.08810 1075.77830 1032.38830   50.10530   96.28690   26.84660    0.01610
 7331.00000   33.63410    0.01330   -0.01550    9.29470    5.29420    0.02630    2.73260 3481.65480 1609.03810 1529.57250   50.13280   95.85330   28.52130    0.01530
 7331.50000   32.15650    0.01320   -0.01500    9.28800    5.31170    0.03110    2.73640 2600.57200  718.09970  700.41780   50.16940   95.23130   31.31070    0.01230
 7332.00000   30.39250    0.01190   -0.01700    9.28690    5.31760    0.03630    2.74420 1719.48940 1037.44650  723.44300   50.19750   95.06830   26.75240    0.01180
 7332.50000   28.74010    0.01100   -0.01990    9.28450    5.31440    0.03550    2.73560 4580.83300 1780.36290 1769.04870   50.22670   94.90530   17.82880    0.01340
 7333.00000   27.58910    0.01060   -0.01000    9.28010    5.26250    0.02070    2.71660 4232.24660 1780.28480 1768.16130   50.33820   94.58750   15.99990    0.01380
 7333.50000   28.63600    0.01060   -0.00490    9.26460    5.15330    0.00780    2.70370 3712.45850 1746.94710 1569.87960   50.64500   94.45670   17.75270    0.01540
 7334.00000   30.81310    0.01010    0.00260    9.24160    5.10870    0.00750    2.70500 2973.15280 1515.90560 1487.23130   50.93810   95.44990   19.32790    0.01910
 7334.50000   32.61150    0.00950   -0.00070    9.22490    5.08760    0.01050    2.71600 2841.24930 1507.03140 1468.71440   51.14910   95.16980   16.86560    0.02450
 7335.00000   31.87940    0.00910   -0.01090    9.23040    5.11800    0.01360    2.73310 3737.80640 1695.19510 1641.34700   51.19460   94.65880   15.03570    0.02930
 7335.50000   31.44640    0.01010   -0.01670    9.22350    5.14840    0.01570    2.73910 4417.74610 1797.91970 1743.32190   51.32360   96.27300   16.88020    0.03300
 7336.00000   32.95760    0.01210   -0.01570    9.21660    5.12060    0.01500    2.73450 2638.87700 1662.53150 1444.06870   52.10810   96.32440   24.47270    0.02720
 7336.50000   36.87150    0.01420   -0.01260    9.20800    5.07480    0.01430    2.72530 1342.99430 1063.28800  823.76650   52.45770   96.61790   26.68760    0.01940
 7337.00000   38.09410    0.01890   -0.00840    9.20280    5.00370    0.01110    2.72380  945.23010  753.65360  719.06540   53.18160   98.55460   24.81860    0.01830
 7337.50000   33.76150    0.02110   -0.00950    9.20050    4.92770    0.01120    2.72360 1368.42250  950.36250  898.92150   55.30210  100.87120   21.46940    0.02810
 7338.00000   28.53650    0.02220   -0.00890    9.19320    4.87030    0.01140    2.71960 1095.48060  804.87130  718.96150   57.66680  100.43360   19.26310    0.03890
 7338.50000   25.79140    0.02340   -0.00610    9.18630    4.76880    0.01110    2.70190  833.99380  715.09170  691.96490   59.70770  106.48170   23.37160    0.05010
 7339.00000   28.77190    0.03240    0.01330    9.18110    4.64480    0.00770    2.68160  543.58520  498.70620  462.02680   62.31700  108.95130   26.80140    0.06590
 7339.50000   33.65030    0.04940    0.02750    9.17580    4.52220    0.00500    2.64110  481.83120  440.69350  422.78250   64.14930  111.29420   27.22090    0.07670
 7340.00000   40.08370    0.07180    0.04410    9.17050    4.39320    0.00310    2.60070  402.95080  394.35200  334.88310   65.43980  115.45610   28.83300    0.08580
 7340.50000   45.57570    0.09420    0.06170    9.16520    4.28400    0.00130    2.56680  288.81420  268.71500  241.48010   67.97240  119.61900   29.69020    0.10760
 7341.00000   47.38840    0.11420    0.08660    9.16000    4.26830   -0.00040    2.54480  308.78980  283.63090  264.98360   68.24240  121.88810   24.00660    0.13240
 7341.50000   46.45440    0.11910    0.09930    9.15470    4.26290   -0.00060    2.53340  610.67240  530.23860  457.04030   68.23200  121.76310   23.20060    0.13490
 7342.00000   45.05460    0.12370    0.11010    9.14940    4.23870   -0.00100    2.52510  522.95100  501.10500  504.24900   67.89750  121.40310   25.43930    0.11540
 7342.50000   44.39660    0.13010    0.11540    9.14420    4.18730   -0.00180    2.51810  849.90270  686.54610  527.02980   67.42100  120.78100   32.34450    0.09850
 7343.00000   44.24460    0.13520    0.12190    9.13890    4.16320   -0.00260    2.51370  429.66060  392.81190  378.80680   64.99780  117.65550   32.32490    0.08640
 7343.50000   42.46560    0.12340    0.11390    9.13360    4.17200   -0.00150    2.51530  517.30030  438.76250  378.26670   63.39720  114.18180   27.89010    0.07920
 7344.00000   40.64710    0.10330    0.08310    9.12840    4.22370   -0.00020    2.62130  676.68440  500.83470  433.33870   61.61460  111.88030   27.14670    0.07440
 7344.50000   39.24090    0.08340    0.05660    9.12310    4.31450    0.00110    2.63890  343.24770  335.34710  323.48650   59.92930  109.40390   27.08960    0.06750
 7345.00000   39.56530    0.06380    0.03940    9.11840    4.40530    0.00250    2.65640  397.01910  388.01080  352.16250   58.32310  107.33540   25.50580    0.06220
 7345.50000   39.62930    0.05060    0.03170    9.11400    4.48830    0.00270    2.66470  392.63620  389.12990  339.55470   57.59810  101.04500   23.47280    0.05610
 7346.00000   39.38490    0.04210    0.02790    9.10960    4.51270    0.00280    2.66820  379.57160  376.68150  335.74690   56.99610  103.27820   24.69350    0.04130
 7346.50000   37.86880    0.03890    0.02610    9.10520    4.53920    0.00300    2.67400  385.47340  381.54950  362.16470   56.62310  100.67120   31.82780    0.03560
 7347.00000   38.01050    0.03680    0.02100    9.10330    4.57160    0.00320    2.67780  509.06900  473.66920  445.10820   56.26430  100.91650   34.62250    0.03250
 7347.50000   40.33130    0.03660    0.02220    9.10260    4.53630    0.00350    2.67490  411.23560  408.31450  405.69560   56.22670  102.33870   34.67540    0.02460
 7348.00000   40.26390    0.03730    0.02760    9.10260    4.50460    0.00390    2.66510  421.02080  412.67980  405.35170   55.93870  100.74440   30.50880    0.02230
 7348.50000   39.76020    0.03800    0.02720    9.10250    4.49680    0.00420    2.66610  697.76740  682.39990  493.03770   55.88770  100.16470   28.12850    0.03050
 7349.00000   37.09530    0.03800    0.02440    9.10240    4.49940    0.00400    2.67290  508.05020  471.01620  442.06550   56.35670  101.38560   32.86440    0.03880
 7349.50000   37.45580    0.03370    0.02190    9.10230    4.50130    0.00380    2.67630  467.15400  463.39950  411.22840   57.07920  101.71390   35.86970    0.04240
 7350.00000   36.10920    0.03430    0.01980    9.08890    4.45470    0.00370    2.68240  571.29290  540.22950  496.52940   57.81150  102.23070   31.36660    0.04470
 7350.50000   34.01510    0.03560    0.01630    9.06490    4.38500    0.00360    2.68870  618.87790  602.59430  493.22210   58.84930  103.99510   21.01790    0.04620
 7351.00000   31.32630    0.03930    0.01350    9.04090    4.27720    0.00350    2.68930  525.35580  521.18670  462.36090   59.93520  105.23160   19.87910    0.04740
 7351.50000   32.50400    0.04350    0.02210    9.10100    4.26250    0.00340    2.65900 1358.44590 1189.61270 1057.78610   62.06800  107.11240   22.41040    0.05370
 7352.00000   35.84050    0.05700    0.04000    9.10230    4.28470    0.00330    2.63880  336.42050  333.77260  316.16790   62.85340  109.08720   24.89630    0.06870
 7352.50000   36.84810    0.07170    0.05070    9.10230    4.29680    0.00320    2.62790  447.74730  391.35810  347.52370   63.41060  110.59190   21.86950    0.07830
 7353.00000   34.84960    0.07940    0.05540    9.10230    4.26370    0.00310    2.61560 1131.76810  956.57720  835.69100   64.54940  112.26150   20.63690    0.07850
 7353.50000   34.15500    0.09180    0.06530    9.10240    4.19130    0.00340    2.58370 1237.68570 1085.66720  962.59800   65.81510  113.22580   21.57210    0.08050
 7354.00000   36.14540    0.10590    0.08650    9.10240    4.18380    0.00350    2.55230  585.51990  580.68940  562.18880   66.46430  114.26210   24.77760    0.10220
