~Version ---------------------------------------------------
VERS.   2.0 : CWLS log ASCII Standard -VERSION 2.0
WRAP.    NO : One line per depth step
DLM . SPACE : Column Data Section Delimiter
~Well ------------------------------------------------------
STRT .F                    5.0 : START DEPTH
STOP .F                12071.0 : STOP DEPTH
STEP .F                    0.5 : STEP
NULL .                -9999.25 : NULL VALUE
COMP .                         : COMPANY
WELL .                         : WELL
FLD  .                         : FIELD
LOC  .                         : LOCATION
PROV .                         : PROVINCE
CNTY .                         : COUNTY
STAT .                         : STATE
CTRY .                         : COUNTRY
SRVC .                         : SERVICE COMPANY
DATE .                         : DATE
UWI  .                         : UNIQUE WELL ID
API  .                         : API NUMBER
SLAT .WGS84 2.5902191814258018 : SURFACE LATITUDE
SLON .WGS84  7.031471104654003 : SURFACE LONGITUDE
DATUM.F                    nan : DEPTH DATUM ELEV
~Curve Information -----------------------------------------
DEPT    .F     : 1 MEASURED DEPTH
SGRDD   .GAPI  : SPECTROSCOPY GAMMA RAY FROM DENSITY LOG
TNPH_LS .DEC   : THERMAL NEUTRON POROSITY [LIMESTONE]
DPHZ_LS .DEC   : HGRD STANDARD RESOLUTION DENSITY POROSITY
CALD    .IN    : CALIPER FROM DENSITY LOG
PEFZ    .B/E   : HRDD STANDARD RESOLUTION FORMATION PHOTOELECTRIC FACTOR
HDRA    .G/C3  : HRDD SPINE AND RIBS DENSITY CORRECTION
RHOZ    .G/C3  : HRDD STANDARD RESOLUTION FORMATION DENSITY
RLA5    .OHMM  : APPARENT RESISTIVITY FROM COMPUTED FOCUSING MODE 5
RLA4    .OHMM  : APPARENT RESISTIVITY FROM COMPUTED FOCUSING MODE 4
RLA3    .OHMM  : APPARENT RESISTIVITY FROM COMPUTED FOCUSING MODE 3
DTCO    .US/F  : DELTA-T COMPRESSIONAL
DTSM    .US/F  : DELTA-T SHEAR
GRD     .GAPI  : GAMMA RAY FROM DENSITY LOG
CNPOR_LS.DEC   : COMPENSATED ENHANCED THERMAL NEUTRON POROSITY IN SELECTED LITHOLOGY LIMESTONE
~Params ----------------------------------------------------
~Other -----------------------------------------------------
~ASCII -----------------------------------------------------
# ...
 6987.50000   58.26910    0.13380   -9999.25    9.56530   -9999.25   -9999.25   -9999.25   -9999.25   -9999.25   -9999.25   -9999.25   -9999.25   36.64650    0.11750
 6988.00000   57.79680    0.15510   -9999.25    8.76200   -9999.25   -9999.25   -9999.25   -9999.25   -9999.25   -9999.25   -9999.25   -9999.25   38.10310    0.10690
 6988.50000   57.82000    0.15870   -9999.25    8.68620   -9999.25   -9999.25   -9999.25   -9999.25   -9999.25   -9999.25   -9999.25   -9999.25   40.06100    0.11460
 6989.00000   59.11420    0.15570   -9999.25    8.72110   -9999.25   -9999.25   -9999.25   -9999.25   -9999.25   -9999.25   -9999.25   -9999.25   39.82360    0.13430
 6989.50000   62.64600    0.15130   -9999.25    8.86980   -9999.25   -9999.25   -9999.25   -9999.25   -9999.25   -9999.25   -9999.25   -9999.25   37.43070    0.15260
 6990.00000   65.66610    0.14800    0.11100    9.57450    2.70370    0.06660   -9999.25    7.37690    7.26450    7.16470   66.88700  117.31760   40.31950    0.14800
 6990.50000   66.08150    0.14830    0.10950    9.60150    2.66900    0.04360   -9999.25    8.20370    8.05720    7.92380   66.72840  116.64490   45.46990    0.13120
 6991.00000   65.04170    0.14490    0.10610    9.62850    2.63540    0.00690   -9999.25    8.84590    8.52600    8.47220   66.29120  114.92550   47.37370    0.12980
 6991.50000   60.54110    0.14070    0.10310    9.62580    2.67820    0.01220   -9999.25    8.81800    8.50440    8.45070   66.35940  114.33470   46.06640    0.13540
 6992.00000   54.93250    0.12030    0.09900    9.59950    2.78110    0.02080   -9999.25   13.06710    8.61640    8.55090   66.49660  113.24640   42.57790    0.12680
 6992.50000   53.12430    0.08880    0.09490    9.57320    2.85720    0.02960   -9999.25   30.97520   26.95770   22.12210   66.65120  113.11990   41.75490    0.09310
 6993.00000   53.09280    0.09000    0.09290    9.54170    2.92200    0.04920   -9999.25   24.70220   19.25560   16.07070   67.06590  113.62640   43.00390    0.08030
 6993.50000   58.19820    0.11980    0.11230    9.47630    2.90300    0.06060   -9999.25    7.69000    7.14200    6.16880   67.51070  114.36070   41.35040    0.08210
 6994.00000   62.37320    0.13390    0.14380    9.35340    2.86140    0.06490   -9999.25    4.99250    4.37560    3.81210   68.09220  115.15810   37.34290    0.09610
 6994.50000   66.81510    0.13870    0.14190    9.32790    2.82060    0.06600   -9999.25    5.64920    4.74850    3.66860   68.53260  116.05570   36.29830    0.11780
 6995.00000   68.43590    0.14090    0.10940    9.40630    2.73990    0.06110   -9999.25   10.62830   10.32230    9.89930   69.26490  117.05090   42.85800    0.13660
 6995.50000   68.60050    0.14470    0.10150    9.49470    2.65910    0.03420   -9999.25   10.55260    9.60530    9.37480   69.39260  117.50360   50.91400    0.14010
 6996.00000   69.15300    0.14380    0.10370    9.58310    2.59900    0.01090   -9999.25    9.78180    9.32450    8.94450   69.42380  118.26750   55.70780    0.13960
 6996.50000   69.51020    0.14060    0.10840    9.61050    2.56190    0.00460   -9999.25   10.12690    9.94750    9.78700   69.49320  118.35580   53.32720    0.13200
 6997.00000   70.02770    0.13540    0.10430    9.59830    2.51440    0.00190   -9999.25   13.27180   12.77700   12.28470   69.62620  118.20300   52.31530    0.11610
 6997.50000   71.65040    0.13580    0.10060    9.57540    2.50120    0.00110   -9999.25   12.40450   12.24310   12.05320   69.70530  118.03770   52.74100    0.10010
 6998.00000   72.30370    0.13760    0.10390    9.55250    2.50870    0.00070   -9999.25   12.59680   12.44130   11.56620   70.10970  118.45280   49.03590    0.09980
 6998.50000   72.36970    0.14000    0.10900    9.52960    2.53340    0.00030   -9999.25   12.91970   12.68680   12.03870   71.18080  119.04950   44.54130    0.10770
 6999.00000   72.43740    0.14390    0.11240    9.50690    2.56190   -0.00000   -9999.25   12.05870   11.60110   10.90760   72.40970  120.33020   44.82860    0.10930
 6999.50000   74.03650    0.14660    0.11000    9.48430    2.57730   -0.00040   -9999.25   12.17660   11.60110   10.84360   72.66190  121.32420   44.23740    0.10320
 7000.00000   77.94070    0.14870    0.10630    9.46170    2.63150   -0.00070    2.54120   14.35700   13.70670   12.49720   73.00920  122.56830   43.71080    0.10350
 7000.50000   82.39000    0.15090    0.10360    9.43910    2.72250   -0.00110    2.54010   19.55350   18.55640   17.79240   73.21060  124.41580   46.81680    0.13640
 7001.00000   87.14340    0.16120    0.10730    9.41650    2.82850   -0.00150    2.53840   27.47170   26.06190   24.85390   73.20950  124.90650   54.17520    0.18890
 7001.50000   94.67630    0.17970    0.11660    9.39390    2.96670   -0.00180    2.52440   38.73110   36.74180   35.04600   72.84870  124.10900   63.47850    0.25030
 7002.00000  101.79430    0.20350    0.12180    9.37700    3.04960   -0.00280    2.51280   53.81740   51.79810   45.92220   72.06910  124.42990   63.48320    0.24740
 7002.50000  105.56660    0.21560    0.11680    9.36220    3.08290   -0.00280    2.51250   49.05650   46.51260   42.72070   71.45640  124.42760   62.79980    0.23420
 7003.00000   99.50070    0.21110    0.10370    9.34730    3.03880   -0.00050    2.53750   41.44320   38.55860   36.71470   70.30680  122.46580   65.45510    0.22250
 7003.50000   95.49570    0.18980    0.09810    9.33250    3.04080    0.00020    2.54640   54.39470   47.33040   35.53250   69.81380  120.64570   66.48730    0.18790
 7004.00000   92.96050    0.17750    0.09690    9.31760    3.08520    0.00090    2.55220   75.44040   72.36820   69.60750   69.15690  118.50310   56.27520    0.11640
 7004.50000   91.60300    0.16520    0.09100    9.30940    3.12220    0.00260    2.55790   57.42550   57.02530   56.66580   68.46340  118.19860   45.98220    0.09010
 7005.00000   86.77330    0.15320    0.07460    9.30940    3.05310    0.00620    2.58860   58.63250   58.05560   57.53990   68.59840  115.79490   46.02660    0.10370
 7005.50000   84.84910    0.14540    0.06560    9.31050    2.98400    0.01000    2.60810   88.49100   82.68680   73.74010   68.25790  114.72890   55.90630    0.13430
 7006.00000   92.88960    0.14830    0.06960    9.32050    2.95170    0.00590    2.60690   97.16920   92.68650   82.58470   68.15350  114.38280   72.65450    0.19070
 7006.50000  100.44430    0.15210    0.08430    9.33050    2.94920    0.00270    2.58550   79.11720   74.87760   71.88990   68.01910  113.92520   77.10200    0.20410
 7007.00000  107.61440    0.15400    0.09350    9.34050    3.01730    0.00120    2.56470   79.17240   75.46290   73.72540   67.95520  113.05980   74.32580    0.16620
 7007.50000  109.80010    0.15090    0.09690    9.35410    2.98120    0.00130    2.55710   78.53200   74.74620   72.49520   67.90300  112.64310   72.19940    0.15400
 7008.00000  105.74190    0.14540    0.09690    9.37150    2.86890    0.00190    2.55530   55.01400   51.76520   49.11010   68.33490  112.55630   61.73010    0.16540
 7008.50000   96.52380    0.13830    0.09720    9.38890    2.74850    0.00260    2.55450   34.72720   32.58620   28.50800   68.57710  112.88450   51.22170    0.15870
 7009.00000   85.59510    0.12670    0.09790    9.40630    2.58580    0.00320    2.55470   28.66700   28.46030   27.19230   68.61180  113.21050   50.28870    0.13210
 7009.50000   74.17540    0.11940    0.09640    9.42370    2.53370    0.00380    2.55540   26.83950   25.16110   23.64560   68.86580  113.56230   49.07620    0.09660
 7010.00000   66.63390    0.11320    0.09670    9.44110    2.48160    0.00430    2.55590   17.59440   15.34450   15.22550   68.74070  113.49120   37.85640    0.10820
 7010.50000   61.84440    0.11670    0.09830    9.45280    2.45000    0.00460    2.55440   15.95570   15.14640   13.94140   68.56120  113.31340   37.59140    0.14590
 7011.00000   70.27730    0.12870    0.10520    9.45760    2.56200    0.00410    2.54580   19.63120   18.11930   14.33040   68.18130  113.28290   42.51840    0.15730
 7011.50000   81.57090    0.15050    0.11010    9.46970    2.68020    0.00350    2.53430   38.31680   34.43600   27.25780   68.21540  113.86610   50.14440    0.11920
