~Version ---------------------------------------------------
VERS.   2.0 : CWLS log ASCII Standard -VERSION 2.0
WRAP.    NO : One line per depth step
DLM . SPACE : Column Data Section Delimiter
~Well ------------------------------------------------------
STRT .F                    5.0 : START DEPTH
STOP .F                12071.0 : STOP DEPTH
STEP .F                    0.5 : STEP
NULL .                -9999.25 : NULL VALUE
COMP .                         : COMPANY
WELL .                         : WELL
FLD  .                         : FIELD
LOC  .                         : LOCATION
PROV .                         : PROVINCE
CNTY .                         : COUNTY
STAT .                         : STATE
CTRY .                         : COUNTRY
SRVC .                         : SERVICE COMPANY
DATE .                         : DATE
UWI  .                         : UNIQUE WELL ID
API  .                         : API NUMBER
SLAT .WGS84 2.5902191814258018 : SURFACE LATITUDE
SLON .WGS84  7.031471104654003 : SURFACE LONGITUDE
DATUM.F                    nan : DEPTH DATUM ELEV
~Curve Information -----------------------------------------
DEPT    .F     : 1 MEASURED DEPTH
SGRDD   .GAPI  : SPECTROSCOPY GAMMA RAY FROM DENSITY LOG
TNPH_LS .DEC   : THERMAL NEUTRON POROSITY [LIMESTONE]
DPHZ_LS .DEC   : HGRD STANDARD RESOLUTION DENSITY POROSITY
CALD    .IN    : CALIPER FROM DENSITY LOG
PEFZ    .B/E   : HRDD STANDARD RESOLUTION FORMATION PHOTOELECTRIC FACTOR
HDRA    .G/C3  : HRDD SPINE AND RIBS DENSITY CORRECTION
RHOZ    .G/C3  : HRDD STANDARD RESOLUTION FORMATION DENSITY
RLA5    .OHMM  : APPARENT RESISTIVITY FROM COMPUTED FOCUSING MODE 5
RLA4    .OHMM  : APPARENT RESISTIVITY FROM COMPUTED FOCUSING MODE 4
RLA3    .OHMM  : APPARENT RESISTIVITY FROM COMPUTED FOCUSING MODE 3
DTCO    .US/F  : DELTA-T COMPRESSIONAL
DTSM    .US/F  : DELTA-T SHEAR
GRD     .GAPI  : GAMMA RAY FROM DENSITY LOG
CNPOR_LS.DEC   : COMPENSATED ENHANCED THERMAL NEUTRON POROSITY IN SELECTED LITHOLOGY LIMESTONE
~Params ----------------------------------------------------
~Other -----------------------------------------------------
~ASCII -----------------------------------------------------
# ...
 9706.00000   30.12150    0.01890    0.03620    8.88410    4.80060    0.00690    2.63390 3629.26950 2533.09640 1450.25510   54.17920   98.27740   19.66870    0.02360
 9706.50000   29.54160    0.02840    0.05350    8.89250    4.69410    0.00480    2.60610 2365.39670 1722.37330 1275.10300   54.50620   98.36070   16.25800    0.03190
 9707.00000   27.07680    0.03920    0.06610    8.90140    4.62400    0.00390    2.60500 1184.89900  911.65000  679.32230   55.07440   99.26930   15.41960    0.04470
 9707.50000   25.40140    0.04590    0.06560    8.90070    4.66360    0.00390    2.61420 1417.56160 1101.33450  780.75230   55.42520  100.09210   16.21060    0.05300
 9708.00000   26.89700    0.04620    0.05940    8.89410    4.71720    0.00390    2.62630 1785.04490 1384.39090  900.25930   55.29960  100.71620   17.65510    0.05490
 9708.50000   28.80840    0.03960    0.05270    8.88450    4.78460    0.00380    2.62400 2458.29540 2280.46240 1265.22800   55.07390  101.47620   18.41660    0.05360
 9709.00000   29.86420    0.03830    0.05440    8.88130    4.81900    0.00270    2.61730 2341.28050 2185.43600 1316.86690   54.58760  101.99610   20.66780    0.05000
 9709.50000   29.52480    0.03950    0.05850    8.87960    4.83300    0.00190    2.60720 1803.76150 1396.70870  927.18760   54.57270  102.33420   21.93430    0.04950
 9710.00000   28.28820    0.04280    0.06230    8.87750    4.82490    0.00100    2.60780 1515.69010 1303.46150  919.20890   55.10550  102.67230   20.60440    0.04810
 9710.50000   26.90150    0.04310    0.06370    8.87590    4.80020    0.00220    2.61800 1469.48460 1213.42180  937.78980   55.63750  102.96530   19.56960    0.04980
 9711.00000   25.67870    0.04240    0.05880    8.87550    4.76440    0.00540    2.61990 1052.47500  954.34220  722.42580   56.72750  103.00550   19.99760    0.04600
 9711.50000   24.47110    0.03840    0.04090    8.87520    4.75990    0.00860    2.66570 1959.56340 1781.78960 1036.21750   58.62840  104.05090   20.92370    0.03390
 9712.00000   23.87590    0.03380    0.02530    8.87480    4.79740    0.01050    2.67760 3672.10180 2790.43580 1693.98840   61.22760  107.23370   23.88440    0.02970
 9712.50000   27.27620    0.03000    0.01930    8.87440    4.83610    0.00920    2.67440 2589.87080 1829.10330 1614.04200   64.45580  110.67280   28.68430    0.03350
 9713.00000   35.17430    0.03220    0.02730    8.87400    4.68190    0.00800    2.64960  932.12790  867.77080  693.62080   67.89790  113.14880   32.13770    0.04110
 9713.50000   49.35010    0.04590    0.03670    8.87360    4.40200    0.01050    2.64560  367.15940  322.69890  282.42490   72.63440  118.34680   36.32670    0.06560
 9714.00000   62.44490    0.06110    0.04000    8.87320    3.92650    0.02220    2.64400  162.35940  125.01230   99.23650   73.54810  120.85180   49.76550    0.09380
 9714.50000   70.67910    0.08310    0.04210    8.87290    3.67250    0.02840    2.61170   55.32730   44.61860   36.83920   74.02670  121.17870   65.16810    0.12080
 9715.00000   98.19650    0.12160    0.06740    8.87250    3.37110    0.02970    2.55850   26.42620   26.06880   25.79850   74.34810  122.68330   75.91640    0.14780
 9715.50000  122.02120    0.18280    0.10480    8.87210    3.26590    0.01500    2.52130   31.37070   28.87620   26.48830   74.50410  123.51240   74.22910    0.15520
 9716.00000  132.90420    0.20720    0.13090    8.87170    3.23430   -0.00350    2.49750   45.39530   40.40260   38.87260   74.37480  123.62980   59.63330    0.16300
 9716.50000  122.28650    0.19040    0.12340    8.87590    3.19630   -0.00220    2.50060   34.38200   30.75460   27.42230   74.23010  122.93360   49.35650    0.15950
 9717.00000  106.47360    0.15110    0.09920    8.88040    3.09270    0.00260    2.55940   21.59180   21.34730   19.83430   73.15280  122.58200   44.66220    0.14010
 9717.50000   88.02580    0.13090    0.08080    8.88080    3.01230    0.00640    2.59350   25.20080   24.07520   22.26650   72.42020  120.24130   40.51040    0.11630
 9718.00000   81.97350    0.12420    0.07010    8.88120    2.99850    0.00470    2.59890   23.46790   22.49660   20.31770   72.06680  119.19140   39.88240    0.11580
 9718.50000   80.95150    0.12770    0.07110    8.88390    2.98470    0.00250    2.59770   20.19160   19.63470   18.79300   71.79840  118.46940   39.68430    0.12770
 9719.00000   81.48590    0.13440    0.07380    8.89370    2.97600    0.00030    2.57860   21.05290   19.82530   19.24990   71.83130  118.29670   39.03300    0.13430
 9719.50000   84.04080    0.14030    0.08410    8.90350    2.97700   -0.00140    2.55850   20.76430   20.40170   17.70910   72.22820  118.57430   42.31610    0.14590
 9720.00000   86.94850    0.13910    0.09810    8.90270    2.97790   -0.00160    2.54560   22.32160   20.73440   18.63400   72.31950  118.85200   47.68100    0.14540
 9720.50000   89.85620    0.13690    0.10280    8.90230    2.97890   -0.00190    2.54160   21.21190   20.05020   19.22620   72.36620  119.16280   48.71380    0.11540
 9721.00000   90.60700    0.13470    0.10530    8.90220    2.97910   -0.00260    2.54680   19.98960   18.38820   17.85070   72.37460  119.46710   51.51140    0.09520
 9721.50000   91.65690    0.13300    0.09700    8.90160    2.97190   -0.00210    2.56040   19.94570   18.22120   17.24090   72.47560  120.16230   57.64670    0.09500
 9722.00000   94.17130    0.13130    0.09240    8.90040    2.95180   -0.00160    2.56630   20.33640   18.71520   17.44880   72.53150  120.22900   61.64490    0.10380
 9722.50000   96.05100    0.13370    0.08970    8.89930    2.92330   -0.00110    2.56620   20.84650   18.57280   17.53370   72.57030  120.24310   57.72800    0.11230
 9723.00000   96.31320    0.13550    0.09150    8.89910    2.91260   -0.00060    2.56270   21.93320   18.71020   18.02380   72.59940  120.90830   53.90880    0.13340
 9723.50000   96.48250    0.13460    0.09520    8.89880    2.91300   -0.00020    2.55520   23.21900   20.21870   20.14680   72.53630  120.72610   53.62740    0.15360
 9724.00000   95.82410    0.13230    0.09670    8.89630    2.87430    0.00030    2.55500   26.46760   22.40940   21.58770   72.51250  120.47310   59.42550    0.14380
 9724.50000   98.33410    0.13120    0.09900    8.89430    2.83240    0.00080    2.54910   26.32690   22.08230   21.95800   72.49370  120.26190   65.17140    0.11640
 9725.00000  102.49140    0.13190    0.10490    8.88400    2.84300    0.00130    2.54120   31.03750   27.99170   24.64310   72.27730  120.15750   65.43120    0.09550
 9725.50000  107.53250    0.14870    0.10470    8.89380    2.82990    0.00180    2.53970   39.45430   33.05930   26.87220   72.04070  119.46130   62.56360    0.09230
 9726.00000  104.42330    0.15300    0.10130    8.90160    2.81530    0.00230    2.55240   22.36910   20.11950   18.02360   71.47490  119.14370   50.58330    0.12040
 9726.50000   97.15820    0.14280    0.09470    8.90230    2.76720    0.00290    2.56210   17.87840   17.42580   16.10160   71.11600  118.95380   40.37830    0.13140
 9727.00000   92.08420    0.13250    0.09230    8.91250    2.81590    0.00350    2.56540   18.95420   18.98780   16.83200   70.60430  117.44450   40.99040    0.11390
 9727.50000   89.90250    0.12660    0.09030    8.90420    2.85040    0.00410    2.56870   19.42890   19.76160   18.62610   70.46010  116.45840   46.50160    0.09870
 9728.00000   90.51690    0.12780    0.08750    8.90220    2.89130    0.00470    2.58010   19.93990   18.96610   16.98450   70.36170  116.05010   49.79030    0.10540
 9728.50000   90.35940    0.13100    0.08050    8.90090    2.90570    0.00530    2.59310   20.24960   19.55710   16.61580   70.27430  115.89710   50.65460    0.11010
 9729.00000   87.83860    0.13110    0.07200    8.89440    2.89990    0.00580    2.57060   20.96510   20.52650   17.42680   70.22290  115.22570   52.22430    0.10910
 9729.50000   89.65460    0.12740    0.07530    8.89250    2.89420    0.00640    2.59520   20.75500   20.27270   17.61990   70.11100  115.03760   59.23850    0.10760
 9730.00000   96.34440    0.12750    0.08720    8.89130    2.88510    0.00660    2.57570   21.24730   20.91340   17.84230   69.84690  114.94830   70.30970    0.09770
