~Version ---------------------------------------------------
VERS.   2.0 : CWLS log ASCII Standard -VERSION 2.0
WRAP.    NO : One line per depth step
DLM . SPACE : Column Data Section Delimiter
~Well ------------------------------------------------------
STRT .F                    5.0 : START DEPTH
STOP .F                12071.0 : STOP DEPTH
STEP .F                    0.5 : STEP
NULL .                -9999.25 : NULL VALUE
COMP .                         : COMPANY
WELL .                         : WELL
FLD  .                         : FIELD
LOC  .                         : LOCATION
PROV .                         : PROVINCE
CNTY .                         : COUNTY
STAT .                         : STATE
CTRY .                         : COUNTRY
SRVC .                         : SERVICE COMPANY
DATE .                         : DATE
UWI  .                         : UNIQUE WELL ID
API  .                         : API NUMBER
SLAT .WGS84 2.5902191814258018 : SURFACE LATITUDE
SLON .WGS84  7.031471104654003 : SURFACE LONGITUDE
DATUM.F                    nan : DEPTH DATUM ELEV
~Curve Information -----------------------------------------
DEPT    .F     : 1 MEASURED DEPTH
SGRDD   .GAPI  : SPECTROSCOPY GAMMA RAY FROM DENSITY LOG
TNPH_LS .DEC   : THERMAL NEUTRON POROSITY [LIMESTONE]
DPHZ_LS .DEC   : HGRD STANDARD RESOLUTION DENSITY POROSITY
CALD    .IN    : CALIPER FROM DENSITY LOG
PEFZ    .B/E   : HRDD STANDARD RESOLUTION FORMATION PHOTOELECTRIC FACTOR
HDRA    .G/C3  : HRDD SPINE AND RIBS DENSITY CORRECTION
RHOZ    .G/C3  : HRDD STANDARD RESOLUTION FORMATION DENSITY
RLA5    .OHMM  : APPARENT RESISTIVITY FROM COMPUTED FOCUSING MODE 5
RLA4    .OHMM  : APPARENT RESISTIVITY FROM COMPUTED FOCUSING MODE 4
RLA3    .OHMM  : APPARENT RESISTIVITY FROM COMPUTED FOCUSING MODE 3
DTCO    .US/F  : DELTA-T COMPRESSIONAL
DTSM    .US/F  : DELTA-T SHEAR
GRD     .GAPI  : GAMMA RAY FROM DENSITY LOG
CNPOR_LS.DEC   : COMPENSATED ENHANCED THERMAL NEUTRON POROSITY IN SELECTED LITHOLOGY LIMESTONE
~Params ----------------------------------------------------
~Other -----------------------------------------------------
~ASCII -----------------------------------------------------
# ...
 11367.50000   28.34680    0.03010    0.00440    8.92220    4.66710    0.02520    2.70330  156.55760  142.59030   84.08450   55.32530  100.44460   -9999.25   -9999.25
 11368.00000   31.93560    0.01800    0.00330    8.91110    4.79480    0.00670    2.71030   65.45080   63.91220   62.48900   56.71370  105.07230   -9999.25   -9999.25
 11368.50000   41.06410    0.01810   -0.00300    8.90660    4.91620    0.01710    2.72580   63.69910   62.26780   60.95420   57.22820  104.89690   -9999.25   -9999.25
 11369.00000   50.22800    0.02080   -0.01130    8.90780    4.91880    0.03220    2.73280   57.38000   38.02210   25.89000   57.68460  105.16610   -9999.25   -9999.25
 11369.50000   58.43620    0.02730   -0.01440    8.90900    4.90250    0.03940    2.73490   30.03330   24.15480   20.50520   63.05460  109.51670   -9999.25   -9999.25
 11370.00000   59.60990    0.03120   -0.01500    8.91030    4.80980    0.03390    2.73340   69.10370   64.38350   46.28260   64.15260  113.50810   -9999.25   -9999.25
 11370.50000   60.13180    0.04450   -0.00840    8.91150    4.56320    0.02780    2.71880   70.36420   68.81260   67.38820   64.75890  117.25370   -9999.25   -9999.25
 11371.00000   70.82550    0.05710    0.00160    8.93170    4.27610    0.03500    2.69900   28.73750   20.70510   18.30700   65.25590  119.14130   -9999.25   -9999.25
 11371.50000   86.60900    0.10320    0.02960    8.95900    4.05440    0.04890    2.64020   13.87720   12.37680   11.70330   67.59640  118.93440   -9999.25   -9999.25
 11372.00000   92.98680    0.13770    0.04820    8.97680    3.92720    0.06680    2.61170   10.35350    9.75250    9.22150   60.79400  117.05900   -9999.25   -9999.25
 11372.50000   84.53080    0.18810    0.06120    8.95800    4.05460    0.06200    2.61150   11.06990    9.05160    8.15560   50.22730  114.02340   -9999.25   -9999.25
 11373.00000   64.65240    0.16860    0.04750    8.90120    4.24660    0.04220    2.64370   39.79330   20.38230   16.78670   47.32470  110.78290   -9999.25   -9999.25
 11373.50000   44.77400    0.08080    0.01710    8.86080    4.50370    0.01920    2.70180  367.42110  264.74090  182.46620   47.53580  106.45880   -9999.25   -9999.25
 11374.00000   31.57410    0.02990   -0.00440    8.85460    4.63550    0.00570    2.71740  879.30490  724.55270  587.86040   47.87710  103.61710   -9999.25   -9999.25
 11374.50000   23.12920    0.00870   -0.01190    8.86720    4.69830    0.00470    2.73510 1053.26860 1036.30580 1020.70930   48.24740   98.58720   -9999.25   -9999.25
 11375.00000   20.39600    0.00080   -0.01910    8.87990    4.76530    0.00780    2.75870  914.58000  691.67590  532.02860   50.61050   94.86330   -9999.25   -9999.25
 11375.50000   18.48770   -0.00040   -0.02430    8.88130    4.84940    0.01170    2.76280  572.79560  512.07590  446.27390   49.50610   91.84690   -9999.25   -9999.25
 11376.00000   17.10160   -0.00060   -0.03120    8.88140    4.87790    0.01500    2.75950 1750.75390 1715.16670 1682.49610   48.48370   89.51850   -9999.25   -9999.25
 11376.50000   15.93330   -0.00080   -0.02640    8.88210    4.81850    0.01350    2.75110 1786.77540 1759.52780 1734.49550   46.86960   89.14190   -9999.25   -9999.25
 11377.00000   18.56590    0.00000   -0.01850    8.88360    4.76830    0.01110    2.73290 1426.01160 1178.73230 1013.39400   44.89830   87.93390   -9999.25   -9999.25
 11377.50000   27.00660    0.00370   -0.00380    8.90060    4.71820    0.00720    2.69570  472.08170  296.29640  162.89550   45.32900   86.53700   -9999.25   -9999.25
 11378.00000   33.94310    0.01280    0.01200    8.90740    4.75100    0.00260    2.68650   88.59700   57.73350   49.10750   47.01110   87.20150   -9999.25   -9999.25
 11378.50000   33.94310    0.01260    0.01260    8.89920    4.88670   -0.00210    2.68950  259.43660  249.25910  220.91120   48.36990   88.29040   -9999.25   -9999.25
 11379.00000   33.06980    0.00850    0.00730    8.89110    4.92890   -0.00670    2.71310  237.94380  224.86030  214.55980   49.14270   89.39760   -9999.25   -9999.25
 11379.50000   31.22950    0.00440    0.00020    8.89080    4.89190   -0.00590    2.71290  291.95720  265.63420  243.19200   49.44490   87.13640   -9999.25   -9999.25
 11380.00000   29.89840    0.00440    0.04680    8.88280    4.60130    0.01590    2.58020  325.89930  316.91320  308.71110   50.20250   87.18350   -9999.25   -9999.25
 11380.50000   32.11060    0.01040    0.12450    8.86840    4.15010    0.06470    2.44430  193.85440  115.20700   74.11290   51.76830   87.48620   -9999.25   -9999.25
 11381.00000   43.65770    0.04630    0.18080    8.82380    3.67200    0.18130    2.43570   27.77670   17.32680    9.69670   53.55790   88.02630   -9999.25   -9999.25
 11381.50000   65.00320    0.12330    0.29950    8.76950    3.43330    0.15570    2.19990    3.93000    3.66250    3.42840   51.72980   97.32120   -9999.25   -9999.25
 11382.00000   87.62470    0.23960    0.29990    8.75990    3.36060    0.12900    2.23860    3.53610    3.42690    3.29590   52.08560  101.84420   -9999.25   -9999.25
 11382.50000   87.79230    0.36230    0.29960    8.75990    3.32240    0.10140    2.27730    9.93230    7.29050    5.45280   52.03380  105.69180   -9999.25   -9999.25
 11383.00000   77.33840    0.26290    0.21240    8.78860    3.80900    0.07220    2.61670   37.69120   26.88270   19.57230   50.52770   86.57540   -9999.25   -9999.25
 11383.50000   56.51570    0.03790    0.10900    8.82510    4.51850    0.04550    2.67520  285.12950  157.23340   88.09270   49.92090   90.92510   -9999.25   -9999.25
 11384.00000   39.00880    0.00700    0.01360    8.85720    4.93800    0.02950    2.75320  955.81090  667.50130  396.73350   49.58490   94.01280   -9999.25   -9999.25
 11384.50000   27.91760   -0.00300   -0.03050    8.86680    5.13260    0.02790    2.76260 1868.14760 1779.48550 1468.28710   50.09510   93.65600   -9999.25   -9999.25
 11385.00000   23.05680   -0.00670   -0.02940    8.86370    5.10480    0.02400    2.75570 1922.42210 1887.22160 1854.90640   49.97100   92.67180   -9999.25   -9999.25
 11385.50000   21.78310   -0.00800   -0.02510    8.86170    4.93920    0.02240    2.74110 1347.07170 1125.78380  950.68400   49.79910   93.12870   -9999.25   -9999.25
 11386.00000   23.28160   -0.00750   -0.01300    8.86150    4.79950    0.01820    2.72330  454.90260  316.85720  282.68050   49.97580   93.89960   -9999.25   -9999.25
 11386.50000   23.21210   -0.00690   -0.00640    8.86230    4.68650    0.01340    2.71100 1563.47460 1342.73030  902.74570   50.36620   92.82250   -9999.25   -9999.25
 11387.00000   22.08730   -0.00780    0.00040    8.86630    4.58320    0.00890    2.70670 1625.58440 1428.64280 1238.93040   50.60290   93.54280   -9999.25   -9999.25
 11387.50000   20.96260   -0.00900    0.00250    8.87960    4.59290    0.00550    2.70640  690.31140  542.80450  486.65560   51.62910   94.34800   -9999.25   -9999.25
 11388.00000   20.29920   -0.00810    0.00310    8.88140    4.68130    0.00330    2.70690  816.75090  804.49670  783.84530   51.74810   95.15150   -9999.25   -9999.25
 11388.50000   21.48980   -0.00550    0.00240    8.88130    4.75140    0.00710    2.70820  793.29210  665.90410  546.40300   51.56760   95.92430   -9999.25   -9999.25
 11389.00000   24.90080   -0.00230    0.00150    8.88040    4.81460    0.01580    2.70870  350.82510  282.95160  231.32170   51.73850   96.83920   -9999.25   -9999.25
 11389.50000   29.31040    0.00110    0.00350    8.87960    4.70230    0.01740    2.70780  147.81520  119.43390   98.06300   51.99360   97.80760   -9999.25   -9999.25
 11390.00000   30.22220    0.00940    0.01120    8.88310    4.57520    0.01260    2.70210   87.14140   75.40980   70.32800   53.22670  100.70900   -9999.25   -9999.25
 11390.50000   27.92700    0.01310    0.01900    8.88560    4.47670    0.00710    2.67970  156.38740  135.15180  111.91390   54.04650  100.42510   -9999.25   -9999.25
 11391.00000   22.99940    0.00770    0.01730    8.88320    4.49120    0.00700    2.68330  427.99080  307.01560  225.37130   54.67160   99.01370   -9999.25   -9999.25
