~Version ---------------------------------------------------
VERS.   2.0 : CWLS log ASCII Standard -VERSION 2.0
WRAP.    NO : One line per depth step
DLM . SPACE : Column Data Section Delimiter
~Well ------------------------------------------------------
STRT .F             4682.3999 : START DEPTH
STOP .F            12412.8999 : STOP DEPTH
STEP .F                   0.5 : STEP
NULL .               -9999.25 : NULL VALUE
COMP .                        : COMPANY
WELL .                        : WELL
FLD  .                        : FIELD
LOC  .                        : LOCATION
PROV .                        : PROVINCE
CNTY .                        : COUNTY
STAT .                        : STATE
CTRY .                        : COUNTRY
SRVC .                        : SERVICE COMPANY
DATE .                        : DATE
UWI  .                        : UNIQUE WELL ID
API  .                        : API NUMBER
SLAT .WGS84 5.955052141188794 : SURFACE LATITUDE
SLON .WGS84 3.844581745088277 : SURFACE LONGITUDE
DATUM.F                1843.0 : DEPTH DATUM ELEV
~Curve Information -----------------------------------------
DEPT  .F     : 
DTCO  .US/F  : COMPRESSIONAL-WAVE INTERVAL TRANSIT TIME ACOUSTIC SLOWNESS
SPR   .MV    : SPONTANEOUS POTENTIAL FROM RES. LOG
AFCO60.MMHO  : CONDUCTIVITY, 4-FT RESOULTION
AT90  .OHMM  : 90-IN. RESISTIVITY, 2-FT RESOLUTION
AT30  .OHMM  : 30-IN. RESISTIVITY, 2-FT RESOLUTION
AT20  .OHMM  : 20-IN. RESISTIVITY, 2-FT RESOLUTION
CALD  .IN    : CALIPER FROM DENSITY LOG
DRHO  .G/C3  : DENSITY CORRECTION
DPHI  .DEC   : DENSITY POROSITY LIMESTONE
NPHI  .DEC   : NEUTRON POROSITY LIMESTONE
RHOB  .G/C3  : BULK DENSITY
GRR   .GAPI  : GAMMA RAY FROM RESISTIVITY
DTSM  .US/F  : SHEAR-WAVE INTERVAL TRANSIT TIME DELTA-T
PEF   .B/E   : PHOTOELECTRIC FACTOR
~Params ----------------------------------------------------
~Other -----------------------------------------------------
~ASCII -----------------------------------------------------
# ...
 10718.89990   -9999.25  -29.56010   -9999.25    5.63540    5.90850    5.98050   10.91070   -0.00740    0.03880    0.15600    2.64230   74.38890   -9999.25    4.97200
 10719.39990   -9999.25  -29.57450   -9999.25    5.63550    5.91850    5.97240   10.93040   -0.00790    0.03840    0.15770    2.64380   77.17190   -9999.25    4.88740
 10719.89990   -9999.25  -29.58890   -9999.25    5.63550    5.92620    5.96420   10.94990   -0.00990    0.04100    0.15960    2.64410   81.06130   -9999.25    4.84350
 10720.39990   -9999.25  -29.60330   -9999.25    5.65780    5.93660    5.95610   10.96990   -0.01260    0.04610    0.16570    2.64190   83.00440   -9999.25    4.89870
 10720.89990   -9999.25  -29.61760   -9999.25    5.68490    5.94660    5.95080   10.97930   -0.01340    0.05160    0.16710    2.63400   82.15050   -9999.25    4.96640
 10721.39990   -9999.25  -29.63200   -9999.25    5.71190    5.95080    5.97250   10.98030   -0.01110    0.05430    0.16710    2.62510   79.86140   -9999.25    5.03150
 10721.89990   -9999.25  -29.64640   -9999.25    5.73910    5.97660    6.01410   10.98020   -0.00110    0.05820    0.16710    2.61600   78.00700   -9999.25    5.15590
 10722.39990   -9999.25  -29.66070   -9999.25    5.76640    6.00750    6.05950   10.98020    0.01030    0.06500    0.16710    2.60700   77.52760   -9999.25    5.42440
 10722.89990   -9999.25  -29.67510   -9999.25    5.79380    6.03400    6.10520   10.98020    0.02170    0.07310    0.16710    2.59820   78.17220   -9999.25    5.72590
 10723.39990   -9999.25  -29.68950   -9999.25    5.82130    6.06380    6.15120   10.98020    0.02570    0.07130    0.16320    2.58990   79.29500   -9999.25    6.02240
 10723.89990   -9999.25  -29.70380   -9999.25    5.83990    6.09050    6.19750   10.98020    0.02660    0.05990    0.15840    2.58700   80.63140   -9999.25    6.32370
 10724.39990   -9999.25  -29.71820   -9999.25    5.84320    6.12080    6.24430   10.98020    0.02190    0.04480    0.15500    2.59810   82.13630   -9999.25    6.73500
 10724.89990   -9999.25  -29.73260   -9999.25    5.88950    6.14760    6.29130   10.98020    0.01250    0.04160    0.15510    2.61210   83.32350   -9999.25    6.69690
 10725.39990   -9999.25  -29.74690   -9999.25    5.94000    6.17820    6.33870   10.98020    0.00260    0.04160    0.15650    2.62650   83.28940   -9999.25    5.89890
 10725.89990   -9999.25  -29.76130   -9999.25    5.98880    6.20530    6.38650   10.98020   -0.00080    0.04040    0.15540    2.63820   81.40790   -9999.25    5.17820
 10726.39990   -9999.25  -29.77570   -9999.25    6.04650    6.23440    6.43470   10.98020   -0.00010    0.03880    0.15160    2.64200   77.87730   -9999.25    5.08080
 10726.89990   -9999.25  -29.79000   -9999.25    6.01900    6.27350    6.49950   10.98020   -0.00030    0.04030    0.14870    2.64330   73.95950   -9999.25    5.11670
 10727.39990   -9999.25  -29.80440   -9999.25    5.95940    6.24430    6.47140   10.98020   -0.00140    0.04240    0.14900    2.64150   71.58420   -9999.25    5.16800
 10727.89990   -9999.25  -29.81880   -9999.25    5.89780    6.17110    6.38980   10.98020   -0.00340    0.04430    0.15200    2.63920   71.96890   -9999.25    5.21810
 10728.39990   -9999.25  -29.83310   -9999.25    5.83680    6.09220    6.30180   10.98020   -0.00540    0.04550    0.15740    2.63690   74.17040   -9999.25    5.26640
 10728.89990   -9999.25  -29.84750   -9999.25    5.75560    6.01420    6.21500   10.98020   -0.00720    0.04580    0.15890    2.63450   75.85910   -9999.25    5.30940
 10729.39990   -9999.25  -29.86190   -9999.25    5.65610    5.93730    6.12950   10.98010   -0.00740    0.04600    0.15700    2.63240   76.10450   -9999.25    5.37430
 10729.89990   -9999.25  -29.87620   -9999.25    5.63550    5.85890    6.06930   10.98010   -0.00730    0.04620    0.15450    2.63120   76.51110   -9999.25    5.39690
 10730.39990   -9999.25  -29.89060   -9999.25    5.64740    5.84600    6.05850   10.98020   -0.00660    0.04530    0.15310    2.63050   78.87600   -9999.25    5.36680
 10730.89990   -9999.25  -29.90500   -9999.25    5.67190    5.85170    6.05850   10.97980   -0.00550    0.04330    0.15160    2.63290   82.55860   -9999.25    4.94170
 10731.39990   -9999.25  -29.91930   -9999.25    5.69890    5.85800    5.97160   10.98050   -0.00450    0.04110    0.15540    2.63530   85.12000   -9999.25    5.10270
 10731.89990   -9999.25  -29.93370   -9999.25    5.72600    5.86430    5.96290   10.97970   -0.00340    0.04270    0.16230    2.63780   84.95450   -9999.25    5.35390
 10732.39990   -9999.25  -29.94810   -9999.25    5.75320    5.87060    5.97740   10.97950   -0.00230    0.04660    0.16510    2.63790   82.41480   -9999.25    5.61150
 10732.89990   -9999.25  -29.96240   -9999.25    5.78050    5.87690    5.99160   10.98620   -0.00190    0.04970    0.16550    2.63680   79.00150   -9999.25    5.91420
 10733.39990   -9999.25  -29.97680   -9999.25    5.80800    5.88320    6.00580   11.01960   -0.00330    0.04880    0.15990    2.62510   76.44930   -9999.25    6.35380
 10733.89990   -9999.25  -29.99120   -9999.25    5.83720    5.88950    6.02010   11.07230   -0.00410    0.04550    0.15760    2.62280   76.07770   -9999.25    6.33260
 10734.39990   -9999.25  -30.00550   -9999.25    5.81070    5.89580    6.03440   11.15440   -0.00520    0.04430    0.15710    2.62460   77.83640   -9999.25    5.21550
 10734.89990   -9999.25  -30.01990   -9999.25    5.76790    5.90210    6.05430   11.17780   -0.00640    0.04560    0.16290    2.62710   80.02720   -9999.25    5.02470
 10735.39990   -9999.25  -30.03430   -9999.25    5.72470    5.90850    6.05850   11.19640   -0.00740    0.04820    0.16270    2.62970   80.86490   -9999.25    5.01200
 10735.89990   -9999.25  -30.04870   -9999.25    5.68190    5.91480    6.05850   11.21390   -0.00860    0.04870    0.16040    2.63160   80.33340   -9999.25    5.03710
 10736.39990   -9999.25  -30.06300   -9999.25    5.64310    5.92120    6.04740   11.23440   -0.00970    0.04790    0.15870    2.63200   79.81970   -9999.25    5.03780
 10736.89990   -9999.25  -30.07740   -9999.25    5.65480    5.92750    6.02290   11.25910   -0.00990    0.04790    0.15710    2.63080   80.10470   -9999.25    4.81620
 10737.39990   -9999.25  -30.09180   -9999.25    5.67720    5.93390    5.99580   11.29440   -0.00520    0.05140    0.16130    2.62930   80.61450   -9999.25    4.61370
 10737.89990   -9999.25  -30.10610   -9999.25    5.69910    5.94020    5.96880   11.29840    0.00010    0.06180    0.16740    2.61820   80.63040   -9999.25    4.75360
 10738.39990   -9999.25  -30.12050   -9999.25    5.72120    5.94820    5.95260   11.32070    0.00560    0.08220    0.17470    2.58670   80.26810   -9999.25    4.96420
 10738.89990   -9999.25  -30.13490   -9999.25    5.74330    5.96220    5.94990   11.34820    0.00800    0.09230    0.17840    2.55630   79.95160   -9999.25    5.18810
 10739.39990   -9999.25  -30.14920   -9999.25    5.76560    5.98330    6.02420   11.37060    0.00520    0.08860    0.17720    2.55000   79.89050   -9999.25    5.40080
 10739.89990   -9999.25  -30.16360   -9999.25    5.78790    6.00580    6.10120   11.35930    0.00180    0.07550    0.17330    2.55190   80.36700   -9999.25    5.62790
 10740.39990   -9999.25  -30.17800   -9999.25    5.81030    6.02840    6.17490   11.34200   -0.00140    0.06150    0.16060    2.56860   81.60480   -9999.25    5.83930
 10740.89990   -9999.25  -30.19230   -9999.25    5.83280    6.05100    6.24960   11.32400   -0.00470    0.05300    0.15570    2.58760   82.72990   -9999.25    6.00310
 10741.39990   -9999.25  -30.20670   -9999.25    5.85530    6.07380    6.32510   11.30600   -0.00840    0.04870    0.15520    2.60680   81.94710   -9999.25    5.60390
 10741.89990   -9999.25  -30.22110   -9999.25    5.87800    6.09670    6.38520   11.29840   -0.00930    0.04730    0.15460    2.62400   78.77570   -9999.25    5.13330
 10742.39990   -9999.25  -30.23540   -9999.25    5.90070    6.11960    6.37990   11.29750   -0.00940    0.04750    0.15510    2.62610   75.35700   -9999.25    4.97520
