~Version ---------------------------------------------------
VERS.   2.0 : CWLS log ASCII Standard -VERSION 2.0
WRAP.    NO : One line per depth step
DLM . SPACE : Column Data Section Delimiter
~Well ------------------------------------------------------
STRT .F             4682.3999 : START DEPTH
STOP .F            12412.8999 : STOP DEPTH
STEP .F                   0.5 : STEP
NULL .               -9999.25 : NULL VALUE
COMP .                        : COMPANY
WELL .                        : WELL
FLD  .                        : FIELD
LOC  .                        : LOCATION
PROV .                        : PROVINCE
CNTY .                        : COUNTY
STAT .                        : STATE
CTRY .                        : COUNTRY
SRVC .                        : SERVICE COMPANY
DATE .                        : DATE
UWI  .                        : UNIQUE WELL ID
API  .                        : API NUMBER
SLAT .WGS84 5.955052141188794 : SURFACE LATITUDE
SLON .WGS84 3.844581745088277 : SURFACE LONGITUDE
DATUM.F                1843.0 : DEPTH DATUM ELEV
~Curve Information -----------------------------------------
DEPT  .F     : 
DTCO  .US/F  : COMPRESSIONAL-WAVE INTERVAL TRANSIT TIME ACOUSTIC SLOWNESS
SPR   .MV    : SPONTANEOUS POTENTIAL FROM RES. LOG
AFCO60.MMHO  : CONDUCTIVITY, 4-FT RESOULTION
AT90  .OHMM  : 90-IN. RESISTIVITY, 2-FT RESOLUTION
AT30  .OHMM  : 30-IN. RESISTIVITY, 2-FT RESOLUTION
AT20  .OHMM  : 20-IN. RESISTIVITY, 2-FT RESOLUTION
CALD  .IN    : CALIPER FROM DENSITY LOG
DRHO  .G/C3  : DENSITY CORRECTION
DPHI  .DEC   : DENSITY POROSITY LIMESTONE
NPHI  .DEC   : NEUTRON POROSITY LIMESTONE
RHOB  .G/C3  : BULK DENSITY
GRR   .GAPI  : GAMMA RAY FROM RESISTIVITY
DTSM  .US/F  : SHEAR-WAVE INTERVAL TRANSIT TIME DELTA-T
PEF   .B/E   : PHOTOELECTRIC FACTOR
~Params ----------------------------------------------------
~Other -----------------------------------------------------
~ASCII -----------------------------------------------------
# ...
 11510.89990   95.55120  -38.87380   -9999.25    2.96150    2.86880    2.79970   11.52620    0.02130    0.18210    0.29280    2.39070   72.85530   95.51570   -9999.25
 11511.39990   93.47820  -38.83890   -9999.25    2.99150    2.93800    2.87220   11.19590    0.01530    0.18760    0.27980    2.38950   71.44000   94.30120   -9999.25
 11511.89990   92.67790  -38.80510   -9999.25    3.02170    3.02750    3.22050   10.94610    0.01490    0.16180    0.26570    2.41090   70.98860   93.09140   -9999.25
 11512.39990   91.46850  -38.77830   -9999.25    3.04240    3.04610    3.85750   10.53420    0.01810    0.11030    0.25150    2.47960   72.20850   91.88570   -9999.25
 11512.89990   90.39700  -38.74990   -9999.25    3.23840    3.03410    4.05430   10.27250    0.02290    0.07940    0.23970    2.56980   74.70700   90.68000   -9999.25
 11513.39990   89.81280  -38.70760   -9999.25    3.37360    3.01120    4.06890   10.11570    0.01920    0.07000    0.22840    2.58770   77.00140   89.47120   -9999.25
 11513.89990   89.14970  -38.66920   -9999.25    3.27530    2.98660    4.01050   10.11250    0.01400    0.07090    0.22430    2.58840   78.00490   85.71490   -9999.25
 11514.39990   79.96380  -38.68080   -9999.25    3.13040    2.96210    3.51560   10.16210    0.01170    0.07480    0.22560    2.58510   77.93810   78.30100   -9999.25
 11514.89990   70.24030  -38.76440   -9999.25    2.99200    2.94170    3.39540   10.20440    0.01020    0.07890    0.22820    2.56710   77.44050   70.17830   -9999.25
 11515.39990   59.16900  -38.88910   -9999.25    2.98610    2.89950    3.34670   10.23280    0.00890    0.08770    0.23400    2.54630   76.47010   62.06740   -9999.25
 11515.89990   55.07290  -39.00910   -9999.25    2.90400    2.84280    3.23680   10.25950    0.00790    0.10430    0.24200    2.52490   74.70970   55.02080   -9999.25
 11516.39990   54.19480  -39.11280   -9999.25    2.79780    2.78500    3.05740   10.27990    0.00420    0.12270    0.25020    2.50390   72.44220   53.87310   -9999.25
 11516.89990   53.76990  -39.21630   -9999.25    2.69550    2.72830    2.86590   10.29330   -0.00150    0.14400    0.25980    2.48240   70.41580   54.10580   -9999.25
 11517.39990   54.32520  -39.32760   -9999.25    2.59690    2.69040    2.70280   10.42810   -0.00590    0.15250    0.26220    2.46140   69.31970   54.33110   -9999.25
 11517.89990   55.11890  -39.43910   -9999.25    2.50190    2.55200    2.53500   10.72040   -0.00750    0.15710    0.25740    2.44340   69.60010   54.55640   -9999.25
 11518.39990   55.27780  -39.54640   -9999.25    2.41040    2.42990    2.38430   10.96450   -0.00110    0.15500    0.24450    2.45200   71.05890   54.78170   -9999.25
 11518.89990   55.27780  -39.65350   -9999.25    2.33610    2.33910    2.26150   11.04570    0.00600    0.14690    0.24470    2.46650   72.53990   55.00700   -9999.25
 11519.39990   54.83220  -39.76280   -9999.25    2.32200    2.32200    2.23900   11.10910    0.00660    0.15180    0.25140    2.46090   73.07400   55.20840   -9999.25
 11519.89990   54.21410  -39.87230   -9999.25    2.35590    2.32800    2.28640   11.26400    0.00840    0.17720    0.25950    2.38860   73.28800   55.33100   -9999.25
 11520.39990   55.25840  -39.98070   -9999.25    2.39890    2.33560    2.33330   11.47350   -0.00820    0.21700    0.25990    2.31430   74.35260   55.42560   -9999.25
 11520.89990   56.28470  -40.08900   -9999.25    2.49670    2.34310    2.37800   11.61060   -0.02820    0.23770    0.25750    2.29860   75.55550   55.51780   -9999.25
 11521.39990   55.19870  -40.19780   -9999.25    2.57440    2.35070    2.43760   11.59500   -0.02960    0.23850    0.25600    2.29760   74.73790   55.62210   -9999.25
 11521.89990   54.24620  -40.30670   -9999.25    2.47890    2.35830    2.46910   11.64550   -0.02940    0.22440    0.25600    2.29900   71.50690   53.10160   -9999.25
 11522.39990   50.27870  -40.41520   -9999.25    2.38180    2.36350    2.48990   11.64820   -0.02240    0.19820    0.24870    2.33840   68.27880   50.26090   -9999.25
 11522.89990   49.52540  -40.52380   -9999.25    2.47770    2.48800    2.78750   11.24170   -0.01060    0.17000    0.23570    2.38420   67.33050   49.77100   -9999.25
 11523.39990   49.69280  -40.63240   -9999.25    2.62600    2.65070    3.18890   10.69030   -0.00100    0.14190    0.22710    2.43080   68.24900   49.84770   -9999.25
 11523.89990   49.08750  -40.74100   -9999.25    2.75730    2.68370    3.20390   10.42130    0.00530    0.11830    0.22370    2.47780   69.20230   49.92280   -9999.25
 11524.39990   48.92860  -40.84960   -9999.25    2.64870    2.59490    3.06080   10.34380    0.00950    0.09980    0.23410    2.52390   69.62010   49.99670   -9999.25
 11524.89990   49.08730  -40.95810   -9999.25    2.50980    2.50160    2.91980   10.29790    0.01200    0.08470    0.24190    2.55940   70.60310   50.08150   -9999.25
 11525.39990   49.93950  -41.06670   -9999.25    2.42280    2.38830    2.78450   10.29760    0.01420    0.07020    0.24230    2.59240   73.09480   50.66030   -9999.25
 11525.89990   50.95540  -41.17520   -9999.25    2.36500    2.34740    2.65470   10.31800    0.01640    0.06610    0.24130    2.59920   76.54060   51.50000   -9999.25
 11526.39990   51.97120  -41.28370   -9999.25    2.32450    2.31510    2.53090   10.37750    0.01860    0.07230    0.24080    2.59800   79.35730   52.36390   -9999.25
 11526.89990   52.75220  -41.39240   -9999.25    2.28770    2.28040    2.41290   10.43650    0.02080    0.08210    0.24110    2.57840   80.33090   53.23140   -9999.25
 11527.39990   53.21420  -41.50100   -9999.25    2.25150    2.24630    2.36940   10.52380    0.02300    0.09230    0.24150    2.55350   79.52130   54.10040   -9999.25
 11527.89990   53.97440  -41.60910   -9999.25    2.21580    2.21270    2.33050   10.59620    0.02530    0.11110    0.24200    2.52840   77.92000   54.40910   -9999.25
 11528.39990   54.41620  -41.71740   -9999.25    2.16970    2.16910    2.26680   10.71530    0.02560    0.13200    0.25300    2.50300   76.30980   53.46970   -9999.25
 11528.89990   52.99790  -41.82670   -9999.25    2.15990    2.15990    2.21010   10.81830    0.02350    0.15300    0.27190    2.47690   74.75800   52.25310   -9999.25
 11529.39990   51.34910  -41.93590   -9999.25    2.22350    2.15990    2.35720   10.83580    0.02130    0.16780    0.27450    2.45260   73.41800   51.03640   -9999.25
 11529.89990   50.25860  -42.04330   -9999.25    2.37610    2.35220    2.61410   10.84560    0.01910    0.17170    0.27180    2.42100   73.14550   50.63610   -9999.25
 11530.39990   50.99550  -42.15070   -9999.25    2.55740    2.70610    3.01500   10.67940    0.01690    0.15090    0.22840    2.41930   74.44390   51.52360   -9999.25
 11530.89990   52.53870  -42.26150   -9999.25    2.78550    2.78260    3.10170   10.35600    0.01300    0.13150    0.22150    2.49510   76.16210   52.68230   -9999.25
 11531.39990   53.33500  -42.37250   -9999.25    2.83340    2.78260    3.10170   10.10730    0.00910    0.12040    0.22870    2.50570   76.59380   53.19670   -9999.25
 11531.89990   53.63440  -42.47670   -9999.25    2.64440    2.55960    2.78360   10.18900    0.00510    0.14300    0.24030    2.48130   75.86270   53.26730   -9999.25
 11532.39990   54.84460  -42.58190   -9999.25    2.47180    2.35840    2.50210   10.60250    0.00160    0.17370    0.25280    2.44340   75.74280   54.12710   -9999.25
 11532.89990   56.27340  -42.71560   -9999.25    2.34570    2.28870    2.46940   11.02320   -0.00000    0.19940    0.25960    2.40760   76.87170   55.50070   -9999.25
 11533.39990   57.11400  -42.89650   -9999.25    2.41740    2.39960    2.49180   11.23970   -0.00150    0.21000    0.26130    2.36750   77.96760   56.94000   -9999.25
 11533.89990   57.07610  -43.10820   -9999.25    2.52460    2.53480    2.65270   11.10540   -0.00300    0.20910    0.25670    2.35760   78.22050   56.59910   -9999.25
 11534.39990   56.21920  -43.31810   -9999.25    2.63220    2.67210    2.86040   10.65310   -0.01320    0.21840    0.25500    2.35510   78.16510   55.81800   -9999.25
