~Version ---------------------------------------------------
VERS.   2.0 : CWLS log ASCII Standard -VERSION 2.0
WRAP.    NO : One line per depth step
DLM . SPACE : Column Data Section Delimiter
~Well ------------------------------------------------------
STRT .F             4682.3999 : START DEPTH
STOP .F            12412.8999 : STOP DEPTH
STEP .F                   0.5 : STEP
NULL .               -9999.25 : NULL VALUE
COMP .                        : COMPANY
WELL .                        : WELL
FLD  .                        : FIELD
LOC  .                        : LOCATION
PROV .                        : PROVINCE
CNTY .                        : COUNTY
STAT .                        : STATE
CTRY .                        : COUNTRY
SRVC .                        : SERVICE COMPANY
DATE .                        : DATE
UWI  .                        : UNIQUE WELL ID
API  .                        : API NUMBER
SLAT .WGS84 5.955052141188794 : SURFACE LATITUDE
SLON .WGS84 3.844581745088277 : SURFACE LONGITUDE
DATUM.F                1843.0 : DEPTH DATUM ELEV
~Curve Information -----------------------------------------
DEPT  .F     : 
DTCO  .US/F  : COMPRESSIONAL-WAVE INTERVAL TRANSIT TIME ACOUSTIC SLOWNESS
SPR   .MV    : SPONTANEOUS POTENTIAL FROM RES. LOG
AFCO60.MMHO  : CONDUCTIVITY, 4-FT RESOULTION
AT90  .OHMM  : 90-IN. RESISTIVITY, 2-FT RESOLUTION
AT30  .OHMM  : 30-IN. RESISTIVITY, 2-FT RESOLUTION
AT20  .OHMM  : 20-IN. RESISTIVITY, 2-FT RESOLUTION
CALD  .IN    : CALIPER FROM DENSITY LOG
DRHO  .G/C3  : DENSITY CORRECTION
DPHI  .DEC   : DENSITY POROSITY LIMESTONE
NPHI  .DEC   : NEUTRON POROSITY LIMESTONE
RHOB  .G/C3  : BULK DENSITY
GRR   .GAPI  : GAMMA RAY FROM RESISTIVITY
DTSM  .US/F  : SHEAR-WAVE INTERVAL TRANSIT TIME DELTA-T
PEF   .B/E   : PHOTOELECTRIC FACTOR
~Params ----------------------------------------------------
~Other -----------------------------------------------------
~ASCII -----------------------------------------------------
# ...
 11990.89990   61.87220  -21.24630   -9999.25   33.80610   35.50220   11.84140    7.67880    0.00780    0.04530    0.11330    2.61950   46.97830   60.59920   10.03580
 11991.39990   65.42310  -19.56230   -9999.25   34.85860   39.79060   23.83500    7.74110    0.00610    0.06450    0.11730    2.56320   47.58000   65.05800   10.04170
 11991.89990   62.84100  -18.61960   -9999.25   38.40280   78.74370   62.20450    7.84270    0.00310    0.08350    0.10350    2.54740   42.31640   64.14990   10.06580
 11992.39990   59.53950  -18.32050   -9999.25   41.44660  140.93950  165.05260    7.94990   -0.00040    0.09970    0.07480    2.54390   37.37360   59.15360   10.05790
 11992.89990   57.95590  -18.15130   -9999.25  307.03650  245.94290  284.93100    7.92170   -0.00270    0.09940    0.05230    2.54000   36.76770   58.01980   10.03110
 11993.39990   58.02930  -17.80610   -9999.25 1496.85280  429.17630  844.57800    7.83950   -0.00290    0.09630    0.04790    2.52180   39.10520   58.01980    8.99080
 11993.89990   60.01090  -17.40680   -9999.25 1778.07240  679.90360  978.62750    7.77880   -0.00290    0.10510    0.05050    2.49220   40.94840   59.95900    7.58040
 11994.39990   62.81770  -17.13180   -9999.25 1804.03960  635.63490  797.99530    7.77310   -0.00300    0.12440    0.05490    2.46140   41.07270   63.04710    6.08710
 11994.89990   65.55270  -16.89170   -9999.25 1810.53940  684.33280  708.21470    7.77310   -0.00300    0.14670    0.05660    2.43100   40.61380   66.30120    5.36850
 11995.39990   68.23360  -16.51230   -9999.25 1810.53940  849.22070  899.00480    7.77340   -0.00300    0.16910    0.05660    2.39960   40.55050   68.85850    5.22700
 11995.89990   69.08720  -16.09060   -9999.25 1810.53940 1070.79960 1198.46740    7.76410   -0.00300    0.19060    0.05560    2.38230   40.61910   68.70730    5.24610
 11996.39990   67.57980  -15.96030   -9999.25 1709.43160 1250.41780 1297.93460    7.74090   -0.00300    0.19180    0.05290    2.37920   40.74380   67.92180    5.47600
 11996.89990   66.54780  -16.28770   -9999.25  858.09400  691.72220  404.56380    7.71710   -0.00300    0.18170    0.04980    2.37540   42.57050   67.13640    5.74600
 11997.39990   64.64330  -16.85880   -9999.25  331.86480  292.85370  162.69210    7.69390   -0.00300    0.16150    0.04670    2.39180   48.29330   65.05750    6.17930
 11997.89990   61.07490  -17.35780   -9999.25  244.73820  225.18090  177.96940    7.66810   -0.00300    0.13920    0.04390    2.43110   57.39030   62.06360    6.86440
 11998.39990   56.59880  -17.72390   -9999.25  273.21160  212.95540  156.20770    7.66380   -0.00300    0.11690    0.04240    2.47250   65.57910   58.92160    7.58330
 11998.89990   55.67460  -18.08940   -9999.25  315.76750  186.54710  133.58150    7.68570   -0.00300    0.09150    0.04130    2.51310   68.31720   56.17390    8.29150
 11999.39990   57.43610  -18.49010   -9999.25  268.74660  148.36070   97.39220    7.71150   -0.00300    0.08070    0.04010    2.55420   65.03980   56.97010    9.04370
 11999.89990   58.65460  -18.80630   -9999.25  201.60430  115.22560   75.68520    7.74270   -0.00290    0.07140    0.03890    2.59590   59.41210   58.44890    9.27770
 12000.39990   59.48400  -18.93350   -9999.25  148.99080   89.49090   56.96080    7.78780   -0.00290    0.06090    0.03770    2.62840   56.07050   59.88260    9.00400
 12000.89990   61.22980  -18.89430   -9999.25  105.07400   69.50390   43.15400    7.83750   -0.00280    0.05010    0.03650    2.64970   57.35630   61.31630    8.68130
 12001.39990   62.26170  -18.82660   -9999.25   55.43960   49.92810   33.05020    7.88390   -0.00270    0.03940    0.03530    2.66970   61.78030   61.95160    8.37170
 12001.89990   62.73800  -18.93760   -9999.25   47.11010   45.31580   32.64450    7.92170   -0.00260    0.02870    0.03790    2.68060   64.86150   61.45310    8.03270
 12002.39990   61.72250  -19.37650   -9999.25   51.19050   45.47340   38.17040    7.93160   -0.00250    0.02040    0.04270    2.67740   62.77680   60.72090    7.80050
 12002.89990   60.32170  -20.08660   -9999.25   56.95100   45.89090   41.96290    7.93840   -0.00240    0.01990    0.04180    2.67080   56.09800   59.98860    7.76160
 12003.39990   59.08750  -20.87040   -9999.25   58.16800   45.97520   42.56540    7.97420   -0.00230    0.02350    0.03820    2.66410   49.13110   59.25640    7.73170
 12003.89990   58.84920  -21.62720   -9999.25   49.69410   44.66820   39.50290    8.00200   -0.00220    0.02770    0.03490    2.65660   45.32240   58.52420    7.68860
 12004.39990   58.03460  -22.41070   -9999.25   39.65840   31.11130   31.05000    8.02390   -0.00210    0.03180    0.03420    2.65430   44.53430   57.79190    7.41040
 12004.89990   57.05840  -23.24610   -9999.25   20.89130   20.47700   20.04900    8.07170   -0.00200    0.03190    0.03420    2.65920   44.88440   57.72940    7.11440
 12005.39990   58.76940  -24.02310   -9999.25   13.34130   13.73300   12.97090    8.04420   -0.00190    0.02980    0.03420    2.66530   46.12950   58.72360    6.80270
 12005.89990   62.53410  -24.61610   -9999.25    9.33860    9.21010    8.41650    7.98280   -0.00180    0.02630    0.03490    2.66970   50.21840   61.17680    6.50280
 12006.39990   67.14880  -24.99390   -9999.25    6.38320    6.17680    4.71300    7.91620   -0.00170    0.03130    0.03760    2.66270   58.02370   65.29780    6.21700
 12006.89990   70.22220  -25.18930   -9999.25    4.54380    4.32190    3.93860    7.84910   -0.00170    0.04250    0.06080    2.64310   69.34560   69.75880    6.18230
 12007.39990   76.78420  -25.25570   -9999.25    4.15840    3.98750    3.65280    7.80630   -0.00160    0.05460    0.08910    2.62020   80.20910   74.21980    6.93500
 12007.89990   77.97630  -25.27350   -9999.25    4.24490    4.05240    3.58480    7.78550   -0.00150    0.06160    0.11740    2.60720   84.58660   76.23490    8.13040
 12008.39990   75.04040  -25.31640   -9999.25    4.34810    4.13750    3.69710    7.80980   -0.00140    0.05460    0.14560    2.61570   81.40790   75.79490    9.53280
 12008.89990   74.32540  -25.39290   -9999.25    4.44720    4.22450    3.82760    7.80230   -0.00130    0.04230    0.16150    2.63920   75.04780   74.89370   10.09420
 12009.39990   74.64280  -25.46600   -9999.25    4.54850    4.34780    3.96740    7.79010   -0.00120    0.02950    0.16600    2.67490   68.72450   74.03190   10.13900
 12009.89990   75.67440  -25.52250   -9999.25    4.67590    4.31720    3.96950    7.77540   -0.00110    0.01780    0.16840    2.65960   63.55860   75.14420   10.10670
 12010.39990   75.59530  -25.58070   -9999.25    4.55340    4.19600    3.93200    7.78620   -0.00100    0.03100    0.17080    2.61520   62.21040   76.68170   10.08740
 12010.89990   75.83330  -25.64790   -9999.25    4.31830    4.06580    3.60140    7.82750   -0.00050    0.05340    0.17170    2.61030   66.36720   78.28800   10.07090
 12011.39990   80.44490  -25.71350   -9999.25    3.99330    3.89110    3.56120    7.86970   -0.00000    0.05620    0.17220    2.60910   72.45580   80.74980   10.03780
 12011.89990   84.66430  -25.77440   -9999.25    3.86800    3.89970    3.60830    7.91730    0.00060    0.05030    0.17260    2.61410   75.31280   84.53330   10.01920
 12012.39990   83.65120  -25.83620   -9999.25    3.85390    4.00370    3.64370    7.90140    0.00030    0.04240    0.16780    2.63530   74.35290   84.32840    9.91620
 12012.89990   81.37630  -25.89970   -9999.25    3.99610    4.12220    3.76080    7.85850   -0.00170    0.03650    0.16260    2.65020   72.79100   82.33590    8.76520
 12013.39990   78.81920  -25.96330   -9999.25    4.14540    4.24410    3.91620    7.80850   -0.00380    0.03460    0.15910    2.65120   72.69730   79.90540    7.25830
 12013.89990   78.10640  -26.02610   -9999.25    4.29160    4.36970    4.08140    7.77200   -0.00620    0.03620    0.15830    2.65080   74.70550   78.82450    6.92140
 12014.39990   77.61200  -26.08960   -9999.25    4.44300    4.49900    4.25350    7.75630   -0.00590    0.03850    0.15800    2.65030   77.52130   77.99600    7.57630
