~Version ---------------------------------------------------
VERS.   2.0 : CWLS log ASCII Standard -VERSION 2.0
WRAP.    NO : One line per depth step
DLM . SPACE : Column Data Section Delimiter
~Well ------------------------------------------------------
STRT .F             4682.3999 : START DEPTH
STOP .F            12412.8999 : STOP DEPTH
STEP .F                   0.5 : STEP
NULL .               -9999.25 : NULL VALUE
COMP .                        : COMPANY
WELL .                        : WELL
FLD  .                        : FIELD
LOC  .                        : LOCATION
PROV .                        : PROVINCE
CNTY .                        : COUNTY
STAT .                        : STATE
CTRY .                        : COUNTRY
SRVC .                        : SERVICE COMPANY
DATE .                        : DATE
UWI  .                        : UNIQUE WELL ID
API  .                        : API NUMBER
SLAT .WGS84 5.955052141188794 : SURFACE LATITUDE
SLON .WGS84 3.844581745088277 : SURFACE LONGITUDE
DATUM.F                1843.0 : DEPTH DATUM ELEV
~Curve Information -----------------------------------------
DEPT  .F     : 
DTCO  .US/F  : COMPRESSIONAL-WAVE INTERVAL TRANSIT TIME ACOUSTIC SLOWNESS
SPR   .MV    : SPONTANEOUS POTENTIAL FROM RES. LOG
AFCO60.MMHO  : CONDUCTIVITY, 4-FT RESOULTION
AT90  .OHMM  : 90-IN. RESISTIVITY, 2-FT RESOLUTION
AT30  .OHMM  : 30-IN. RESISTIVITY, 2-FT RESOLUTION
AT20  .OHMM  : 20-IN. RESISTIVITY, 2-FT RESOLUTION
CALD  .IN    : CALIPER FROM DENSITY LOG
DRHO  .G/C3  : DENSITY CORRECTION
DPHI  .DEC   : DENSITY POROSITY LIMESTONE
NPHI  .DEC   : NEUTRON POROSITY LIMESTONE
RHOB  .G/C3  : BULK DENSITY
GRR   .GAPI  : GAMMA RAY FROM RESISTIVITY
DTSM  .US/F  : SHEAR-WAVE INTERVAL TRANSIT TIME DELTA-T
PEF   .B/E   : PHOTOELECTRIC FACTOR
~Params ----------------------------------------------------
~Other -----------------------------------------------------
~ASCII -----------------------------------------------------
# ...
 10406.89990   -9999.25  -18.58070   -9999.25    3.95900    3.99590    4.02460   10.62860    0.00630    0.07570    0.18440    2.57790   90.47080   -9999.25    9.93160
 10407.39990   -9999.25  -18.62460   -9999.25    3.95570    3.99590    4.02020   10.62120    0.00510    0.07840    0.18250    2.57770   89.05060   -9999.25    7.79560
 10407.89990   -9999.25  -18.66280   -9999.25    3.95240    3.99590    4.01580   10.64370    0.00360    0.09100    0.18140    2.55680   88.21000   -9999.25    7.78940
 10408.39990   -9999.25  -18.67500   -9999.25    3.94910    3.99590    4.01120   10.70540    0.00210    0.10540    0.18250    2.53280   88.77970   -9999.25    8.40290
 10408.89990   -9999.25  -18.69960   -9999.25    3.94590    3.99580    4.00690   10.87610    0.00670    0.11350    0.18800    2.51710   89.85410   -9999.25    8.94450
 10409.39990   -9999.25  -18.77460   -9999.25    3.94270    3.99560    4.00230   11.00170    0.01630    0.10780    0.19450    2.51890   89.94300   -9999.25    9.51320
 10409.89990   -9999.25  -18.82350   -9999.25    3.93960    3.99640    3.99710   10.96840    0.02400    0.10020    0.20000    2.52840   88.59590   -9999.25    9.90150
 10410.39990   -9999.25  -18.76880   -9999.25    3.93590    3.99920    3.99930   10.92760    0.02010    0.09530    0.21290    2.53910   86.58070   -9999.25    9.94030
 10410.89990   -9999.25  -18.75970   -9999.25    3.93300    4.00340    4.00690   10.89850    0.01430    0.09450    0.21320    2.54860   85.12040   -9999.25    9.94020
 10411.39990   -9999.25  -19.04080   -9999.25    3.92990    4.00790    4.01370   10.88200    0.00840    0.09380    0.20990    2.55340   85.08730   -9999.25    9.94400
 10411.89990   -9999.25  -19.62240   -9999.25    3.92460    4.01190    4.02210   10.86850    0.00370    0.09050    0.19820    2.55560   86.15070   -9999.25    9.94100
 10412.39990   -9999.25  -20.42200   -9999.25    3.92530    4.01600    4.02870   10.85720    0.00570    0.08910    0.19740    2.55790   86.77350   -9999.25    9.94230
 10412.89990   -9999.25  -21.59110   -9999.25    3.93980    4.02030    4.03710   10.84880    0.00570    0.08900    0.20340    2.55730   85.75980   -9999.25    9.94260
 10413.39990   -9999.25  -23.07400   -9999.25    3.95880    4.02440    4.04380   10.84040    0.00230    0.09440    0.20540    2.55160   83.68850   -9999.25    9.94150
 10413.89990   -9999.25  -23.92310   -9999.25    3.97480    4.02840    4.05190   10.83220   -0.00130    0.10020    0.19840    2.54540   82.26310   -9999.25    9.94350
 10414.39990   -9999.25  -22.97240   -9999.25    3.99190    4.03300    4.05960   10.82400    0.00080    0.10410    0.19110    2.53860   82.54240   -9999.25    9.93980
 10414.89990   -9999.25  -20.44580   -9999.25    4.00920    4.03780    4.06700   10.82160    0.00830    0.10160    0.18630    2.53370   84.38740   -9999.25    9.94170
 10415.39990   -9999.25  -18.05050   -9999.25    4.02520    4.04140    4.13290   10.82000    0.01400    0.09320    0.18270    2.53760   87.10650   -9999.25    9.95270
 10415.89990   -9999.25  -17.09730   -9999.25    4.04470    4.04440    4.21380   10.79400    0.01220    0.08000    0.18510    2.55140   89.81430   -9999.25    9.72420
 10416.39990   -9999.25  -17.24670   -9999.25    4.06490    4.04960    4.29900   10.75390    0.00880    0.07650    0.19170    2.56830   91.58870   -9999.25    8.97340
 10416.89990   -9999.25  -17.44620   -9999.25    4.06890    4.05410    4.36270   10.73400    0.00580    0.07970    0.18990    2.57710   92.16350   -9999.25    8.06920
 10417.39990   -9999.25  -17.33260   -9999.25    4.06890    4.05830    4.29180   10.72060    0.00300    0.08630    0.18370    2.56800   92.24840   -9999.25    7.52780
 10417.89990   -9999.25  -17.20330   -9999.25    4.06890    4.06260    4.21030   10.71190   -0.00040    0.08970    0.18090    2.55930   92.39150   -9999.25    7.76120
 10418.39990   -9999.25  -17.21630   -9999.25    4.06890    4.06780    4.13540   10.67230    0.00090    0.08860    0.18710    2.55810   91.98330   -9999.25    8.12590
 10418.89990   -9999.25  -17.22790   -9999.25    4.06890    4.09260    4.07920   10.62030    0.00300    0.08660    0.19420    2.56080   90.36640   -9999.25    8.37790
 10419.39990   -9999.25  -17.15950   -9999.25    4.06890    4.13270    4.06890   10.58850    0.00530    0.08470    0.19920    2.56330   88.49190   -9999.25    8.39150
 10419.89990   -9999.25  -17.08770   -9999.25    4.06890    4.17570    4.06890   10.60810    0.00760    0.08470    0.20060    2.56500   87.95900   -9999.25    8.58570
 10420.39990   -9999.25  -17.05590   -9999.25    4.12290    4.21920    4.15020   10.67520    0.01010    0.09180    0.20040    2.56530   88.41660   -9999.25    9.28700
 10420.89990   -9999.25  -17.02800   -9999.25    4.17900    4.26310    4.23530   10.74930    0.01220    0.10200    0.20030    2.55240   87.59740   -9999.25    9.87240
 10421.39990   -9999.25  -16.98150   -9999.25    4.21300    4.35380    4.28700   10.81990    0.01380    0.11050    0.20850    2.52370   84.51060   -9999.25    9.97460
 10421.89990   -9999.25  -16.93300   -9999.25    4.06260    4.20660    4.17590   10.87100    0.01630    0.11380    0.21870    2.51810   81.10580   -9999.25    9.98290
 10422.39990   -9999.25  -16.89250   -9999.25    3.83260    4.05440    4.03610   10.92350    0.01970    0.11170    0.21990    2.51930   79.92330   -9999.25    9.98130
 10422.89990   -9999.25  -16.85570   -9999.25    3.78480    3.94480    3.88490   10.94520    0.02610    0.10350    0.21740    2.52540   81.26430   -9999.25    9.98040
 10423.39990   -9999.25  -16.81580   -9999.25    3.86980    3.96640    3.85390   10.85660    0.03680    0.10110    0.21090    2.53250   83.58260   -9999.25    9.98140
 10423.89990   -9999.25  -16.77180   -9999.25    3.96170    4.02830    3.92560   10.67150    0.05330    0.09960    0.19380    2.53960   85.58470   -9999.25    9.98090
 10424.39990   -9999.25  -16.72800   -9999.25    4.05100    4.09330    4.04380   10.64460    0.07030    0.09630    0.18740    2.54650   87.00940   -9999.25    9.98060
 10424.89990   -9999.25  -16.69010   -9999.25    3.99610    4.15950    4.06890   10.76340    0.08630    0.09030    0.17670    2.55440   88.26180   -9999.25    9.98030
 10425.39990   -9999.25  -16.65200   -9999.25    3.87870    4.22670    4.06890   10.86790    0.09450    0.08830    0.17290    2.56190   90.07880   -9999.25    9.98050
 10425.89990   -9999.25  -16.60230   -9999.25    3.85390    4.28470    4.07930   11.08030    0.09340    0.10510    0.17330    2.55090   92.57990   -9999.25    9.98120
 10426.39990   -9999.25  -16.55330   -9999.25    3.93220    4.29590    4.09230   11.29780    0.06330    0.13650    0.18470    2.50560   93.99030   -9999.25    9.98210
 10426.89990   -9999.25  -16.54490   -9999.25    4.05470    4.29590    4.10550   11.51540    0.04940    0.17050    0.20090    2.45310   91.63150   -9999.25    9.98300
 10427.39990   -9999.25  -16.60210   -9999.25    4.19120    4.35860    4.11870   11.73940    0.04040    0.20440    0.21550    2.39940   85.27470   -9999.25    9.98380
 10427.89990   -9999.25  -16.70410   -9999.25    4.28050    4.31160    4.13190   11.98470    0.03720    0.21160    0.22780    2.35540   78.35480   -9999.25    9.98470
 10428.39990   -9999.25  -16.80980   -9999.25    4.17500    4.23430    4.14150   12.13750    0.04290    0.20190    0.23140    2.35280   74.56860   -9999.25    9.98560
 10428.89990   -9999.25  -16.90260   -9999.25    4.04330    4.11810    3.99640   12.19130    0.05770    0.18760    0.23220    2.37300   74.07640   -9999.25    9.98640
 10429.39990   -9999.25  -16.99340   -9999.25    3.91960    3.90180    3.85480   12.23410    0.07370    0.17580    0.23290    2.39720   74.29490   -9999.25    9.98730
 10429.89990   -9999.25  -17.09110   -9999.25    3.79970    3.79040    3.72720   12.28710    0.08380    0.17030    0.23750    2.42170   73.74170   -9999.25    9.98820
 10430.39990   -9999.25  -17.19040   -9999.25    3.67540    3.70760    3.55680   12.29810    0.09240    0.14550    0.24390    2.44680   73.43410   -9999.25    9.98910
