~Version ---------------------------------------------------
VERS.   2.0 : CWLS log ASCII Standard -VERSION 2.0
WRAP.    NO : One line per depth step
DLM . SPACE : Column Data Section Delimiter
~Well ------------------------------------------------------
STRT .F             4682.3999 : START DEPTH
STOP .F            12412.8999 : STOP DEPTH
STEP .F                   0.5 : STEP
NULL .               -9999.25 : NULL VALUE
COMP .                        : COMPANY
WELL .                        : WELL
FLD  .                        : FIELD
LOC  .                        : LOCATION
PROV .                        : PROVINCE
CNTY .                        : COUNTY
STAT .                        : STATE
CTRY .                        : COUNTRY
SRVC .                        : SERVICE COMPANY
DATE .                        : DATE
UWI  .                        : UNIQUE WELL ID
API  .                        : API NUMBER
SLAT .WGS84 5.955052141188794 : SURFACE LATITUDE
SLON .WGS84 3.844581745088277 : SURFACE LONGITUDE
DATUM.F                1843.0 : DEPTH DATUM ELEV
~Curve Information -----------------------------------------
DEPT  .F     : 
DTCO  .US/F  : COMPRESSIONAL-WAVE INTERVAL TRANSIT TIME ACOUSTIC SLOWNESS
SPR   .MV    : SPONTANEOUS POTENTIAL FROM RES. LOG
AFCO60.MMHO  : CONDUCTIVITY, 4-FT RESOULTION
AT90  .OHMM  : 90-IN. RESISTIVITY, 2-FT RESOLUTION
AT30  .OHMM  : 30-IN. RESISTIVITY, 2-FT RESOLUTION
AT20  .OHMM  : 20-IN. RESISTIVITY, 2-FT RESOLUTION
CALD  .IN    : CALIPER FROM DENSITY LOG
DRHO  .G/C3  : DENSITY CORRECTION
DPHI  .DEC   : DENSITY POROSITY LIMESTONE
NPHI  .DEC   : NEUTRON POROSITY LIMESTONE
RHOB  .G/C3  : BULK DENSITY
GRR   .GAPI  : GAMMA RAY FROM RESISTIVITY
DTSM  .US/F  : SHEAR-WAVE INTERVAL TRANSIT TIME DELTA-T
PEF   .B/E   : PHOTOELECTRIC FACTOR
~Params ----------------------------------------------------
~Other -----------------------------------------------------
~ASCII -----------------------------------------------------
# ...
 10550.89990   -9999.25  -24.42690   -9999.25    7.45290    7.40710    7.81100   11.01950   -0.01030    0.04550    0.13310    2.63610   67.60780   -9999.25    4.94340
 10551.39990   -9999.25  -24.42650   -9999.25    7.52450    7.39280    7.75170   11.01800   -0.00990    0.04820    0.13310    2.63240   65.90390   -9999.25    5.01130
 10551.89990   -9999.25  -24.42610   -9999.25    7.52130    7.39280    7.71280   11.04390   -0.00850    0.04700    0.13190    2.63130   63.70000   -9999.25    5.07750
 10552.39990   -9999.25  -24.42660   -9999.25    7.25880    7.14560    7.66500   11.06250   -0.00930    0.04470    0.13020    2.63350   62.54510   -9999.25    5.04340
 10552.89990   -9999.25  -24.42730   -9999.25    6.95570    6.88320    7.18200   11.07950   -0.01040    0.04280    0.13000    2.63640   63.02070   -9999.25    4.97980
 10553.39990   -9999.25  -24.42620   -9999.25    6.69090    6.63950    6.71150   11.09460   -0.01180    0.04540    0.13130    2.63670   64.90290   -9999.25    4.91140
 10553.89990   -9999.25  -24.42490   -9999.25    6.62660    6.43540    6.63420   11.11130   -0.01320    0.04880    0.13270    2.63380   67.60150   -9999.25    4.84520
 10554.39990   -9999.25  -24.42660   -9999.25    6.83950    6.67310    6.96610   11.12830   -0.01460    0.05070    0.13430    2.63050   69.80130   -9999.25    4.77620
 10554.89990   -9999.25  -24.42900   -9999.25    7.06290    6.99090    7.43390   11.14360   -0.01610    0.04920    0.13460    2.62750   69.91370   -9999.25    4.71150
 10555.39990   -9999.25  -24.42530   -9999.25    7.23530    7.21880    7.53010   11.16070   -0.01720    0.04660    0.13240    2.62740   67.87760   -9999.25    4.64670
 10555.89990   -9999.25  -24.42010   -9999.25    7.25760    7.23780    7.41430   11.18060   -0.01760    0.04600    0.12980    2.63020   65.67110   -9999.25    4.68690
 10556.39990   -9999.25  -24.43450   -9999.25    7.11550    7.17920    7.30270   11.22170   -0.01810    0.04800    0.12830    2.63130   65.22520   -9999.25    4.76300
 10556.89990   -9999.25  -24.48580   -9999.25    6.94560    7.14580    7.20060   11.23880   -0.01860    0.05040    0.12940    2.62900   66.54310   -9999.25    4.83960
 10557.39990   -9999.25  -24.56630   -9999.25    6.78930    7.09720    7.09990   11.25350   -0.01910    0.05230    0.13110    2.62470   68.45100   -9999.25    4.91650
 10557.89990   -9999.25  -24.65350   -9999.25    6.75120    7.05700    7.00070   11.26750   -0.01920    0.05120    0.13200    2.62460   70.19480   -9999.25    4.87360
 10558.39990   -9999.25  -24.73510   -9999.25    6.75590    7.01300    6.89750   11.28150   -0.01920    0.04720    0.13180    2.63020   71.50290   -9999.25    4.78870
 10558.89990   -9999.25  -24.81460   -9999.25    6.70590    6.94300    6.88670   11.29580   -0.01930    0.04570    0.13140    2.63310   71.88430   -9999.25    4.70200
 10559.39990   -9999.25  -24.89720   -9999.25    6.66220    6.86910    6.90840   11.31880   -0.01870    0.04640    0.13090    2.63150   70.85230   -9999.25    4.61390
 10559.89990   -9999.25  -24.98060   -9999.25    6.61870    6.79000    6.93240   11.34310   -0.01640    0.04780    0.13080    2.62960   68.71730   -9999.25    4.64610
 10560.39990   -9999.25  -25.06230   -9999.25    6.57570    6.71420    6.95650   11.36780   -0.01370    0.04680    0.13140    2.62820   66.64710   -9999.25    4.71820
 10560.89990   -9999.25  -25.14400   -9999.25    6.52660    6.64860    6.98060   11.39290   -0.01120    0.04370    0.13090    2.62990   65.89320   -9999.25    4.80030
 10561.39990   -9999.25  -25.22690   -9999.25    6.36570    6.36970    6.99880   11.41300   -0.00820    0.04270    0.13130    2.63490   66.90910   -9999.25    4.87440
 10561.89990   -9999.25  -25.30890   -9999.25    6.13480    6.09130    6.77780   11.43340   -0.00750    0.04390    0.13240    2.63680   69.16170   -9999.25    4.95480
 10562.39990   -9999.25  -25.38960   -9999.25    5.88800    5.81070    6.48480   11.45900   -0.00740    0.04530    0.13370    2.63410   71.83620   -9999.25    4.88320
 10562.89990   -9999.25  -25.47230   -9999.25    5.67950    5.58660    6.22050   11.48530   -0.00740    0.04480    0.14090    2.63330   74.56460   -9999.25    4.76550
 10563.39990   -9999.25  -25.55720   -9999.25    5.64130    5.68880    6.08070   11.51130   -0.00750    0.04260    0.14670    2.63550   77.18430   -9999.25    4.62810
 10563.89990   -9999.25  -25.63810   -9999.25    5.65910    5.73430    5.97630   11.53790   -0.00790    0.04240    0.14910    2.63840   79.03740   -9999.25    4.69890
 10564.39990   -9999.25  -25.71510   -9999.25    5.66380    5.70790    5.91070   11.56360   -0.00820    0.04430    0.14900    2.63830   79.20200   -9999.25    4.84540
 10564.89990   -9999.25  -25.79980   -9999.25    5.68160    5.71080    5.87390   11.59160   -0.00860    0.04650    0.14830    2.63440   77.56360   -9999.25    5.00380
 10565.39990   -9999.25  -25.89500   -9999.25    5.68630    5.68850    5.83010   11.61990   -0.00900    0.04880    0.15050    2.63000   75.23230   -9999.25    5.16340
 10565.89990   -9999.25  -25.97580   -9999.25    5.70400    5.68730    5.79190   11.64410   -0.00910    0.05100    0.15350    2.62580   73.77460   -9999.25    5.31330
 10566.39990   -9999.25  -26.00950   -9999.25    5.70860    5.66930    5.74650   11.69220   -0.01040    0.05310    0.15630    2.62120   74.18920   -9999.25    5.48130
 10566.89990   -9999.25  -25.99380   -9999.25    5.72650    5.66420    5.73790   11.78580   -0.00900    0.05350    0.15450    2.61860   76.41920   -9999.25    5.42010
 10567.39990   -9999.25  -25.95780   -9999.25    5.73250    5.64960    5.73770   11.88650   -0.00670    0.05270    0.15120    2.61830   79.39040   -9999.25    5.28050
 10567.89990   -9999.25  -25.92640   -9999.25    5.61590    5.63910    5.70890   11.92510   -0.00410    0.05230    0.14740    2.61830   81.39790   -9999.25    5.10800
 10568.39990   -9999.25  -25.90020   -9999.25    5.43740    5.63390    5.67860   11.95890   -0.00170    0.05320    0.14530    2.61830   80.98300   -9999.25    5.12080
 10568.89990   -9999.25  -25.87110   -9999.25    5.27610    5.58530    5.65070   11.96090    0.00080    0.05410    0.14990    2.61830   78.09300   -9999.25    5.19670
 10569.39990   -9999.25  -25.83910   -9999.25    5.18340    5.53130    5.62160   11.94450    0.00230    0.05420    0.15560    2.61830   74.47650   -9999.25    5.29480
 10569.89990   -9999.25  -25.80870   -9999.25    5.11950    5.48290    5.59470   11.92580    0.00300    0.05170    0.16100    2.61840   72.44740   -9999.25    5.38650
 10570.39990   -9999.25  -25.77990   -9999.25    5.06420    5.43320    5.56550   11.91040    0.00430    0.04920    0.16580    2.61810   72.81920   -9999.25    5.90410
 10570.89990   -9999.25  -25.75030   -9999.25    5.05550    5.38450    5.54000   11.89500    0.00540    0.04620    0.17070    2.62080   74.37140   -9999.25    6.63490
 10571.39990   -9999.25  -25.71990   -9999.25    5.05470    5.34510    5.50040   11.87980    0.00770    0.04470    0.17170    2.62750   75.54360   -9999.25    7.46380
 10571.89990   -9999.25  -25.68990   -9999.25    5.05500    5.33770    5.44650   11.86480    0.00700    0.04320    0.17180    2.63270   76.00270   -9999.25    7.49530
 10572.39990   -9999.25  -25.66020   -9999.25    5.05510    5.33770    5.43520   11.84610    0.00550    0.04150    0.16800    2.63550   76.11520   -9999.25    7.15950
 10572.89990   -9999.25  -25.63030   -9999.25    5.05470    5.33770    5.43520   11.82270    0.00390    0.03960    0.16520    2.63830   75.84260   -9999.25    6.78150
 10573.39990   -9999.25  -25.60030   -9999.25    5.05540    5.32960    5.43520   11.79780    0.00250    0.03960    0.16640    2.63920   75.33670   -9999.25    6.42230
 10573.89990   -9999.25  -25.57050   -9999.25    5.05430    5.31960    5.43520   11.77320    0.00090    0.04060    0.16830    2.63750   76.01310   -9999.25    6.05300
 10574.39990   -9999.25  -25.54060   -9999.25    5.05610    5.30960    5.43520   11.74980   -0.00060    0.04400    0.16710    2.63540   79.42620   -9999.25    6.00370
