~Version ---------------------------------------------------
VERS.   2.0 : CWLS log ASCII Standard -VERSION 2.0
WRAP.    NO : One line per depth step
DLM . SPACE : Column Data Section Delimiter
~Well ------------------------------------------------------
STRT .F             4682.3999 : START DEPTH
STOP .F            12412.8999 : STOP DEPTH
STEP .F                   0.5 : STEP
NULL .               -9999.25 : NULL VALUE
COMP .                        : COMPANY
WELL .                        : WELL
FLD  .                        : FIELD
LOC  .                        : LOCATION
PROV .                        : PROVINCE
CNTY .                        : COUNTY
STAT .                        : STATE
CTRY .                        : COUNTRY
SRVC .                        : SERVICE COMPANY
DATE .                        : DATE
UWI  .                        : UNIQUE WELL ID
API  .                        : API NUMBER
SLAT .WGS84 5.955052141188794 : SURFACE LATITUDE
SLON .WGS84 3.844581745088277 : SURFACE LONGITUDE
DATUM.F                1843.0 : DEPTH DATUM ELEV
~Curve Information -----------------------------------------
DEPT  .F     : 
DTCO  .US/F  : COMPRESSIONAL-WAVE INTERVAL TRANSIT TIME ACOUSTIC SLOWNESS
SPR   .MV    : SPONTANEOUS POTENTIAL FROM RES. LOG
AFCO60.MMHO  : CONDUCTIVITY, 4-FT RESOULTION
AT90  .OHMM  : 90-IN. RESISTIVITY, 2-FT RESOLUTION
AT30  .OHMM  : 30-IN. RESISTIVITY, 2-FT RESOLUTION
AT20  .OHMM  : 20-IN. RESISTIVITY, 2-FT RESOLUTION
CALD  .IN    : CALIPER FROM DENSITY LOG
DRHO  .G/C3  : DENSITY CORRECTION
DPHI  .DEC   : DENSITY POROSITY LIMESTONE
NPHI  .DEC   : NEUTRON POROSITY LIMESTONE
RHOB  .G/C3  : BULK DENSITY
GRR   .GAPI  : GAMMA RAY FROM RESISTIVITY
DTSM  .US/F  : SHEAR-WAVE INTERVAL TRANSIT TIME DELTA-T
PEF   .B/E   : PHOTOELECTRIC FACTOR
~Params ----------------------------------------------------
~Other -----------------------------------------------------
~ASCII -----------------------------------------------------
# ...
 10238.89990   -9999.25  -14.90880   -9999.25    5.71850    5.70060    5.75000   10.89740    0.00030    0.04790    0.17780    2.62160   72.99140   -9999.25    9.98070
 10239.39990   -9999.25  -14.92780   -9999.25    5.70680    5.69140    5.75370   10.89420    0.00090    0.05090    0.17940    2.62470   72.49520   -9999.25    9.97990
 10239.89990   -9999.25  -14.90450   -9999.25    5.69510    5.68230    5.77490   10.89100    0.00150    0.05500    0.18100    2.62640   71.92160   -9999.25    9.98060
 10240.39990   -9999.25  -14.87280   -9999.25    5.68350    5.67320    5.79660   10.88790    0.00230    0.05900    0.18430    2.61240   72.25850   -9999.25    9.98110
 10240.89990   -9999.25  -14.85010   -9999.25    5.67180    5.66400    5.81840   10.88470    0.00120    0.06000    0.18590    2.60890   73.34370   -9999.25    9.97720
 10241.39990   -9999.25  -14.83040   -9999.25    5.66020    5.65490    5.83910   10.88160   -0.00100    0.05840    0.18530    2.60840   74.49970   -9999.25    9.98790
 10241.89990   -9999.25  -14.80600   -9999.25    5.64870    5.64580    5.80320   10.87840   -0.00430    0.05820    0.18230    2.60840   75.70040   -9999.25    9.89400
 10242.39990   -9999.25  -14.78010   -9999.25    5.63770    5.63720    5.73400   10.87520   -0.00530    0.06120    0.18010    2.60810   77.28110   -9999.25    9.68850
 10242.89990   -9999.25  -14.75670   -9999.25    5.57850    5.59260    5.66060   10.87210   -0.00540    0.06540    0.17930    2.60080   78.94100   -9999.25    9.67180
 10243.39990   -9999.25  -14.73410   -9999.25    5.47920    5.54190    5.58820   10.86890   -0.00460    0.06980    0.17900    2.59260   80.02180   -9999.25    9.84440
 10243.89990   -9999.25  -14.71030   -9999.25    5.36180    5.49210    5.51680   10.86580   -0.00340    0.07520    0.18520    2.58460   80.47750   -9999.25    9.93400
 10244.39990   -9999.25  -14.68600   -9999.25    5.26120    5.44460    5.44870   10.86260   -0.00210    0.07320    0.18740    2.58300   80.68840   -9999.25    9.93440
 10244.89990   -9999.25  -14.66230   -9999.25    5.50000    5.56730    5.43520   10.86120   -0.00180    0.06930    0.18880    2.58320   80.66130   -9999.25    9.96620
 10245.39990   -9999.25  -14.63880   -9999.25    5.75220    5.73070    5.43520   10.86110   -0.00290    0.06570    0.18710    2.58840   80.23420   -9999.25    9.64660
 10245.89990   -9999.25  -14.61510   -9999.25    5.99480    5.89730    5.66960   10.86110   -0.00440    0.06120    0.18300    2.59500   79.61430   -9999.25    8.97200
 10246.39990   -9999.25  -14.59130   -9999.25    6.32590    6.12140    5.96650   10.86110   -0.00530    0.05400    0.17840    2.60170   78.96130   -9999.25    8.23510
 10246.89990   -9999.25  -14.56760   -9999.25    6.39650    6.25920    6.32230   10.86110   -0.00540    0.04500    0.17320    2.61520   78.04610   -9999.25    7.92630
 10247.39990   -9999.25  -14.54390   -9999.25    6.30470    6.17120    6.39650   10.86110   -0.00540    0.04190    0.16770    2.62900   77.13910   -9999.25    8.05160
 10247.89990   -9999.25  -14.52030   -9999.25    6.17410    6.01250    6.21180   10.86110   -0.00540    0.04100    0.16320    2.63910   77.45040   -9999.25    8.22920
 10248.39990   -9999.25  -14.49660   -9999.25    5.97780    5.85210    5.99100   10.86110   -0.00540    0.04630    0.16230    2.63290   79.69000   -9999.25    8.41380
 10248.89990   -9999.25  -14.47280   -9999.25    5.77190    5.69600    5.77890   10.86110   -0.00540    0.05450    0.16900    2.62250   82.73150   -9999.25    8.44300
 10249.39990   -9999.25  -14.44920   -9999.25    5.57380    5.54410    5.57490   10.86090   -0.00550    0.05990    0.17730    2.61150   84.54880   -9999.25    8.27250
 10249.89990   -9999.25  -14.42570   -9999.25    5.45510    5.37300    5.53440   10.86410   -0.00620    0.06370    0.18710    2.60130   84.14180   -9999.25    8.08250
 10250.39990   -9999.25  -14.40180   -9999.25    5.51420    5.38930    5.53440   10.87870   -0.00710    0.06630    0.19360    2.59920   82.24230   -9999.25    7.89420
 10250.89990   -9999.25  -14.37770   -9999.25    5.61520    5.46760    5.70490   10.89590   -0.00610    0.06170    0.19470    2.60660   80.72040   -9999.25    7.70450
 10251.39990   -9999.25  -14.35430   -9999.25    5.63550    5.52430    5.82400   10.91350   -0.00450    0.05500    0.19590    2.61620   81.44550   -9999.25    7.51760
 10251.89990   -9999.25  -14.33140   -9999.25    5.63550    5.48600    5.63970   10.93090   -0.00280    0.04990    0.19630    2.62570   84.79070   -9999.25    7.31380
 10252.39990   -9999.25  -14.30720   -9999.25    5.63550    5.39240    5.31140   10.94820   -0.00120    0.05180    0.20360    2.62770   88.82710   -9999.25    7.25070
 10252.89990   -9999.25  -14.28210   -9999.25    5.31110    5.29210    5.16680   10.96630    0.00020    0.05820    0.20820    2.62200   90.77110   -9999.25    7.39200
 10253.39990   -9999.25  -14.25920   -9999.25    5.09060    5.19370    5.07420   10.98400    0.00050    0.06060    0.20890    2.61430   89.76400   -9999.25    7.55850
 10253.89990   -9999.25  -14.23820   -9999.25    4.98320    5.07940    5.00600   11.00120    0.00050    0.06000    0.21060    2.60650   87.73860   -9999.25    7.72240
 10254.39990   -9999.25  -14.21300   -9999.25    4.96500    5.05570    4.97070   11.01940    0.00050    0.06090    0.21610    2.60310   87.00400   -9999.25    7.88960
 10254.89990   -9999.25  -14.18280   -9999.25    4.96500    5.05570    4.96500   11.03700    0.00050    0.06320    0.22320    2.60250   87.48030   -9999.25    8.05490
 10255.39990   -9999.25  -14.16190   -9999.25    5.03750    5.12950    5.03750   11.05450    0.00030    0.06190    0.22280    2.60120   87.11410   -9999.25    8.22070
 10255.89990   -9999.25  -14.16800   -9999.25    5.27800    5.26530    5.37690   11.05270   -0.00030    0.05810    0.21520    2.60480   84.90950   -9999.25    8.38670
 10256.39990   -9999.25  -14.20190   -9999.25    5.50520    5.51490    5.71020   11.04520   -0.00100    0.05360    0.20170    2.60960   82.48430   -9999.25    8.55240
 10256.89990   -9999.25  -14.24690   -9999.25    5.70030    5.80160    6.00150   11.03690   -0.00150    0.05270    0.19210    2.61480   81.88470   -9999.25    8.71820
 10257.39990   -9999.25  -14.28890   -9999.25    5.65610    6.01870    6.14700   11.02800   -0.00050    0.05980    0.18890    2.61080   82.69890   -9999.25    8.88400
 10257.89990   -9999.25  -14.32780   -9999.25    5.63550    5.44240    6.25920   11.02170    0.00160    0.06770    0.18770    2.60410   82.52690   -9999.25    9.04950
 10258.39990   -9999.25  -14.36840   -9999.25    5.33150    4.88050    5.56630   11.02200    0.00390    0.06710    0.18820    2.59670   80.18790   -9999.25    9.21610
 10258.89990   -9999.25  -14.41060   -9999.25    5.00490    4.45520    4.90840   11.06690    0.00430    0.06430    0.18970    2.59720   77.36070   -9999.25    9.38070
 10259.39990   -9999.25  -14.45200   -9999.25    4.70670    4.28650    4.65240   11.12750    0.00570    0.06370    0.19610    2.59960   76.79700   -9999.25    9.54650
 10259.89990   -9999.25  -14.49240   -9999.25    4.36630    4.16750    4.42320   11.19020    0.00800    0.06680    0.20300    2.59980   79.62850   -9999.25    9.71710
 10260.39990   -9999.25  -14.53320   -9999.25    4.23430    4.32810    4.37430   11.25310    0.01010    0.08180    0.21780    2.58210   84.52820   -9999.25    9.80820
 10260.89990   -9999.25  -14.57460   -9999.25    4.21890    4.29400    4.31160   11.31490    0.01010    0.09910    0.23080    2.55750   88.92650   -9999.25    9.70620
 10261.39990   -9999.25  -14.61570   -9999.25    4.21950    4.23980    4.29010   11.37700    0.01160    0.11870    0.23880    2.53140   91.02620   -9999.25    9.56990
 10261.89990   -9999.25  -14.65670   -9999.25    4.21770    4.19750    4.29920   11.44430    0.01260    0.12950    0.24560    2.50650   91.22180   -9999.25    9.42840
 10262.39990   -9999.25  -14.69770   -9999.25    4.21960    4.15570    4.29300   11.48640    0.01780    0.13770    0.25540    2.47970   91.52030   -9999.25    9.28350
