~Version ---------------------------------------------------
VERS.   2.0 : CWLS log ASCII Standard -VERSION 2.0
WRAP.    NO : One line per depth step
DLM . SPACE : Column Data Section Delimiter
~Well ------------------------------------------------------
STRT .F             4682.3999 : START DEPTH
STOP .F            12412.8999 : STOP DEPTH
STEP .F                   0.5 : STEP
NULL .               -9999.25 : NULL VALUE
COMP .                        : COMPANY
WELL .                        : WELL
FLD  .                        : FIELD
LOC  .                        : LOCATION
PROV .                        : PROVINCE
CNTY .                        : COUNTY
STAT .                        : STATE
CTRY .                        : COUNTRY
SRVC .                        : SERVICE COMPANY
DATE .                        : DATE
UWI  .                        : UNIQUE WELL ID
API  .                        : API NUMBER
SLAT .WGS84 5.955052141188794 : SURFACE LATITUDE
SLON .WGS84 3.844581745088277 : SURFACE LONGITUDE
DATUM.F                1843.0 : DEPTH DATUM ELEV
~Curve Information -----------------------------------------
DEPT  .F     : 
DTCO  .US/F  : COMPRESSIONAL-WAVE INTERVAL TRANSIT TIME ACOUSTIC SLOWNESS
SPR   .MV    : SPONTANEOUS POTENTIAL FROM RES. LOG
AFCO60.MMHO  : CONDUCTIVITY, 4-FT RESOULTION
AT90  .OHMM  : 90-IN. RESISTIVITY, 2-FT RESOLUTION
AT30  .OHMM  : 30-IN. RESISTIVITY, 2-FT RESOLUTION
AT20  .OHMM  : 20-IN. RESISTIVITY, 2-FT RESOLUTION
CALD  .IN    : CALIPER FROM DENSITY LOG
DRHO  .G/C3  : DENSITY CORRECTION
DPHI  .DEC   : DENSITY POROSITY LIMESTONE
NPHI  .DEC   : NEUTRON POROSITY LIMESTONE
RHOB  .G/C3  : BULK DENSITY
GRR   .GAPI  : GAMMA RAY FROM RESISTIVITY
DTSM  .US/F  : SHEAR-WAVE INTERVAL TRANSIT TIME DELTA-T
PEF   .B/E   : PHOTOELECTRIC FACTOR
~Params ----------------------------------------------------
~Other -----------------------------------------------------
~ASCII -----------------------------------------------------
# ...
 11822.89990   58.66700  -61.58740   -9999.25    2.79240    2.80950    2.57720   11.09290    0.07280    0.16280    0.27720    2.45230   81.36780   60.00000   -9999.25
 11823.39990   59.15250  -61.58970   -9999.25    2.83340    2.83340    2.66590   11.10080    0.07280    0.16290    0.26750    2.43650   80.33920   60.00000   -9999.25
 11823.89990   59.24600  -61.57490   -9999.25    2.78190    2.81240    2.65620   11.10910    0.07330    0.15810    0.25880    2.42520   79.16730   58.65060   -9999.25
 11824.39990   57.84640  -61.57720   -9999.25    2.71990    2.77390    2.62290   11.08180    0.07430    0.15800    0.25910    2.43410   77.04610   55.89920   -9999.25
 11824.89990   55.08710  -61.58670   -9999.25    2.65000    2.73270    2.59020   11.08690    0.07800    0.15930    0.26440    2.45920   75.64200   53.47840   -9999.25
 11825.39990   53.53200  -61.58290   -9999.25    2.61050    2.69210    2.55780   11.12000    0.07530    0.15850    0.27050    2.47480   77.24570   53.64250   -9999.25
 11825.89990   53.88210  -61.57460   -9999.25    2.57330    2.65210    2.52590   11.06200    0.06390    0.15390    0.27650    2.47720   81.21060   54.41630   -9999.25
 11826.39990   54.75200  -61.58200   -9999.25    2.53510    2.61280    2.49430   11.03320    0.04870    0.15830    0.28170    2.47950   83.80740   55.19010   -9999.25
 11826.89990   55.65560  -61.59220   -9999.25    2.50160    2.57400    2.46320   11.03830    0.03240    0.16780    0.28680    2.48200   82.66390   55.96390   -9999.25
 11827.39990   56.65920  -61.57680   -9999.25    2.45490    2.53570    2.43240   11.00370    0.02240    0.17830    0.28620    2.48450   80.10660   56.68900   -9999.25
 11827.89990   56.20970  -61.55700   -9999.25    2.42500    2.49810    2.40210   10.83500    0.01930    0.18430    0.28140    2.48610   80.20790   56.33570   -9999.25
 11828.39990   54.47940  -61.61060   -9999.25    2.39680    2.46100    2.37070   10.79680    0.01880    0.18290    0.27580    2.48520   83.33710   55.73780   -9999.25
 11828.89990   56.62630  -61.81000   -9999.25    2.48440    2.41680    2.38030   10.72000    0.01840    0.17820    0.27030    2.48310   86.23440   55.27270   -9999.25
 11829.39990   55.04020  -62.18730   -9999.25    2.53600    2.36060    2.33450   10.60140    0.02130    0.15350    0.26480    2.47900   87.28530   55.07350   -9999.25
 11829.89990   54.11910  -62.72670   -9999.25    2.68200    2.29410    2.26820   10.48690    0.02750    0.10490    0.25910    2.49200   88.42940   54.93230   -9999.25
 11830.39990   53.75800  -63.31450   -9999.25    2.66230    2.16920    2.15640   10.51750    0.03420    0.09660    0.25280    2.52910   91.05380   54.91260   -9999.25
 11830.89990   53.69050  -63.72910   -9999.25    2.12860    2.04800    2.03870   10.68180    0.04100    0.10960    0.25960    2.55380   93.23280   55.01590   -9999.25
 11831.39990   54.29030  -63.79490   -9999.25    1.90850    1.92730    1.92750   10.96370    0.05160    0.12500    0.27050    2.53630   92.78430   55.14170   -9999.25
 11831.89990   55.11020  -63.55020   -9999.25    1.91700    1.90290    1.79720   11.33200    0.06420    0.14050    0.28160    2.48910   90.52470   55.26730   -9999.25
 11832.39990   54.64300  -63.18980   -9999.25    1.87210    1.92430    1.79480   11.60620    0.07020    0.15280    0.29010    2.45670   88.59130   55.39910   -9999.25
 11832.89990   54.80150  -62.86350   -9999.25    1.87920    1.96150    1.83780   11.67260    0.06860    0.15660    0.29170    2.44630   87.44850   55.52630   -9999.25
 11833.39990   55.51570  -62.60990   -9999.25    1.93100    2.00190    1.88470   11.67660    0.06610    0.15530    0.29170    2.44090   86.42490   56.18160   -9999.25
 11833.89990   58.02000  -62.43630   -9999.25    2.01250    2.04320    1.93290   11.67860    0.06360    0.15350    0.29170    2.44530   85.84010   58.41770   -9999.25
 11834.39990   61.33980  -62.34510   -9999.25    2.06630    2.07680    1.98230   11.66590    0.06280    0.14320    0.28880    2.45750   86.88490   61.01640   -9999.25
 11834.89990   65.51500  -62.29380   -9999.25    2.13580    2.14010    2.03110   11.65320    0.06450    0.13180    0.28530    2.47020   89.81240   63.61510   -9999.25
 11835.39990   67.02370  -62.22440   -9999.25    2.20580    2.20140    2.07680   11.64580    0.06640    0.12950    0.28020    2.48350   93.21600   67.16290   -9999.25
 11835.89990   65.92570  -62.13260   -9999.25    2.27620    2.26150    2.16080   11.59530    0.06830    0.12940    0.28060    2.49120   94.94050   66.39090   -9999.25
 11836.39990   63.05940  -62.05120   -9999.25    2.34880    2.31230    2.25610   11.52370    0.07040    0.12950    0.28440    2.49150   93.63220   63.10330   -9999.25
 11836.89990   62.42060  -61.98170   -9999.25    2.39870    2.38840    2.33740   11.43000    0.07090    0.12950    0.28720    2.49130   89.83600   62.37620   -9999.25
 11837.39990   62.42060  -61.89980   -9999.25    2.52050    2.46130    2.43700   11.27920    0.06860    0.12640    0.28750    2.48990   85.58450   62.37620   -9999.25
 11837.89990   61.18290  -61.81130   -9999.25    2.63280    2.53340    2.55750   11.12880    0.06530    0.12120    0.28720    2.49320   82.54240   58.57520   -9999.25
 11838.39990   58.61960  -61.74320   -9999.25    2.74130    2.60750    2.59210   10.92640    0.06180    0.13460    0.28520    2.50290   80.68450   57.18450   -9999.25
 11838.89990   57.73820  -61.68130   -9999.25    2.81930    2.71060    2.58640   10.78990    0.04750    0.16280    0.28160    2.49730   78.99990   57.65000   -9999.25
 11839.39990   58.29350  -61.56180   -9999.25    2.79280    2.72290    2.59100   10.69700    0.03130    0.19350    0.27960    2.50730   77.08780   59.00090   -9999.25
 11839.89990   61.02540  -61.34580   -9999.25    2.76570    2.70360    2.58810   11.07110    0.02030    0.22130    0.27950    2.41650   75.35860   60.32500   -9999.25
 11840.39990   62.03860  -61.06420   -9999.25    2.73950    2.68260    2.58950   11.31900    0.02340    0.24340    0.27980    2.29690   73.96480   61.11720   -9999.25
 11840.89990   62.18860  -60.77700   -9999.25    2.71230    2.66170    2.58920   11.47410    0.02900    0.23590    0.28060    2.28480   72.45510   61.83430   -9999.25
 11841.39990   62.56770  -60.51240   -9999.25    2.68830    2.64100    2.56830   11.65290    0.03550    0.21190    0.28170    2.31910   70.76160   63.20500   -9999.25
 11841.89990   64.58790  -60.25840   -9999.25    2.64750    2.62050    2.52840   11.97350    0.03520    0.19800    0.28150    2.36780   69.72050   64.85250   -9999.25
 11842.39990   71.52070  -59.99200   -9999.25    2.60610    2.60010    2.48230   12.22740    0.02910    0.19500    0.28050    2.37820   69.98890   71.80820   -9999.25
 11842.89990   76.51330  -59.70760   -9999.25    2.55500    2.57990    2.42070   12.24640    0.02260    0.19720    0.27930    2.37400   70.91430   75.72700   -9999.25
 11843.39990   79.37820  -59.44040   -9999.25    2.54030    2.55980    2.40760   11.90910    0.01650    0.20010    0.27810    2.37100   71.30680   78.24700   -9999.25
 11843.89990   80.27510  -59.25910   -9999.25    2.56800    2.54470    2.41760   11.54000    0.01110    0.19940    0.27630    2.36610   71.09110   79.74380   -9999.25
 11844.39990   79.04050  -59.20720   -9999.25    2.60480    2.58310    2.42930   11.56020    0.00610    0.19090    0.27400    2.36850   71.32940   78.22370   -9999.25
 11844.89990   74.99110  -59.25210   -9999.25    2.65380    2.64050    2.44080   11.85580    0.00160    0.19150    0.27160    2.38390   72.73190   75.14690   -9999.25
 11845.39990   71.10540  -59.31890   -9999.25    2.67630    2.67740    2.45240   12.10720   -0.00290    0.20170    0.26930    2.38150   74.95670   71.85480   -9999.25
 11845.89990   67.18630  -59.36630   -9999.25    2.64270    2.64350    2.46400   11.83560   -0.00810    0.21570    0.28160    2.36070   77.43260   68.56260   -9999.25
 11846.39990   66.70550  -59.40510   -9999.25    2.58570    2.59730    2.47570   11.30360   -0.01100    0.23020    0.29600    2.33870   79.89310   66.03760   -9999.25
