~Version ---------------------------------------------------
VERS.   2.0 : CWLS log ASCII Standard -VERSION 2.0
WRAP.    NO : One line per depth step
DLM . SPACE : Column Data Section Delimiter
~Well ------------------------------------------------------
STRT .F             4682.3999 : START DEPTH
STOP .F            12412.8999 : STOP DEPTH
STEP .F                   0.5 : STEP
NULL .               -9999.25 : NULL VALUE
COMP .                        : COMPANY
WELL .                        : WELL
FLD  .                        : FIELD
LOC  .                        : LOCATION
PROV .                        : PROVINCE
CNTY .                        : COUNTY
STAT .                        : STATE
CTRY .                        : COUNTRY
SRVC .                        : SERVICE COMPANY
DATE .                        : DATE
UWI  .                        : UNIQUE WELL ID
API  .                        : API NUMBER
SLAT .WGS84 5.955052141188794 : SURFACE LATITUDE
SLON .WGS84 3.844581745088277 : SURFACE LONGITUDE
DATUM.F                1843.0 : DEPTH DATUM ELEV
~Curve Information -----------------------------------------
DEPT  .F     : 
DTCO  .US/F  : COMPRESSIONAL-WAVE INTERVAL TRANSIT TIME ACOUSTIC SLOWNESS
SPR   .MV    : SPONTANEOUS POTENTIAL FROM RES. LOG
AFCO60.MMHO  : CONDUCTIVITY, 4-FT RESOULTION
AT90  .OHMM  : 90-IN. RESISTIVITY, 2-FT RESOLUTION
AT30  .OHMM  : 30-IN. RESISTIVITY, 2-FT RESOLUTION
AT20  .OHMM  : 20-IN. RESISTIVITY, 2-FT RESOLUTION
CALD  .IN    : CALIPER FROM DENSITY LOG
DRHO  .G/C3  : DENSITY CORRECTION
DPHI  .DEC   : DENSITY POROSITY LIMESTONE
NPHI  .DEC   : NEUTRON POROSITY LIMESTONE
RHOB  .G/C3  : BULK DENSITY
GRR   .GAPI  : GAMMA RAY FROM RESISTIVITY
DTSM  .US/F  : SHEAR-WAVE INTERVAL TRANSIT TIME DELTA-T
PEF   .B/E   : PHOTOELECTRIC FACTOR
~Params ----------------------------------------------------
~Other -----------------------------------------------------
~ASCII -----------------------------------------------------
# ...
 12302.89990   72.64490  -32.10370   -9999.25   35.62050   36.42500   38.28290   -9999.25   -9999.25   -9999.25   -9999.25   -9999.25   64.41960   73.26050   -9999.25
 12303.39990   73.25180  -32.15060   -9999.25   31.52020   33.29920   35.09000   -9999.25   -9999.25   -9999.25   -9999.25   -9999.25   66.53610   74.28360   -9999.25
 12303.89990   74.72530  -32.20700   -9999.25   25.62050   30.42970   32.63910   -9999.25   -9999.25   -9999.25   -9999.25   -9999.25   69.46480   75.30670   -9999.25
 12304.39990   76.43260  -32.27020   -9999.25   24.05470   26.96320   28.20260   -9999.25   -9999.25   -9999.25   -9999.25   -9999.25   71.47860   76.40900   -9999.25
 12304.89990   75.48430  -32.30710   -9999.25   28.42860   29.50520   30.82870   -9999.25   -9999.25   -9999.25   -9999.25   -9999.25   71.41100   75.64820   -9999.25
 12305.39990   72.44780  -32.28460   -9999.25   35.27470   37.44500   39.74020   -9999.25   -9999.25   -9999.25   -9999.25   -9999.25   69.30990   72.51810   -9999.25
 12305.89990   69.37010  -32.20880   -9999.25   43.82720   51.12780   52.27180   -9999.25   -9999.25   -9999.25   -9999.25   -9999.25   65.50850   68.28940   -9999.25
 12306.39990   64.64390  -32.11630   -9999.25   59.14590   85.30320   68.75510   -9999.25   -9999.25   -9999.25   -9999.25   -9999.25   59.94310   64.01780   -9999.25
 12306.89990   64.08010  -32.03200   -9999.25   62.53430   91.30190   95.98180   -9999.25   -9999.25   -9999.25   -9999.25   -9999.25   53.09380   63.80180   -9999.25
 12307.39990   64.36330  -31.95250   -9999.25   62.53430   86.35440  106.16660   -9999.25   -9999.25   -9999.25   -9999.25   -9999.25   47.07900   65.57580   -9999.25
 12307.89990   65.03950  -31.86870   -9999.25   59.04210   94.33130  118.19530   -9999.25   -9999.25   -9999.25   -9999.25   -9999.25   44.70050   67.83500   -9999.25
 12308.39990   67.63590  -31.78250   -9999.25   52.40330   94.04940  104.81800   -9999.25   -9999.25   -9999.25   -9999.25   -9999.25   46.94060   70.15400   -9999.25
 12308.89990   71.52140  -31.69860   -9999.25   46.48190   62.60810   75.03620   -9999.25   -9999.25   -9999.25   -9999.25   -9999.25   51.85450   72.47300   -9999.25
 12309.39990   72.65870  -31.61530   -9999.25   41.37460   48.16940   54.26270   -9999.25   -9999.25   -9999.25   -9999.25   -9999.25   56.27570   74.79210   -9999.25
 12309.89990   74.98620  -31.53050   -9999.25   36.82850   42.94440   45.06240   -9999.25   -9999.25   -9999.25   -9999.25   -9999.25   58.43710   76.99140   -9999.25
 12310.39990   76.48100  -31.44690   -9999.25   33.26830   36.02800   39.40930   -9999.25   -9999.25   -9999.25   -9999.25   -9999.25   58.87190   77.18820   -9999.25
 12310.89990   76.14410  -31.36430   -9999.25   32.59950   35.22780   35.61740   -9999.25   -9999.25   -9999.25   -9999.25   -9999.25   59.16750   76.90550   -9999.25
 12311.39990   75.43110  -31.27800   -9999.25   31.22180   34.98970   34.17670   -9999.25   -9999.25   -9999.25   -9999.25   -9999.25   60.20900   76.62650   -9999.25
 12311.89990   74.71810  -31.19060   -9999.25   30.26540   35.06830   32.19180   -9999.25   -9999.25   -9999.25   -9999.25   -9999.25   61.50240   76.34750   -9999.25
 12312.39990   74.55180  -31.11070   -9999.25   28.94770   33.03040   30.77190   -9999.25   -9999.25   -9999.25   -9999.25   -9999.25   61.92450   76.06850   -9999.25
 12312.89990   75.00430  -31.03320   -9999.25   27.54800   29.72300   29.12370   -9999.25   -9999.25   -9999.25   -9999.25   -9999.25   60.87510   75.78940   -9999.25
 12313.39990   75.06830  -30.94100   -9999.25   26.21590   26.46790   27.72480   -9999.25   -9999.25   -9999.25   -9999.25   -9999.25   58.63370   75.51040   -9999.25
 12313.89990   74.89260  -30.84280   -9999.25   25.43380   25.72570   26.84090   -9999.25   -9999.25   -9999.25   -9999.25   -9999.25   55.90700   75.23140   -9999.25
 12314.39990   74.68890  -30.77730   -9999.25   25.89480   26.59910   26.48920   -9999.25   -9999.25   -9999.25   -9999.25   -9999.25   53.46840   74.95240   -9999.25
 12314.89990   74.48520  -30.75570   -9999.25   26.58100   27.10880   26.26380   -9999.25   -9999.25   -9999.25   -9999.25   -9999.25   52.16110   74.67330   -9999.25
 12315.39990   74.28150  -30.73990   -9999.25   25.74920   27.19880   25.37620   -9999.25   -9999.25   -9999.25   -9999.25   -9999.25   52.66020   74.39430   -9999.25
 12315.89990   74.07780  -30.72150   -9999.25   23.99920   25.66660   23.96570   -9999.25   -9999.25   -9999.25   -9999.25   -9999.25   54.96990   74.11530   -9999.25
 12316.39990   73.87410  -30.78300   -9999.25   22.26880   23.65880   22.53750   -9999.25   -9999.25   -9999.25   -9999.25   -9999.25   58.30100   73.90100   -9999.25
 12316.89990   73.65350  -31.01880   -9999.25   21.81290   21.85190   21.19450   -9999.25   -9999.25   -9999.25   -9999.25   -9999.25   61.58490   73.86140   -9999.25
 12317.39990   74.02210  -31.41320   -9999.25   22.09620   22.02250   20.18600   -9999.25   -9999.25   -9999.25   -9999.25   -9999.25   63.90230   73.86140   -9999.25
 12317.89990   75.07770  -31.85290   -9999.25   22.33940   22.96950   20.00000   -9999.25   -9999.25   -9999.25   -9999.25   -9999.25   64.79240   74.33650   -9999.25
 12318.39990   76.09840  -32.25730   -9999.25   22.81900   23.46450   21.54070   -9999.25   -9999.25   -9999.25   -9999.25   -9999.25   64.51600   75.27370   -9999.25
 12318.89990   75.17650  -32.64640   -9999.25   23.08720   23.53730   22.54570   -9999.25   -9999.25   -9999.25   -9999.25   -9999.25   63.95630   75.93480   -9999.25
 12319.39990   73.80360  -33.06730   -9999.25   23.16420   22.24980   22.70070   -9999.25   -9999.25   -9999.25   -9999.25   -9999.25   63.86230   75.46460   -9999.25
 12319.89990   73.53440  -33.50020   -9999.25   23.02300   20.78150   21.80690   -9999.25   -9999.25   -9999.25   -9999.25   -9999.25   64.25710   74.73380   -9999.25
 12320.39990   73.53730  -33.89040   -9999.25   21.96810   19.25380   20.89710   -9999.25   -9999.25   -9999.25   -9999.25   -9999.25   64.80860   74.32350   -9999.25
 12320.89990   73.53740  -34.25590   -9999.25   20.81630   18.94320   20.06670   -9999.25   -9999.25   -9999.25   -9999.25   -9999.25   65.39760   74.25740   -9999.25
 12321.39990   73.53550  -34.69880   -9999.25   20.17130   18.94320   19.41180   -9999.25   -9999.25   -9999.25   -9999.25   -9999.25   66.16460   74.25740   -9999.25
 12321.89990   73.53310  -35.27930   -9999.25   20.80220   20.08050   19.57080   -9999.25   -9999.25   -9999.25   -9999.25   -9999.25   67.43210   74.25740   -9999.25
 12322.39990   73.53160  -35.93600   -9999.25   24.27930   25.32870   23.51430   -9999.25   -9999.25   -9999.25   -9999.25   -9999.25   69.38980   74.25740   -9999.25
 12322.89990   73.53130  -36.57520   -9999.25   31.21230   32.87410   32.65550   -9999.25   -9999.25   -9999.25   -9999.25   -9999.25   70.95980   74.25740   -9999.25
 12323.39990   73.53150  -37.18500   -9999.25   40.86990   42.62420   46.98980   -9999.25   -9999.25   -9999.25   -9999.25   -9999.25   69.47990   74.25740   -9999.25
 12323.89990   73.53150  -37.81230   -9999.25   53.55620   55.26600   66.15760   -9999.25   -9999.25   -9999.25   -9999.25   -9999.25   63.30460   74.25740   -9999.25
 12324.39990   73.53130  -38.46710   -9999.25   70.18060   71.65740   95.79310   -9999.25   -9999.25   -9999.25   -9999.25   -9999.25   54.65070   74.25710   -9999.25
 12324.89990   73.53110  -39.11140   -9999.25   91.96520   92.91020  134.07470   -9999.25   -9999.25   -9999.25   -9999.25   -9999.25   47.89200   74.25690   -9999.25
 12325.39990   73.53080  -39.72360   -9999.25   97.95350  115.43500  145.27230   -9999.25   -9999.25   -9999.25   -9999.25   -9999.25   44.77280   74.25670   -9999.25
 12325.89990   73.53090  -40.33880   -9999.25   90.26820  108.83180  124.84610   -9999.25   -9999.25   -9999.25   -9999.25   -9999.25   43.24980   74.20340   -9999.25
 12326.39990   73.58840  -41.01120   -9999.25   80.94810   97.74680  106.67000   -9999.25   -9999.25   -9999.25   -9999.25   -9999.25   41.25780   74.14100   -9999.25
