~Version ---------------------------------------------------
VERS.   2.0 : CWLS log ASCII Standard -VERSION 2.0
WRAP.    NO : One line per depth step
DLM . SPACE : Column Data Section Delimiter
~Well ------------------------------------------------------
STRT .F             4682.3999 : START DEPTH
STOP .F            12412.8999 : STOP DEPTH
STEP .F                   0.5 : STEP
NULL .               -9999.25 : NULL VALUE
COMP .                        : COMPANY
WELL .                        : WELL
FLD  .                        : FIELD
LOC  .                        : LOCATION
PROV .                        : PROVINCE
CNTY .                        : COUNTY
STAT .                        : STATE
CTRY .                        : COUNTRY
SRVC .                        : SERVICE COMPANY
DATE .                        : DATE
UWI  .                        : UNIQUE WELL ID
API  .                        : API NUMBER
SLAT .WGS84 5.955052141188794 : SURFACE LATITUDE
SLON .WGS84 3.844581745088277 : SURFACE LONGITUDE
DATUM.F                1843.0 : DEPTH DATUM ELEV
~Curve Information -----------------------------------------
DEPT  .F     : 
DTCO  .US/F  : COMPRESSIONAL-WAVE INTERVAL TRANSIT TIME ACOUSTIC SLOWNESS
SPR   .MV    : SPONTANEOUS POTENTIAL FROM RES. LOG
AFCO60.MMHO  : CONDUCTIVITY, 4-FT RESOULTION
AT90  .OHMM  : 90-IN. RESISTIVITY, 2-FT RESOLUTION
AT30  .OHMM  : 30-IN. RESISTIVITY, 2-FT RESOLUTION
AT20  .OHMM  : 20-IN. RESISTIVITY, 2-FT RESOLUTION
CALD  .IN    : CALIPER FROM DENSITY LOG
DRHO  .G/C3  : DENSITY CORRECTION
DPHI  .DEC   : DENSITY POROSITY LIMESTONE
NPHI  .DEC   : NEUTRON POROSITY LIMESTONE
RHOB  .G/C3  : BULK DENSITY
GRR   .GAPI  : GAMMA RAY FROM RESISTIVITY
DTSM  .US/F  : SHEAR-WAVE INTERVAL TRANSIT TIME DELTA-T
PEF   .B/E   : PHOTOELECTRIC FACTOR
~Params ----------------------------------------------------
~Other -----------------------------------------------------
~ASCII -----------------------------------------------------
# ...
 12134.89990   77.01020  -34.58270   -9999.25    5.68230    6.22270    6.45870   -9999.25   -9999.25   -9999.25   -9999.25   -9999.25   98.61150   76.88170   -9999.25
 12135.39990   75.75420  -34.56810   -9999.25    5.87690    6.55330    6.71730   -9999.25   -9999.25   -9999.25   -9999.25   -9999.25   96.21570   75.63980   -9999.25
 12135.89990   76.01570  -34.55200   -9999.25    6.07800    6.90160    6.98640   -9999.25   -9999.25   -9999.25   -9999.25   -9999.25   93.85330   75.24040   -9999.25
 12136.39990   76.59310  -34.53690   -9999.25    6.28610    7.20260    7.32230   -9999.25   -9999.25   -9999.25   -9999.25   -9999.25   91.59490   75.06130   -9999.25
 12136.89990   75.30990  -34.52260   -9999.25    6.57130    7.25170    7.39280   -9999.25   -9999.25   -9999.25   -9999.25   -9999.25   90.12570   74.95480   -9999.25
 12137.39990   74.91270  -34.50790   -9999.25    6.68040    7.20700    7.42170   -9999.25   -9999.25   -9999.25   -9999.25   -9999.25   89.83040   74.86510   -9999.25
 12137.89990   75.38640  -34.49280   -9999.25    6.74110    7.18690    7.44950   -9999.25   -9999.25   -9999.25   -9999.25   -9999.25   90.09740   74.77530   -9999.25
 12138.39990   75.51430  -34.47790   -9999.25    6.89030    7.15150    7.47520   -9999.25   -9999.25   -9999.25   -9999.25   -9999.25   90.28220   74.68510   -9999.25
 12138.89990   74.84940  -34.46320   -9999.25    6.98670    7.13490    7.50110   -9999.25   -9999.25   -9999.25   -9999.25   -9999.25   90.99730   74.59550   -9999.25
 12139.39990   74.71430  -34.44840   -9999.25    7.01180    7.18950    7.52350   -9999.25   -9999.25   -9999.25   -9999.25   -9999.25   93.25970   74.50590   -9999.25
 12139.89990   75.03960  -34.43370   -9999.25    7.03100    7.24710    7.54370   -9999.25   -9999.25   -9999.25   -9999.25   -9999.25   96.40300   74.41620   -9999.25
 12140.39990   75.75380  -34.41900   -9999.25    7.05210    7.30370    7.56860   -9999.25   -9999.25   -9999.25   -9999.25   -9999.25   98.16320   74.32640   -9999.25
 12140.89990   76.23010  -34.40420   -9999.25    7.07320    7.37600    7.59480   -9999.25   -9999.25   -9999.25   -9999.25   -9999.25   97.33830   74.23670   -9999.25
 12141.39990   75.74090  -34.38950   -9999.25    7.09440    7.39520    7.62100   -9999.25   -9999.25   -9999.25   -9999.25   -9999.25   95.39070   74.14690   -9999.25
 12141.89990   74.92410  -34.37470   -9999.25    7.12380    7.47440    7.65750   -9999.25   -9999.25   -9999.25   -9999.25   -9999.25   94.54350   74.05700   -9999.25
 12142.39990   74.41150  -34.36000   -9999.25    7.23540    7.61160    7.76910   -9999.25   -9999.25   -9999.25   -9999.25   -9999.25   94.97200   73.96690   -9999.25
 12142.89990   74.50310  -34.34530   -9999.25    7.46800    7.75500    7.99820   -9999.25   -9999.25   -9999.25   -9999.25   -9999.25   94.89640   73.87650   -9999.25
 12143.39990   74.68730  -34.33050   -9999.25    7.73330    7.90340    8.25880   -9999.25   -9999.25   -9999.25   -9999.25   -9999.25   93.02400   73.78560   -9999.25
 12143.89990   74.72220  -34.31580   -9999.25    8.03160    8.05400    8.52780   -9999.25   -9999.25   -9999.25   -9999.25   -9999.25   89.80810   73.69490   -9999.25
 12144.39990   74.33870  -34.30100   -9999.25    8.06560    8.20690    8.80550   -9999.25   -9999.25   -9999.25   -9999.25   -9999.25   86.35520   73.60440   -9999.25
 12144.89990   73.56830  -34.28630   -9999.25    8.02840    8.36420    9.12080   -9999.25   -9999.25   -9999.25   -9999.25   -9999.25   83.22730   73.51450   -9999.25
 12145.39990   73.04510  -34.27160   -9999.25    7.99050    8.51460    9.18570   -9999.25   -9999.25   -9999.25   -9999.25   -9999.25   80.60830   73.64740   -9999.25
 12145.89990   73.76570  -34.25680   -9999.25    7.95290    8.52160    9.02530   -9999.25   -9999.25   -9999.25   -9999.25   -9999.25   78.91560   73.97980   -9999.25
 12146.39990   74.88870  -34.24210   -9999.25    7.91540    8.48200    8.87840   -9999.25   -9999.25   -9999.25   -9999.25   -9999.25   78.67400   74.34910   -9999.25
 12146.89990   75.43640  -34.22730   -9999.25    7.87810    8.43980    8.74660   -9999.25   -9999.25   -9999.25   -9999.25   -9999.25   80.03500   74.71680   -9999.25
 12147.39990   74.88110  -34.21260   -9999.25    7.84100    8.39920    8.61680   -9999.25   -9999.25   -9999.25   -9999.25   -9999.25   82.48740   74.72610   -9999.25
 12147.89990   73.70030  -34.19780   -9999.25    7.81090    8.52290    8.48880   -9999.25   -9999.25   -9999.25   -9999.25   -9999.25   84.92240   73.78690   -9999.25
 12148.39990   72.24470  -34.18310   -9999.25    8.01610    8.68510    8.40560   -9999.25   -9999.25   -9999.25   -9999.25   -9999.25   86.11640   72.63280   -9999.25
 12148.89990   72.08290  -34.16840   -9999.25    8.24500    8.84900    8.39110   -9999.25   -9999.25   -9999.25   -9999.25   -9999.25   85.38280   72.07410   -9999.25
 12149.39990   72.26480  -34.15360   -9999.25    8.47000    9.01600    8.67920   -9999.25   -9999.25   -9999.25   -9999.25   -9999.25   82.92900   72.15360   -9999.25
 12149.89990   72.45500  -34.13890   -9999.25    8.70120    9.18620    8.99720   -9999.25   -9999.25   -9999.25   -9999.25   -9999.25   79.88400   72.35020   -9999.25
 12150.39990   72.63740  -34.12410   -9999.25    8.93870    9.35960    9.31320   -9999.25   -9999.25   -9999.25   -9999.25   -9999.25   78.09160   72.55350   -9999.25
 12150.89990   72.72590  -34.10940   -9999.25    9.14580    9.53620    9.64030   -9999.25   -9999.25   -9999.25   -9999.25   -9999.25   79.17970   72.75830   -9999.25
 12151.39990   72.63310  -34.09460   -9999.25    9.16850    9.71620    9.98560   -9999.25   -9999.25   -9999.25   -9999.25   -9999.25   82.88650   72.96250   -9999.25
 12151.89990   72.48170  -34.07990   -9999.25    9.14230    9.89960   10.05550   -9999.25   -9999.25   -9999.25   -9999.25   -9999.25   86.53700   73.00230   -9999.25
 12152.39990   72.32510  -34.06510   -9999.25    9.11500   10.03170    9.99550   -9999.25   -9999.25   -9999.25   -9999.25   -9999.25   87.12950   72.91860   -9999.25
 12152.89990   72.16690  -34.05030   -9999.25    9.08780   10.05550    9.92940   -9999.25   -9999.25   -9999.25   -9999.25   -9999.25   84.18780   72.81370   -9999.25
 12153.39990   72.00790  -34.03570   -9999.25    9.06070    9.98020    9.86600   -9999.25   -9999.25   -9999.25   -9999.25   -9999.25   80.11010   72.70860   -9999.25
 12153.89990   72.09360  -34.02110   -9999.25    9.02780    9.89660    9.80290   -9999.25   -9999.25   -9999.25   -9999.25   -9999.25   77.68550   72.60290   -9999.25
 12154.39990   72.52770  -34.00610   -9999.25    8.99730    9.81620    9.74030   -9999.25   -9999.25   -9999.25   -9999.25   -9999.25   77.59380   72.49820   -9999.25
 12154.89990   73.03360  -33.99110   -9999.25    8.95910    9.71850    9.67800   -9999.25   -9999.25   -9999.25   -9999.25   -9999.25   78.31670   72.39370   -9999.25
 12155.39990   72.44120  -33.97670   -9999.25    8.91900    9.57420    9.61620   -9999.25   -9999.25   -9999.25   -9999.25   -9999.25   78.11840   72.28930   -9999.25
 12155.89990   71.57390  -33.96250   -9999.25    8.86960    9.37380    9.54020   -9999.25   -9999.25   -9999.25   -9999.25   -9999.25   76.92320   72.18480   -9999.25
 12156.39990   70.88330  -33.94710   -9999.25    8.85920    9.16590    9.49000   -9999.25   -9999.25   -9999.25   -9999.25   -9999.25   76.33910   72.08030   -9999.25
 12156.89990   71.45220  -33.93090   -9999.25    8.62720    8.91230    9.43300   -9999.25   -9999.25   -9999.25   -9999.25   -9999.25   77.90950   71.97590   -9999.25
 12157.39990   73.10280  -33.91810   -9999.25    8.39560    8.53970    9.36690   -9999.25   -9999.25   -9999.25   -9999.25   -9999.25   81.34340   72.51960   -9999.25
 12157.89990   75.25270  -33.91230   -9999.25    8.26300    8.01930    8.87170   -9999.25   -9999.25   -9999.25   -9999.25   -9999.25   84.47430   74.78120   -9999.25
 12158.39990   77.94860  -33.91220   -9999.25    7.35960    7.49720    8.24060   -9999.25   -9999.25   -9999.25   -9999.25   -9999.25   85.20890   77.43210   -9999.25
