~Version ---------------------------------------------------
VERS.   2.0 : CWLS log ASCII Standard -VERSION 2.0
WRAP.    NO : One line per depth step
DLM . SPACE : Column Data Section Delimiter
~Well ------------------------------------------------------
STRT .F             4682.3999 : START DEPTH
STOP .F            12412.8999 : STOP DEPTH
STEP .F                   0.5 : STEP
NULL .               -9999.25 : NULL VALUE
COMP .                        : COMPANY
WELL .                        : WELL
FLD  .                        : FIELD
LOC  .                        : LOCATION
PROV .                        : PROVINCE
CNTY .                        : COUNTY
STAT .                        : STATE
CTRY .                        : COUNTRY
SRVC .                        : SERVICE COMPANY
DATE .                        : DATE
UWI  .                        : UNIQUE WELL ID
API  .                        : API NUMBER
SLAT .WGS84 5.955052141188794 : SURFACE LATITUDE
SLON .WGS84 3.844581745088277 : SURFACE LONGITUDE
DATUM.F                1843.0 : DEPTH DATUM ELEV
~Curve Information -----------------------------------------
DEPT  .F     : 
DTCO  .US/F  : COMPRESSIONAL-WAVE INTERVAL TRANSIT TIME ACOUSTIC SLOWNESS
SPR   .MV    : SPONTANEOUS POTENTIAL FROM RES. LOG
AFCO60.MMHO  : CONDUCTIVITY, 4-FT RESOULTION
AT90  .OHMM  : 90-IN. RESISTIVITY, 2-FT RESOLUTION
AT30  .OHMM  : 30-IN. RESISTIVITY, 2-FT RESOLUTION
AT20  .OHMM  : 20-IN. RESISTIVITY, 2-FT RESOLUTION
CALD  .IN    : CALIPER FROM DENSITY LOG
DRHO  .G/C3  : DENSITY CORRECTION
DPHI  .DEC   : DENSITY POROSITY LIMESTONE
NPHI  .DEC   : NEUTRON POROSITY LIMESTONE
RHOB  .G/C3  : BULK DENSITY
GRR   .GAPI  : GAMMA RAY FROM RESISTIVITY
DTSM  .US/F  : SHEAR-WAVE INTERVAL TRANSIT TIME DELTA-T
PEF   .B/E   : PHOTOELECTRIC FACTOR
~Params ----------------------------------------------------
~Other -----------------------------------------------------
~ASCII -----------------------------------------------------
# ...
 9925.39990   -9999.25   -7.86900   -9999.25    5.30340    5.01860    3.96810   -9999.25   -9999.25   -9999.25   -9999.25   -9999.25   91.55450   -9999.25   -9999.25
 9925.89990   -9999.25   -8.09770   -9999.25    3.37230    3.77380    3.78140   -9999.25   -9999.25   -9999.25   -9999.25   -9999.25  100.01030   -9999.25   -9999.25
 9926.39990   -9999.25   -8.44000   -9999.25    3.12220    3.42050    3.61610   -9999.25   -9999.25   -9999.25   -9999.25   -9999.25  102.29240   -9999.25   -9999.25
 9926.89990   -9999.25   -8.75460   -9999.25    3.39290    3.53430    3.69210   -9999.25   -9999.25   -9999.25   -9999.25   -9999.25  100.48070   -9999.25   -9999.25
 9927.39990   -9999.25   -9.00770   -9999.25    3.71280    3.82660    3.93340   -9999.25   -9999.25   -9999.25   -9999.25   -9999.25   99.09510   -9999.25   -9999.25
 9927.89990   -9999.25   -9.26690   -9999.25    4.06290    4.17170    4.21700   -9999.25   -9999.25   -9999.25   -9999.25   -9999.25  100.52690   -9999.25   -9999.25
 9928.39990   -9999.25   -9.58060   -9999.25    4.39010    4.54800    4.50530   -9999.25   -9999.25   -9999.25   -9999.25   -9999.25  103.38390   -9999.25   -9999.25
 9928.89990   -9999.25   -9.89410   -9999.25    4.48530    4.96940    4.81750   -9999.25   -9999.25   -9999.25   -9999.25   -9999.25  105.23850   -9999.25   -9999.25
 9929.39990   -9999.25  -10.10270   -9999.25    4.52700    5.05570    5.02010   -9999.25   -9999.25   -9999.25   -9999.25   -9999.25  105.47070   -9999.25   -9999.25
 9929.89990   -9999.25  -10.18490   -9999.25    4.60180    5.16790    5.19330   10.66880   -9999.25    0.08470   -9999.25   -9999.25  104.79140   -9999.25   -9999.25
 9930.39990   -9999.25  -10.24490   -9999.25    4.92500    5.29490    5.37970   10.55340    0.05540    0.09780    0.28190    2.51730  103.80520   -9999.25    5.53150
 9930.89990   -9999.25  -10.39270   -9999.25    5.24300    5.42080    5.54840   10.44300    0.03750    0.11090    0.28460    2.49630  103.31600   -9999.25    5.21660
 9931.39990   -9999.25  -10.62080   -9999.25    5.55930    5.54980    5.80350   10.32240    0.01660    0.12400    0.29060    2.47530  104.42200   -9999.25    5.16930
 9931.89990   -9999.25  -10.84610   -9999.25    5.79920    5.68180    5.81970   10.28550    0.00670    0.13710    0.29620    2.45040  106.85330   -9999.25    5.29040
 9932.39990   -9999.25  -11.03390   -9999.25    5.73810    5.81690    5.94510   10.22620   -0.00040    0.15010    0.29770    2.45060  108.37310   -9999.25    5.43480
 9932.89990   -9999.25  -11.21790   -9999.25    5.63530    5.95530    6.00680   10.17220   -0.00080    0.14010    0.29450    2.48640  107.25270   -9999.25    5.58000
 9933.39990   -9999.25  -11.42240   -9999.25    5.55080    6.09690    5.83260   10.15250   -0.00020    0.12490    0.28680    2.51670  104.70730   -9999.25    5.67530
 9933.89990   -9999.25  -11.62940   -9999.25    5.98070    6.25050    6.31130   10.08720    0.00030    0.08780    0.27040    2.55660  103.55660   -9999.25    5.80000
 9934.39990   -9999.25  -11.82140   -9999.25    6.52370    6.89380    7.22110   10.06900    0.00110    0.05300    0.25090    2.60370  104.72190   -9999.25    5.94020
 9934.89990   -9999.25  -12.01200   -9999.25    7.10110    7.79050    8.05430   10.06680    0.00180    0.04200    0.24160    2.63660  105.92400   -9999.25    6.13710
 9935.39990   -9999.25  -12.21820   -9999.25    7.72970    8.81810    9.20140   10.06750    0.00270    0.03960    0.23360    2.64630  103.98130   -9999.25    6.10450
 9935.89990   -9999.25  -12.41720   -9999.25    8.41380    9.98130   10.85640   10.06700    0.00340    0.03800    0.23120    2.65190   98.45080   -9999.25    5.82910
 9936.39990   -9999.25  -12.54800   -9999.25    9.15860   11.17440   11.20870   10.06800    0.00420    0.03140    0.23120    2.65690   92.88350   -9999.25    5.52860
 9936.89990   -9999.25  -12.56290   -9999.25    9.76210   11.41340   11.20870   10.06620    0.00240    0.03040    0.23410    2.65830   91.75580   -9999.25    5.20830
 9937.39990   -9999.25  -12.47800   -9999.25    9.64880   11.12090   11.20870   10.06770   -0.00080    0.05080    0.24040    2.63260   95.75420   -9999.25    5.00060
 9937.89990   -9999.25  -12.35570   -9999.25    9.34920   10.73480   10.85220   10.07660   -0.00650    0.10220    0.24700    2.56530  101.06100   -9999.25    4.98040
 9938.39990   -9999.25  -12.24290   -9999.25    9.07450   10.35480   10.49030   10.18790   -0.01510    0.17790    0.24540    2.48900  103.81500   -9999.25    4.96630
 9938.89990   -9999.25  -12.14100   -9999.25    9.02100    9.98820   10.12890   10.28410   -0.01940    0.21850    0.24150    2.41230  104.00420   -9999.25    5.20580
 9939.39990   -9999.25  -12.03500   -9999.25    9.02100    9.63460    9.91130   10.30450   -0.02070    0.25430    0.24610    2.33550  103.98850   -9999.25    5.94060
 9939.89990   -9999.25  -11.92360   -9999.25    9.02100    9.26150    9.59450   10.30620   -0.01950    0.29140    0.27090    2.25880  104.59090   -9999.25    6.80910
 9940.39990   -9999.25  -11.81450   -9999.25    8.34050    8.51160    9.38760   10.30540   -0.01740    0.29880    0.27250    2.20370  104.40410   -9999.25    7.39500
 9940.89990   -9999.25  -11.70820   -9999.25    7.47400    7.65130    9.21930   10.30570   -0.01300    0.29880    0.26450    2.19280  102.36630   -9999.25    7.43260
 9941.39990   -9999.25  -11.60080   -9999.25    6.96130    6.89840    9.18570   10.30570   -0.00850    0.29880    0.25690    2.19310   99.35670   -9999.25    7.40570
 9941.89990   -9999.25  -11.49210   -9999.25    6.87660    6.58280    8.18960   10.30530   -0.00400    0.29880    0.25420    2.19250   97.04840   -9999.25    7.38810
 9942.39990   -9999.25  -11.38360   -9999.25    6.58600    6.33350    7.34100   10.28730    0.00040    0.29880    0.26260    2.19340   96.31570   -9999.25    7.35800
 9942.89990   -9999.25  -11.27550   -9999.25    6.18120    6.10600    6.64820   10.26210    0.00480    0.29880    0.27930    2.19700   97.02930   -9999.25    7.33640
 9943.39990   -9999.25  -11.16750   -9999.25    5.88320    5.80680    6.06250   10.23030    0.00940    0.29880    0.29560    2.20080   98.42140   -9999.25    7.31420
 9943.89990   -9999.25  -11.06010   -9999.25    5.62400    5.50120    5.78070   10.24300    0.01270    0.29310    0.29880    2.20840   99.14210   -9999.25    7.27620
 9944.39990   -9999.25  -10.95250   -9999.25    5.37630    5.13280    5.43870   10.27190    0.02270    0.28170    0.29880    2.22530   97.99700   -9999.25    7.38870
 9944.89990   -9999.25  -10.84310   -9999.25    5.13940    4.98930    5.11730   10.26450    0.02750    0.26820    0.29880    2.24420   95.53390   -9999.25    7.86170
 9945.39990   -9999.25  -10.73440   -9999.25    4.91300    4.87160    4.91200   10.10260    0.02750    0.26030    0.29880    2.26020   94.06660   -9999.25    8.14530
 9945.89990   -9999.25  -10.62920   -9999.25    4.73580    4.73140    4.80610    9.91580    0.01710    0.27090    0.29880    2.26930   94.87620   -9999.25    7.79140
 9946.39990   -9999.25  -10.52290   -9999.25    4.75950    4.77140    4.78860    9.76890    0.00510    0.27260    0.29880    2.27580   96.10930   -9999.25    7.31320
 9946.89990   -9999.25  -10.40980   -9999.25    4.85550    5.24640    5.47220    9.66520   -0.00120    0.24150    0.29290    2.29310   95.14250   -9999.25    6.82320
 9947.39990   -9999.25  -10.30080   -9999.25    5.44030    6.20770    6.42510    9.39890   -0.00240    0.20450    0.27620    2.35380   92.48340   -9999.25    6.33180
 9947.89990   -9999.25  -10.22320   -9999.25    6.37780    7.64180    7.53800    9.22670   -0.00280    0.16720    0.25500    2.42450   91.10880   -9999.25    5.84520
 9948.39990   -9999.25  -10.19260   -9999.25    7.51540    8.47480    9.31160    9.31320   -0.00160    0.12650    0.21160    2.49510   91.84960   -9999.25    5.36600
 9948.89990   -9999.25  -10.19490   -9999.25    8.85590    9.31320   10.11880    9.48660   -0.00040    0.06770    0.19120    2.56550   92.01420   -9999.25    4.92330
 9949.39990   -9999.25  -10.20150   -9999.25   10.43560   10.26910   10.96310    9.66540   -0.00060    0.04750    0.17830    2.62300   89.64560   -9999.25    4.57580
