~Version ---------------------------------------------------
VERS.   2.0 : CWLS log ASCII Standard -VERSION 2.0
WRAP.    NO : One line per depth step
DLM . SPACE : Column Data Section Delimiter
~Well ------------------------------------------------------
STRT .F             4682.3999 : START DEPTH
STOP .F            12412.8999 : STOP DEPTH
STEP .F                   0.5 : STEP
NULL .               -9999.25 : NULL VALUE
COMP .                        : COMPANY
WELL .                        : WELL
FLD  .                        : FIELD
LOC  .                        : LOCATION
PROV .                        : PROVINCE
CNTY .                        : COUNTY
STAT .                        : STATE
CTRY .                        : COUNTRY
SRVC .                        : SERVICE COMPANY
DATE .                        : DATE
UWI  .                        : UNIQUE WELL ID
API  .                        : API NUMBER
SLAT .WGS84 5.955052141188794 : SURFACE LATITUDE
SLON .WGS84 3.844581745088277 : SURFACE LONGITUDE
DATUM.F                1843.0 : DEPTH DATUM ELEV
~Curve Information -----------------------------------------
DEPT  .F     : 
DTCO  .US/F  : COMPRESSIONAL-WAVE INTERVAL TRANSIT TIME ACOUSTIC SLOWNESS
SPR   .MV    : SPONTANEOUS POTENTIAL FROM RES. LOG
AFCO60.MMHO  : CONDUCTIVITY, 4-FT RESOULTION
AT90  .OHMM  : 90-IN. RESISTIVITY, 2-FT RESOLUTION
AT30  .OHMM  : 30-IN. RESISTIVITY, 2-FT RESOLUTION
AT20  .OHMM  : 20-IN. RESISTIVITY, 2-FT RESOLUTION
CALD  .IN    : CALIPER FROM DENSITY LOG
DRHO  .G/C3  : DENSITY CORRECTION
DPHI  .DEC   : DENSITY POROSITY LIMESTONE
NPHI  .DEC   : NEUTRON POROSITY LIMESTONE
RHOB  .G/C3  : BULK DENSITY
GRR   .GAPI  : GAMMA RAY FROM RESISTIVITY
DTSM  .US/F  : SHEAR-WAVE INTERVAL TRANSIT TIME DELTA-T
PEF   .B/E   : PHOTOELECTRIC FACTOR
~Params ----------------------------------------------------
~Other -----------------------------------------------------
~ASCII -----------------------------------------------------
# ...
 10094.89990   -9999.25  -10.34290   -9999.25    7.14450    7.79590    7.19420   10.73000   -0.00700    0.03490    0.17980    2.65590   77.23960   -9999.25    4.88130
 10095.39990   -9999.25  -10.22470   -9999.25    6.87030    7.32460    6.82060   10.73640   -0.00740    0.03430    0.17930    2.65350   74.29520   -9999.25    4.97180
 10095.89990   -9999.25  -10.10670   -9999.25    6.52410    6.83320    6.47270   10.72400   -0.00740    0.03310    0.17900    2.65200   71.67710   -9999.25    5.06420
 10096.39990   -9999.25   -9.98960   -9999.25    6.18720    6.42550    6.14260   10.70870   -0.00740    0.03380    0.18040    2.65220   70.98970   -9999.25    5.15420
 10096.89990   -9999.25   -9.87610   -9999.25    5.86760    6.01830    5.80620   10.69270   -0.00770    0.03510    0.18500    2.65280   73.12170   -9999.25    5.24600
 10097.39990   -9999.25   -9.76070   -9999.25    5.66930    5.78320    5.73840   10.67820   -0.00910    0.03510    0.19510    2.65330   77.20850   -9999.25    5.33920
 10097.89990   -9999.25   -9.63530   -9999.25    5.63550    5.71260    5.65610   10.66880   -0.00870    0.03400    0.20340    2.65480   81.57000   -9999.25    5.42040
 10098.39990   -9999.25   -9.51500   -9999.25    5.55470    5.69000    5.63550   10.71310   -0.00770    0.03430    0.21350    2.65330   85.22970   -9999.25    5.61480
 10098.89990   -9999.25   -9.43740   -9999.25    5.52070    5.66020    5.59950   10.76110   -0.00870    0.03750    0.22440    2.64740   88.40200   -9999.25    5.95560
 10099.39990   -9999.25   -9.42350   -9999.25    5.51780    5.63500    5.56540   10.80920   -0.00940    0.04120    0.23510    2.64100   91.69860   -9999.25    6.31400
 10099.89990   -9999.25   -9.45170   -9999.25    5.50270    5.60770    5.53410   10.82110   -0.01070    0.04490    0.25310    2.63450   94.78870   -9999.25    6.64730
 10100.39990   -9999.25   -9.48420   -9999.25    5.49520    5.58120    5.50310   10.81610   -0.01240    0.04780    0.26280    2.62990   95.85180   -9999.25    7.16970
 10100.89990   -9999.25   -9.50650   -9999.25    5.48380    5.55490    5.47220   10.79680   -0.01270    0.04910    0.26220    2.62750   93.02190   -9999.25    7.90650
 10101.39990   -9999.25   -9.52740   -9999.25    5.47260    5.53660    5.44160   10.78310   -0.01150    0.04950    0.25860    2.62770   86.87520   -9999.25    8.68610
 10101.89990   -9999.25   -9.55340   -9999.25    5.46500    5.50540    5.41100   10.78190   -0.00810    0.04890    0.25470    2.63120   80.82840   -9999.25    9.47380
 10102.39990   -9999.25   -9.58020   -9999.25    5.45050    5.45110    5.38070   10.78190   -0.00400    0.04530    0.25140    2.63540   78.04460   -9999.25    9.92720
 10102.89990   -9999.25   -9.60420   -9999.25    5.44610    5.39190    5.34510   10.78400   -0.00170    0.04090    0.25130    2.63760   78.28130   -9999.25    9.98360
 10103.39990   -9999.25   -9.62780   -9999.25    5.43260    5.33540    5.30990   10.78700   -0.00210    0.04120    0.25430    2.63730   78.89410   -9999.25    9.97360
 10103.89990   -9999.25   -9.65270   -9999.25    5.34380    5.27650    5.26720   10.79000   -0.00280    0.04220    0.25600    2.63630   78.62160   -9999.25    9.97780
 10104.39990   -9999.25   -9.67800   -9999.25    5.24470    5.22220    5.22290   10.79290   -0.00320    0.04100    0.25620    2.63870   78.73120   -9999.25    9.97960
 10104.89990   -9999.25   -9.70260   -9999.25    5.16820    5.16370    5.17900   10.79590   -0.00320    0.03690    0.25910    2.64620   80.31450   -9999.25    9.98130
 10105.39990   -9999.25   -9.72700   -9999.25    5.07870    5.11090    5.13540   10.79890    0.00120    0.03350    0.26390    2.65200   82.36690   -9999.25    9.98100
 10105.89990   -9999.25   -9.75180   -9999.25    4.98750    5.05280    5.09220   10.80190    0.00260    0.03290    0.26890    2.65410   83.32550   -9999.25    9.98040
 10106.39990   -9999.25   -9.77660   -9999.25    4.96590    4.98020    5.13510   10.80480    0.00510    0.03950    0.27060    2.64900   82.95730   -9999.25    9.98030
 10106.89990   -9999.25   -9.80120   -9999.25    4.96500    4.96500    5.00170   10.80790    0.00800    0.04590    0.26780    2.63380   81.98440   -9999.25    9.98030
 10107.39990   -9999.25   -9.82580   -9999.25    4.96500    4.96500    5.03750   10.81070    0.01100    0.04940    0.26410    2.62320   81.28950   -9999.25    9.98030
 10107.89990   -9999.25   -9.85040   -9999.25    4.96500    4.96500    5.05570   10.81380    0.01360    0.05110    0.26080    2.62360   82.04220   -9999.25    9.98030
 10108.39990   -9999.25   -9.87500   -9999.25    4.96500    4.96500    5.05570   10.81710    0.01270    0.05180    0.25720    2.62710   84.91790   -9999.25    9.98030
 10108.89990   -9999.25   -9.89960   -9999.25    4.96500    4.96500    5.05570   10.81870    0.01120    0.04990    0.25380    2.63090   88.42240   -9999.25    9.98030
 10109.39990   -9999.25   -9.92420   -9999.25    4.96500    4.96500    5.05570   10.83320    0.00940    0.04560    0.25180    2.63560   89.72180   -9999.25    9.98030
 10109.89990   -9999.25   -9.94880   -9999.25    4.92780    4.96500    5.02020   10.85940    0.00860    0.04220    0.25020    2.63130   87.96730   -9999.25    9.98030
 10110.39990   -9999.25   -9.97340   -9999.25    4.84830    4.96500    4.94410   10.88620    0.00720    0.04900    0.24990    2.60590   85.30240   -9999.25    9.98030
 10110.89990   -9999.25   -9.99800   -9999.25    4.76170    4.91850    4.86130   10.91150    0.00540    0.05920    0.25170    2.56550   83.82370   -9999.25    9.98030
 10111.39990   -9999.25  -10.02260   -9999.25    4.64360    4.85670    4.79980   10.93880    0.00240    0.08060    0.25690    2.52980   83.13020   -9999.25    9.98030
 10111.89990   -9999.25  -10.04720   -9999.25    4.61840    4.79970    4.78860   10.96500   -0.00090    0.10760    0.26910    2.51710   81.89510   -9999.25    9.98030
 10112.39990   -9999.25  -10.07180   -9999.25    4.70290    4.71990    4.80770   10.97230   -0.00330    0.11090    0.28400    2.52740   80.33450   -9999.25    9.98030
 10112.89990   -9999.25  -10.09640   -9999.25    4.84760    4.74710    4.82980   10.90080   -0.00320    0.10140    0.28950    2.54950   79.65060   -9999.25    9.98030
 10113.39990   -9999.25  -10.12100   -9999.25    5.02020    4.85240    4.85160   10.83860   -0.00250    0.08920    0.28390    2.56290   79.90890   -9999.25    9.98030
 10113.89990   -9999.25  -10.14560   -9999.25    5.05570    4.87600    4.87200   10.85920   -0.00200    0.08400    0.26950    2.55640   80.10500   -9999.25    9.98030
 10114.39990   -9999.25  -10.17020   -9999.25    4.88220    4.82850    4.80430   10.89360   -0.00020    0.09840    0.25190    2.54320   80.03050   -9999.25    9.98030
 10114.89990   -9999.25  -10.19480   -9999.25    4.72350    4.77340    4.65200   10.93120    0.00260    0.10070    0.24940    2.54470   80.61530   -9999.25    9.98030
 10115.39990   -9999.25  -10.21940   -9999.25    4.63470    4.71470    4.61840   10.93970    0.00580    0.09520    0.25180    2.56200   82.03250   -9999.25    9.98030
 10115.89990   -9999.25  -10.24400   -9999.25    4.68240    4.63520    4.61840   10.94020    0.00880    0.09180    0.25300    2.58270   82.61360   -9999.25    9.98030
 10116.39990   -9999.25  -10.26860   -9999.25    4.72710    4.61840    4.71150   10.93110    0.01210    0.07830    0.25060    2.59780   80.79830   -9999.25    9.98030
 10116.89990   -9999.25  -10.29320   -9999.25    4.75640    4.71830    4.79930   10.91920    0.01410    0.06790    0.25000    2.59050   77.96190   -9999.25    9.98030
 10117.39990   -9999.25  -10.31780   -9999.25    4.77660    4.82390    4.86390   10.90660    0.01430    0.07850    0.25880    2.56280   77.91980   -9999.25    9.98030
 10117.89990   -9999.25  -10.34240   -9999.25    4.79180    4.92640    4.92550   10.89520    0.01440    0.09950    0.26510    2.53210   82.63360   -9999.25    9.98030
 10118.39990   -9999.25  -10.36700   -9999.25    4.88200    5.03100    4.97770   10.88110    0.01320    0.12190    0.26970    2.49840   88.79810   -9999.25    9.98030
