~Version ---------------------------------------------------
VERS.   2.0 : CWLS log ASCII Standard -VERSION 2.0
WRAP.    NO : One line per depth step
DLM . SPACE : Column Data Section Delimiter
~Well ------------------------------------------------------
STRT .F             4682.3999 : START DEPTH
STOP .F            12412.8999 : STOP DEPTH
STEP .F                   0.5 : STEP
NULL .               -9999.25 : NULL VALUE
COMP .                        : COMPANY
WELL .                        : WELL
FLD  .                        : FIELD
LOC  .                        : LOCATION
PROV .                        : PROVINCE
CNTY .                        : COUNTY
STAT .                        : STATE
CTRY .                        : COUNTRY
SRVC .                        : SERVICE COMPANY
DATE .                        : DATE
UWI  .                        : UNIQUE WELL ID
API  .                        : API NUMBER
SLAT .WGS84 5.955052141188794 : SURFACE LATITUDE
SLON .WGS84 3.844581745088277 : SURFACE LONGITUDE
DATUM.F                1843.0 : DEPTH DATUM ELEV
~Curve Information -----------------------------------------
DEPT  .F     : 
DTCO  .US/F  : COMPRESSIONAL-WAVE INTERVAL TRANSIT TIME ACOUSTIC SLOWNESS
SPR   .MV    : SPONTANEOUS POTENTIAL FROM RES. LOG
AFCO60.MMHO  : CONDUCTIVITY, 4-FT RESOULTION
AT90  .OHMM  : 90-IN. RESISTIVITY, 2-FT RESOLUTION
AT30  .OHMM  : 30-IN. RESISTIVITY, 2-FT RESOLUTION
AT20  .OHMM  : 20-IN. RESISTIVITY, 2-FT RESOLUTION
CALD  .IN    : CALIPER FROM DENSITY LOG
DRHO  .G/C3  : DENSITY CORRECTION
DPHI  .DEC   : DENSITY POROSITY LIMESTONE
NPHI  .DEC   : NEUTRON POROSITY LIMESTONE
RHOB  .G/C3  : BULK DENSITY
GRR   .GAPI  : GAMMA RAY FROM RESISTIVITY
DTSM  .US/F  : SHEAR-WAVE INTERVAL TRANSIT TIME DELTA-T
PEF   .B/E   : PHOTOELECTRIC FACTOR
~Params ----------------------------------------------------
~Other -----------------------------------------------------
~ASCII -----------------------------------------------------
# ...
 10886.89990   85.59320  -28.57750   -9999.25    3.59590    3.52050    3.69230   12.08800    0.09760    0.22230    0.23600    2.32000   83.30380   86.00270    9.95590
 10887.39990   86.97300  -28.65720   -9999.25    3.64080    3.58030    3.77650   11.95290    0.08560    0.23200    0.23390    2.31110   84.08050   87.46590    9.95690
 10887.89990   88.35290  -28.73380   -9999.25    3.70360    3.64190    3.86250   11.95340    0.07110    0.23020    0.22490    2.30790   84.87190   88.48780    9.95780
 10888.39990   87.99270  -28.81230   -9999.25    3.80510    3.70100    3.95050   11.97490    0.06240    0.21010    0.22470    2.32380   84.81660   87.76520    9.95880
 10888.89990   86.53840  -28.89230   -9999.25    3.89690    3.76100    4.04050   11.93270    0.05850    0.18060    0.23050    2.36690   85.60920   86.63350    9.95970
 10889.39990   85.27480  -28.97130   -9999.25    3.98710    3.83310    4.12630   11.75360    0.05710    0.16160    0.23670    2.43060   88.55420   85.55880    9.96070
 10889.89990   84.40490  -29.04930   -9999.25    4.07340    3.92330    4.14320   11.60800    0.04470    0.16090    0.23920    2.43390   92.10700   83.80710    9.96160
 10890.39990   80.43750  -29.12810   -9999.25    4.17240    4.03400    4.14320   11.63380    0.02470    0.22230    0.23860    2.44910   93.66590   82.11040    9.96260
 10890.89990   80.24580  -29.20760   -9999.25    4.25950    4.17210    4.39190   11.71750    0.01400    0.28780    0.23630    2.31380   92.72590   81.95830    9.96350
 10891.39990   81.57910  -29.28610   -9999.25    4.36130    4.33210    4.45420   11.80620    0.00900    0.30010    0.23380    2.14530   90.68420   82.14300    9.96450
 10891.89990   81.54770  -29.36390   -9999.25    4.60940    4.52380    4.77080   11.91000    0.00670    0.29990    0.23290    2.12720   88.00200   81.22800    9.96540
 10892.39990   80.27810  -29.44340   -9999.25    4.92490    4.77100    5.08140   11.96650    0.00660    0.29970    0.23130    2.12440   83.59550   79.77380    9.96640
 10892.89990   78.63130  -29.52380   -9999.25    5.22610    5.08400    5.38450   11.95890    0.01320    0.29950    0.23200    2.13040   77.55140   78.15160    9.96730
 10893.39990   78.29360  -29.60150   -9999.25    5.58100    5.38080    5.70560   11.94280    0.01840    0.29920    0.23640    2.14270   72.60500   77.66470    9.96830
 10893.89990   78.29360  -29.67710   -9999.25    5.96720    5.73330    6.08940   11.93470    0.02920    0.29900    0.24360    2.17890   71.40910   77.46570    9.96920
 10894.39990   79.33040  -29.75810   -9999.25    6.07070    6.17800    6.25920   11.91700    0.04110    0.28430    0.24580    2.24160   73.33460   78.99400    9.97020
 10894.89990   81.00150  -29.84610   -9999.25    5.87330    6.29050    6.19170   11.71030    0.05480    0.24280    0.22680    2.30840   75.57450   80.92060    9.97110
 10895.39990   82.85790  -29.92830   -9999.25    5.67900    6.22380    5.35240   11.37320    0.06440    0.20640    0.20390    2.37470   76.71110   82.83670    9.97210
 10895.89990   84.67820  -29.99170   -9999.25    5.46330    6.14300    5.07420   11.01310    0.07760    0.16760    0.19030    2.44220   77.56750   84.75240    9.97300
 10896.39990   84.49790  -30.03930   -9999.25    5.28600    6.06180    5.28210   10.88310    0.08000    0.12830    0.19000    2.49740   79.00790   85.51810    9.97500
 10896.89990   84.01540  -30.08760   -9999.25    5.39800    5.97400    5.62800   10.97870    0.07540    0.11790    0.19630    2.52400   80.71870   85.44640    9.97820
 10897.39990   83.54770  -30.14370   -9999.25    5.58930    5.86580    6.00920   11.17710    0.06370    0.11150    0.20590    2.53210   82.20240   85.23560    9.97390
 10897.89990   84.18240  -30.19930   -9999.25    5.78870    5.84320    6.41620   11.31870    0.05460    0.09890    0.20860    2.53780   83.39910   85.02510    9.98120
 10898.39990   81.84720  -30.24850   -9999.25    5.92560    5.84320    6.60550   11.26540    0.04160    0.08030    0.20880    2.55530   84.07810   81.95800    9.98270
 10898.89990   79.89450  -30.30090   -9999.25    5.89410    6.10390    6.53710   11.05460    0.02970    0.06260    0.20830    2.58670   83.76790   79.50290    9.95740
 10899.39990   80.25720  -30.36240   -9999.25    5.79020    6.13340    6.51330   10.81660    0.01490    0.04910    0.20820    2.62090   82.62990   79.21980   10.03950
 10899.89990   81.26060  -30.41640   -9999.25    5.66200    6.07170    6.56800   10.61760    0.01030    0.03440    0.20920    2.65490   81.64790   79.05590    9.30870
 10900.39990   79.02840  -30.45470   -9999.25    5.63550    6.05850    6.63670   10.50610    0.00530    0.02700    0.21640    2.67520   81.50520   77.40100    7.40330
 10900.89990   75.90640  -30.50720   -9999.25    5.70280    5.97160    6.70600   10.43860    0.00120    0.02140    0.22480    2.67850   81.72940   75.13700    6.42550
 10901.39990   74.51610  -30.58830   -9999.25    5.76840    6.02350    6.77610   10.41980   -0.00130    0.02030    0.23210    2.67750   81.37570   74.91640    6.84050
 10901.89990   74.49820  -30.64420   -9999.25    5.82980    6.10450    6.85930   10.40350   -0.00120    0.03070    0.23730    2.66220   80.40170   75.26430    7.39350
 10902.39990   75.17090  -30.64500   -9999.25    5.89200    6.15930    6.87660   10.38330    0.00030    0.04120    0.22700    2.64240   79.67420   75.61030    7.93930
 10902.89990   75.95800  -30.69120   -9999.25    5.95480    6.16910    6.77800   10.36920    0.00050    0.04010    0.21060    2.64010   79.53500   75.96740    8.50150
 10903.39990   76.74500  -30.89730   -9999.25    6.04030    6.08070    6.52020   10.35630    0.00050    0.03830    0.20150    2.64040   79.20850   76.32810    9.04790
 10903.89990   76.58060  -31.17540   -9999.25    5.91450    6.05850    6.17600   10.48200    0.00010    0.03960    0.19940    2.64400   78.08100   76.68200    9.62800
 10904.39990   75.85250  -31.29000   -9999.25    5.63630    6.05850    5.83430   10.66430    0.00000    0.06800    0.19980    2.62670   76.70510   77.02170    9.98600
 10904.89990   76.66170  -31.14970   -9999.25    5.34590    5.83430    5.51310   10.77200    0.00420    0.08950    0.20010    2.57530   75.84320   77.35840   10.02010
 10905.39990   77.69820  -30.90090   -9999.25    5.07050    5.55650    5.20710   10.86580    0.00960    0.10050    0.20090    2.54040   75.53300   77.69500   10.01740
 10905.89990   77.89680  -30.70290   -9999.25    4.80930    5.29000    4.91920   10.99160    0.01630    0.10240    0.20170    2.53440   75.97480   78.03160   10.01970
 10906.39990   77.84140  -30.55060   -9999.25    4.56150    5.03630    4.64620   11.08100    0.02650    0.09900    0.20390    2.54160   77.99870   78.36820   10.01610
 10906.89990   77.59950  -30.37030   -9999.25    4.32650    4.79470    4.41760   11.11540    0.03250    0.08880    0.20500    2.56200   81.22640   78.28250   10.01580
 10907.39990   77.03220  -30.16360   -9999.25    4.10360    4.56470    4.27560   11.14120    0.03880    0.07970    0.20560    2.57680   83.02520   77.61600   10.01460
 10907.89990   78.70320  -29.97770   -9999.25    3.89220    4.34580    4.16520   11.16810    0.04000    0.07870    0.20690    2.57900   81.19410   76.83050   10.01330
 10908.39990   80.28120  -29.80940   -9999.25    3.74360    4.13740    4.06460   11.14930    0.03700    0.09890    0.20850    2.55230   77.08510   76.00810   10.01230
 10908.89990   76.76340  -29.61810   -9999.25    3.71690    3.95870    3.96080   11.09600    0.02660    0.14110    0.21570    2.48070   74.32090   76.34840   10.01140
 10909.39990   79.71940  -29.40750   -9999.25    3.71690    3.85780    3.86630   11.05430    0.01500    0.18750    0.22970    2.39800   74.72570   79.58730   10.01060
 10909.89990   84.10240  -29.23910   -9999.25    3.61130    3.78340    3.76690   11.10980    0.00480    0.21450    0.24890    2.34230   76.86120   84.27030   10.00970
 10910.39990   87.26020  -29.16260   -9999.25    3.58480    3.71230    3.67050   11.12190    0.00330    0.19660    0.25810    2.34030   78.24840   87.87660   10.00880
