~Version ---------------------------------------------------
VERS.   2.0 : CWLS log ASCII Standard -VERSION 2.0
WRAP.    NO : One line per depth step
DLM . SPACE : Column Data Section Delimiter
~Well ------------------------------------------------------
STRT .F             4682.3999 : START DEPTH
STOP .F            12412.8999 : STOP DEPTH
STEP .F                   0.5 : STEP
NULL .               -9999.25 : NULL VALUE
COMP .                        : COMPANY
WELL .                        : WELL
FLD  .                        : FIELD
LOC  .                        : LOCATION
PROV .                        : PROVINCE
CNTY .                        : COUNTY
STAT .                        : STATE
CTRY .                        : COUNTRY
SRVC .                        : SERVICE COMPANY
DATE .                        : DATE
UWI  .                        : UNIQUE WELL ID
API  .                        : API NUMBER
SLAT .WGS84 5.955052141188794 : SURFACE LATITUDE
SLON .WGS84 3.844581745088277 : SURFACE LONGITUDE
DATUM.F                1843.0 : DEPTH DATUM ELEV
~Curve Information -----------------------------------------
DEPT  .F     : 
DTCO  .US/F  : COMPRESSIONAL-WAVE INTERVAL TRANSIT TIME ACOUSTIC SLOWNESS
SPR   .MV    : SPONTANEOUS POTENTIAL FROM RES. LOG
AFCO60.MMHO  : CONDUCTIVITY, 4-FT RESOULTION
AT90  .OHMM  : 90-IN. RESISTIVITY, 2-FT RESOLUTION
AT30  .OHMM  : 30-IN. RESISTIVITY, 2-FT RESOLUTION
AT20  .OHMM  : 20-IN. RESISTIVITY, 2-FT RESOLUTION
CALD  .IN    : CALIPER FROM DENSITY LOG
DRHO  .G/C3  : DENSITY CORRECTION
DPHI  .DEC   : DENSITY POROSITY LIMESTONE
NPHI  .DEC   : NEUTRON POROSITY LIMESTONE
RHOB  .G/C3  : BULK DENSITY
GRR   .GAPI  : GAMMA RAY FROM RESISTIVITY
DTSM  .US/F  : SHEAR-WAVE INTERVAL TRANSIT TIME DELTA-T
PEF   .B/E   : PHOTOELECTRIC FACTOR
~Params ----------------------------------------------------
~Other -----------------------------------------------------
~ASCII -----------------------------------------------------
# ...
 11030.89990   53.89670  -34.16490   -9999.25    2.58830    2.78260    2.65500   10.80020    0.01130    0.12170    0.18590    2.48550   61.28080   53.73650    9.92560
 11031.39990   54.05660  -34.18570   -9999.25    2.78140    2.96200    2.97860   10.73030    0.01220    0.10330    0.19380    2.50540   61.60080   53.48430    9.92270
 11031.89990   53.63790  -34.20710   -9999.25    3.00430    3.16750    3.39270   10.63450    0.01220    0.09090    0.20700    2.52760   63.54600   53.65330    9.92020
 11032.39990   54.17790  -34.22800   -9999.25    3.23610    3.37900    4.00940   10.60110    0.00980    0.10270    0.22360    2.54650   66.49360   54.38530    9.91780
 11032.89990   54.99380  -34.24870   -9999.25    3.48580    3.60450    4.14320   10.65080    0.00700    0.10870    0.22940    2.54080   70.33900   55.10880    9.91550
 11033.39990   55.88840  -34.26950   -9999.25    3.84670    3.92670    4.09220   10.75560    0.00560    0.10660    0.23260    2.53070   74.72670   55.24750    9.91320
 11033.89990   55.83150  -34.29020   -9999.25    3.92430    3.96140    4.03750   10.99670    0.00820    0.10060    0.23590    2.52170   77.72030   55.24750    9.91090
 11034.39990   55.28200  -34.31090   -9999.25    3.92430    3.89610    4.00220   11.26560    0.01170    0.10160    0.24910    2.51990   78.33670   55.24750    9.90860
 11034.89990   54.93670  -34.33160   -9999.25    3.76920    3.82620    3.83160   11.53780    0.01460    0.10950    0.26360    2.52400   77.45430   55.24750    9.90630
 11035.39990   54.62440  -34.35230   -9999.25    3.66630    3.73600    3.67840   11.74070    0.01640    0.11850    0.26840    2.52640   75.03490   54.84840    9.90400
 11035.89990   53.88050  -34.37310   -9999.25    3.54650    3.69020    3.70360   11.85720    0.01770    0.12740    0.26880    2.52520   71.27660   53.93760    9.90170
 11036.39990   53.05970  -34.39380   -9999.25    3.59230    3.65690    3.80800   11.92200    0.01950    0.12860    0.26560    2.49460   69.70420   53.04410    9.89940
 11036.89990   53.53160  -34.41450   -9999.25    3.74360    3.86940    3.90560   12.00180    0.02330    0.12050    0.25730    2.48330   71.30630   53.10410    9.89710
 11037.39990   53.29370  -34.43530   -9999.25    3.81520    3.92430    3.94060   12.03020    0.02810    0.10890    0.25040    2.48870   74.33600   53.36510    9.89480
 11037.89990   53.17950  -34.45600   -9999.25    3.50130    3.84580    3.96510   11.90120    0.03310    0.10070    0.25160    2.53380   76.50550   53.61860    9.89250
 11038.39990   53.87490  -34.47670   -9999.25    3.33350    3.79310    3.99080   11.65790    0.03530    0.09980    0.25730    2.54050   77.42440   53.87200    9.89020
 11038.89990   54.74900  -34.49750   -9999.25    3.61740    4.02840    4.17420   11.59910    0.03470    0.10440    0.25920    2.53770   78.06690   54.12550    9.88790
 11039.39990   54.91560  -34.51820   -9999.25    3.94730    4.27530    4.67450   11.68990    0.03410    0.10490    0.25940    2.53150   78.69120   54.39960    9.88560
 11039.89990   54.42410  -34.53880   -9999.25    4.37930    4.55900    4.85850   11.76820    0.03630    0.09660    0.24990    2.52600   78.61040   54.13520    9.88330
 11040.39990   54.23650  -34.55950   -9999.25    4.63280    4.68580    4.80610   11.73350    0.03950    0.08480    0.24060    2.53300   77.55430   53.42430    9.88100
 11040.89990   53.79650  -34.58050   -9999.25    4.44080    4.65660    4.78860   11.61790    0.04230    0.07260    0.23440    2.59120   76.15230   52.63580    9.88090
 11041.39990   52.10360  -34.60140   -9999.25    4.14880    4.59950    4.76300   11.47800    0.04080    0.06560    0.23270    2.59930   75.23840   51.84230    9.87550
 11041.89990   52.25570  -34.62160   -9999.25    3.92220    4.54310    4.72480   11.20870    0.03360    0.07580    0.23200    2.58990   75.15850   52.11000    9.87780
 11042.39990   52.98640  -34.64210   -9999.25    3.99000    4.46970    4.68540   11.08780    0.02590    0.09070    0.23190    2.57640   75.51150   52.92640    9.87680
 11042.89990   53.72810  -34.66390   -9999.25    4.26270    4.45420    4.64630   11.06120    0.01980    0.09500    0.23840    2.56380   75.43520   53.81350    9.84940
 11043.39990   54.46980  -34.68460   -9999.25    4.47280    4.44460    4.60760   11.04290    0.01480    0.09090    0.24420    2.55300   74.43180   54.36250    9.90750
 11043.89990   54.40690  -34.69910   -9999.25    4.55070    4.43410    4.56910   11.02640    0.01230    0.08100    0.24710    2.56290   72.81460   54.45540    9.82910
 11044.39990   53.70140  -34.70450   -9999.25    4.57360    4.42410    4.53100   11.00610    0.01630    0.07110    0.24640    2.57710   71.22690   53.18840   10.00210
 11044.89990   53.85040  -34.70420   -9999.25    4.44670    4.41410    4.49320   10.98540    0.02160    0.06730    0.24240    2.59150   70.06290   53.65860    6.86780
 11045.39990   54.54030  -34.70320   -9999.25    4.25790    4.40410    4.45570   10.98020    0.02720    0.07150    0.24470    2.59430   69.63760   54.55080    6.23080
 11045.89990   55.23540  -34.70350   -9999.25    4.09890    4.39420    4.41860   10.98100    0.03110    0.08150    0.24970    2.59370   70.18240   55.14290    6.89050
 11046.39990   55.61380  -34.70400   -9999.25    4.09520    4.38420    4.38170   10.97740    0.03290    0.09240    0.26390    2.57550   71.23480   55.24750    7.81770
 11046.89990   55.14650  -34.70380   -9999.25    4.13490    4.37590    4.37430   11.00450    0.02810    0.10460    0.26090    2.55390   71.82160   55.10310    8.74430
 11047.39990   54.27290  -34.70350   -9999.25    4.17670    4.37430    4.37430   11.01800    0.02170    0.11110    0.25160    2.53260   71.70870   54.74260    9.60710
 11047.89990   54.72210  -34.70360   -9999.25    4.21210    4.36390    4.37430   11.02180    0.01420    0.11690    0.24060    2.52220   71.66680   54.09760    9.89790
 11048.39990   52.65930  -34.70370   -9999.25    4.17840    4.35380    4.37430   11.01470    0.00830    0.11690    0.23310    2.51580   72.14220   53.14550    9.94500
 11048.89990   52.75060  -34.70370   -9999.25    4.11840    4.34450    4.37430   11.07000    0.01220    0.11370    0.23600    2.51050   72.75080   53.06840    9.94270
 11049.39990   54.16950  -34.70360   -9999.25    4.07630    4.33520    4.37430   11.18250    0.02080    0.10540    0.25290    2.52490   73.46410   54.02660    9.94420
 11049.89990   54.80150  -34.70360   -9999.25    4.09840    4.32590    4.37430   11.29910    0.03010    0.08640    0.25990    2.54530   75.04280   54.79500    9.94580
 11050.39990   53.67550  -34.70360   -9999.25    4.13570    4.31660    4.37430   11.41330    0.03940    0.07780    0.25970    2.56560   77.49270   53.99190    9.94540
 11050.89990   53.54950  -34.70360   -9999.25    4.14320    4.30740    4.37430   11.52470    0.04370    0.07460    0.25770    2.58260   79.19710   53.54910    9.94600
 11051.39990   54.48920  -34.70360   -9999.25    4.08500    4.29820    4.37430   11.59560    0.04430    0.07730    0.25340    2.57910   78.49390   54.30160    9.94640
 11051.89990   55.60910  -34.70360   -9999.25    4.00920    4.28900    4.37430   11.61280    0.03480    0.08680    0.24850    2.56750   75.51650   55.30750    9.94700
 11052.39990   56.65850  -34.70360   -9999.25    4.01660    4.28000    4.37430   11.56310    0.03040    0.09440    0.24380    2.55420   71.94090   56.31350    9.94770
 11052.89990   57.03900  -34.70360   -9999.25    4.03830    4.27050    4.37430   11.47690    0.02810    0.09760    0.24310    2.54110   69.50820   56.82340    9.94850
 11053.39990   57.22600  -34.70380   -9999.25    4.08010    4.26160    4.37430   11.39300    0.02380    0.09990    0.24510    2.52800   69.14230   56.98100    9.94930
 11053.89990   57.11750  -34.70400   -9999.25    4.09440    4.25180    4.37430   11.32500    0.02270    0.10480    0.24720    2.51550   70.70360   57.08160    9.95000
 11054.39990   56.90840  -34.70370   -9999.25    4.14770    4.24310    4.37430   11.39470    0.02280    0.11280    0.25770    2.51460   72.96270   57.18220    9.95080
