~Version ---------------------------------------------------
VERS.   2.0 : CWLS log ASCII Standard -VERSION 2.0
WRAP.    NO : One line per depth step
DLM . SPACE : Column Data Section Delimiter
~Well ------------------------------------------------------
STRT .F             4682.3999 : START DEPTH
STOP .F            12412.8999 : STOP DEPTH
STEP .F                   0.5 : STEP
NULL .               -9999.25 : NULL VALUE
COMP .                        : COMPANY
WELL .                        : WELL
FLD  .                        : FIELD
LOC  .                        : LOCATION
PROV .                        : PROVINCE
CNTY .                        : COUNTY
STAT .                        : STATE
CTRY .                        : COUNTRY
SRVC .                        : SERVICE COMPANY
DATE .                        : DATE
UWI  .                        : UNIQUE WELL ID
API  .                        : API NUMBER
SLAT .WGS84 5.955052141188794 : SURFACE LATITUDE
SLON .WGS84 3.844581745088277 : SURFACE LONGITUDE
DATUM.F                1843.0 : DEPTH DATUM ELEV
~Curve Information -----------------------------------------
DEPT  .F     : 
DTCO  .US/F  : COMPRESSIONAL-WAVE INTERVAL TRANSIT TIME ACOUSTIC SLOWNESS
SPR   .MV    : SPONTANEOUS POTENTIAL FROM RES. LOG
AFCO60.MMHO  : CONDUCTIVITY, 4-FT RESOULTION
AT90  .OHMM  : 90-IN. RESISTIVITY, 2-FT RESOLUTION
AT30  .OHMM  : 30-IN. RESISTIVITY, 2-FT RESOLUTION
AT20  .OHMM  : 20-IN. RESISTIVITY, 2-FT RESOLUTION
CALD  .IN    : CALIPER FROM DENSITY LOG
DRHO  .G/C3  : DENSITY CORRECTION
DPHI  .DEC   : DENSITY POROSITY LIMESTONE
NPHI  .DEC   : NEUTRON POROSITY LIMESTONE
RHOB  .G/C3  : BULK DENSITY
GRR   .GAPI  : GAMMA RAY FROM RESISTIVITY
DTSM  .US/F  : SHEAR-WAVE INTERVAL TRANSIT TIME DELTA-T
PEF   .B/E   : PHOTOELECTRIC FACTOR
~Params ----------------------------------------------------
~Other -----------------------------------------------------
~ASCII -----------------------------------------------------
# ...
 11678.89990   54.08380  -46.71890   -9999.25    2.93200    3.02080    2.93820   11.23890    0.01290    0.12860    0.26810    2.49170   80.44260   53.25710   -9999.25
 11679.39990   52.24120  -46.75240   -9999.25    2.89340    2.99600    2.93790   11.01670    0.01430    0.12910    0.26690    2.49230   80.61690   52.11650   -9999.25
 11679.89990   50.31100  -46.78590   -9999.25    2.90220    3.04280    2.93790   10.88140    0.01280    0.12720    0.26530    2.48370   81.65750   50.97590   -9999.25
 11680.39990   48.17580  -46.81590   -9999.25    2.93920    3.10080    2.93790   10.84290    0.01100    0.12520    0.26790    2.46980   80.95510   49.83530   -9999.25
 11680.89990   48.05550  -46.84590   -9999.25    2.98080    3.14990    2.93770   10.87700    0.00900    0.13580    0.27120    2.45430   77.42150   48.69470   -9999.25
 11681.39990   49.08710  -46.87770   -9999.25    3.02280    3.20570    2.93790   10.97880    0.00700    0.14680    0.27360    2.44870   73.78740   49.44130   -9999.25
 11681.89990   52.29610  -46.90960   -9999.25    3.06550    3.25640    2.93770   11.03790    0.00510    0.15350    0.27580    2.45800   73.68610   51.48730   -9999.25
 11682.39990   54.32980  -46.94060   -9999.25    3.10880    3.31440    2.93800   11.00790    0.00310    0.14280    0.27620    2.47340   77.42180   53.74040   -9999.25
 11682.89990   55.15270  -46.97150   -9999.25    3.15020    3.36640    2.93760   10.91350   -0.00040    0.12780    0.27290    2.49120   82.02870   55.66960   -9999.25
 11683.39990   55.59520  -47.00280   -9999.25    3.16060    3.42660    2.93780   10.83400   -0.00360    0.13240    0.26750    2.48120   84.69450   56.75700   -9999.25
 11683.89990   56.56010  -47.03420   -9999.25    3.16460    3.48020    2.94920   10.77950   -0.01320    0.15470    0.26080    2.44770   84.60840   57.54480   -9999.25
 11684.39990   57.16580  -47.06530   -9999.25    3.16900    3.54240    2.96630   10.72530   -0.03750    0.18980    0.25380    2.41230   82.27050   58.30520   -9999.25
 11684.89990   58.49690  -47.09640   -9999.25    3.17330    3.57670    2.98310   10.73370   -0.05260    0.21300    0.25890    2.37860   78.83190   59.06560   -9999.25
 11685.39990   59.11290  -47.12750   -9999.25    3.17760    3.47670    3.00120   10.75530   -0.05880    0.22220    0.26710    2.34360   75.98810   59.46960   -9999.25
 11685.89990   59.50060  -47.15860   -9999.25    3.18190    3.37400    3.01780   10.78640   -0.06050    0.22640    0.27330    2.32480   75.02380   59.41680   -9999.25
 11686.39990   59.57750  -47.18980   -9999.25    3.18620    3.28500    3.03720   10.82390   -0.05370    0.21690    0.27760    2.33790   75.74360   59.27200   -9999.25
 11686.89990   58.91160  -47.22090   -9999.25    3.19060    3.22660    3.05260   10.82280   -0.03680    0.19330    0.27960    2.36770   77.03860   59.11250   -9999.25
 11687.39990   58.16500  -47.25200   -9999.25    3.19490    3.30480    3.07200   10.77820   -0.01880    0.16710    0.27660    2.39940   78.22790   58.94470   -9999.25
 11687.89990   57.67900  -47.28310   -9999.25    3.19930    3.38170    3.09660   10.83410   -0.00390    0.15680    0.26740    2.42800   79.19490   58.04830   -9999.25
 11688.39990   55.37340  -47.31420   -9999.25    3.20360    3.38520    3.08980   10.99820    0.00410    0.15060    0.25370    2.44800   79.86410   55.94030   -9999.25
 11688.89990   52.01190  -47.34530   -9999.25    3.20800    3.36530    3.06680   11.19530    0.01140    0.14070    0.25490    2.44830   80.34840   53.47640   -9999.25
 11689.39990   52.68380  -47.37640   -9999.25    3.21230    3.33980    3.04190   11.27470    0.02440    0.12760    0.26270    2.51800   81.05760   54.14280   -9999.25
 11689.89990   56.68400  -47.40760   -9999.25    3.21550    3.28670    3.01710   11.24690    0.03520    0.11160    0.26990    2.52130   81.91230   58.25220   -9999.25
 11690.39990   58.91630  -47.43870   -9999.25    3.25830    3.28290    2.99560   11.14700    0.03390    0.11410    0.25800    2.50290   82.24750   59.22200   -9999.25
 11690.89990   58.92870  -47.46980   -9999.25    3.30040    3.29980    3.16240   11.01530    0.02970    0.12280    0.25630    2.47950   82.15150   58.32450   -9999.25
 11691.39990   57.26230  -47.50090   -9999.25    3.34010    3.31830    3.36320   10.86780    0.02520    0.13190    0.25920    2.48150   82.59070   57.19800   -9999.25
 11691.89990   55.59560  -47.53200   -9999.25    3.38030    3.33200    3.57060   10.78040    0.02030    0.13730    0.26240    2.51760   83.41200   55.90960   -9999.25
 11692.39990   55.27780  -47.56310   -9999.25    3.42100    3.63710    3.79080   10.71670    0.01540    0.10360    0.26370    2.53340   83.03480   55.85640   -9999.25
 11692.89990   55.27780  -47.59420   -9999.25    3.45180    3.93930    3.96380   10.65040    0.01140    0.09300    0.26170    2.54590   81.34630   56.16920   -9999.25
 11693.39990   55.91250  -47.62540   -9999.25    3.47630    3.99590    4.01470   10.59110    0.01250    0.09060    0.25890    2.55840   80.80670   56.49360   -9999.25
 11693.89990   56.07140  -47.65650   -9999.25    3.50200    3.99590    4.04000   10.50870    0.01700    0.08830    0.25610    2.57070   82.92370   56.81810   -9999.25
 11694.39990   56.38880  -47.68740   -9999.25    3.51790    3.93860    4.06420   10.47450    0.02180    0.08590    0.25500    2.58140   85.61170   57.14250   -9999.25
 11694.89990   57.14740  -47.71830   -9999.25    3.54420    3.86190    3.95730   10.45550    0.02690    0.07600    0.25690    2.58950   86.26810   57.46690   -9999.25
 11695.39990   57.80500  -47.74940   -9999.25    3.56610    3.80510    3.83020   10.43990    0.03160    0.06980    0.25950    2.59760   85.66360   57.79140   -9999.25
 11695.89990   58.02980  -47.78070   -9999.25    3.58620    3.75420    3.73470   10.42370    0.03680    0.06570    0.26080    2.60210   86.20730   58.11580   -9999.25
 11696.39990   58.05560  -47.81140   -9999.25    3.60630    3.72240    3.79470   10.40750    0.03500    0.06310    0.26100    2.60270   87.75360   58.44020   -9999.25
 11696.89990   58.05560  -47.84180   -9999.25    3.62660    3.88860    3.90680   10.42450    0.03050    0.06260    0.25720    2.60110   87.92670   58.74430   -9999.25
 11697.39990   58.37290  -47.87320   -9999.25    3.64640    4.10080    3.98270   10.45090    0.02550    0.06350    0.25250    2.59740   85.94620   58.79870   -9999.25
 11697.89990   58.45240  -47.90550   -9999.25    3.62600    4.14320    4.11370   10.47540    0.02060    0.06600    0.25220    2.59340   83.64880   58.79190   -9999.25
 11698.39990   58.25010  -47.93590   -9999.25    3.58220    4.14320    4.14320   10.46450    0.01560    0.06890    0.25510    2.58950   82.84470   58.93070   -9999.25
 11698.89990   57.46850  -47.96450   -9999.25    3.53550    3.88820    3.99930   10.44530    0.01080    0.07180    0.25910    2.58540   83.58450   59.13760   -9999.25
 11699.39990   56.55460  -47.99650   -9999.25    3.48940    3.65750    3.86610   10.42840    0.00620    0.07460    0.26330    2.58310   84.91240   57.16500   -9999.25
 11699.89990   55.64060  -48.03200   -9999.25    3.44400    3.48910    3.74770   10.40700    0.00600    0.07560    0.26420    2.58280   85.86550   54.90860   -9999.25
 11700.39990   54.99640  -48.06090   -9999.25    3.39910    3.42440    3.63290   10.39570    0.00710    0.07570    0.25350    2.58280   85.84820   54.11810   -9999.25
 11700.89990   53.92880  -48.08400   -9999.25    3.35480    3.37550    3.53850   10.29820    0.00830    0.07520    0.25650    2.58290   85.25040   53.97250   -9999.25
 11701.39990   53.69050  -48.13430   -9999.25    3.31110    3.32510    3.47000   10.18440    0.00960    0.07450    0.26380    2.58260   85.38090   53.90070   -9999.25
 11701.89990   53.69050  -48.25450   -9999.25    3.26790    3.28280    3.45740   10.12920    0.01100    0.07190    0.27010    2.58580   86.58690   53.82880   -9999.25
 11702.39990   53.69050  -48.44990   -9999.25    3.22470    3.32180    3.48440   10.14850    0.01570    0.06860    0.26870    2.59360   86.98520   53.75700   -9999.25
