~Version ---------------------------------------------------
VERS.   2.0 : CWLS log ASCII Standard -VERSION 2.0
WRAP.    NO : One line per depth step
DLM . SPACE : Column Data Section Delimiter
~Well ------------------------------------------------------
STRT .F             4682.3999 : START DEPTH
STOP .F            12412.8999 : STOP DEPTH
STEP .F                   0.5 : STEP
NULL .               -9999.25 : NULL VALUE
COMP .                        : COMPANY
WELL .                        : WELL
FLD  .                        : FIELD
LOC  .                        : LOCATION
PROV .                        : PROVINCE
CNTY .                        : COUNTY
STAT .                        : STATE
CTRY .                        : COUNTRY
SRVC .                        : SERVICE COMPANY
DATE .                        : DATE
UWI  .                        : UNIQUE WELL ID
API  .                        : API NUMBER
SLAT .WGS84 5.955052141188794 : SURFACE LATITUDE
SLON .WGS84 3.844581745088277 : SURFACE LONGITUDE
DATUM.F                1843.0 : DEPTH DATUM ELEV
~Curve Information -----------------------------------------
DEPT  .F     : 
DTCO  .US/F  : COMPRESSIONAL-WAVE INTERVAL TRANSIT TIME ACOUSTIC SLOWNESS
SPR   .MV    : SPONTANEOUS POTENTIAL FROM RES. LOG
AFCO60.MMHO  : CONDUCTIVITY, 4-FT RESOULTION
AT90  .OHMM  : 90-IN. RESISTIVITY, 2-FT RESOLUTION
AT30  .OHMM  : 30-IN. RESISTIVITY, 2-FT RESOLUTION
AT20  .OHMM  : 20-IN. RESISTIVITY, 2-FT RESOLUTION
CALD  .IN    : CALIPER FROM DENSITY LOG
DRHO  .G/C3  : DENSITY CORRECTION
DPHI  .DEC   : DENSITY POROSITY LIMESTONE
NPHI  .DEC   : NEUTRON POROSITY LIMESTONE
RHOB  .G/C3  : BULK DENSITY
GRR   .GAPI  : GAMMA RAY FROM RESISTIVITY
DTSM  .US/F  : SHEAR-WAVE INTERVAL TRANSIT TIME DELTA-T
PEF   .B/E   : PHOTOELECTRIC FACTOR
~Params ----------------------------------------------------
~Other -----------------------------------------------------
~ASCII -----------------------------------------------------
# ...
 11342.89990   81.88740  -38.65610   -9999.25    5.86720    6.77200    6.13470    9.98920   -0.00080    0.02800    0.22100    2.66490   84.98290   80.28310    6.13420
 11343.39990   81.51210  -38.65610   -9999.25    5.84740    6.87340    6.16410    9.98420   -0.00260    0.02930    0.22120    2.66310   87.09030   79.61010    6.46970
 11343.89990   79.90810  -38.65610   -9999.25    5.89990    6.97860    6.25240    9.97910   -0.00460    0.02650    0.21910    2.66040   89.00500   78.72640    6.81960
 11344.39990   78.13730  -38.65610   -9999.25    6.00270    7.00550    6.35370    9.97410   -0.00660    0.02280    0.21110    2.65980   89.27370   77.96750    7.24910
 11344.89990   76.92180  -38.65610   -9999.25    6.11510    7.00270    6.45550    9.96910   -0.00850    0.02010    0.20530    2.66020   88.20620   77.71000    7.17070
 11345.39990   76.70640  -38.65610   -9999.25    6.22960    7.00410    6.55900    9.96410   -0.01030    0.02060    0.20240    2.66650   87.41720   77.58700    6.69720
 11345.89990   76.53180  -38.65610   -9999.25    6.34630    7.00470    6.66410    9.95900   -0.01010    0.02300    0.19990    2.67350   87.53680   77.46820    6.14980
 11346.39990   76.08340  -38.65610   -9999.25    6.46510    7.00270    6.76790    9.95400   -0.00930    0.02550    0.19750    2.67240   87.33700   77.34940    5.85180
 11346.89990   75.60920  -38.65610   -9999.25    6.60350    7.00220    6.86480    9.94900   -0.00840    0.02810    0.19470    2.66910   85.73040   77.23050    6.00690
 11347.39990   76.46800  -38.65610   -9999.25    6.63220    7.00220    6.87330    9.94380   -0.00750    0.03060    0.19510    2.66550   83.70220   77.11170    6.21200
 11347.89990   76.28920  -38.65610   -9999.25    6.54000    7.00220    6.69180    9.93890   -0.00660    0.03000    0.19660    2.66200   83.12250   76.81670    6.40810
 11348.39990   75.72230  -38.65610   -9999.25    6.37110    7.00220    6.50840    9.93390   -0.00580    0.02860    0.19820    2.65870   84.20210   76.30830    6.62000
 11348.89990   75.21670  -38.65610   -9999.25    6.19290    7.00220    6.35630    9.92800   -0.00520    0.02720    0.19980    2.65800   85.41180   75.75740    6.74800
 11349.39990   75.11900  -38.65610   -9999.25    6.01970    7.00220    6.19760    9.93110   -0.00560    0.02590    0.20140    2.66020   85.78800   75.20660    6.78640
 11349.89990   75.11900  -38.65610   -9999.25    5.85130    6.67810    6.00560    9.95450   -0.00640    0.02850    0.20280    2.66320   86.02450   74.74210    6.80880
 11350.39990   75.36190  -38.65610   -9999.25    5.68760    6.37790    5.80250    9.98180   -0.00680    0.03200    0.21350    2.66510   87.06110   75.98690    6.83920
 11350.89990   76.06060  -38.65610   -9999.25    5.52850    6.11310    5.61230   10.00890   -0.00690    0.03680    0.22490    2.66320   88.79770   77.43550    6.86760
 11351.39990   77.23590  -38.65610   -9999.25    5.37390    5.85930    5.42160   10.03600   -0.00630    0.04280    0.23160    2.64880   90.42410   78.82940    6.86800
 11351.89990   79.61020  -38.65610   -9999.25    5.22360    5.61600    5.24720   10.06480   -0.00440    0.04900    0.22760    2.63090   90.91630   80.22330    7.23230
 11352.39990   82.47200  -38.65610   -9999.25    5.07750    5.30720    5.00710   10.07780   -0.00220    0.05020    0.21460    2.62500   89.14130   81.61720    8.11730
 11352.89990   83.20310  -38.65610   -9999.25    4.91050    5.24200    4.97030   10.06690   -0.00110    0.04880    0.20200    2.62260   85.07320   83.07200    9.13410
 11353.39990   83.40990  -38.65610   -9999.25    4.94720    5.24200    5.23410   10.05310   -0.00100    0.04700    0.19960    2.62240   81.20610   83.55800    9.73400
 11353.89990   82.62930  -38.65610   -9999.25    4.96500    5.24200    5.58070   10.04580   -0.00100    0.04520    0.19960    2.62260   80.85810   83.00680    9.70180
 11354.39990   80.07250  -38.65610   -9999.25    5.42040    5.39180    5.90470   10.04070   -0.00120    0.04110    0.19960    2.62960   84.32490   80.96470    9.65210
 11354.89990   79.16670  -38.65610   -9999.25    5.59900    5.56170    6.25290   10.07030   -0.00210    0.03230    0.19980    2.63860   88.35170   78.59900    9.13720
 11355.39990   75.59610  -38.65610   -9999.25    5.73230    5.73130    6.76600   10.06740   -0.00300    0.02660    0.20020    2.64810   90.22560   76.56340    7.74230
 11355.89990   78.21340  -38.65610   -9999.25    5.88180    5.90610    6.78580   10.05640   -0.00390    0.02340    0.20070    2.65750   90.53480   77.00500    6.66720
 11356.39990   78.41970  -38.65610   -9999.25    6.03520    6.03500    6.60300   10.08110   -0.00490    0.02100    0.20110    2.66850   90.80920   78.97210    6.34680
 11356.89990   77.29230  -38.65610   -9999.25    6.19260    6.05850    6.42980   10.11290   -0.00580    0.01990    0.20160    2.67150   90.36420   77.92890    6.19210
 11357.39990   76.09170  -38.65610   -9999.25    6.36200    6.05850    6.54950   10.14370   -0.00670    0.01900    0.20130    2.67390   87.57720   75.93990    6.20850
 11357.89990   74.89110  -38.65610   -9999.25    6.48990    6.23710    6.72520   10.17500   -0.00660    0.01810    0.19940    2.67660   83.20110   74.21280    6.26250
 11358.39990   74.82850  -38.65610   -9999.25    6.47530    6.54580    6.85320   10.20640   -0.00630    0.01780    0.19710    2.67600   80.10070   75.42700    6.30050
 11358.89990   76.76880  -38.65610   -9999.25    6.43260    6.92410    6.75600   10.23750   -0.00600    0.01770    0.19480    2.67400   79.67190   77.12160    6.34920
 11359.39990   79.02170  -38.65610   -9999.25    6.40210    7.00220    6.50540   10.26740   -0.00570    0.02150    0.19250    2.67020   80.42870   78.70500    6.40500
 11359.89990   78.37430  -38.65610   -9999.25    6.12620    6.74600    6.23880   10.29390   -0.00530    0.02590    0.19120    2.66580   80.73920   79.07520    6.34330
 11360.39990   75.43600  -38.65610   -9999.25    5.86400    6.41780    5.98320   10.32540   -0.00500    0.02840    0.19090    2.66110   81.21860   76.17500    6.13610
 11360.89990   76.21140  -38.65610   -9999.25    5.62870    6.03030    5.73800   10.35700   -0.00440    0.02670    0.19090    2.66000   83.19990   77.23200    6.11270
 11361.39990   77.68570  -38.65610   -9999.25    5.38660    5.90650    5.48610   10.38860   -0.00380    0.02390    0.19790    2.66250   85.98310   80.32730    6.12870
 11361.89990   76.24140  -38.65610   -9999.25    5.44380    5.83540    5.58590   10.42010   -0.00310    0.02380    0.20530    2.66650   87.28180   79.72310    6.30480
 11362.39990   73.08870  -38.65610   -9999.25    5.60240    5.75480    5.88460   10.45230    0.00020    0.02440    0.20480    2.66760   86.02900   74.37750    6.72570
 11362.89990   71.75050  -38.65610   -9999.25    5.71780    5.73840    5.94990   10.48510    0.00280    0.02440    0.20250    2.66770   83.49960   72.10520    6.76990
 11363.39990   70.64680  -38.65610   -9999.25    5.63510    5.90750    5.81470   10.51800    0.00340    0.02370    0.20040    2.66830   81.87640   70.83900    6.72720
 11363.89990   66.93570  -38.65610   -9999.25    5.46460    5.86450    5.66090   10.55120    0.00360    0.02280    0.20120    2.66930   82.50540   67.20090    6.67520
 11364.39990   60.59840  -38.65610   -9999.25    5.28840    5.89580    5.51410   10.58300    0.00390    0.02180    0.20600    2.66960   85.06790   60.15290    6.63290
 11364.89990   53.76270  -38.65610   -9999.25    5.11800    5.94170    5.37100   10.61070    0.00410    0.02290    0.21120    2.66960   87.55420   53.11400    6.56400
 11365.39990   51.28960  -38.65610   -9999.25    4.98890    5.76070    5.26210   10.64080    0.00440    0.02460    0.21430    2.66970   87.54670   52.09600    6.45040
 11365.89990   51.55300  -38.65610   -9999.25    5.01610    5.49090    5.28950   10.68450    0.00460    0.02640    0.21670    2.66820   84.54400   52.49850    6.54110
 11366.39990   52.02230  -38.65610   -9999.25    5.06940    5.35720    5.35640   10.71910    0.00600    0.02830    0.21910    2.66600   80.72930   52.88940    7.58260
