~Version ---------------------------------------------------
VERS.   2.0 : CWLS log ASCII Standard -VERSION 2.0
WRAP.    NO : One line per depth step
DLM . SPACE : Column Data Section Delimiter
~Well ------------------------------------------------------
STRT .F             4682.3999 : START DEPTH
STOP .F            12412.8999 : STOP DEPTH
STEP .F                   0.5 : STEP
NULL .               -9999.25 : NULL VALUE
COMP .                        : COMPANY
WELL .                        : WELL
FLD  .                        : FIELD
LOC  .                        : LOCATION
PROV .                        : PROVINCE
CNTY .                        : COUNTY
STAT .                        : STATE
CTRY .                        : COUNTRY
SRVC .                        : SERVICE COMPANY
DATE .                        : DATE
UWI  .                        : UNIQUE WELL ID
API  .                        : API NUMBER
SLAT .WGS84 5.955052141188794 : SURFACE LATITUDE
SLON .WGS84 3.844581745088277 : SURFACE LONGITUDE
DATUM.F                1843.0 : DEPTH DATUM ELEV
~Curve Information -----------------------------------------
DEPT  .F     : 
DTCO  .US/F  : COMPRESSIONAL-WAVE INTERVAL TRANSIT TIME ACOUSTIC SLOWNESS
SPR   .MV    : SPONTANEOUS POTENTIAL FROM RES. LOG
AFCO60.MMHO  : CONDUCTIVITY, 4-FT RESOULTION
AT90  .OHMM  : 90-IN. RESISTIVITY, 2-FT RESOLUTION
AT30  .OHMM  : 30-IN. RESISTIVITY, 2-FT RESOLUTION
AT20  .OHMM  : 20-IN. RESISTIVITY, 2-FT RESOLUTION
CALD  .IN    : CALIPER FROM DENSITY LOG
DRHO  .G/C3  : DENSITY CORRECTION
DPHI  .DEC   : DENSITY POROSITY LIMESTONE
NPHI  .DEC   : NEUTRON POROSITY LIMESTONE
RHOB  .G/C3  : BULK DENSITY
GRR   .GAPI  : GAMMA RAY FROM RESISTIVITY
DTSM  .US/F  : SHEAR-WAVE INTERVAL TRANSIT TIME DELTA-T
PEF   .B/E   : PHOTOELECTRIC FACTOR
~Params ----------------------------------------------------
~Other -----------------------------------------------------
~ASCII -----------------------------------------------------
# ...
 11198.89990   70.06280  -49.58210   -9999.25   15.93790   16.81620   16.00830    9.99730   -0.00890    0.05840    0.14130    2.61340   68.03910   70.26340    5.37230
 11199.39990   69.96030  -50.89060   -9999.25   16.03860   16.69300   15.98180    9.98540   -0.00890    0.05780    0.13670    2.60920   68.10830   69.95570    5.48740
 11199.89990   69.36710  -52.50000   -9999.25   16.57080   17.69150   16.88180    9.97240   -0.00890    0.06560    0.13260    2.59550   65.50990   69.17530    5.63620
 11200.39990   68.21020  -53.97120   -9999.25   18.41750   18.91330   18.48940    9.96490   -0.00890    0.07520    0.11730    2.58110   61.37440   68.26240    5.56650
 11200.89990   66.94940  -55.44310   -9999.25   20.45860   20.46430   20.39930    9.96410   -0.00890    0.08480    0.10160    2.56680   57.98740   67.35440    5.25520
 11201.39990   65.81580  -57.16470   -9999.25   22.66400   22.21130   22.50650    9.96420   -0.00890    0.09450    0.08640    2.55250   56.17610   66.44100    4.89770
 11201.89990   66.12210  -58.89740   -9999.25   23.61020   24.10750   24.46720    9.96410   -0.00890    0.10110    0.07130    2.53760   54.39860   66.24310    4.71810
 11202.39990   66.67930  -60.17990   -9999.25   24.62690   25.51130   25.21330    9.96410   -0.00890    0.10770    0.06560    2.52760   50.87250   66.60510    4.77930
 11202.89990   66.78570  -61.01060   -9999.25   24.11220   25.76620   24.32340    9.96410   -0.00890    0.10770    0.06500    2.52800   46.16440   67.06240    4.87280
 11203.39990   66.78570  -61.80370   -9999.25   23.20250   24.53010   23.12610    9.96410   -0.00890    0.10440    0.07420    2.53390   43.04000   67.51960    4.96070
 11203.89990   67.42050  -62.69990   -9999.25   22.43930   23.00500   21.77890    9.96410   -0.00890    0.10050    0.08300    2.54080   43.51260   67.59910    5.05230
 11204.39990   65.67510  -63.43720   -9999.25   22.93070   23.12390   22.10600    9.96420   -0.00880    0.09840    0.08550    2.54370   46.48960   66.79150    5.14920
 11204.89990   65.71680  -64.00420   -9999.25   23.65330   23.79640   23.07780    9.96410   -0.00890    0.09980    0.08650    2.54040   48.93310   66.35570    5.19190
 11205.39990   66.59770  -64.86670   -9999.25   24.37460   24.52200   24.53660    9.96420   -0.00890    0.10200    0.08740    2.53640   48.92370   67.10160    5.14060
 11205.89990   67.96800  -66.29220   -9999.25   25.11780   25.26980   24.85030    9.96420   -0.00980    0.10400    0.08830    2.53320   46.89610   68.10750    5.07940
 11206.39990   68.06550  -67.94890   -9999.25   25.88370   26.07320   26.05530    9.96410   -0.01080    0.10470    0.08920    2.53080   44.23990   69.26550    5.01770
 11206.89990   67.03200  -69.48860   -9999.25   26.60860   26.61980   27.55710    9.96430   -0.01190    0.10510    0.08990    2.53010   41.88400   69.59820    4.94830
 11207.39990   67.77590  -71.03090   -9999.25   27.61530   28.81610   28.88220    9.96400   -0.01300    0.11070    0.09570    2.52470   40.30540   69.73640    4.95370
 11207.89990   68.93790  -72.71420   -9999.25   29.11890   31.34530   30.46140    9.96330   -0.01410    0.11700    0.09040    2.50970   39.77390   69.87380    5.11030
 11208.39990   66.37190  -74.21960   -9999.25   30.75180   34.02130   32.02300    9.94920   -0.01520    0.12310    0.08170    2.49840   40.13210   66.80860    5.30500
 11208.89990   63.02360  -75.19370   -9999.25   32.32320   37.60450   33.52630    9.93280   -0.01640    0.12560    0.07280    2.49590   40.88700   63.10360    5.42050
 11209.39990   60.02190  -75.77440   -9999.25   32.61050   38.36520   33.83630    9.91530   -0.01550    0.12400    0.06680    2.50050   41.81330   59.43920    5.37580
 11209.89990   56.38010  -76.31740   -9999.25   31.24140   33.78000   32.65080    9.89610   -0.01360    0.12060    0.06760    2.51380   43.27110   55.77470    5.30750
 11210.39990   50.90200  -76.89040   -9999.25   29.46820   28.43740   30.32790    9.89920   -0.01170    0.11240    0.08670    2.52850   45.86640   52.11020    5.23360
 11210.89990   49.72220  -77.36130   -9999.25   27.28810   23.86670   27.87110    9.95810   -0.00950    0.10160    0.10610    2.54370   49.66920   50.03800    5.27580
 11211.39990   49.40480  -77.71760   -9999.25   25.13690   20.88980   25.67400   10.02620   -0.01010    0.09330    0.11740    2.55440   53.51060   49.70300    5.62180
 11211.89990   49.32540  -78.02460   -9999.25   23.15500   20.36520   23.59760   10.04240   -0.01200    0.09170    0.11470    2.54360   55.37630   49.70300    6.01880
 11212.39990   52.65790  -78.35130   -9999.25   21.44520   21.07490   21.84960   10.04420   -0.01390    0.10830    0.10460    2.50940   54.23520   55.16690    6.42500
 11212.89990   57.45930  -78.87080   -9999.25   20.80170   21.92190   21.48760   10.04650   -0.01610    0.12650    0.09330    2.48660   51.43590   58.27470    6.84650
 11213.39990   58.76980  -79.66940   -9999.25   21.22200   22.57840   22.13810   10.05500   -0.01570    0.13220    0.08580    2.48980   49.60030   58.57610    7.03080
 11213.89990   58.02660  -80.38240   -9999.25   22.52420   22.70070   21.30520   10.06510   -0.01430    0.12860    0.08840    2.49610   50.07750   55.90720    6.51870
 11214.39990   56.53080  -80.52500   -9999.25   23.74700   20.63420   19.92400   10.07390   -0.01280    0.12350    0.09330    2.50270   51.75360   55.04230    6.05610
 11214.89990   56.41610  -80.36280   -9999.25   23.62580   19.41280   19.92810   10.08010   -0.01130    0.11870    0.09790    2.50760   52.16100   54.74950    6.18840
 11215.39990   54.61080  -80.89970   -9999.25   22.46920   19.29690   20.31450   10.05600   -0.00980    0.12090    0.10050    2.50640   49.64700   54.44770    6.49210
 11215.89990   55.05270  -82.72390   -9999.25   21.33320   19.26070   20.66820   10.02640   -0.00830    0.12470    0.10250    2.50170   45.07730   54.12510    6.80320
 11216.39990   56.86510  -85.32850   -9999.25   21.11570   20.31770   21.17420   10.00610   -0.00670    0.12840    0.10470    2.49640   41.47200   56.91020    7.71460
 11216.89990   55.67500  -87.85020   -9999.25   21.98610   21.56380   21.70160   10.00410   -0.00520    0.13110    0.10120    2.49060   41.12730   56.49140    8.64150
 11217.39990   56.03950  -90.07490   -9999.25   23.26310   22.93800   22.23460   10.00390   -0.00370    0.13240    0.09570    2.48610   43.08930   56.08910    9.44880
 11217.89990   57.05530  -92.33280   -9999.25   24.58570   23.79100   22.78060   10.00520   -0.00210    0.13330    0.09000    2.48400   44.45160   56.67710    9.56850
 11218.39990   56.02500  -94.75520   -9999.25   24.55940   23.16850   23.40780    9.98950   -0.00110    0.13430    0.08610    2.48200   44.02880   55.93390    9.53690
 11218.89990   54.44860  -97.12350   -9999.25   24.07110   22.40000   23.39340    9.95390   -0.00100    0.13560    0.08770    2.48010   43.35150   54.78970    9.48270
 11219.39990   53.23290  -99.36430   -9999.25   24.36200   22.32510   23.16370    9.91530   -0.00100    0.13800    0.09100    2.47570   43.98770   53.64010    9.43000
 11219.89990   53.23650 -101.70950   -9999.25   25.08770   23.20660   23.74030    9.87080   -0.00090    0.14230    0.09170    2.46520   45.48850   52.49040    9.28870
 11220.39990   51.38940 -104.18520   -9999.25   25.89160   24.30140   24.66530    9.81260   -0.00100    0.14700    0.09170    2.45330   46.54370   51.34080    9.13150
 11220.89990   50.91270 -106.23010   -9999.25   26.97330   25.25340   25.96060    9.74810   -0.00120    0.15170    0.09100    2.44430   46.77820   50.95470    8.97560
 11221.39990   51.23010 -107.16280   -9999.25   26.95770   26.39630   26.43630    9.68750   -0.00410    0.15570    0.08900    2.44420   46.50120   51.63970    8.83490
 11221.89990   52.42670 -106.93770   -9999.25   26.51190   27.04280   26.66980    9.62430   -0.00730    0.15540    0.08680    2.44920   45.67470   52.54510    8.83900
 11222.39990   53.49350 -106.14080   -9999.25   26.03840   26.81290   25.98500    9.65230   -0.01030    0.15150    0.08510    2.45510   44.16720   53.45040    8.86840
