~Version ---------------------------------------------------
VERS.   2.0 : CWLS log ASCII Standard -VERSION 2.0
WRAP.    NO : One line per depth step
DLM . SPACE : Column Data Section Delimiter
~Well ------------------------------------------------------
STRT .FT                 129.0 : START DEPTH
STOP .FT               11966.0 : STOP DEPTH
STEP .FT                   0.5 : STEP
NULL .                -9999.25 : NULL VALUE
COMP .                         : COMPANY
WELL .                         : WELL
FLD  .                         : FIELD
LOC  .                         : LOCATION
PROV .                         : PROVINCE
CNTY .                         : COUNTY
STAT .                         : STATE
CTRY .                         : COUNTRY
SRVC .                         : SERVICE COMPANY
DATE .                         : DATE
UWI  .                         : UNIQUE WELL ID
API  .                         : API NUMBER
SLAT .WGS84 1.7548774737004003 : SURFACE LATITUDE
SLON .WGS84  7.956282701443996 : SURFACE LONGITUDE
DATUM.F                    nan : DEPTH DATUM ELEV
~Curve Information -----------------------------------------
DEPT   .FT    : 
CALD   .IN    : CALIPER FROM DENSITY LOG
DPHZ_LS.DEC   : HGRD STANDARD RESOLUTION DENSITY POROSITY
DTCO   .US/F  : DELTA-T COMPRESSIONAL
DTSM   .US/F  : DELTA-T SHEAR
HDRA   .G/C3  : HRDD SPINE AND RIBS DENSITY CORRECTION
PEFZ   .B/E   : HRDD STANDARD RESOLUTION FORMATION PHOTOELECTRIC FACTOR
RHOZ   .G/C3  : HRDD STANDARD RESOLUTION FORMATION DENSITY
RLA3   .OHMM  : APPARENT RESISTIVITY FROM COMPUTED FOCUSING MODE 3
RLA4   .OHMM  : APPARENT RESISTIVITY FROM COMPUTED FOCUSING MODE 4
RLA5   .OHMM  : APPARENT RESISTIVITY FROM COMPUTED FOCUSING MODE 5
SGRDD  .GAPI  : SPECTROSCOPY GAMMA RAY FROM DENSITY LOG
TNPH_LS.DEC   : THERMAL NEUTRON POROSITY [LIMESTONE]
~Params ----------------------------------------------------
~Other -----------------------------------------------------
~ASCII -----------------------------------------------------
# ...
 6961.00000    8.84370    0.10840   68.24260  112.59260    3.72820    2.97010    2.53700   62.76190   48.48880   76.28100  115.25060    0.12940
 6961.50000    8.83530    0.10840   67.87320  112.01180    3.99780    2.97010    2.53330   52.63550   46.71070   65.60920  125.75420    0.14420
 6962.00000    8.84160    0.10670   67.13940  111.32830    4.22670    2.89110    2.54590   17.42420   10.34030   20.28650  111.52420    0.12880
 6962.50000    8.85090    0.09730   66.09410  109.83940    4.19680    2.84540    2.54950   10.19180    9.99420   10.66590   84.37900    0.10280
 6963.00000    8.86010    0.09930   65.03970  107.82100    4.05560    2.88300    2.55510    8.31690    7.80430    9.03150   66.03660    0.08190
 6963.50000    8.86930    0.09120   64.48290  106.35930    3.91450    2.95760    2.56670   14.87670    7.36480   18.30950   55.17450    0.06440
 6964.00000    8.86930    0.08360   64.39090  105.26870    3.85800    3.05880    2.57840   25.55120   20.29180   33.77270   51.58770    0.04910
 6964.50000    8.86930    0.07600   64.04360  104.64240    3.98150    3.07640    2.59010   34.09070   31.87110   42.65470   53.67820    0.03900
 6965.00000    8.86930    0.07350   63.84310  104.33820    4.10120    3.01920    2.58740   21.66330   17.26030   26.11900   58.67600    0.03940
 6965.50000    8.86930    0.08730   64.01450  104.34310    4.08250    2.93400    2.57500   11.88880   11.11900   12.71300   62.17650    0.05650
 6966.00000    8.85430    0.09560   64.52620  104.34800    4.06390    2.84140    2.56260   12.40650   10.91120   12.71300   66.28580    0.07280
 6966.50000    8.85650    0.09370   64.77210  105.16110    4.04520    2.79790    2.55510   13.51190   12.48780   14.46870   68.00480    0.07950
 6967.00000    8.85930    0.08660   65.30750  106.28790    4.02950    2.76750    2.57070   14.21430   13.55790   14.73860   70.43000    0.08410
 6967.50000    8.84870    0.08690   65.63960  107.41470    3.89450    2.84080    2.56920   14.47950   13.93870   15.22310   70.47220    0.08480
 6968.00000    8.83110    0.09090   65.93210  108.57690    3.75950    2.96860    2.56180   14.93240   14.39690   16.24030   72.36880    0.08410
 6968.50000    8.81340    0.08860   65.88830  109.73900    3.68850    3.10020    2.56520   32.52640   27.40580   32.91960   76.10990    0.08460
 6969.00000    8.79890    0.08300   65.64590  110.19790    3.73840    3.21090    2.57720   43.08280   36.44090   44.36630   80.82840    0.08780
 6969.50000    8.77790    0.08070   65.54370  110.45960    3.78830    3.19810    2.57970   46.65310   39.77060   52.27060   83.68250    0.09090
 6970.00000    8.77860    0.08710   65.33740  110.25520    3.83820    3.05420    2.57470   45.47010   40.66690   48.84870   84.52580    0.09040
 6970.50000    8.77620    0.09350   65.22070  110.10280    3.84760    2.92610    2.56450   41.01110   37.00690   43.53970   84.03440    0.08750
 6971.00000    8.77070    0.09680   65.10290  110.00770    3.79480    2.84540    2.55430   37.21220   33.11570   38.53230   82.09100    0.08450
 6971.50000    8.77160    0.09530   64.98050  110.14170    3.74200    2.82540    2.55320   33.24500   30.58100   35.95230   81.64330    0.08410
 6972.00000    8.77260    0.09390   64.85810  110.27570    3.68910    2.87660    2.55800   32.45150   31.72440   38.35470   81.62720    0.08410
 6972.50000    8.78330    0.09620   64.73570  110.36910    3.71850    2.92770    2.55650   32.65210   31.43260   37.47880   81.61110    0.08570
 6973.00000    8.77520    0.09870   64.61330  109.82700    3.81840    2.95300    2.55240   30.82970   30.43360   36.11880   81.30860    0.09030
 6973.50000    8.77450    0.09580   64.51540  109.16650    3.91820    2.92600    2.55370   28.38010   25.56570   34.80810   79.05030    0.09540
 6974.00000    8.77160    0.09440   64.33530  108.58010    4.01800    2.86390    2.55750   20.51030   17.16920   22.63850   76.20000    0.09350
 6974.50000    8.76370    0.09640   64.15510  107.99360    3.95510    2.78550    2.55140   13.95410   12.80620   15.40870   72.94640    0.08560
 6975.00000    8.78750    0.10380   63.89950  107.40720    3.81690    2.74550    2.53960   11.17780   10.27170   11.72150   69.26850    0.07910
 6975.50000    8.81140    0.10570   63.27560  106.82080    3.67870    2.72550    2.53960    9.06610    8.99350    9.24260   65.69950    0.07780
 6976.00000    8.81320    0.10460   62.54050  106.08450    3.79820    2.73680    2.53960    8.73710    8.50200    9.15760   60.46100    0.07660
 6976.50000    8.80920    0.10160   61.61580  105.12360    3.99730    2.78520    2.54560   11.40470   10.43660   12.25170   56.50550    0.07010
 6977.00000    8.80920    0.09470   60.92080  104.23740    4.19640    2.83210    2.56070   13.36520   13.74690   13.81550   53.39740    0.06230
 6977.50000    8.80920    0.08620   60.28310  102.95580    4.39550    2.92290    2.57570   13.36520   10.44200   13.43780   52.27760    0.05450
 6978.00000    8.80920    0.07520   59.67980  101.37730    4.46690    3.01370    2.58990   13.69860    9.63160   20.39630   50.45120    0.04670
 6978.50000    8.80920    0.06890   59.55300  100.85640    4.50630    3.05510    2.59810   32.71250   26.01450   37.00760   48.81080    0.03960
 6979.00000    8.80920    0.06960   59.53950  100.83570    4.54570    3.07900    2.59240   35.59330   28.30040   38.33910   48.29330    0.04050
 6979.50000    8.87920    0.07970   59.49040  100.63160    4.57720    3.03550    2.57890   22.89030   18.23150   25.05670   48.99080    0.04390
 6980.00000    8.89180    0.09280   59.28420  100.11570    4.45040    2.94380    2.56010   15.11770   14.07330   16.85200   51.17940    0.05260
 6980.50000    8.90430    0.10810   59.48060  100.20360    4.29190    2.91800    2.54000   16.49750   14.53590   17.93390   51.59560    0.06140
 6981.00000    8.89360    0.10990   60.03840  100.29150    4.13340    2.92950    2.53200   18.64160   18.00190   22.16760   51.42530    0.05980
 6981.50000    8.87720    0.10470   61.02860  100.47100    4.03520    2.97110    2.54580   20.78570   22.16560   26.40130   50.72510    0.05400
 6982.00000    8.87420    0.09180   61.68300  101.01710    4.02770    3.01350    2.55960   21.47760   22.13300   25.30640   51.13820    0.04960
 6982.50000    8.88370    0.08500   62.30490  101.85100    4.02020    3.03040    2.57070   19.23510   21.52790   24.16380   53.61670    0.05140
 6983.00000    8.89500    0.08980   62.89860  102.85160    3.91550    2.95880    2.56670   13.81470   18.13420   19.60210   57.44540    0.06150
 6983.50000    8.90630    0.10100   63.25220  103.88600    3.93050    2.88730    2.54680    8.39430   12.64340   13.99510   61.38040    0.07740
 6984.00000    8.91760    0.10720   64.03780  105.77540    4.05030    2.82880    2.53490    6.22620    7.15270    8.34930   62.14830    0.08750
 6984.50000    8.92890    0.10910   65.02750  107.11210    4.17010    2.82690    2.53440    8.07720    8.06270    8.83330   60.54170    0.08510
 6985.00000    8.94020    0.10460   65.61200  108.44870    4.24840    2.84070    2.54340    9.46570    9.13730    9.83840   57.91560    0.08200
 6985.50000    8.94930    0.09900   65.99000  109.26630    4.29890    2.84530    2.55240    9.07240    8.49430    9.05330   60.42180    0.08010
 6986.00000    8.95930    0.09330   65.99640  109.95410    4.34940    2.84520    2.55830    9.10730    8.29880    9.70230   64.90850    0.08400
 6986.50000    8.95930    0.10030   65.78560  110.34960    4.33550    2.83040    2.54050    8.77330    8.48700    9.43660   68.92150    0.08800
 6987.00000    8.95930    0.11150   65.64570  110.39160    4.13310    2.81220    2.52160    7.47550    6.89310    7.50590   68.29550    0.09110
 6987.50000    8.95920    0.11610   65.38300  109.79840    4.03510    2.80720    2.52160    8.05760    7.28050    8.97750   63.53720    0.08650
 6988.00000    8.94920    0.11060   65.42530  109.20510    3.93700    2.85560    2.53560   13.13300   10.05840   15.17930   58.33880    0.07870
 6988.50000    8.91920    0.10240   65.41150  109.27970    3.97980    2.87600    2.55050   18.20830   17.77320   21.38100   54.50240    0.06220
