~Version ---------------------------------------------------
VERS.   2.0 : CWLS log ASCII Standard -VERSION 2.0
WRAP.    NO : One line per depth step
DLM . SPACE : Column Data Section Delimiter
~Well ------------------------------------------------------
STRT .FT                 129.0 : START DEPTH
STOP .FT               11966.0 : STOP DEPTH
STEP .FT                   0.5 : STEP
NULL .                -9999.25 : NULL VALUE
COMP .                         : COMPANY
WELL .                         : WELL
FLD  .                         : FIELD
LOC  .                         : LOCATION
PROV .                         : PROVINCE
CNTY .                         : COUNTY
STAT .                         : STATE
CTRY .                         : COUNTRY
SRVC .                         : SERVICE COMPANY
DATE .                         : DATE
UWI  .                         : UNIQUE WELL ID
API  .                         : API NUMBER
SLAT .WGS84 1.7548774737004003 : SURFACE LATITUDE
SLON .WGS84  7.956282701443996 : SURFACE LONGITUDE
DATUM.F                    nan : DEPTH DATUM ELEV
~Curve Information -----------------------------------------
DEPT   .FT    : 
CALD   .IN    : CALIPER FROM DENSITY LOG
DPHZ_LS.DEC   : HGRD STANDARD RESOLUTION DENSITY POROSITY
DTCO   .US/F  : DELTA-T COMPRESSIONAL
DTSM   .US/F  : DELTA-T SHEAR
HDRA   .G/C3  : HRDD SPINE AND RIBS DENSITY CORRECTION
PEFZ   .B/E   : HRDD STANDARD RESOLUTION FORMATION PHOTOELECTRIC FACTOR
RHOZ   .G/C3  : HRDD STANDARD RESOLUTION FORMATION DENSITY
RLA3   .OHMM  : APPARENT RESISTIVITY FROM COMPUTED FOCUSING MODE 3
RLA4   .OHMM  : APPARENT RESISTIVITY FROM COMPUTED FOCUSING MODE 4
RLA5   .OHMM  : APPARENT RESISTIVITY FROM COMPUTED FOCUSING MODE 5
SGRDD  .GAPI  : SPECTROSCOPY GAMMA RAY FROM DENSITY LOG
TNPH_LS.DEC   : THERMAL NEUTRON POROSITY [LIMESTONE]
~Params ----------------------------------------------------
~Other -----------------------------------------------------
~ASCII -----------------------------------------------------
# ...
 10573.00000    8.81240    0.10700   77.82490  127.02190    4.19820    3.98220    2.53840   36.09800   39.04920   40.86760  109.23640    0.15590
 10573.50000    8.81130    0.10450   77.35080  126.88810    3.98010    4.11750    2.55130   30.10510   32.58830   35.78910  104.96270    0.15760
 10574.00000    8.80820    0.09380   76.31620  124.71500    4.09050    4.21980    2.56720   31.42350   52.64330   84.86430   91.31900    0.12640
 10574.50000    8.80600    0.08030   75.02720  122.75690    4.34740    4.13760    2.58430  128.10670  189.76650  235.65060   76.48840    0.09990
 10575.00000    8.80950    0.08030   73.22650  121.03210    4.60420    3.99780    2.57420  101.52840  104.52890  107.88980   67.20300    0.08460
 10575.50000    8.81310    0.08690   72.81500  119.91440    4.71350    3.93810    2.56920   85.25440   90.72790   95.13080   64.57510    0.08900
 10576.00000    8.81670    0.08440   72.55010  118.79660    4.68630    3.98950    2.58430   70.23950   74.24590  154.79630   61.83920    0.09380
 10576.50000    8.82030    0.06950   72.98830  118.74480    4.68020    4.07070    2.60930   87.45720  110.20390  151.52620   57.03940    0.08650
 10577.00000    8.82380    0.06350   73.48050  118.68630    4.67420    4.15200    2.60760   51.77010   53.72040   54.68640   61.00260    0.08390
 10577.50000    8.82740    0.07880   74.64260  119.14980    4.51940    3.99480    2.57680   45.18030   47.39450   51.15280   71.16850    0.09780
 10578.00000    8.83100    0.10270   75.91090  120.03260    4.52470    3.86590    2.54600   44.93820   47.86160   50.54950   82.21340    0.11170
 10578.50000    8.83380    0.11290   76.06870  120.91550    4.53000    3.74750    2.52760   59.39400   68.00310   68.56130   83.48170    0.12560
 10579.00000    8.83380    0.11420   75.72090  121.79840    4.58430    3.71850    2.52760   57.73530   61.77760   66.37850   82.33440    0.13360
 10579.50000    8.85380    0.11140   75.43930  121.39050    4.71240    3.78020    2.54100   53.30840   56.00270   60.25900   80.94490    0.14300
 10580.00000    8.87380    0.10210   75.16700  120.93570    4.75880    3.94920    2.57460   57.31220   84.36580   84.16130   75.11820    0.14530
 10580.50000    8.88390    0.08090   73.76990  119.83970    4.80530    4.22810    2.60820  104.29520  129.01250  189.41810   62.91060    0.11920
 10581.00000    8.85450    0.05640   71.82650  118.06410    4.97290    4.36180    2.62840  151.27820  192.41770  253.74240   51.96510    0.08720
 10581.50000    8.81780    0.05310   69.34890  115.24940    4.95430    4.39410    2.61880  127.34810  137.26960  161.50770   54.59000    0.06930
 10582.00000    8.78110    0.06170   66.26180  113.09580    4.84360    4.39040    2.60930   45.88370   73.82980   67.89170   61.79750    0.08270
 10582.50000    8.79380    0.05720   66.21160  111.69170    4.73290    4.50320    2.63160   29.86570  130.49840  362.22700   57.22870    0.09630
 10583.00000    8.80380    0.03830   66.46600  110.72230    4.81780    4.66860    2.66860  735.28710  827.53960  993.05670   45.69580    0.08520
 10583.50000    8.80470    0.02460   67.02980  110.10790    4.59120    4.71750    2.66820  582.03490  706.19940  815.36470   34.64160    0.05760
 10584.00000    8.80580    0.04460   67.76880  110.68160    4.36460    4.59880    2.61760  358.07970  450.47250  507.73500   37.60030    0.05120
 10584.50000    8.80700    0.07340   68.62510  111.87450    4.15240    4.36410    2.56710  196.39030  173.80690  277.65790   50.08830    0.07430
 10585.00000    8.80810    0.09960   69.37450  113.46500    4.15240    4.25420    2.53350   44.85850   52.98090   67.32970   64.16140    0.09690
 10585.50000    8.80930    0.11280   70.49870  115.48470    4.15240    4.22390    2.52860   70.32240   86.83540  112.47430   73.58110    0.12000
 10586.00000    8.81040    0.10940   72.79100  116.30000    4.15240    4.20950    2.53280   71.36800   75.77380   71.83130   76.73340    0.13240
 10586.50000    8.81160    0.10480   73.78180  117.84840    4.13250    4.14250    2.54320   67.37780   72.04390   72.16420   78.42610    0.12650
 10587.00000    8.81270    0.09850   74.93080  118.66000    4.08260    3.98200    2.55050   76.03380   81.06290  166.61040   80.13470    0.11980
 10587.50000    8.81390    0.09940   75.46060  119.64340    4.03270    3.83830    2.54470   76.34470   77.75950   92.56140   80.12930    0.11670
 10588.00000    8.81500    0.10560   75.30470  120.62680    3.98280    3.74350    2.53480   78.75540   80.65690   99.08490   80.63780    0.12000
 10588.50000    8.81620    0.11040   74.62760  120.23450    4.01130    3.73550    2.53130   80.31690   82.19490  103.15180   81.95130    0.12330
 10589.00000    8.81730    0.10800   74.00930  119.39840    4.10760    3.72760    2.54380   74.63810   90.99410  103.49450   84.43650    0.12440
 10589.50000    8.81850    0.09610   73.34080  118.31500    4.20390    3.92570    2.57180   29.18350   32.91060   49.02440   82.18090    0.13270
 10590.00000    8.81960    0.07990   72.41290  117.94000    4.25710    4.20970    2.59970   39.42230   44.06650   68.18540   73.72320    0.13220
 10590.50000    8.82070    0.06820   72.21560  117.84260    4.28160    4.49220    2.60530   91.28910   99.84600  143.32310   60.79250    0.09890
 10591.00000    8.82190    0.06530   72.03710  117.74530    4.30610    4.66170    2.60210   97.65160  131.99030  155.44950   52.28000    0.07130
 10591.50000    8.82300    0.06570   72.33610  117.77220    4.33060    4.52000    2.59820   67.53650   69.59400   85.52950   50.49280    0.06420
 10592.00000    8.82490    0.07160   73.14510  118.93380    4.66800    4.30620    2.59580   64.93180   68.00390   73.87730   54.64610    0.07150
 10592.50000    8.84870    0.07090   74.38230  120.32120    5.08350    4.05650    2.59400   50.70230   61.22090   69.71090   61.57240    0.09190
 10593.00000    8.85710    0.07590   75.39270  121.83390    5.49910    3.83860    2.58710   36.77220   41.98620   45.43960   74.52630    0.11950
 10593.50000    8.84040    0.08930   77.35370  123.33330    5.27350    3.77820    2.56650   47.48550   53.02440   56.65200   90.57750    0.16820
 10594.00000    8.82070    0.10570   78.26070  124.65370    4.54960    3.86230    2.53780   51.77080   55.74510   58.61130  103.10170    0.17170
 10594.50000    8.82940    0.11730   79.22080  126.04180    3.82570    4.10810    2.52060   51.29490   53.47350   55.44850  103.60860    0.16300
 10595.00000    8.82800    0.11600   79.55800  127.14020    3.62370    4.28890    2.52330   60.02460   63.79310   82.51750   94.18210    0.16430
 10595.50000    8.83300    0.11380   79.69080  128.16200    3.67360    4.32910    2.53010   49.76410   54.40910   51.73400   86.22730    0.15800
 10596.00000    8.82950    0.10880   79.63080  127.94480    3.72350    4.24040    2.53690   46.98130   48.81340   51.49540   87.08520    0.15490
 10596.50000    8.82600    0.10390   78.12880  126.19490    3.77340    4.16660    2.54370   48.91330   50.24840   53.43550   89.13180    0.15490
 10597.00000    8.82250    0.10030   75.29380  124.16590    4.07910    4.11870    2.54930   77.88030   83.23640  102.97100   89.21140    0.15520
 10597.50000    8.82860    0.09870   72.39470  121.20210    4.55540    4.14950    2.56850   63.82710   87.46840   97.48940   86.32080    0.14740
 10598.00000    8.83200    0.08400   69.68870  118.95910    5.03160    4.48410    2.60250   39.96310   44.65210   49.39700   82.56790    0.13260
 10598.50000    8.83080    0.04930   67.90460  116.85630    5.25430    4.95670    2.64850   49.98770   60.86300   97.91060   70.59400    0.10120
 10599.00000    8.83130    0.01450   66.31190  114.41390    5.22260    5.60630    2.71160  339.42630  567.53430  770.22580   53.63100    0.07100
 10599.50000    8.83180   -0.00110   65.51330  112.23680    5.19090    6.06080    2.70740  552.06760  620.81310  720.82320   37.58520    0.04130
 10600.00000    8.83230    0.00410   65.29310  110.96450    5.15920    5.88210    2.68900   71.22180  107.96920  211.13790   36.81090    0.03430
 10600.50000    8.83280    0.01830   65.98560  110.96450    5.12750    5.43560    2.67050  205.82940  218.04910  263.23600   43.65390    0.04510
