~Version ---------------------------------------------------
VERS.   2.0 : CWLS log ASCII Standard -VERSION 2.0
WRAP.    NO : One line per depth step
DLM . SPACE : Column Data Section Delimiter
~Well ------------------------------------------------------
STRT .FT                 129.0 : START DEPTH
STOP .FT               11966.0 : STOP DEPTH
STEP .FT                   0.5 : STEP
NULL .                -9999.25 : NULL VALUE
COMP .                         : COMPANY
WELL .                         : WELL
FLD  .                         : FIELD
LOC  .                         : LOCATION
PROV .                         : PROVINCE
CNTY .                         : COUNTY
STAT .                         : STATE
CTRY .                         : COUNTRY
SRVC .                         : SERVICE COMPANY
DATE .                         : DATE
UWI  .                         : UNIQUE WELL ID
API  .                         : API NUMBER
SLAT .WGS84 1.7548774737004003 : SURFACE LATITUDE
SLON .WGS84  7.956282701443996 : SURFACE LONGITUDE
DATUM.F                    nan : DEPTH DATUM ELEV
~Curve Information -----------------------------------------
DEPT   .FT    : 
CALD   .IN    : CALIPER FROM DENSITY LOG
DPHZ_LS.DEC   : HGRD STANDARD RESOLUTION DENSITY POROSITY
DTCO   .US/F  : DELTA-T COMPRESSIONAL
DTSM   .US/F  : DELTA-T SHEAR
HDRA   .G/C3  : HRDD SPINE AND RIBS DENSITY CORRECTION
PEFZ   .B/E   : HRDD STANDARD RESOLUTION FORMATION PHOTOELECTRIC FACTOR
RHOZ   .G/C3  : HRDD STANDARD RESOLUTION FORMATION DENSITY
RLA3   .OHMM  : APPARENT RESISTIVITY FROM COMPUTED FOCUSING MODE 3
RLA4   .OHMM  : APPARENT RESISTIVITY FROM COMPUTED FOCUSING MODE 4
RLA5   .OHMM  : APPARENT RESISTIVITY FROM COMPUTED FOCUSING MODE 5
SGRDD  .GAPI  : SPECTROSCOPY GAMMA RAY FROM DENSITY LOG
TNPH_LS.DEC   : THERMAL NEUTRON POROSITY [LIMESTONE]
~Params ----------------------------------------------------
~Other -----------------------------------------------------
~ASCII -----------------------------------------------------
# ...
 9649.00000    8.66030    0.11280   75.54300  118.74100    4.89880    3.17460    2.52930  132.34270  136.97280  138.03110   95.44680    0.13940
 9649.50000    8.66030    0.11050   75.64010  118.78820    4.76680    3.18970    2.53590  130.08270  132.20530  137.23570   92.37650    0.14490
 9650.00000    8.66030    0.09900   75.76070  118.50960    4.63490    3.22110    2.54880  135.63480  166.57590  220.91470   88.70550    0.14200
 9650.50000    8.66020    0.09340   75.34580  118.38900    4.50290    3.25170    2.55550  101.11560  118.97550  154.62920   89.63220    0.14290
 9651.00000    8.66020    0.10100   75.19530  118.55170    4.37100    3.28230    2.54820  107.82890  106.38970  117.87140   94.90620    0.14780
 9651.50000    8.66020    0.10170   75.03090  118.31340    4.23910    3.44060    2.54380  115.97720  117.23410  121.69610   91.75270    0.14920
 9652.00000    8.66020    0.09340   74.16660  117.35630    4.09170    3.79990    2.56560  115.08660  117.77730  170.86270   80.48270    0.12730
 9652.50000    8.66020    0.08290   73.54950  115.56370    4.10280    4.06430    2.57290  197.61800  322.60000  405.34050   70.33040    0.09480
 9653.00000    8.66020    0.09240   72.90280  114.13940    4.11400    4.20870    2.55540  219.99310  254.75580  347.90780   69.81040    0.09150
 9653.50000    8.66020    0.10010   71.72680  113.00150    4.18280    4.02230    2.55390  148.02360  149.08610  170.53540   75.13000    0.09770
 9654.00000    8.70750    0.09310   71.21730  112.38330    4.48230    3.95350    2.57590  210.75510  381.15840  630.26960   72.09080    0.09080
 9654.50000    8.75470    0.08540   70.90720  111.83140    4.78180    3.85180    2.56650  572.23820  762.13620  922.65150   65.88660    0.07940
 9655.00000    8.80200    0.10030   71.05590  111.22220    4.99370    3.71680    2.54410  407.52300  571.81500  798.22460   66.19770    0.07630
 9655.50000    8.83030    0.13570   70.72340  111.06450    4.81270    3.50280    2.52170  211.07620  239.37210  249.12540   74.84510    0.09190
 9656.00000    8.81030    0.15310   71.54110  112.11430    4.60350    3.34860    2.46010  275.68680  306.25600  358.92130   86.19690    0.11380
 9656.50000    8.77030    0.14590   72.91860  112.03890    4.39430    3.35690    2.47010  174.75490  215.05860  263.03210   95.56180    0.13190
 9657.00000    8.76030    0.13380   73.60450  113.33990    4.43350    3.44330    2.48580  153.75650  179.06940  176.95980  100.66990    0.13370
 9657.50000    8.73020    0.12480   74.34380  115.43720    4.42320    3.52970    2.50150  173.65250  219.81440  253.18960   96.44480    0.12740
 9658.00000    8.73020    0.12460   74.80170  115.86270    4.35900    3.51320    2.51730  110.69580  112.45800  172.92210   87.00850    0.12110
 9658.50000    8.71710    0.12200   75.50340  116.67040    4.29480    3.47640    2.51560   99.27960  101.19690  110.56260   78.83970    0.11920
 9659.00000    8.69420    0.12320   76.19190  118.04010    4.09910    3.47440    2.51190   80.25940   87.99050   93.87170   76.83160    0.12330
 9659.50000    8.70390    0.12310   75.91860  118.74380    4.03920    3.47240    2.51250   56.74170   67.00270   67.03960   80.48580    0.12710
 9660.00000    8.71370    0.11960   76.26210  119.44750    3.97940    3.44740    2.51700   56.72220   59.12390   60.55770   83.79070    0.13040
 9660.50000    8.72340    0.11610   76.53810  119.46410    3.99880    3.42890    2.52360   63.10620   65.48330   66.42280   83.16530    0.13040
 9661.00000    8.71860    0.11260   76.53920  119.45110    4.16850    3.41340    2.52790   55.22880   57.54760   57.55580   80.92320    0.12940
 9661.50000    8.70430    0.11180   76.39940  119.47370    4.28180    3.39490    2.53270   52.45100   54.24900   56.76330   80.75210    0.13120
 9662.00000    8.71230    0.10750   75.48140  119.22000    4.39510    3.47460    2.54220   46.51440   48.26650   54.39740   82.75780    0.13790
 9662.50000    8.73830    0.09950   74.02730  118.05470    4.32550    3.79080    2.56000   60.77310   71.96380   71.52130   79.79550    0.13560
 9663.00000    8.78080    0.08520   71.78870  116.22790    4.38960    4.21390    2.58380   95.71040  110.65640  131.64570   68.70350    0.13120
 9663.50000    8.82330    0.06700   68.40110  115.04760    4.45370    4.56030    2.60870  249.17110  389.69480  685.53880   55.56650    0.10810
 9664.00000    8.85030    0.05510   69.10450  113.85700    4.51780    4.72840    2.62360  268.29060  386.95360  429.49890   44.62860    0.07760
 9664.50000    8.84030    0.05260   68.59480  112.84870    4.49530    4.54450    2.61830  249.67730  273.30260  304.11990   49.61530    0.06050
 9665.00000    8.79410    0.05830   68.56640  112.17590    4.34290    4.23790    2.59190  177.90630  303.79060  260.23730   61.19120    0.06370
 9665.50000    8.74790    0.08710   69.17120  111.50300    4.19040    3.97710    2.56550   58.77440   69.38220   88.75070   73.79770    0.08130
 9666.00000    8.71020    0.10330   68.81300  111.78150    3.98200    3.84690    2.54430   51.34710   52.69720   57.34900   84.60460    0.09890
 9666.50000    8.69770    0.09980   69.36990  111.30750    3.99240    3.96560    2.55170   50.55000   51.73180   53.45320   86.31800    0.11680
 9667.00000    8.68510    0.08980   70.67220  111.62030    4.13360    4.13900    2.56990   86.01360  102.02570  146.49910   79.83480    0.11740
 9667.50000    8.67260    0.08030   71.71600  112.26280    4.27480    4.25630    2.58260  162.43080  177.25310  195.93760   72.01530    0.10340
 9668.00000    8.66010    0.07830   72.50150  113.40560    4.27530    4.12870    2.57670  205.10690  215.08340  233.51820   64.06270    0.09480
 9668.50000    8.66130    0.08800   73.71030  114.54850    4.22910    3.87990    2.55840  168.51440  207.92270  210.98600   68.67640    0.09480
 9669.00000    8.66410    0.10650   74.28930  115.52260    4.18300    3.60130    2.53380  139.10190  142.35410  166.78860   76.42320    0.10240
 9669.50000    8.66700    0.12300   73.80550  116.26770    4.19570    3.39860    2.50920  174.07640  190.57640  209.17100   85.91780    0.11810
 9670.00000    8.66980    0.12780   73.66610  116.84910    4.30530    3.22220    2.50420  217.79460  227.04570  234.60050   93.94070    0.13380
 9670.50000    8.67270    0.11770   72.20980  116.52630    4.32200    3.17470    2.52150  195.82950  212.04420  218.88650   92.20600    0.14950
 9671.00000    8.67550    0.10030   71.69310  116.12800    4.33880    3.20540    2.55030  223.70420  241.10670  252.60810   82.43360    0.15830
 9671.50000    8.67840    0.08670   72.17670  115.86860    4.30140    3.34660    2.57160  300.85680  353.81060  424.58640   69.04590    0.12440
 9672.00000    8.68010    0.08160   72.58770  116.16520    4.18260    3.55400    2.57370  386.33170  416.89150  494.72730   61.57800    0.09060
 9672.50000    8.68320    0.09100   73.34980  115.76760    4.06380    3.67300    2.55840  171.25060  251.23910  242.43340   70.44250    0.08570
 9673.00000    8.69890    0.10040   73.76670  115.29960    3.94500    3.61360    2.54240  127.41300  132.51380  137.87460   86.44390    0.10970
 9673.50000    8.71450    0.10970   73.09460  114.90540    4.14230    3.40670    2.53180  127.17750  132.44850  135.12710  100.55670    0.13370
 9674.00000    8.73010    0.11030   73.04740  114.99370    4.20610    3.31230    2.53180  126.82010  140.30270  145.65810  108.37500    0.14820
 9674.50000    8.73010    0.10760   73.39290  115.26370    4.26980    3.40210    2.53390  180.12580  195.88300  208.55590  103.67890    0.14390
 9675.00000    8.73010    0.10810   73.88440  116.25990    4.12360    3.54380    2.53740  233.43160  251.92640  267.27570   94.16040    0.13260
 9675.50000    8.73010    0.10710   75.12800  116.70850    4.01790    3.60630    2.54090  276.20380  293.46750  303.20830   84.56890    0.12220
 9676.00000    8.73010    0.10320   77.31870  117.49450    3.91220    3.50610    2.54210  268.79790  280.29580  301.12550   81.42180    0.12050
 9676.50000    8.73010    0.10650   76.71630  117.77260    3.80650    3.37650    2.53490  280.16360  303.79440  308.31610   88.79480    0.12440
