~Version ---------------------------------------------------
VERS.   2.0 : CWLS log ASCII Standard -VERSION 2.0
WRAP.    NO : One line per depth step
DLM . SPACE : Column Data Section Delimiter
~Well ------------------------------------------------------
STRT .FT                 129.0 : START DEPTH
STOP .FT               11966.0 : STOP DEPTH
STEP .FT                   0.5 : STEP
NULL .                -9999.25 : NULL VALUE
COMP .                         : COMPANY
WELL .                         : WELL
FLD  .                         : FIELD
LOC  .                         : LOCATION
PROV .                         : PROVINCE
CNTY .                         : COUNTY
STAT .                         : STATE
CTRY .                         : COUNTRY
SRVC .                         : SERVICE COMPANY
DATE .                         : DATE
UWI  .                         : UNIQUE WELL ID
API  .                         : API NUMBER
SLAT .WGS84 1.7548774737004003 : SURFACE LATITUDE
SLON .WGS84  7.956282701443996 : SURFACE LONGITUDE
DATUM.F                    nan : DEPTH DATUM ELEV
~Curve Information -----------------------------------------
DEPT   .FT    : 
CALD   .IN    : CALIPER FROM DENSITY LOG
DPHZ_LS.DEC   : HGRD STANDARD RESOLUTION DENSITY POROSITY
DTCO   .US/F  : DELTA-T COMPRESSIONAL
DTSM   .US/F  : DELTA-T SHEAR
HDRA   .G/C3  : HRDD SPINE AND RIBS DENSITY CORRECTION
PEFZ   .B/E   : HRDD STANDARD RESOLUTION FORMATION PHOTOELECTRIC FACTOR
RHOZ   .G/C3  : HRDD STANDARD RESOLUTION FORMATION DENSITY
RLA3   .OHMM  : APPARENT RESISTIVITY FROM COMPUTED FOCUSING MODE 3
RLA4   .OHMM  : APPARENT RESISTIVITY FROM COMPUTED FOCUSING MODE 4
RLA5   .OHMM  : APPARENT RESISTIVITY FROM COMPUTED FOCUSING MODE 5
SGRDD  .GAPI  : SPECTROSCOPY GAMMA RAY FROM DENSITY LOG
TNPH_LS.DEC   : THERMAL NEUTRON POROSITY [LIMESTONE]
~Params ----------------------------------------------------
~Other -----------------------------------------------------
~ASCII -----------------------------------------------------
# ...
 11021.00000    9.17070    0.08590   77.81390  130.78490    4.31960    3.57820    2.56390   13.11010   13.42670   15.80930   90.51820    0.13970
 11021.50000    9.17060    0.09390   76.00220  126.84700    4.14870    3.54340    2.55410   12.40580   12.97420   14.81260   89.24490    0.13990
 11022.00000    9.17040    0.09850   73.89170  123.49200    3.97780    3.52450    2.55420   11.66100   12.35470   14.08380   88.40470    0.14010
 11022.50000    9.16540    0.09450   70.58560  120.87430    3.80690    3.54990    2.56450   11.63400   12.54770   14.40510   83.61140    0.14030
 11023.00000    9.14830    0.08440   68.87890  117.99400    3.88680    3.68260    2.58480   12.07240   12.76100   14.80680   73.66520    0.13990
 11023.50000    9.13490    0.07300   68.87890  116.76190    3.98660    3.84810    2.60500   16.25200   19.42360   21.75140   61.76840    0.12130
 11024.00000    9.12160    0.05770   69.14650  115.77450    4.08640    4.01370    2.62530   27.84860   32.50110   41.77710   49.87160    0.09690
 11024.50000    9.11090    0.04760   69.89800  115.69580    4.24480    3.98020    2.63740   35.90130   40.34760   45.36090   45.73890    0.06890
 11025.00000    9.11090    0.04870   71.18830  115.77060    4.24880    3.76260    2.62120   29.77810   34.67680   38.94350   45.20160    0.05580
 11025.50000    9.11090    0.06400   73.05010  118.58050    4.15560    3.56410    2.59410   23.65480   28.28300   34.32860   49.78280    0.07160
 11026.00000    9.11090    0.08390   75.25790  121.92570    4.06240    3.38720    2.56710   21.52430   23.06110   27.53240   60.16600    0.08730
 11026.50000    9.12090    0.09630   77.28500  125.27080    3.98870    3.29040    2.54600   18.13960   20.98740   22.25810   72.40710    0.10290
 11027.00000    9.15220    0.10630   78.58970  128.53430    3.99310    3.28040    2.53400   13.49300   16.33620   17.77560   87.07740    0.12290
 11027.50000    9.15530    0.10680   79.80230  132.25590    3.99740    3.31740    2.53890   10.49810   11.68500   12.80820  101.74760    0.14610
 11028.00000    9.15840    0.10050   80.74800  135.36090    4.08320    3.31470    2.54790    9.98050   10.30250   11.81480  107.03980    0.16650
 11028.50000    9.16090    0.09310   81.35360  136.54940    4.20790    3.30290    2.55690    9.66990   10.23960   11.38050  104.18790    0.17340
 11029.00000    9.14090    0.09110   81.53390  136.65510    4.27700    3.29120    2.56240   11.47380   11.74210   12.43470  101.16030    0.16950
 11029.50000    9.14090    0.09230   80.81530  136.64260    4.34620    3.27940    2.56470   10.75110   11.24950   11.86950   99.05350    0.16470
 11030.00000    9.14090    0.09040   80.01660  135.70310    4.31620    3.29140    2.57030   10.94020   11.22440   11.86950   98.06420    0.16270
 11030.50000    9.13770    0.08700   79.19530  134.32150    4.26630    3.29540    2.56950   11.15420   11.51410   12.07290   97.02280    0.16620
 11031.00000    9.13460    0.08800   78.11480  132.32810    4.21640    3.27930    2.56320   11.36820   11.68800   12.14710   96.60030    0.16610
 11031.50000    9.13150    0.09280   76.74940  129.55640    4.16650    3.26830    2.55690   11.45920   11.68800   12.14710   92.98690    0.16210
 11032.00000    9.11080    0.09790   75.19010  127.31030    4.13960    3.20530    2.54990   11.58040   12.06130   12.64230   86.39810    0.14950
 11032.50000    9.09530    0.10140   72.74390  123.64920    4.09470    3.13350    2.54690   13.05950   13.18080   13.68590   78.17020    0.14150
 11033.00000    9.06750    0.10080   70.67050  120.76590    4.04980    3.09960    2.55060   13.30330   13.64080   14.25310   72.14380    0.12490
 11033.50000    9.03970    0.09650   68.84560  116.67270    4.00490    3.20160    2.55880   13.61430   14.10080   15.76670   64.01370    0.10890
 11034.00000    9.01190    0.07770   67.61070  114.30160    4.13910    3.39010    2.57350   15.03070   16.06380   17.99420   53.94220    0.09600
 11034.50000    9.00070    0.05650   68.09740  112.68930    4.39280    3.57860    2.61750   30.78840   54.13440   60.16560   43.87080    0.08310
 11035.00000    9.00070    0.03470   68.94100  114.34990    4.64640    3.66060    2.66150   75.64720  101.13750  114.17980   35.94040    0.07020
 11035.50000    9.00070    0.03000   70.71790  116.59780    5.01740    3.58200    2.65650   73.17330   90.85640  136.31130   34.04510    0.06430
 11036.00000    9.00070    0.04500   72.64660  118.64480    5.46660    3.44550    2.63020   41.96050   48.23000   62.92550   47.70220    0.06810
 11036.50000    8.99070    0.06460   74.57530  120.71430    5.73610    3.30890    2.60400   18.78190   26.81690   39.35140   70.82580    0.08850
 11037.00000    8.99070    0.07320   75.76990  123.54570    5.64630    3.25430    2.58640   11.10260   11.52860   13.70320   96.15310    0.11050
 11037.50000    9.02070    0.07640   76.53720  125.43290    5.19710    3.40420    2.59150    9.94610   10.73120   12.12450  111.17860    0.13780
 11038.00000    9.04070    0.06810   77.13680  127.00030    4.74790    3.55410    2.60450   10.06930   10.41230   11.65310  105.51030    0.15770
 11038.50000    9.04070    0.06680   76.70770  127.81280    4.43700    3.58350    2.59460    9.66430   10.60020   12.10290   95.73640    0.16460
 11039.00000    9.04070    0.07790   75.72310  127.41140    4.22970    3.43110    2.57040    9.31880   10.32190   10.99330   84.05860    0.16080
 11039.50000    9.03070    0.09570   74.48760  124.93340    4.02230    3.27880    2.54080    9.63410   10.04360   10.67230   72.99830    0.14770
 11040.00000    9.01570    0.11580   73.37500  123.00430    3.93940    3.12640    2.51890    9.91990   10.15990   14.61350   64.04210    0.12470
 11040.50000    9.01070    0.11640   72.63710  121.85400    3.99250    2.99670    2.52590   12.14330   14.70640   19.55580   55.58840    0.08640
 11041.00000    9.01070    0.10510   72.66150  121.38680    4.08570    2.97250    2.54380   17.23430   18.56220   20.67130   48.44140    0.07730
 11041.50000    9.01070    0.09810   73.08300  121.24850    4.17880    3.08570    2.56020   20.87620   20.15340   22.97460   46.96250    0.07240
 11042.00000    9.02070    0.09270   73.96580  122.09080    4.27200    3.31300    2.56140   23.06130   25.41250   27.27930   52.48050    0.08200
 11042.50000    9.02070    0.09010   75.30920  123.58190    4.37790    3.54740    2.56220   19.17170   21.67850   23.55200   61.32460    0.10190
 11043.00000    9.04050    0.08320   76.35810  126.08670    4.53450    3.73280    2.58190   14.06220   15.34660   16.40520   73.08280    0.12350
 11043.50000    9.05040    0.07140   76.86150  127.97200    4.69110    3.67890    2.59680   15.11670   16.01960   17.18140   85.00350    0.14430
 11044.00000    9.06020    0.07130   77.07690  129.59310    4.72510    3.50740    2.58740   12.50090   14.11110   15.23290   97.16800    0.15670
 11044.50000    9.07010    0.08180   77.55180  132.18550    4.62900    3.37250    2.56400    9.88520   11.19910   12.24890  100.90770    0.16660
 11045.00000    9.07990    0.09260   78.24300  133.84590    4.50070    3.27430    2.55420    9.19090    9.66510   10.89770  101.50990    0.17360
 11045.50000    9.08970    0.09320   79.24520  134.65770    4.37230    3.34850    2.56920    8.65440    9.08780   10.14320   96.22860    0.17820
 11046.00000    9.09960    0.08150   79.83310  135.18800    4.55810    3.47210    2.59430   10.03430   11.07500   13.28720   87.87420    0.16970
 11046.50000    9.10940    0.06670   80.20750  135.45420    4.82230    3.56470    2.61940   15.00770   15.99760   18.29110   80.11590    0.15720
 11047.00000    9.11930    0.05610   80.44600  135.32430    5.08660    3.56660    2.61940   15.55860   16.37800   18.54270   80.25230    0.14610
 11047.50000    9.12910    0.06620   80.50540  135.19430    5.18980    3.51960    2.59480   11.96260   13.22940   15.09750   88.11760    0.15550
 11048.00000    9.13890    0.08340   80.33590  135.01530    4.94470    3.49580    2.57020    9.80500   10.08080   11.65220   99.08910    0.16840
 11048.50000    9.14880    0.09840   80.03100  134.33740    4.67290    3.53180    2.54560    9.86190   10.18600   11.22910  104.44040    0.16830
