~Version ---------------------------------------------------
VERS.   2.0 : CWLS log ASCII Standard -VERSION 2.0
WRAP.    NO : One line per depth step
DLM . SPACE : Column Data Section Delimiter
~Well ------------------------------------------------------
STRT .FT                 129.0 : START DEPTH
STOP .FT               11966.0 : STOP DEPTH
STEP .FT                   0.5 : STEP
NULL .                -9999.25 : NULL VALUE
COMP .                         : COMPANY
WELL .                         : WELL
FLD  .                         : FIELD
LOC  .                         : LOCATION
PROV .                         : PROVINCE
CNTY .                         : COUNTY
STAT .                         : STATE
CTRY .                         : COUNTRY
SRVC .                         : SERVICE COMPANY
DATE .                         : DATE
UWI  .                         : UNIQUE WELL ID
API  .                         : API NUMBER
SLAT .WGS84 1.7548774737004003 : SURFACE LATITUDE
SLON .WGS84  7.956282701443996 : SURFACE LONGITUDE
DATUM.F                    nan : DEPTH DATUM ELEV
~Curve Information -----------------------------------------
DEPT   .FT    : 
CALD   .IN    : CALIPER FROM DENSITY LOG
DPHZ_LS.DEC   : HGRD STANDARD RESOLUTION DENSITY POROSITY
DTCO   .US/F  : DELTA-T COMPRESSIONAL
DTSM   .US/F  : DELTA-T SHEAR
HDRA   .G/C3  : HRDD SPINE AND RIBS DENSITY CORRECTION
PEFZ   .B/E   : HRDD STANDARD RESOLUTION FORMATION PHOTOELECTRIC FACTOR
RHOZ   .G/C3  : HRDD STANDARD RESOLUTION FORMATION DENSITY
RLA3   .OHMM  : APPARENT RESISTIVITY FROM COMPUTED FOCUSING MODE 3
RLA4   .OHMM  : APPARENT RESISTIVITY FROM COMPUTED FOCUSING MODE 4
RLA5   .OHMM  : APPARENT RESISTIVITY FROM COMPUTED FOCUSING MODE 5
SGRDD  .GAPI  : SPECTROSCOPY GAMMA RAY FROM DENSITY LOG
TNPH_LS.DEC   : THERMAL NEUTRON POROSITY [LIMESTONE]
~Params ----------------------------------------------------
~Other -----------------------------------------------------
~ASCII -----------------------------------------------------
# ...
 11469.00000    8.93550    0.14190   89.51260  145.01650    4.23750    2.96660    2.48330   12.94270   14.00110   15.69810   83.49930    0.19610
 11469.50000    8.93660    0.14310   89.76240  145.63890    4.25060    3.02410    2.47990   12.94280   12.78310   15.55250   86.15130    0.20590
 11470.00000    8.93770    0.14500   89.91120  146.59260    4.42570    3.06130    2.47640    9.99040   11.00910   14.14300   90.42350    0.21770
 11470.50000    8.93880    0.14430   90.37560  147.27260    4.54810    3.09980    2.48130   12.80550   14.06590   16.14920   94.76900    0.22340
 11471.00000    8.93990    0.13700   90.94120  148.05160    4.67050    3.09700    2.49190   11.01020   12.53350   15.18520   97.44380    0.21310
 11471.50000    8.94100    0.13060   91.70800  148.60050    4.71950    3.09960    2.49720   14.00380   14.33870   18.04080   97.43700    0.20280
 11472.00000    8.94210    0.13260   92.05590  148.82480    4.48000    3.10210    2.49300   15.69800   17.56100   20.40220   99.67470    0.20320
 11472.50000    8.94320    0.13780   91.95940  149.04570    4.24040    3.11480    2.48500   13.39430   14.72140   18.13940  101.45020    0.20880
 11473.00000    8.94430    0.14210   92.15540  149.46000    4.00080    3.12040    2.48090   14.11680   16.48240   19.68440  104.66130    0.22060
 11473.50000    8.94540    0.14250   92.11670  149.87420    4.00320    3.10110    2.48050   14.36030   15.82090   19.53490  105.36510    0.22740
 11474.00000    8.94650    0.14230   91.76140  148.95290    4.00560    3.08510    2.48270   10.75830   11.90930   14.18380  102.60690    0.22410
 11474.50000    8.92970    0.13990   91.45060  148.17850    4.00800    3.06750    2.48440   12.13160   13.55520   15.58510   98.33840    0.20940
 11475.00000    8.92840    0.14110   90.76830  148.05740    4.01040    3.04230    2.48110   10.36600   12.33090   13.62950   96.31200    0.20170
 11475.50000    8.92480    0.14480   90.42640  147.44760    4.01280    2.96500    2.47560   10.15930   11.54290   11.86430   97.67010    0.19460
 11476.00000    8.91160    0.14930   89.94760  146.51860    4.01520    2.93380    2.47020   12.11300   12.92200   15.22890   99.07830    0.19360
 11476.50000    8.89850    0.15130   89.81380  145.58970    4.01760    2.92600    2.46710   11.68040   12.21670   14.88170   97.07620    0.19150
 11477.00000    8.90470    0.15030   89.73410  144.78830    4.15800    2.95480    2.46720   12.17850   12.77150   15.01920   93.95730    0.18870
 11477.50000    8.88850    0.15110   89.71280  144.01890    4.09910    2.99080    2.46630   14.34450   16.25070   19.57780   91.19130    0.18530
 11478.00000    8.88830    0.15140   89.43780  143.24950    4.04020    3.02680    2.46350   15.02150   16.51270   20.52640   91.04370    0.18880
 11478.50000    8.88800    0.15490   88.49950  142.34490    3.95020    3.07850    2.46010   12.44440   13.68840   22.76970   93.30160    0.19360
 11479.00000    8.88780    0.15650   87.53610  141.23760    3.84880    3.11910    2.45810   12.24430   12.41590   15.30350   96.46850    0.19700
 11479.50000    8.88760    0.15620   86.38510  139.92400    3.91740    3.11880    2.45900   14.26250   14.24450   16.00000   96.16730    0.19420
 11480.00000    8.88490    0.15520   85.36850  138.49310    3.98600    3.06390    2.46520   13.85300   15.31180   18.57850   91.10940    0.19030
 11480.50000    8.88050    0.14990   84.87280  137.13830    4.05460    2.97450    2.47920   18.10380   19.89590   26.64560   80.52450    0.18260
 11481.00000    8.87620    0.13750   84.53930  136.26020    4.13700    2.94130    2.49350   19.34610   20.55030   27.01780   69.93950    0.16910
 11481.50000    8.87180    0.12700   84.36140  135.38210    4.22300    2.98070    2.50820   18.56290   20.64560   26.14290   62.99110    0.15570
 11482.00000    8.86750    0.11770   84.38030  134.81720    4.30890    3.05140    2.52100   17.94840   18.90160   27.32590   63.23950    0.15030
 11482.50000    8.86750    0.11600   84.53170  134.39240    4.33650    3.08990    2.52010   13.57950   15.25250   16.70430   68.58480    0.16050
 11483.00000    8.86750    0.11990   84.91310  135.09170    4.27660    3.09280    2.50770   12.88540   13.12360   17.17420   78.46640    0.17520
 11483.50000    8.88590    0.12920   85.38870  135.48400    4.21670    3.09570    2.49540   13.12360   14.13120   18.07020   89.41600    0.18230
 11484.00000    8.89960    0.13840   86.03280  136.10350    4.15680    3.04860    2.48790    9.67240   11.47690   15.44170   96.56760    0.18640
 11484.50000    8.90960    0.13710   86.30080  137.67260    4.19560    2.97110    2.48960   26.43800   30.17650   41.53220   94.51140    0.18790
 11485.00000    8.90500    0.13580   86.54180  138.58470    4.25900    2.90200    2.49160   29.53770   31.74210   38.91210   89.49960    0.18580
 11485.50000    8.90040    0.14020   86.40130  139.50260    4.32250    2.90820    2.48720   26.60620   29.88540   37.14060   86.09540    0.18470
 11486.00000    8.89580    0.14650   86.24330  139.53810    4.36060    2.90870    2.47290   12.47290   18.17640   22.00020   83.90380    0.18420
 11486.50000    8.89120    0.14670   86.34390  139.39450    4.43760    2.89580    2.47850   14.18290   14.73240   17.23810   82.48140    0.18370
 11487.00000    8.88460    0.14180   86.42570  139.54400    4.56600    2.87930    2.49130   17.12890   19.98820   23.30230   79.75130    0.18120
 11487.50000    8.87000    0.13180   86.74900  139.52620    4.69440    2.89420    2.50410   18.30730   19.21110   21.54100   78.86120    0.17660
 11488.00000    8.85720    0.12120   86.84330  139.59610    4.69310    2.95190    2.51690   17.03750   18.56300   21.15700   80.69820    0.17460
 11488.50000    8.84480    0.11770   86.94310  140.74250    4.64820    2.94130    2.51670   11.73930   14.24180   20.83120   84.36310    0.17440
 11489.00000    8.83240    0.12280   86.73930  142.25230    4.60330    2.93070    2.50620   10.17250   11.83030   14.38410   88.41950    0.18570
 11489.50000    8.82330    0.13100   86.61400  141.68890    4.55840    2.89520    2.49580   12.41590   13.36890   14.53450   87.38230    0.19250
 11490.00000    8.81650    0.13640   86.46090  140.98470    4.54040    2.86370    2.49070   12.64710   13.29420   13.75410   85.26580    0.18950
 11490.50000    8.82740    0.13510   86.12140  140.28040    4.54040    2.84140    2.49500   12.53070   13.12370   13.44190   78.95140    0.18030
 11491.00000    8.83160    0.13020   85.87300  139.57620    4.54040    2.84300    2.50210   14.80000   15.50030   19.82090   74.45350    0.17180
 11491.50000    8.83050    0.12660   85.95980  139.58220    4.54050    2.89200    2.50750   13.92060   14.37660   18.15410   70.63300    0.16420
 11492.00000    8.82320    0.12530   85.92060  139.59240    4.41320    3.02740    2.51300   15.69950   17.37240   23.33620   72.94880    0.15860
 11492.50000    8.81940    0.12130   86.04160  139.60250    4.28580    3.15650    2.51840   20.26740   21.42360   27.16230   75.73300    0.15500
 11493.00000    8.82750    0.11640   86.31100  139.61260    4.15850    3.21070    2.51990   14.30240   17.78410   23.48060   81.48860    0.16290
 11493.50000    8.82790    0.12090   86.71240  140.06630    4.02260    3.18950    2.50680   10.65860   16.13890   20.12760   87.77580    0.17200
 11494.00000    8.83730    0.13090   87.18630  140.69860    4.12830    3.15320    2.49370   13.66140   15.88140   18.81070   93.40080    0.19200
 11494.50000    8.84670    0.13790   87.69140  141.37830    4.23410    3.11690    2.48820    9.65940   11.47840   13.62970   97.53830    0.19550
 11495.00000    8.84700    0.13710   88.00500  142.01700    4.33980    3.08120    2.48910   10.29560   12.39680   17.81180   95.87030    0.19580
 11495.50000    8.84730    0.13520   88.06510  142.51980    4.44550    3.05310    2.49190    9.94610   13.41200   17.17450   93.78530    0.19210
 11496.00000    8.84960    0.13600   87.99580  142.51980    4.55120    3.02610    2.49010    9.65880   10.66640   13.69400   95.68670    0.19950
 11496.50000    8.85330    0.13850   87.10440  142.25210    4.65690    2.96360    2.48420   10.61020   12.53080   15.01940   95.88260    0.20740
