~Version ---------------------------------------------------
VERS.   2.0 : CWLS log ASCII Standard -VERSION 2.0
WRAP.    NO : One line per depth step
DLM . SPACE : Column Data Section Delimiter
~Well ------------------------------------------------------
STRT .FT                 129.0 : START DEPTH
STOP .FT               11966.0 : STOP DEPTH
STEP .FT                   0.5 : STEP
NULL .                -9999.25 : NULL VALUE
COMP .                         : COMPANY
WELL .                         : WELL
FLD  .                         : FIELD
LOC  .                         : LOCATION
PROV .                         : PROVINCE
CNTY .                         : COUNTY
STAT .                         : STATE
CTRY .                         : COUNTRY
SRVC .                         : SERVICE COMPANY
DATE .                         : DATE
UWI  .                         : UNIQUE WELL ID
API  .                         : API NUMBER
SLAT .WGS84 1.7548774737004003 : SURFACE LATITUDE
SLON .WGS84  7.956282701443996 : SURFACE LONGITUDE
DATUM.F                    nan : DEPTH DATUM ELEV
~Curve Information -----------------------------------------
DEPT   .FT    : 
CALD   .IN    : CALIPER FROM DENSITY LOG
DPHZ_LS.DEC   : HGRD STANDARD RESOLUTION DENSITY POROSITY
DTCO   .US/F  : DELTA-T COMPRESSIONAL
DTSM   .US/F  : DELTA-T SHEAR
HDRA   .G/C3  : HRDD SPINE AND RIBS DENSITY CORRECTION
PEFZ   .B/E   : HRDD STANDARD RESOLUTION FORMATION PHOTOELECTRIC FACTOR
RHOZ   .G/C3  : HRDD STANDARD RESOLUTION FORMATION DENSITY
RLA3   .OHMM  : APPARENT RESISTIVITY FROM COMPUTED FOCUSING MODE 3
RLA4   .OHMM  : APPARENT RESISTIVITY FROM COMPUTED FOCUSING MODE 4
RLA5   .OHMM  : APPARENT RESISTIVITY FROM COMPUTED FOCUSING MODE 5
SGRDD  .GAPI  : SPECTROSCOPY GAMMA RAY FROM DENSITY LOG
TNPH_LS.DEC   : THERMAL NEUTRON POROSITY [LIMESTONE]
~Params ----------------------------------------------------
~Other -----------------------------------------------------
~ASCII -----------------------------------------------------
# ...
 8305.00000    8.65340    0.08760   67.70970  106.74170    4.01600    3.73430    2.56850  147.18130  123.27000  171.64150  146.63670    0.12140
 8305.50000    8.65220    0.08520   67.86520  117.03180    3.91980    3.57020    2.57610   98.95530   95.98280  138.56220  151.01690    0.13760
 8306.00000    8.66430    0.07640   67.73120  122.43470    3.93750    3.39060    2.58540  101.23330  119.45840  171.69540  149.66590    0.12080
 8306.50000    8.66920    0.07290   67.54360  121.14160    3.98370    3.32080    2.59280  108.02850  123.14990  178.98700  121.51240    0.11060
 8307.00000    8.66960    0.07000   67.52530  120.03820    4.02990    3.33710    2.59730  112.10570  127.44250  172.62470  118.20150    0.10520
 8307.50000    8.66990    0.06920   67.30530  119.78900    3.95820    3.44960    2.60030   93.18570  103.50900  134.16230  122.76480    0.10850
 8308.00000    8.67030    0.06790   66.94690  119.53990    4.01440    3.52280    2.60320   63.71230   75.50000   87.04360  124.28170    0.12240
 8308.50000    8.67070    0.06430   66.93000  119.29070    4.14680    3.37220    2.60590   32.13070   46.32510   56.67460  113.12250    0.13200
 8309.00000    8.67100    0.07090   67.03230  118.52970    4.27930    3.09730    2.59100   16.00090   17.15030   26.30560   94.37930    0.12250
 8309.50000    8.67140    0.08650   67.68590  117.07340    4.27850    2.92010    2.57290   10.43840   10.19930   11.51950   79.33020    0.11050
 8310.00000    8.67170    0.10190   68.05280  116.13360    4.24450    2.89360    2.54720    9.86670    9.27620   10.59260   71.95830    0.10140
 8310.50000    8.67210    0.11050   68.47470  115.53820    4.21050    2.91970    2.53010   10.67310   10.55760   11.27970   68.98760    0.09960
 8311.00000    8.67250    0.10890   68.14050  114.94280    4.17650    2.94660    2.53260   10.67320    9.49160   11.78050   66.64950    0.09930
 8311.50000    8.67280    0.11110   67.74970  115.34950    4.25380    2.95700    2.53360   10.07330    8.22600   11.78050   64.53580    0.09930
 8312.00000    8.67320    0.11720   67.89610  116.10190    4.25590    2.97110    2.52590    8.12610    7.50110    9.63290   63.69390    0.09950
 8312.50000    8.67350    0.12040   68.03790  117.24290    4.25800    2.97310    2.51830    8.27770    7.56940    9.13650   61.20450    0.10200
 8313.00000    8.67270    0.12060   68.47510  120.26650    4.26010    2.97510    2.51620    8.87190    6.74350    9.56870   59.41020    0.10250
 8313.50000    8.67160    0.12090   68.53770  121.93720    4.14780    2.97710    2.51140   11.71520    7.78220   12.33640   56.68340    0.10250
 8314.00000    8.67630    0.12770   68.54060  123.10990    4.03550    2.97910    2.50220   10.91850    7.32220   12.62620   58.59560    0.10210
 8314.50000    8.68110    0.13380   68.70420  126.24760    3.92330    2.91790    2.49300    7.56380    6.14870    8.40730   60.72820    0.10200
 8315.00000    8.68590    0.13700   69.13410  129.54550    3.93590    2.85670    2.48600    6.94460    5.89820    8.06480   63.29710    0.10550
 8315.50000    8.69120    0.13790   69.23060  130.93130    3.99450    2.82820    2.48450    6.71170    6.00820    7.80810   65.97450    0.10410
 8316.00000    8.69900    0.13390   69.18410  130.59920    4.05310    2.82720    2.49820    6.50950    5.79850    7.45550   68.16240    0.10700
 8316.50000    8.70600    0.12380   68.93710  130.26710    4.16880    2.83820    2.51520    6.30230    5.76300    7.35280   73.21520    0.10780
 8317.00000    8.70430    0.10960   68.73960  129.78370    4.20220    2.86090    2.53240   10.82140    6.93370   10.78850   83.17780    0.11270
 8317.50000    8.69090    0.09810   68.43970  128.24620    4.15790    2.92010    2.55000   17.65120   12.65800   15.33080   97.18700    0.11900
 8318.00000    8.67740    0.09000   67.76160  127.83110    4.11360    2.98190    2.56160   20.38310   18.38240   24.00160  103.84400    0.11730
 8318.50000    8.69140    0.08980   67.22310  127.30030    4.06930    2.99600    2.56600   16.77740   14.72540   19.03620   97.53420    0.10960
 8319.00000    8.70000    0.09070   66.27770  126.33610    4.02500    3.01020    2.56310   14.61400   16.28220   17.53350   87.43060    0.10180
 8319.50000    8.70970    0.09380   65.42440  124.19880    3.98070    3.02430    2.55920   15.99530   18.98820   19.95090   80.58840    0.09530
 8320.00000    8.71140    0.09440   65.08260  122.78780    3.93640    3.03850    2.55830   16.86490   17.55480   19.95090   75.08190    0.09100
 8320.50000    8.72040    0.09150   65.07100  122.29070    3.86800    3.20010    2.56580   15.23460   15.31190   17.05000   67.97220    0.09020
 8321.00000    8.72930    0.08640   64.78080  120.49540    3.70340    3.45110    2.57020   21.33690   15.28120   23.71970   59.74500    0.07830
 8321.50000    8.73820    0.08650   64.78230  119.20240    3.53870    3.59960    2.56160   29.09420   25.75990   34.83590   54.26970    0.06930
 8322.00000    8.74720    0.09980   64.78390  119.77840    3.61350    3.50210    2.55300   20.15350   11.56750   24.38910   53.12880    0.06900
 8322.50000    8.75610    0.10540   64.78540  119.84900    3.81760    3.26070    2.54440    8.58950    6.80380   10.40170   56.68900    0.07930
 8323.00000    8.77570    0.10540   64.81230  119.74190    3.97810    3.08220    2.53590   12.64510    8.55150   13.06570   59.38320    0.08990
 8323.50000    8.80240    0.09320   64.81480  119.79200    4.13850    3.04830    2.53260   18.24330   16.07810   20.32310   60.90010    0.08750
 8324.00000    8.82910    0.09470   65.19660  119.88150    4.19710    3.00820    2.53120   14.81800   13.56140   16.10470   61.40300    0.08060
 8324.50000    8.83970    0.10070   65.32050  119.97090    4.23020    2.89270    2.53060   15.66300   13.48870   16.20040   61.51770    0.08000
 8325.00000    8.81970    0.11040   65.63710  120.06040    4.26330    2.78620    2.53160   14.29580   12.18470   15.25580   62.15060    0.08470
 8325.50000    8.80970    0.11090   66.02610  120.39520    4.38260    2.80270    2.53310   16.31730   16.08290   15.56000   64.97460    0.08890
 8326.00000    8.79970    0.10870   65.76540  120.99070    4.79110    2.89970    2.53440   28.93590   29.32430   17.54270   73.90800    0.09020
 8326.50000    8.79970    0.10730   65.43470  121.23150    5.23970    3.06520    2.54110   52.16730   53.82970   51.65780   87.51010    0.09650
 8327.00000    8.78970    0.10070   65.65310  120.94020    5.75150    3.28670    2.55460   75.39870   78.33520   94.25490  100.15360    0.10620
 8327.50000    8.73160    0.09070   65.96220  120.64890    6.98580    3.37690    2.57230   81.91600   99.30680  114.51140  102.87870    0.10580
 8328.00000    8.72330    0.08130   66.21860  120.10180    8.53300    3.40070    2.57700   90.09370  102.09890  121.33420   94.66020    0.09880
 8328.50000    8.71500    0.09700   65.84420  118.87040    9.63250    3.44820    2.54140  105.62160  122.66850  191.79220   91.20800    0.09170
 8329.00000    8.69670    0.12640   66.07690  119.91080   11.15840    3.64360    2.49720  206.94390  180.26430  255.33170   99.61230    0.08810
 8329.50000    8.73200    0.15890   66.10650  120.60480   11.93580    3.91950    2.46380  152.12760  155.80460  213.42050  110.81330    0.10380
 8330.00000    8.76740    0.16000   66.11010  121.29870   13.13600    4.27390    2.44540  113.48740  121.70770  161.59040  113.05350    0.11950
 8330.50000    8.80040    0.14610   66.83770  121.99260   14.56290    4.39810    2.46550  132.79590  143.73720  186.47990  103.26610    0.13160
 8331.00000    8.80430    0.12570   67.24270  122.95490   15.28480    4.37490    2.49890  125.46030  132.58680  174.79720   94.98590    0.13030
 8331.50000    8.80970    0.11100   67.39670  122.47320   16.00680    4.27710    2.53090  103.94800  112.45510  150.21360  101.89810    0.12750
 8332.00000    8.77730    0.09700   67.59750  121.79630   16.29550    4.16670    2.55390   74.06620   73.82910  119.13440  112.27510    0.13200
 8332.50000    8.73850    0.08240   67.44980  121.40700   13.38080    3.98230    2.57470   45.66430   39.04860   67.51660  120.39400    0.13630
