~Version ---------------------------------------------------
VERS.   2.0 : CWLS log ASCII Standard -VERSION 2.0
WRAP.    NO : One line per depth step
DLM . SPACE : Column Data Section Delimiter
~Well ------------------------------------------------------
STRT .FT                 129.0 : START DEPTH
STOP .FT               11966.0 : STOP DEPTH
STEP .FT                   0.5 : STEP
NULL .                -9999.25 : NULL VALUE
COMP .                         : COMPANY
WELL .                         : WELL
FLD  .                         : FIELD
LOC  .                         : LOCATION
PROV .                         : PROVINCE
CNTY .                         : COUNTY
STAT .                         : STATE
CTRY .                         : COUNTRY
SRVC .                         : SERVICE COMPANY
DATE .                         : DATE
UWI  .                         : UNIQUE WELL ID
API  .                         : API NUMBER
SLAT .WGS84 1.7548774737004003 : SURFACE LATITUDE
SLON .WGS84  7.956282701443996 : SURFACE LONGITUDE
DATUM.F                    nan : DEPTH DATUM ELEV
~Curve Information -----------------------------------------
DEPT   .FT    : 
CALD   .IN    : CALIPER FROM DENSITY LOG
DPHZ_LS.DEC   : HGRD STANDARD RESOLUTION DENSITY POROSITY
DTCO   .US/F  : DELTA-T COMPRESSIONAL
DTSM   .US/F  : DELTA-T SHEAR
HDRA   .G/C3  : HRDD SPINE AND RIBS DENSITY CORRECTION
PEFZ   .B/E   : HRDD STANDARD RESOLUTION FORMATION PHOTOELECTRIC FACTOR
RHOZ   .G/C3  : HRDD STANDARD RESOLUTION FORMATION DENSITY
RLA3   .OHMM  : APPARENT RESISTIVITY FROM COMPUTED FOCUSING MODE 3
RLA4   .OHMM  : APPARENT RESISTIVITY FROM COMPUTED FOCUSING MODE 4
RLA5   .OHMM  : APPARENT RESISTIVITY FROM COMPUTED FOCUSING MODE 5
SGRDD  .GAPI  : SPECTROSCOPY GAMMA RAY FROM DENSITY LOG
TNPH_LS.DEC   : THERMAL NEUTRON POROSITY [LIMESTONE]
~Params ----------------------------------------------------
~Other -----------------------------------------------------
~ASCII -----------------------------------------------------
# ...
 6485.00000    9.16290    0.09010   64.33280  111.72610    4.11120    3.14350    2.56430    9.94110    9.68120   10.28050   57.23900    0.06540
 6485.50000    9.15410    0.06790   63.71390  109.67750    4.43120    3.16820    2.60570   21.79490   17.41820   30.47180   51.80330    0.05160
 6486.00000    9.13950    0.05430   63.46270  108.35680    4.46520    3.17250    2.62390   32.43670   26.49710   37.28590   47.71120    0.03750
 6486.50000    9.12480    0.05870   63.50480  108.29890    4.37760    3.10050    2.61500   20.14780   14.96450   20.99700   45.79350    0.03780
 6487.00000    9.11010    0.07290   63.88180  108.47850    4.28990    3.02850    2.59940   10.31440    9.88410   11.01820   48.90990    0.04640
 6487.50000    9.09540    0.08740   64.73160  109.19280    4.20230    3.01390    2.57290    8.61370    8.27390    9.54970   51.59850    0.05710
 6488.00000    9.11660    0.10230   65.82630  111.80810    4.32150    3.01480    2.54630    8.77440    8.56840    9.42720   54.60000    0.06850
 6488.50000    9.17380    0.11670   66.56250  113.05760    4.52010    3.01560    2.52690    7.74060    7.71480    8.91840   58.85320    0.07990
 6489.00000    9.22330    0.12920   67.86340  114.57530    4.71880    3.02220    2.50830    5.60520    5.44460    5.77040   65.60830    0.09330
 6489.50000    9.25300    0.13080   68.65700  115.70180    4.91320    3.10770    2.50040    5.63120    5.58680    5.90530   76.77910    0.10670
 6490.00000    9.22800    0.12230   68.98880  117.05250    4.80980    3.20720    2.51370   10.46810    9.64880   16.87410   89.39270    0.12750
 6490.50000    9.13330    0.10860   69.07360  118.23980    4.70650    3.29530    2.53590   19.24470   17.77270   19.44920  100.28460    0.13780
 6491.00000    9.08460    0.09480   69.15940  118.77400    4.60310    3.25630    2.55800   16.73170   14.63470   16.92610   96.90700    0.12060
 6491.50000    9.09360    0.08530   68.98770  118.88690    4.53370    3.17490    2.57490   12.69120   11.49670   13.77230   90.01470    0.10340
 6492.00000    9.10260    0.08160   68.67920  118.80600    4.39330    3.07740    2.57750   10.31440    9.83440   10.61840   81.22820    0.09570
 6492.50000    9.09790    0.08660   68.26120  118.31080    4.25300    3.02840    2.56910   10.62910   10.49590   10.81650   79.63600    0.09920
 6493.00000    9.08280    0.09130   68.02320  117.57490    4.11260    3.08510    2.56260   10.21950    9.93370   10.61840   79.06400    0.10270
 6493.50000    9.08280    0.09070   67.80870  116.95850    4.06080    3.14350    2.56540   10.41020   10.25620   12.74930   81.78120    0.10620
 6494.00000    9.08280    0.08570   67.85170  116.82030    4.11100    3.16680    2.57020   14.31860   12.33800   16.01890   85.46760    0.10980
 6494.50000    9.08280    0.08920   68.23770  117.59000    4.16130    3.14350    2.56350   11.28700    9.57780   12.23150   86.28410    0.11280
 6495.00000    9.08280    0.09840   68.53670  118.10130    4.21150    3.07360    2.54950    8.77440    7.84540    8.99140   81.68130    0.11190
 6495.50000    9.08680    0.10850   68.83350  118.81230    4.26170    3.01490    2.53550    7.63880    6.60980    7.65700   76.56600    0.11110
 6496.00000    9.12810    0.11770   69.35390  119.52330    4.31190    2.98650    2.52140    5.99910    5.44640    6.01870   72.69990    0.11180
 6496.50000    9.14980    0.12400   69.79000  120.26620    4.36220    2.97060    2.51030    5.32750    5.22520    5.57510   71.64920    0.11430
 6497.00000    9.16250    0.12700   70.09530  121.13610    4.35310    2.94290    2.50460    4.95180    4.82990    5.35090   69.58280    0.11690
 6497.50000    9.17130    0.12880   70.42050  121.72070    4.30460    2.89500    2.50130    4.61660    4.50650    5.18880   68.38230    0.12160
 6498.00000    9.18180    0.13540   70.82300  122.74710    4.25600    2.84710    2.49510    4.87980    4.71960    5.11060   67.10850    0.12570
 6498.50000    9.19230    0.14020   71.17150  123.32430    4.20750    2.82720    2.48520    4.57900    4.23320    4.83930   65.94190    0.12620
 6499.00000    9.20290    0.14500   71.28850  124.00530    4.15890    2.82540    2.47780    4.38790    4.16170    4.70470   65.05810    0.12620
 6499.50000    9.20290    0.14900   71.37220  124.68630    4.11040    2.84300    2.47040    4.38790    4.30310    4.68730   66.38530    0.12250
 6500.00000    9.20840    0.15260   71.64140  125.36870    4.06180    2.84260    2.46590    4.35160    4.05940    4.55920   67.71250    0.12250
 6500.50000    9.22230    0.15170   71.85020  125.94060    4.05680    2.84220    2.46620    4.28770    3.81280    4.62280   68.14850    0.12250
 6501.00000    9.23620    0.14710   71.88400  126.26320    4.22600    2.84180    2.47390    4.17040    3.70460    4.42070   67.17290    0.12420
 6501.50000    9.25010    0.14180   72.04760  126.40490    4.39510    2.82140    2.48220    4.03770    3.92330    4.27370   66.75790    0.12690
 6502.00000    9.24690    0.14050   72.27530  126.79090    4.56420    2.81090    2.48340    3.94550    3.72550    4.15680   66.75400    0.12970
 6502.50000    9.25110    0.14630   72.33060  127.17680    4.54160    2.81730    2.47460    3.83780    3.49530    4.35330   66.76180    0.13240
 6503.00000    9.24200    0.15430   72.55620  127.25810    4.40040    2.83390    2.46470    3.74140    3.41550    4.05140   65.67620    0.13460
 6503.50000    9.23290    0.15840   72.41420  127.53190    4.25930    2.84750    2.45690    3.64750    3.39980    3.86670   65.07730    0.13790
 6504.00000    9.22380    0.15530   72.30060  127.38030    4.20280    2.86100    2.45960    3.63070    3.52810    3.75500   66.01630    0.14120
 6504.50000    9.21470    0.15190   72.13810  126.62190    4.16430    2.85710    2.46460    3.65110    3.66500    3.93600   66.35720    0.13940
 6505.00000    9.20560    0.15160   71.59350  125.87370    4.10020    2.84420    2.46800    3.73270    3.71170    3.84280   66.51710    0.13240
 6505.50000    9.19650    0.14810   71.14050  124.90760    4.03600    2.84610    2.47450    3.98220    3.87260    4.78320   64.52320    0.12530
 6506.00000    9.18740    0.14140   70.75560  124.15760    4.05010    2.88460    2.48800    5.67870    5.43290    6.32080   62.76490    0.11830
 6506.50000    9.17830    0.13180   70.17570  123.27360    4.09510    2.90370    2.50320    6.35000    5.69190    6.41690   61.94490    0.11120
 6507.00000    9.16920    0.12210   69.78250  122.38970    4.14000    2.88780    2.51880    4.90240    4.34300    5.35930   61.17390    0.11210
 6507.50000    9.16010    0.12040   69.53980  121.56170    4.18490    2.90440    2.51880    6.37820    5.03500    6.72460   62.36210    0.11120
 6508.00000    9.15100    0.12230   69.29460  120.95810    4.13950    2.95270    2.51340    6.76160    6.54890    7.00010   64.91540    0.10990
 6508.50000    9.14190    0.12350   69.15810  120.35450    4.03380    3.00570    2.50950    5.73630    5.29750    6.12770   72.36590    0.11350
 6509.00000    9.13280    0.12150   69.09420  119.75090    3.92820    3.03090    2.51740   13.30240   11.13420   16.19660   83.69680    0.12370
 6509.50000    9.13670    0.11520   69.23520  119.20470    3.84360    3.05010    2.52530   19.33410   17.28700   22.23790   93.00510    0.13390
 6510.00000    9.14090    0.11540   69.32310  119.26620    3.84360    3.06920    2.52350   15.71010   12.79290   17.35040   96.44630    0.13320
 6510.50000    9.15000    0.11840   69.45690  119.41470    3.84360    3.03520    2.51790   11.18020    8.37850   12.46290   91.00620    0.12520
 6511.00000    9.15910    0.12160   69.64030  119.34370    3.84360    2.97580    2.51230    6.65020    6.12790    7.57530   82.34890    0.11710
 6511.50000    9.16710    0.12440   69.41750  118.54540    3.85370    2.92580    2.50890    5.76280    5.62540    5.96020   76.05530    0.11390
 6512.00000    9.16760    0.11910   68.88270  117.74710    3.90360    2.93540    2.51990    6.45670    6.16960    7.34350   75.10240    0.11540
 6512.50000    9.16170    0.11270   67.97710  117.18380    3.95350    2.97980    2.53050    8.84080    8.11580    9.55690   80.77790    0.11690
