~Version ---------------------------------------------------
VERS.   2.0 : CWLS log ASCII Standard -VERSION 2.0
WRAP.    NO : One line per depth step
DLM . SPACE : Column Data Section Delimiter
~Well ------------------------------------------------------
STRT .FT                 129.0 : START DEPTH
STOP .FT               11966.0 : STOP DEPTH
STEP .FT                   0.5 : STEP
NULL .                -9999.25 : NULL VALUE
COMP .                         : COMPANY
WELL .                         : WELL
FLD  .                         : FIELD
LOC  .                         : LOCATION
PROV .                         : PROVINCE
CNTY .                         : COUNTY
STAT .                         : STATE
CTRY .                         : COUNTRY
SRVC .                         : SERVICE COMPANY
DATE .                         : DATE
UWI  .                         : UNIQUE WELL ID
API  .                         : API NUMBER
SLAT .WGS84 1.7548774737004003 : SURFACE LATITUDE
SLON .WGS84  7.956282701443996 : SURFACE LONGITUDE
DATUM.F                    nan : DEPTH DATUM ELEV
~Curve Information -----------------------------------------
DEPT   .FT    : 
CALD   .IN    : CALIPER FROM DENSITY LOG
DPHZ_LS.DEC   : HGRD STANDARD RESOLUTION DENSITY POROSITY
DTCO   .US/F  : DELTA-T COMPRESSIONAL
DTSM   .US/F  : DELTA-T SHEAR
HDRA   .G/C3  : HRDD SPINE AND RIBS DENSITY CORRECTION
PEFZ   .B/E   : HRDD STANDARD RESOLUTION FORMATION PHOTOELECTRIC FACTOR
RHOZ   .G/C3  : HRDD STANDARD RESOLUTION FORMATION DENSITY
RLA3   .OHMM  : APPARENT RESISTIVITY FROM COMPUTED FOCUSING MODE 3
RLA4   .OHMM  : APPARENT RESISTIVITY FROM COMPUTED FOCUSING MODE 4
RLA5   .OHMM  : APPARENT RESISTIVITY FROM COMPUTED FOCUSING MODE 5
SGRDD  .GAPI  : SPECTROSCOPY GAMMA RAY FROM DENSITY LOG
TNPH_LS.DEC   : THERMAL NEUTRON POROSITY [LIMESTONE]
~Params ----------------------------------------------------
~Other -----------------------------------------------------
~ASCII -----------------------------------------------------
# ...
 6037.00000    9.82400    0.18860   76.46550  142.00720    4.06120    3.01200    2.40890    3.07020    2.71470    3.46550   48.67300    0.15850
 6037.50000    9.84380    0.17720   75.97290  140.52220    4.20330    3.03180    2.42230    3.19790    3.14670    3.72530   46.68420    0.14840
 6038.00000    9.85360    0.16670   75.86550  139.58910    4.35180    3.05640    2.44500    2.11500    1.67100    2.61670   46.31170    0.14130
 6038.50000    9.80800    0.15620   75.69330  139.14500    4.54840    3.08110    2.46290    3.52190    2.91080    4.10080   46.49140    0.13290
 6039.00000    9.79130    0.14570   75.53030  138.70090    4.74510    3.02400    2.47970    4.97130    4.59590    5.28270   48.25950    0.12450
 6039.50000    9.75250    0.14780   75.16150  138.06110    4.89360    3.02370    2.46670    4.22340    3.32610    4.25250   50.71800    0.12530
 6040.00000    9.74650    0.16740   74.62350  136.93760    5.01010    3.04260    2.43540    2.23830    1.62540    2.41580   53.41640    0.14570
 6040.50000    9.74650    0.17530   74.24370  135.52880    5.12650    3.14910    2.42920    2.71700    1.77450    3.17120   54.21150    0.16260
 6041.00000    9.62980    0.16130   74.10980  133.70650    5.24290    3.26890    2.45070    4.10480    3.87340    5.08930   55.14770    0.14990
 6041.50000    9.49630    0.14390   73.73640  132.09400    5.08670    3.29980    2.47770    4.19580    3.78910    4.60450   56.51370    0.12930
 6042.00000    9.51010    0.13400   73.29600  131.58430    4.63770    3.24120    2.49430    3.62000    3.26520    3.94740   60.34160    0.12180
 6042.50000    9.54460    0.13610   72.29740  130.85220    4.18880    3.18670    2.49050    4.14220    3.92600    4.25020   63.54500    0.11990
 6043.00000    9.49390    0.13860   70.80120  129.26460    3.97260    3.20000    2.48860    4.66440    4.32810    4.74860   66.75230    0.12360
 6043.50000    9.42570    0.12400   68.86610  125.55550    4.35920    3.33100    2.48910    5.83680    4.51180    6.96000   72.71090    0.12730
 6044.00000    9.31620    0.09890   67.56450  122.77100    4.84240    3.52280    2.55490    8.41760    7.30880   17.51210   78.63940    0.12390
 6044.50000    9.24830    0.06500   66.69280  119.98650    5.32570    3.81020    2.61630   34.34100   22.73410   33.51440   77.25610    0.11300
 6045.00000    9.00930    0.03110   65.20300  118.10350    5.20830    4.06830    2.66010   84.34540   72.80230   95.39050   68.90460    0.08000
 6045.50000    8.86580    0.00970   63.31350  115.80220    5.09100    4.18600    2.69450   62.96340   54.45300   71.21770   60.42150    0.06390
 6046.00000    8.90080    0.01660   62.26080  110.15920    4.78280    3.97040    2.68480   37.68700   29.16750   33.11800   59.85990    0.05750
 6046.50000    8.93840    0.02860   61.95300  108.51920    4.54500    3.81670    2.66480   25.46130   23.79490   26.14900   62.54910    0.05990
 6047.00000    8.97590    0.03940   61.18680  107.27810    4.39640    3.65380    2.64740   21.48810   20.62650   23.96750   65.64660    0.06310
 6047.50000    8.98590    0.04560   60.58920  106.03710    4.24780    3.56370    2.63650   20.23560   19.15690   22.82050   69.30780    0.06730
 6048.00000    9.00590    0.05030   60.33890  105.53670    4.12490    3.59980    2.62900   21.89440   21.00850   23.70340   73.31080    0.07140
 6048.50000    9.01590    0.05430   60.33050  105.46720    4.01930    3.69100    2.62260   23.89700   22.41510   25.21700   75.71260    0.07300
 6049.00000    9.01590    0.05210   60.18280  105.07990    3.91360    3.78830    2.62260   30.66120   27.47490   31.05570   69.63290    0.06380
 6049.50000    8.96440    0.04190   59.91000  104.38690    3.82900    3.88040    2.64640   53.52020   34.91770   49.55390   61.18890    0.05450
 6050.00000    8.92580    0.02820   59.91000  104.60650    4.05120    3.96260    2.67620   76.37930   69.04830   83.46460   56.31150    0.04680
 6050.50000    8.92580    0.01810   59.91000  104.82620    4.27330    3.90860    2.68810   78.16990   63.06620   90.24670   56.39520    0.04970
 6051.00000    8.93580    0.01720   60.07930  105.04580    4.49550    3.73160    2.67840   41.40500   30.99840   52.19870   63.54790    0.05780
 6051.50000    8.93580    0.02720   60.38530  105.61680    4.37600    3.61010    2.66330   27.52850   24.35870   30.46480   72.18370    0.06580
 6052.00000    8.95960    0.03840   60.82580  106.71490    4.26800    3.58840    2.64380   31.67590   28.37020   34.84450   78.91720    0.07360
 6052.50000    8.97840    0.04070   61.23860  106.96930    4.16000    3.64070    2.64390   27.56770   23.14130   24.98510   82.56580    0.08130
 6053.00000    8.99710    0.03760   61.24010  107.27180    4.05200    3.66460    2.64680   23.67730   21.23990   26.57950   81.67670    0.08890
 6053.50000    9.01590    0.03510   61.24170  107.77360    4.07230    3.59770    2.64960   26.94690   23.69290   28.17380   81.06860    0.09610
 6054.00000    9.03460    0.03540   61.32130  108.27540    4.17800    3.52160    2.65250   19.77440   17.28100   21.57380   78.97660    0.08640
 6054.50000    9.04590    0.03600   60.87450  108.32390    4.28370    3.50650    2.65490   21.55590   19.21040   25.67810   76.43850    0.07670
 6055.00000    9.04590    0.03210   60.30070  108.47600    4.37820    3.61070    2.66390   37.51150   35.63800   53.98800   70.96710    0.06690
 6055.50000    9.03590    0.02500   60.65540  108.43340    4.42820    3.75590    2.67110   50.27590   42.20910   65.31190   65.92440    0.05720
 6056.00000    9.02590    0.02480   61.03630  108.62160    4.47810    3.83340    2.66330   32.02900   22.20910   34.80960   67.02330    0.05720
 6056.50000    9.05590    0.03740   61.98020  109.18540    4.52800    3.70100    2.64320   24.11890   23.25910   29.10980   71.73490    0.06900
 6057.00000    9.12390    0.05790   63.08340  111.72890    4.50760    3.50190    2.62080   15.40040   12.32530   17.51520   75.50940    0.08340
 6057.50000    9.19200    0.07940   64.42550  113.55140    4.52110    3.29080    2.58920    6.82030    6.37780    7.77780   72.75210    0.09560
 6058.00000    9.26000    0.09670   65.76760  118.73750    4.53460    3.06340    2.55760    5.92160    5.53610    6.22200   68.43770    0.10460
 6058.50000    9.32810    0.11380   67.52480  122.32670    4.54810    2.95440    2.52600    4.68630    4.39910    4.97700   64.12330    0.11350
 6059.00000    9.39610    0.13280   69.81570  126.77110    4.35890    2.88220    2.49440    3.47640    3.26200    3.73190   61.68150    0.12240
 6059.50000    9.45140    0.15230   71.47670  128.88730    4.16980    2.86250    2.47390    2.73770    2.67000    3.04820   58.51660    0.13130
 6060.00000    9.51460    0.15940   72.79560  131.94870    3.98070    2.86850    2.45820    3.24290    2.89560    3.52820   54.09890    0.13740
 6060.50000    9.57780    0.16020   74.00190  135.53860    3.82940    2.88130    2.45080    3.74810    3.53200    4.04900   50.01170    0.13710
 6061.00000    9.64100    0.16620   74.94300  140.12110    3.88560    2.88050    2.43480    3.19680    3.05860    3.55640   47.17990    0.14570
 6061.50000    9.73390    0.18290   75.84160  143.66970    3.94170    2.86220    2.41660    2.27800    2.08610    2.41800   48.54540    0.15960
 6062.00000    9.84650    0.19300   76.78610  145.61500    3.99790    2.85590    2.40150    2.07490    2.00100    2.11570   48.71730    0.15960
 6062.50000    9.92740    0.18910   77.67120  148.20820    3.98920    2.86680    2.40610    2.36520    2.15280    2.42530   49.69010    0.15560
 6063.00000   10.00840    0.17880   78.50490  150.24050    3.93930    2.86810    2.42150    3.20330    3.17590    3.33490   49.76460    0.15160
 6063.50000   10.06510    0.18560   78.95810  151.57040    3.88940    2.86950    2.41740    2.82790    2.73080    3.10710   51.85870    0.15690
 6064.00000   10.12400    0.19720   79.58810  154.73610    3.83950    2.83750    2.39800    2.37240    2.17450    2.75310   52.60340    0.17010
 6064.50000   10.19090    0.20900   80.13430  156.36530    3.82950    2.79200    2.37870    2.22380    2.11500    2.45850   53.87340    0.18320
