~Version ---------------------------------------------------
VERS.   2.0 : CWLS log ASCII Standard -VERSION 2.0
WRAP.    NO : One line per depth step
DLM . SPACE : Column Data Section Delimiter
~Well ------------------------------------------------------
STRT .FT                 129.0 : START DEPTH
STOP .FT               11966.0 : STOP DEPTH
STEP .FT                   0.5 : STEP
NULL .                -9999.25 : NULL VALUE
COMP .                         : COMPANY
WELL .                         : WELL
FLD  .                         : FIELD
LOC  .                         : LOCATION
PROV .                         : PROVINCE
CNTY .                         : COUNTY
STAT .                         : STATE
CTRY .                         : COUNTRY
SRVC .                         : SERVICE COMPANY
DATE .                         : DATE
UWI  .                         : UNIQUE WELL ID
API  .                         : API NUMBER
SLAT .WGS84 1.7548774737004003 : SURFACE LATITUDE
SLON .WGS84  7.956282701443996 : SURFACE LONGITUDE
DATUM.F                    nan : DEPTH DATUM ELEV
~Curve Information -----------------------------------------
DEPT   .FT    : 
CALD   .IN    : CALIPER FROM DENSITY LOG
DPHZ_LS.DEC   : HGRD STANDARD RESOLUTION DENSITY POROSITY
DTCO   .US/F  : DELTA-T COMPRESSIONAL
DTSM   .US/F  : DELTA-T SHEAR
HDRA   .G/C3  : HRDD SPINE AND RIBS DENSITY CORRECTION
PEFZ   .B/E   : HRDD STANDARD RESOLUTION FORMATION PHOTOELECTRIC FACTOR
RHOZ   .G/C3  : HRDD STANDARD RESOLUTION FORMATION DENSITY
RLA3   .OHMM  : APPARENT RESISTIVITY FROM COMPUTED FOCUSING MODE 3
RLA4   .OHMM  : APPARENT RESISTIVITY FROM COMPUTED FOCUSING MODE 4
RLA5   .OHMM  : APPARENT RESISTIVITY FROM COMPUTED FOCUSING MODE 5
SGRDD  .GAPI  : SPECTROSCOPY GAMMA RAY FROM DENSITY LOG
TNPH_LS.DEC   : THERMAL NEUTRON POROSITY [LIMESTONE]
~Params ----------------------------------------------------
~Other -----------------------------------------------------
~ASCII -----------------------------------------------------
# ...
 11917.00000    8.60880    0.09050   98.09720  144.08570    5.19590    4.19730    2.58240   25.66450   29.33170   32.73980   -9999.25    0.10940
 11917.50000    8.62920    0.10240   98.35780  157.09580    5.23630    3.94580    2.54830   24.76800   26.63150   26.93440   -9999.25    0.14120
 11918.00000    8.58220    0.11250   98.57480  165.05330    5.22330    3.71010    2.53330   22.34040   23.18230   23.74540   -9999.25    0.17300
 11918.50000    8.66310    0.12190   98.67200  167.09020    5.21020    3.47690    2.51820   22.70500   23.49140   23.96500   -9999.25    0.20410
 11919.00000    8.62590    0.12940   98.98680  168.99310    5.02250    3.24370    2.50650   22.65250   23.72450   23.96500   -9999.25    0.23490
 11919.50000    8.53690    0.12540   98.99360  170.30760    4.95870    3.04710    2.50750   23.01830   23.94490   24.98330   -9999.25    0.22950
 11920.00000    8.50650    0.12120   99.00040  170.20890    4.89490    3.02710    2.51310   24.76810   27.34940   31.26570   -9999.25    0.21670
 11920.50000    8.56360    0.12260   98.79970  169.96920    4.83110    3.01710    2.51350   30.53370   32.65300   35.80200   -9999.25    0.20380
 11921.00000    8.60490    0.12710   98.88330  170.32170    4.76730    3.03700    2.50810   35.30910   37.15130   37.52800   -9999.25    0.19500
 11921.50000    8.63030    0.13010   98.90250  170.46690    4.70360    3.05980    2.50300   31.16370   33.40610   33.90130   -9999.25    0.19690
 11922.00000    8.63490    0.13110   98.90570  170.47330    4.63980    3.07520    2.49940   28.41250   28.92780   29.82120   -9999.25    0.20150
 11922.50000    8.63950    0.13160   98.90880  170.47980    4.59270    3.08550    2.49670   25.61610   26.16350   27.23680   -9999.25    0.20620
 11923.00000    8.64620    0.13620   99.14870  170.48620    4.61370    3.13420    2.49190   23.07540   25.33800   26.57860   -9999.25    0.21080
 11923.50000    8.63850    0.13210  100.25650  170.49270    4.63460    3.16850    2.49510   28.16240   29.50360   31.04060   -9999.25    0.21320
 11924.00000    8.62480    0.12800  100.29240  170.49910    4.65550    3.20970    2.50480   33.24940   33.66910   35.50260   -9999.25    0.21400
 11924.50000    8.62170    0.12330  100.05970  170.50550    5.03310    3.25730    2.51250   33.55830   35.81300   36.68280   -9999.25    0.21480
 11925.00000    8.60290    0.12520   99.58510  170.51200    5.94580    3.33520    2.51010   37.32360   39.08990   39.85300   -9999.25    0.21860
 11925.50000    8.69930    0.12320   99.23350  170.51840    6.78820    3.42680    2.51100   21.76800   21.83000   28.03590   -9999.25   -9999.25
 11926.00000    8.67920    0.11360   98.72660  170.52490    9.15020    3.46670    2.52800    9.23760    9.90110   12.25790   -9999.25   -9999.25
 11926.50000    8.59920    0.09710   98.52300  170.53130   11.96240    3.46350    2.55390   10.15030   10.67630   13.88910   -9999.25   -9999.25
 11927.00000    8.62420    0.07900   98.71260  170.53770   12.61490    3.42460    2.58190   11.11430   11.89180   15.57690   -9999.25   -9999.25
 11927.50000    8.60860    0.09030   98.38600  170.54420   10.06720    3.37560    2.58060   13.24910   14.80400   27.63230   -9999.25   -9999.25
 11928.00000    8.58980    0.11310   97.98170  170.66610    6.78600    3.31800    2.54350   23.72460   30.96760   39.31540   -9999.25   -9999.25
 11928.50000    8.55320    0.13860   97.75590  170.74160    5.60400    3.24940    2.50640   17.42520   19.90830   26.68650   -9999.25   -9999.25
 11929.00000    8.58900    0.13890   97.79250  170.73490    5.08410    3.18370    2.48320   18.72720   22.25740   30.33820   -9999.25   -9999.25
 11929.50000    8.62480    0.13230   97.79250  170.72810    4.64810    3.10670    2.49480   20.02920   22.34860   30.47880   -9999.25   -9999.25
 11930.00000    8.66330    0.12720   97.63040  170.72130    4.54800    3.09700    2.50230   21.33120   23.98110   32.62320   -9999.25   -9999.25
 11930.50000    8.67960    0.13000   97.85400  170.71460    4.44780    3.07860    2.50080   17.59120   21.97620   28.73280   -9999.25   -9999.25
 11931.00000    8.68130    0.13310   97.73590  170.70780    4.34770    3.08240    2.49730   15.61320   19.90470   25.39120   -9999.25   -9999.25
 11931.50000    8.68310    0.13490   97.72270  170.70110    4.33170    3.08620    2.49420   15.43310   19.68120   25.09930   -9999.25   -9999.25
 11932.00000    8.65240    0.13430   97.80810  170.69430    4.45180    3.09000    2.49310   14.83850   18.97140   24.54160   -9999.25   -9999.25
 11932.50000    8.62170    0.13750   97.69670  170.68750    4.57200    3.09370    2.48880   13.88360   17.53220   22.33200   -9999.25   -9999.25
 11933.00000    8.62120    0.14200   97.77580  170.55140    4.66810    3.09370    2.48390   13.18840   16.08500   21.05870   -9999.25   -9999.25
 11933.50000    8.61750    0.14370   97.49840  170.41520    4.62090    3.09370    2.47980   12.90660   15.50470   20.70540   -9999.25   -9999.25
 11934.00000    8.63460    0.14010   97.52970  170.27900    4.57360    3.09370    2.48270   13.00640   15.40970   20.88580   -9999.25   -9999.25
 11934.50000    8.62840    0.13750   97.59260  170.40350    4.52630    3.15200    2.48700   13.31190   15.29110   21.65570   -9999.25   -9999.25
 11935.00000    8.62000    0.13590   97.60170  170.59310    4.66020    3.22370    2.49070   13.36960   15.79410   21.99180   -9999.25   -9999.25
 11935.50000    8.61160    0.13770   97.69200  170.54480    4.55010    3.30070    2.48940   13.15800   14.61050   20.66930   -9999.25   -9999.25
 11936.00000    8.62210    0.13720   97.69120  170.77730    4.43990    3.31440    2.48940   12.94640   14.32390   20.19740   -9999.25   -9999.25
 11936.50000    8.62850    0.13590   97.59630  170.77180    4.32970    3.32810    2.49110   12.59220   13.81220   19.76810   -9999.25   -9999.25
 11937.00000    8.61270    0.13410   97.69200  170.76630    4.37980    3.34190    2.49320   11.87390   12.80700   18.55310   -9999.25   -9999.25
 11937.50000    8.69370    0.13140   97.59920  170.76080    4.46990    3.35560    2.49560   11.44010   12.40460   17.87020   -9999.25   -9999.25
 11938.00000    8.81940    0.13300   97.60180  170.75530    4.56000    3.42600    2.49800   11.20750   12.04770   17.51200   -9999.25   -9999.25
 11938.50000    8.58920    0.13230   97.60430  170.74980    4.65020    3.43090    2.49800   11.01210   11.85760   17.10010   -9999.25   -9999.25
 11939.00000    8.59990    0.13290   97.67110  170.83330    4.77730    3.40930    2.49700   13.23790   13.96760   19.64440   -9999.25   -9999.25
 11939.50000    8.61050    0.13450   -9999.25   -9999.25    4.91360    3.33770    2.49310   15.46380   16.79830   24.71340   -9999.25   -9999.25
 11940.00000    8.62590    0.13970   -9999.25   -9999.25    5.04990    3.29810    2.48830   17.24440   19.62790   29.78250   -9999.25   -9999.25
 11940.50000    8.62920    0.15130   -9999.25   -9999.25    5.18630    3.33230    2.47010   17.57200   19.94110   29.78250   -9999.25   -9999.25
 11941.00000    8.61250    0.16460   -9999.25   -9999.25    5.34590    3.45000    2.44700   17.98480   20.15910   30.50250   -9999.25   -9999.25
 11941.50000    8.59100    0.18350   -9999.25   -9999.25    5.50560    3.67330    2.42390   18.48290   21.48490   32.30260   -9999.25   -9999.25
 11942.00000    8.55060    0.18500   -9999.25   -9999.25    5.99570    3.83160    2.41000   19.34800   22.81060   33.89890   -9999.25   -9999.25
 11942.50000    8.53090    0.17050   -9999.25   -9999.25    6.53090    3.89320    2.42370   20.11810   23.33990   35.01410   -9999.25   -9999.25
 11943.00000    8.52450    0.15090   -9999.25   -9999.25    7.02220    3.83820    2.45370   19.63050   22.50730   33.75560   -9999.25   -9999.25
 11943.50000    8.65640    0.14950   -9999.25   -9999.25    6.97350    3.77400    2.47210   -9999.25   -9999.25   -9999.25   -9999.25   -9999.25
 11944.00000    8.65100    0.16580   -9999.25   -9999.25    7.47940    3.88590    2.45790   -9999.25   -9999.25   -9999.25   -9999.25   -9999.25
 11944.50000    8.66420    0.17820   -9999.25   -9999.25    7.98530    4.15130    2.43070   -9999.25   -9999.25   -9999.25   -9999.25   -9999.25
