~Version ---------------------------------------------------
VERS.   2.0 : CWLS log ASCII Standard -VERSION 2.0
WRAP.    NO : One line per depth step
DLM . SPACE : Column Data Section Delimiter
~Well ------------------------------------------------------
STRT .FT                 129.0 : START DEPTH
STOP .FT               11966.0 : STOP DEPTH
STEP .FT                   0.5 : STEP
NULL .                -9999.25 : NULL VALUE
COMP .                         : COMPANY
WELL .                         : WELL
FLD  .                         : FIELD
LOC  .                         : LOCATION
PROV .                         : PROVINCE
CNTY .                         : COUNTY
STAT .                         : STATE
CTRY .                         : COUNTRY
SRVC .                         : SERVICE COMPANY
DATE .                         : DATE
UWI  .                         : UNIQUE WELL ID
API  .                         : API NUMBER
SLAT .WGS84 1.7548774737004003 : SURFACE LATITUDE
SLON .WGS84  7.956282701443996 : SURFACE LONGITUDE
DATUM.F                    nan : DEPTH DATUM ELEV
~Curve Information -----------------------------------------
DEPT   .FT    : 
CALD   .IN    : CALIPER FROM DENSITY LOG
DPHZ_LS.DEC   : HGRD STANDARD RESOLUTION DENSITY POROSITY
DTCO   .US/F  : DELTA-T COMPRESSIONAL
DTSM   .US/F  : DELTA-T SHEAR
HDRA   .G/C3  : HRDD SPINE AND RIBS DENSITY CORRECTION
PEFZ   .B/E   : HRDD STANDARD RESOLUTION FORMATION PHOTOELECTRIC FACTOR
RHOZ   .G/C3  : HRDD STANDARD RESOLUTION FORMATION DENSITY
RLA3   .OHMM  : APPARENT RESISTIVITY FROM COMPUTED FOCUSING MODE 3
RLA4   .OHMM  : APPARENT RESISTIVITY FROM COMPUTED FOCUSING MODE 4
RLA5   .OHMM  : APPARENT RESISTIVITY FROM COMPUTED FOCUSING MODE 5
SGRDD  .GAPI  : SPECTROSCOPY GAMMA RAY FROM DENSITY LOG
TNPH_LS.DEC   : THERMAL NEUTRON POROSITY [LIMESTONE]
~Params ----------------------------------------------------
~Other -----------------------------------------------------
~ASCII -----------------------------------------------------
# ...
 5589.00000    9.03270    0.05160   65.00830  110.42730    3.92090    3.62000    2.62590   33.04380   32.92250   34.34340   86.72150    0.10680
 5589.50000    9.02980    0.05690   65.38770  110.40880    3.83060    3.60000    2.61450   31.88790   31.37310   32.98500   93.15450    0.11310
 5590.00000    9.02680    0.06520   66.68390  111.18540    3.81300    3.59790    2.60310   35.65810   34.40340   37.01420   99.42280    0.11860
 5590.50000    9.02390    0.07020   67.53250  112.03250    3.81350    3.59800    2.59600   37.13740   36.22160   38.11070  100.61980    0.13390
 5591.00000    9.02090    0.06620   68.53390  113.08210    3.81400    3.65630    2.60570   34.53820   33.22930   34.80800  101.05260    0.13520
 5591.50000    9.01910    0.07210   69.55150  114.26530    3.81450    3.71460    2.60570   35.46240   34.58650   36.79200  114.72990    0.14200
 5592.00000    9.01910    0.09010   69.74240  115.44840    4.02590    3.76220    2.55670   57.33980   55.58150   66.66530  143.78650    0.15670
 5592.50000    9.01910    0.11630   70.04150  116.60260    4.23740    3.72850    2.52490   82.96660   76.79050   90.56400  164.17640    0.19190
 5593.00000    9.02910    0.11500   69.78020  116.36340    4.44880    3.57280    2.51920   51.82260   52.51870   72.56460  164.96450    0.20570
 5593.50000    9.07920    0.09620   69.17270  116.06380    4.49090    3.38980    2.55280   26.90280   22.47470   33.75510  128.89230    0.14820
 5594.00000    9.12920    0.07710   67.80510  115.10800    4.27910    3.22260    2.58590   16.39610   16.26430   17.56980   94.49080    0.11090
 5594.50000    9.17920    0.08140   66.72080  114.15220    4.06720    3.16030    2.58330   13.88410   12.60920   16.09350   77.40670    0.09130
 5595.00000    9.22930    0.09010   66.16530  113.23430    3.86010    3.16020    2.56840   10.52320   10.42920   11.65510   67.48740    0.08730
 5595.50000    9.26160    0.09290   65.48630  112.37320    3.86630    3.16000    2.55940   10.04810    9.81510   10.37680   63.27600    0.08210
 5596.00000    9.28750    0.08800   64.54890  111.87830    3.92090    3.15980    2.56650   14.72450   14.47570   17.56980   60.69810    0.07680
 5596.50000    9.30480    0.08720   64.82640  111.71040    3.97560    3.15970    2.57120   15.87260   14.52640   16.78610   60.71720    0.07530
 5597.00000    9.34940    0.09530   65.13580  112.14200    3.81470    3.10990    2.55680    7.30570    7.32550   10.79730   61.45660    0.08420
 5597.50000    9.34200    0.10340   65.66350  112.57350    3.81470    3.02170    2.54700    6.83280    6.77590    7.07220   63.49390    0.09460
 5598.00000    9.35780    0.11030   65.85540  113.07430    3.81470    2.93600    2.53930    6.36030    6.19750    6.73920   65.08890    0.10470
 5598.50000    9.37360    0.11430   66.20880  113.43120    3.81470    2.92190    2.53160    5.89370    5.73780    6.23040   66.09290    0.11220
 5599.00000    9.38940    0.11510   66.67720  114.23130    3.90440    2.92250    2.52550    6.01730    5.59810    6.30080   63.15210    0.10590
 5599.50000    9.36930    0.11170   67.22900  114.92940    4.12840    2.94210    2.52990    9.10990    8.17870   10.61930   60.25160    0.09530
 5600.00000    9.35930    0.11080   67.54420  115.55950    4.35240    2.96930    2.53350    8.40640    7.52420   10.69970   58.91280    0.09370
 5600.50000    9.33930    0.11810   67.26180  116.09250    4.53170    3.00260    2.50920    5.43580    5.02610    6.76400   58.34680    0.09860
 5601.00000    9.32930    0.12710   66.82140  116.20800    4.53220    3.03600    2.49950    4.65690    4.43000    5.08300   57.70990    0.10480
 5601.50000    9.31930    0.12250   66.40050  116.05960    4.53270    3.06690    2.50980    4.70010    4.56850    5.14190   53.41290    0.10900
 5602.00000    9.31930    0.10680   66.12500  115.89850    4.53320    3.08830    2.53560    7.56670    7.09210    9.40950   49.45320    0.10550
 5602.50000    9.29300    0.09210   65.94390  115.97390    4.46450    3.12040    2.56140   10.30760    9.83550   11.12140   47.03740    0.09080
 5603.00000    9.26590    0.09040   65.99730  116.69150    4.11900    3.15970    2.56650   15.08840   12.92900   17.65130   46.96800    0.07600
 5603.50000    9.23880    0.09850   66.58770  117.56970    3.77350    3.14730    2.56600   12.98440   11.07950   13.71280   48.69310    0.07170
 5604.00000    9.21170    0.10980   66.97930  118.07410    3.63520    3.08200    2.54720    4.89960    4.54050    6.63020   49.73140    0.07920
 5604.50000    9.18460    0.11800   67.42120  118.87060    3.63520    3.01560    2.52840    5.04000    4.97590    5.29940   53.66350    0.09360
 5605.00000    9.17920    0.12630   67.93860  119.50630    3.63520    3.00040    2.50950    5.25120    5.16740    5.34650   57.53280    0.10930
 5605.50000    9.17920    0.13490   69.14530  120.66030    3.63520    2.98530    2.49380    4.91350    4.76820    5.02940   61.12850    0.12170
 5606.00000    9.15910    0.14110   70.60700  123.69130    3.63520    2.96530    2.48540    4.55060    4.30890    4.77560   59.75620    0.13320
 5606.50000    9.15910    0.14370   71.41440  125.16530    3.63520    2.98530    2.47960    4.89960    4.66460    5.18430   58.37630    0.13930
 5607.00000    9.15220    0.14400   72.12930  126.49120    3.63520    3.01530    2.48040    4.76090    4.68300    4.96050   59.16780    0.13850
 5607.50000    9.11760    0.13850   72.28350  127.21360    3.63520    3.10890    2.48820    4.65690    4.67290    4.97070   63.24080    0.13230
 5608.00000    9.08290    0.13180   72.20150  127.36360    3.72520    3.27460    2.50170    6.65060    6.11780    7.97140   75.91210    0.13550
 5608.50000    9.04130    0.12280   72.07610  127.51360    3.87500    3.43550    2.51530   13.88910    9.99880   15.40240   99.07060    0.14620
 5609.00000    8.95230    0.11280   71.55970  127.46660    4.02470    3.50020    2.52870   18.80280   16.24540   21.62970  116.61170    0.16950
 5609.50000    8.89890    0.10130   71.21490  126.63150    4.17450    3.43470    2.54210   14.41680   14.32510   16.73170  116.55340    0.15340
 5610.00000    8.93890    0.09370   70.87980  125.54630    4.09460    3.34970    2.55550   11.78530   10.55760   12.89310  102.85880    0.13300
 5610.50000    9.00570    0.09370   70.44430  124.67870    3.99480    3.29700    2.56060   13.28920   12.12690   13.62930   93.88710    0.12080
 5611.00000    9.06240    0.09970   70.29980  124.51570    3.89500    3.26990    2.55100   13.16700   11.72290   13.97920   88.01630    0.12210
 5611.50000    9.08910    0.10720   70.23580  124.35270    3.80570    3.24280    2.53850   13.53710   12.39110   14.20650   81.94720    0.12770
 5612.00000    9.13620    0.11580   69.89000  123.96920    3.75860    3.18580    2.52320    8.11660    5.54670    8.45170   75.69610    0.13300
 5612.50000    9.15910    0.12380   69.79850  123.94910    3.71150    3.11130    2.50770    5.42380    5.32900    5.56200   70.95040    0.13600
 5613.00000    9.18410    0.12900   69.70690  124.13650    3.66440    3.07800    2.50090    5.62800    5.56380    5.85200   71.11180    0.13580
 5613.50000    9.20910    0.12230   69.48690  123.65550    3.84480    3.06270    2.51330    7.06420    6.25450    7.42070   73.27290    0.13390
 5614.00000    9.18530    0.11190   69.39150  123.25290    4.03210    3.09210    2.52880    8.93240    8.27760    9.24520   75.82480    0.12800
 5614.50000    9.16960    0.10250   69.37050  123.43360    4.21930    3.11050    2.54430    7.71350    6.80630    7.86620   71.37870    0.11610
 5615.00000    9.17680    0.10100   69.25940  123.32830    4.23230    3.13380    2.55050    7.23400    7.27040    8.27500   66.00160    0.10410
 5615.50000    9.18990    0.10720   69.17570  123.22300    4.13250    3.13840    2.53470    7.84870    7.30840    7.97070   61.81960    0.10090
 5616.00000    9.20320    0.11600   69.20430  122.86760    4.07000    3.10180    2.51900    6.08840    5.19930    6.44930   64.14000    0.11140
 5616.50000    9.21650    0.12180   69.34630  123.47720    4.00750    3.07790    2.51270    5.59130    5.37300    5.53640   69.30340    0.12340
