~Version ---------------------------------------------------
VERS.   2.0 : CWLS log ASCII Standard -VERSION 2.0
WRAP.    NO : One line per depth step
DLM . SPACE : Column Data Section Delimiter
~Well ------------------------------------------------------
STRT .FT                 129.0 : START DEPTH
STOP .FT               11966.0 : STOP DEPTH
STEP .FT                   0.5 : STEP
NULL .                -9999.25 : NULL VALUE
COMP .                         : COMPANY
WELL .                         : WELL
FLD  .                         : FIELD
LOC  .                         : LOCATION
PROV .                         : PROVINCE
CNTY .                         : COUNTY
STAT .                         : STATE
CTRY .                         : COUNTRY
SRVC .                         : SERVICE COMPANY
DATE .                         : DATE
UWI  .                         : UNIQUE WELL ID
API  .                         : API NUMBER
SLAT .WGS84 1.7548774737004003 : SURFACE LATITUDE
SLON .WGS84  7.956282701443996 : SURFACE LONGITUDE
DATUM.F                    nan : DEPTH DATUM ELEV
~Curve Information -----------------------------------------
DEPT   .FT    : 
CALD   .IN    : CALIPER FROM DENSITY LOG
DPHZ_LS.DEC   : HGRD STANDARD RESOLUTION DENSITY POROSITY
DTCO   .US/F  : DELTA-T COMPRESSIONAL
DTSM   .US/F  : DELTA-T SHEAR
HDRA   .G/C3  : HRDD SPINE AND RIBS DENSITY CORRECTION
PEFZ   .B/E   : HRDD STANDARD RESOLUTION FORMATION PHOTOELECTRIC FACTOR
RHOZ   .G/C3  : HRDD STANDARD RESOLUTION FORMATION DENSITY
RLA3   .OHMM  : APPARENT RESISTIVITY FROM COMPUTED FOCUSING MODE 3
RLA4   .OHMM  : APPARENT RESISTIVITY FROM COMPUTED FOCUSING MODE 4
RLA5   .OHMM  : APPARENT RESISTIVITY FROM COMPUTED FOCUSING MODE 5
SGRDD  .GAPI  : SPECTROSCOPY GAMMA RAY FROM DENSITY LOG
TNPH_LS.DEC   : THERMAL NEUTRON POROSITY [LIMESTONE]
~Params ----------------------------------------------------
~Other -----------------------------------------------------
~ASCII -----------------------------------------------------
# ...
 10097.00000    8.91830    0.06120   70.61090  113.11940    5.08930    3.47740    2.61220   64.90470   71.85230   74.89470   92.44950    0.09390
 10097.50000    8.92040    0.05980   72.58660  115.16520    4.80480    3.39610    2.61500   77.35180   79.14800   91.02090   87.47110    0.09910
 10098.00000    8.92240    0.05830   73.82010  116.92420    4.52030    3.37080    2.61090   92.15730   94.03490  110.87540   88.39540    0.10470
 10098.50000    8.93610    0.07500   73.84830  117.99300    4.33190    3.46290    2.59030  104.48340  108.92180  118.83590   97.19020    0.12280
 10099.00000    8.93670    0.08910   73.87130  118.39120    4.14530    3.62420    2.56970   90.10960   94.68560  106.13990  109.00160    0.14080
 10099.50000    8.93730    0.09420   73.47530  118.87190    3.95870    3.72080    2.55760   66.39730   74.86710   87.70730  116.71540    0.15370
 10100.00000    8.93780    0.08470   72.15120  118.56500    3.98380    3.77840    2.55820   38.31990   45.92180   56.92880  108.34440    0.15420
 10100.50000    8.93840    0.07010   71.50150  117.03050    4.08790    3.84140    2.60230   37.15840   38.49740   42.98350   94.20190    0.13490
 10101.00000    8.93570    0.05990   71.14730  116.24050    4.19190    3.88440    2.61610   53.27120   66.52830   80.47680   82.42480    0.11230
 10101.50000    8.92480    0.05580   70.57120  115.53060    4.29600    3.86330    2.62160   71.48730   89.54890  108.34260   80.20730    0.08050
 10102.00000    8.92960    0.06090   69.75430  114.35980    4.24480    3.78430    2.61310   55.98070   65.38910   66.99170   86.09180    0.07920
 10102.50000    8.93450    0.06850   68.93720  113.21950    4.12480    3.65960    2.59990   59.76690   62.86270   71.80150   91.07970    0.08400
 10103.00000    8.93930    0.07730   68.42260  112.09950    4.00480    3.58250    2.58670   68.94980   83.11580   95.83000   89.77680    0.08880
 10103.50000    8.92430    0.08190   68.67440  111.33880    3.88470    3.52080    2.57340   96.58780  102.09680  114.78760   86.80250    0.09350
 10104.00000    8.93800    0.08680   68.67050  110.85250    3.78650    3.53710    2.56560   81.45940   87.12810   96.67540   88.35940    0.09460
 10104.50000    8.93850    0.09180   68.80990  111.28660    3.78800    3.59020    2.55990   62.54880   70.61610   81.58660   93.88070    0.09890
 10105.00000    8.93890    0.09450   69.25490  111.49700    3.78940    3.72190    2.56000   59.20870   61.99300   68.64000   99.00130    0.10370
 10105.50000    8.93940    0.08760   69.28410  111.68160    3.82560    3.89860    2.57840   55.03350   58.62930   64.26210   93.81930    0.10760
 10106.00000    8.93990    0.07200   69.15030  111.86620    4.00110    3.97900    2.60040   66.06110   90.31170  122.23350   84.70070    0.10790
 10106.50000    8.94040    0.05900   68.93540  112.05080    4.17660    3.94840    2.62240   53.46440   57.01000   88.44800   77.91390    0.10010
 10107.00000    8.94080    0.05280   68.49620  111.49970    4.28920    3.79400    2.62400   30.02210   33.85870   34.95740   79.30960    0.09290
 10107.50000    8.94130    0.05680   67.89640  111.26250    4.17950    3.58530    2.61810   28.77150   31.79290   32.61770   81.41730    0.09150
 10108.00000    8.94180    0.05480   67.49540  110.69800    4.22860    3.48140    2.62420   28.77150   30.55340   32.80470   79.58840    0.09070
 10108.50000    8.94220    0.04930   66.93930  110.10780    4.27770    3.42320    2.63430   34.22980   37.31320   38.41880   75.42470    0.08670
 10109.00000    8.94270    0.04570   66.30240  108.57730    4.31700    3.43610    2.63480   40.88610   44.07290   45.47890   75.99510    0.08270
 10109.50000    8.94320    0.04840   65.77020  107.11780    4.21720    3.46240    2.63110   47.54240   50.83260   53.50310   77.42110    0.07920
 10110.00000    8.94370    0.05250   65.42880  106.74240    4.11740    3.51220    2.62760   54.19870   56.24040   58.58770   78.27670    0.07560
 10110.50000    8.96720    0.05200   65.15700  106.50140    4.01760    3.61030    2.62430   65.60350   76.67320   86.34030   76.56110    0.07210
 10111.00000    8.96720    0.05420   65.14340  106.26030    3.96000    3.77860    2.61800   85.65060   93.77140   98.78050   75.19930    0.06850
 10111.50000    8.94920    0.05970   65.22560  106.19100    3.96570    3.85090    2.60610   71.60270   82.22290   87.25350   77.82620    0.07240
 10112.00000    8.95580    0.07010   66.20260  106.84650    3.97140    3.92310    2.59420   57.55480   68.70830   74.64080   81.57900    0.08030
 10112.50000    8.95460    0.07710   66.65860  107.50190    3.97720    3.92270    2.58640   46.31640   54.70220   61.07660   83.68880    0.08690
 10113.00000    8.94260    0.07420   67.08990  108.02950    4.17590    3.77940    2.59320   51.13320   55.31330   59.78030   85.07730    0.08960
 10113.50000    8.94240    0.06670   67.91170  108.68660    4.29190    3.62240    2.60390   57.55560   57.43510   61.25480   88.70930    0.09230
 10114.00000    8.94220    0.06040   68.88790  110.51920    4.40780    3.54040    2.61200   57.95750   59.44840   65.88160   93.25090    0.10050
 10114.50000    8.94200    0.06060   70.06340  114.46080    4.37590    3.49600    2.60940   64.56530   70.40110   76.68100   93.80410    0.10870
 10115.00000    8.94180    0.06420   71.28890  115.30230    4.23870    3.52810    2.60230   69.99550   73.46110   80.59820   96.84380    0.11690
 10115.50000    8.94150    0.06960   71.80600  115.89820    4.13070    3.60180    2.59230   65.81200   73.33660   78.72160  100.33130    0.12370
 10116.00000    8.94130    0.07930   72.38850  116.61500    4.02270    3.72890    2.58220   86.06760   91.38290   94.75290  103.81880    0.13160
 10116.50000    8.94110    0.08320   73.11240  117.51610    3.95790    3.85590    2.57500   88.46770  105.39080  115.58730  103.50350    0.13670
 10117.00000    8.94090    0.08540   73.40640  118.54010    3.95790    3.86320    2.57200   72.52090   82.80770   91.62280  104.32940    0.13300
 10117.50000    8.94070    0.08590   73.37130  119.21690    3.95790    3.81330    2.56750   92.24090   98.71410  114.52370  105.29800    0.13190
 10118.00000    8.94050    0.08950   73.06490  119.26600    3.95790    3.78480    2.56690   89.76850   93.49920  101.16040  105.66550    0.13150
 10118.50000    8.94020    0.08370   72.66880  118.70800    4.01320    3.77760    2.57790   79.15480   80.13470   83.24910  102.39250    0.12950
 10119.00000    8.94000    0.07490   72.23840  117.95720    4.15150    3.77670    2.59150   67.24550   71.45240   73.39130  100.80120    0.12390
 10119.50000    8.93980    0.06650   71.72330  116.76440    4.28970    3.82590    2.60370   56.50150   63.06710   67.80640   97.19590    0.11820
 10120.00000    8.93330    0.06320   70.61460  115.42110    4.29840    3.85060    2.61170   77.16780   83.89450   90.89120   94.51290    0.10960
 10120.50000    8.92270    0.05910   69.37710  114.54470    4.25120    3.81060    2.61310   79.50960   80.73140   82.80160   93.54960    0.10240
 10121.00000    8.91200    0.06210   68.41600  113.56370    4.20390    3.79070    2.60940   72.30500   74.94110   82.48320   95.70670    0.10070
 10121.50000    8.90140    0.06440   67.70200  112.55620    4.15660    3.96870    2.60570   57.84750   61.58390   66.39390   92.96280    0.10270
 10122.00000    8.89910    0.06580   67.16680  111.56800    4.23600    4.23800    2.60580   56.50160   57.55600  206.03290   80.89030    0.09590
 10122.50000    8.89270    0.05630   66.78610  110.57980    4.39970    4.53030    2.62030  280.96970  358.96850  400.79920   68.73340    0.08010
 10123.00000    8.88640    0.04510   66.48660  109.86240    4.56340    4.58810    2.63810  201.44390  239.73660  275.62630   67.66600    0.06420
 10123.50000    8.88000    0.04270   66.60890  109.07760    4.72710    4.40390    2.63140   88.85990   96.58300  141.00510   76.45030    0.06540
 10124.00000    8.87370    0.04840   66.69250  109.25360    4.73060    4.13460    2.61870   33.82440   51.30670   66.51290   86.70490    0.07650
 10124.50000    8.88670    0.05920   66.70740  109.17850    4.55850    4.03240    2.60870   78.68260   87.25010   91.73580   88.66740    0.09180
