~Version ---------------------------------------------------
VERS.   2.0 : CWLS log ASCII Standard -VERSION 2.0
WRAP.    NO : One line per depth step
DLM . SPACE : Column Data Section Delimiter
~Well ------------------------------------------------------
STRT .FT                 129.0 : START DEPTH
STOP .FT               11966.0 : STOP DEPTH
STEP .FT                   0.5 : STEP
NULL .                -9999.25 : NULL VALUE
COMP .                         : COMPANY
WELL .                         : WELL
FLD  .                         : FIELD
LOC  .                         : LOCATION
PROV .                         : PROVINCE
CNTY .                         : COUNTY
STAT .                         : STATE
CTRY .                         : COUNTRY
SRVC .                         : SERVICE COMPANY
DATE .                         : DATE
UWI  .                         : UNIQUE WELL ID
API  .                         : API NUMBER
SLAT .WGS84 1.7548774737004003 : SURFACE LATITUDE
SLON .WGS84  7.956282701443996 : SURFACE LONGITUDE
DATUM.F                    nan : DEPTH DATUM ELEV
~Curve Information -----------------------------------------
DEPT   .FT    : 
CALD   .IN    : CALIPER FROM DENSITY LOG
DPHZ_LS.DEC   : HGRD STANDARD RESOLUTION DENSITY POROSITY
DTCO   .US/F  : DELTA-T COMPRESSIONAL
DTSM   .US/F  : DELTA-T SHEAR
HDRA   .G/C3  : HRDD SPINE AND RIBS DENSITY CORRECTION
PEFZ   .B/E   : HRDD STANDARD RESOLUTION FORMATION PHOTOELECTRIC FACTOR
RHOZ   .G/C3  : HRDD STANDARD RESOLUTION FORMATION DENSITY
RLA3   .OHMM  : APPARENT RESISTIVITY FROM COMPUTED FOCUSING MODE 3
RLA4   .OHMM  : APPARENT RESISTIVITY FROM COMPUTED FOCUSING MODE 4
RLA5   .OHMM  : APPARENT RESISTIVITY FROM COMPUTED FOCUSING MODE 5
SGRDD  .GAPI  : SPECTROSCOPY GAMMA RAY FROM DENSITY LOG
TNPH_LS.DEC   : THERMAL NEUTRON POROSITY [LIMESTONE]
~Params ----------------------------------------------------
~Other -----------------------------------------------------
~ASCII -----------------------------------------------------
# ...
 7857.00000    8.80990    0.09350   63.71620  104.11600    3.85680    2.85060    2.55220   20.75350   19.89840   20.99940   75.47570    0.07370
 7857.50000    8.81250    0.08700   62.84730  103.53150    3.80450    2.92350    2.56400   33.15340   30.02110   45.84190   84.78050    0.08020
 7858.00000    8.80450    0.08090   61.71660  102.81150    3.75220    2.98920    2.57980   60.68570   56.80280   75.52630   92.55210    0.08540
 7858.50000    8.79500    0.07780   61.08160  101.96510    3.69990    3.04020    2.58160   55.99140   52.02240   68.53880   92.29900    0.08260
 7859.00000    8.80430    0.07340   60.56440  101.03460    3.65770    3.09110    2.58380   40.00510   40.07160   43.92740   80.67040    0.06460
 7859.50000    8.81370    0.05560   60.22540  100.37620    3.83790    3.18610    2.62790   37.49450   34.96660   69.48630   66.36390    0.04650
 7860.00000    8.82300    0.03970   60.27210   99.92200    4.01810    3.39750    2.65450  109.23850  103.57560  143.40980   52.52830    0.03930
 7860.50000    8.84300    0.03970   60.62460   99.58140    4.09960    3.57260    2.63120  101.13290   90.76420  137.30430   47.31490    0.03690
 7861.00000    8.84300    0.05250   61.06490   99.93120    4.03300    3.53170    2.60800   45.17110   33.83620   43.74270   50.81770    0.04650
 7861.50000    8.84630    0.07620   61.55830  100.19320    3.96640    3.30140    2.58480   11.48730   10.61430   14.37630   56.63250    0.05810
 7862.00000    8.86300    0.09200   62.05170  101.48860    3.89980    2.98450    2.56160   10.57680    9.14920   13.44670   62.01030    0.06980
 7862.50000    8.87970    0.10070   62.77430  102.34850    3.96350    2.85440    2.54720    8.69570    7.89680   11.12260   64.24530    0.07950
 7863.00000    8.89640    0.09860   63.59650  103.49180    4.15600    2.78720    2.54760    6.81470    7.30020    8.79860   66.34320    0.08620
 7863.50000    8.91300    0.09480   63.76450  104.14860    4.34850    2.76910    2.55270    7.00690    7.36800    8.37240   64.90340    0.08640
 7864.00000    8.92640    0.09340   64.46020  105.30160    4.42560    2.82300    2.56400    6.78330    7.61030    7.99840   63.28080    0.08650
 7864.50000    8.94310    0.09280   64.67790  106.56670    4.46700    2.96300    2.57520    7.07130    7.82420    8.40330   59.88700    0.08420
 7865.00000    8.95970    0.08060   65.00400  107.33240    4.53620    3.10590    2.58650   11.40610   10.17320   12.93640   56.02690    0.07940
 7865.50000    8.97640    0.06840   65.11750  108.09820    4.60530    3.17310    2.59380   13.75880   12.75380   15.98840   53.64960    0.07230
 7866.00000    8.99310    0.08110   65.16650  109.05760    4.43690    3.09700    2.59380   11.18370   10.22910   11.99940   53.66920    0.06530
 7866.50000    9.00980    0.09710   65.34730  109.34910    4.15610    2.96820    2.55120   10.47340   10.32430   11.09850   55.54490    0.06910
 7867.00000    9.01310    0.11330   65.50540  109.64060    3.87540    2.90740    2.52560   10.57050    9.67730   11.04740   56.10530    0.07730
 7867.50000    8.99940    0.11210   65.53330  109.93210    3.70700    2.88010    2.53290   12.72540   12.47070   14.43990   54.80430    0.08220
 7868.00000    8.98580    0.10510   65.74240  110.34840    3.75190    2.83430    2.54060   14.51160   13.11150   16.51410   53.23010    0.07930
 7868.50000    8.97210    0.10520   65.90440  110.92700    3.79680    2.77040    2.53810    9.50990    7.33410   11.69820   52.63390    0.07550
 7869.00000    8.95850    0.11000   65.92680  111.50560    3.84180    2.71940    2.53170    6.94130    7.19980    8.03130   54.08410    0.07790
 7869.50000    8.95300    0.11500   65.84570  111.51950    3.88670    2.71060    2.52540    6.59780    7.10070    8.06850   56.02760    0.08310
 7870.00000    8.95300    0.11110   65.56280  111.13790    3.88670    2.73440    2.52460    6.97400    7.10070    8.41120   61.68130    0.08840
 7870.50000    8.95300    0.09970   65.56330  110.67050    3.88670    2.84540    2.54740   13.86900    9.68610   17.64680   74.52040    0.08970
 7871.00000    8.94710    0.08370   65.10940  109.82320    3.88670    2.95630    2.56970   38.87290   19.53420   60.77060   91.23780    0.09370
 7871.50000    8.91770    0.07120   65.29020  109.04290    3.94690    3.03810    2.59210  122.35140   70.66960  110.96510  103.80680    0.10580
 7872.00000    8.88830    0.05970   65.73460  108.26260    3.92920    3.10140    2.61440  252.80900  234.13810  292.59930  110.50890    0.11250
 7872.50000    8.85880    0.05700   65.93180  107.97370    3.91160    3.13870    2.61890  390.16450  252.11570  346.31790  117.13970    0.10960
 7873.00000    8.83300    0.06730   65.73460  107.43270    3.89390    3.18840    2.59410  691.31450  504.67020  634.18210  131.78370    0.10950
 7873.50000    8.83320    0.08410   65.60230  107.38120    3.92660    3.22370    2.56320  997.06120  788.26400 1066.78500  149.35030    0.12170
 7874.00000    8.83340    0.09930   65.41490  107.22560    3.99290    3.24520    2.54470  716.57020  801.00050  967.30200  166.00650    0.13650
 7874.50000    8.83360    0.09930   65.32310  106.88090    4.05920    3.24830    2.55460  153.44610  133.24300  300.28130  162.81260    0.15130
 7875.00000    8.83390    0.08760   65.11410  106.45620    4.09800    3.24830    2.57110  265.72360  319.28870  527.34850  150.01170    0.15050
 7875.50000    8.84120    0.07450   64.90520  106.03150    4.02670    3.24830    2.58760  402.45610  354.08170  440.27470  133.48710    0.13480
 7876.00000    8.87670    0.06690   63.90950  105.65400    3.95530    3.29290    2.60050  254.72340  222.70770  295.15090  121.54310    0.11540
 7876.50000    8.90150    0.06690   62.83220  104.87220    3.88400    3.33750    2.60330  278.47550  179.92210  288.16420  124.92440    0.11590
 7877.00000    8.89690    0.06820   61.75480  103.98640    3.89680    3.38220    2.61120  312.61440  218.69800  343.13390  127.51870    0.11980
 7877.50000    8.89230    0.05670   60.93120  103.13870    4.03580    3.50620    2.63140  182.36000  141.49130  224.60630  116.54540    0.10250
 7878.00000    8.88770    0.03620   60.47600  102.34820    4.17480    3.64800    2.65690  194.05880  162.46150  183.45300   95.73340    0.07770
 7878.50000    8.88310    0.01940   60.35730  101.55770    4.39530    3.75110    2.68240  244.70780  208.28790  258.58260   78.40970    0.05810
 7879.00000    8.87850    0.01410   60.23870  100.58120    4.45500    3.62790    2.68750  200.72720  142.87510  237.73580   71.61590    0.05270
 7879.50000    8.87390    0.02570   60.14180   99.91400    4.44390    3.41330    2.66360   90.77580   44.56790   83.42620   75.14390    0.05560
 7880.00000    8.86930    0.03980   60.16310   99.69600    4.43280    3.13890    2.63970   56.20440   52.92130   69.57880   77.54250    0.06170
 7880.50000    8.86470    0.05270   60.53780   99.59780    4.35260    2.99550    2.61570   86.51890   81.64280   89.84390   74.76810    0.06320
 7881.00000    8.86010    0.06560   60.86420   99.62990    4.16900    2.97380    2.60380   93.15810   90.79780   98.08090   69.63910    0.05450
 7881.50000    8.85550    0.07460   60.92930   99.45260    3.98530    3.01560    2.59210   99.38400   94.21720  104.64290   66.61880    0.04570
 7882.00000    8.85090    0.07700   61.07100   99.10080    3.85910    3.01570    2.58760   71.25660   70.42060   84.49790   64.75100    0.04000
 7882.50000    8.84630    0.07420   60.96130   99.63660    4.03360    2.99510    2.59470   70.27560   69.45110   72.97550   64.43400    0.03800
 7883.00000    8.84170    0.06850   60.91720   99.82860    4.33770    2.97450    2.60630   74.28250   72.14050   79.27150   63.57720    0.04190
 7883.50000    8.83700    0.06080   60.91660  100.06300    4.64180    2.95400    2.61330   85.36430   76.17570   92.46460   69.28030    0.04830
 7884.00000    8.83240    0.05970   60.73380  100.43130    4.51600    2.91750    2.59080   96.04220   87.77460  100.84540   85.64210    0.05220
 7884.50000    8.82780    0.08190   60.19180  100.79960    4.30640    2.89050    2.56260   98.27810   94.21750  102.25320  109.62640    0.07190
