~Version ---------------------------------------------------
VERS.   2.0 : CWLS log ASCII Standard -VERSION 2.0
WRAP.    NO : One line per depth step
DLM . SPACE : Column Data Section Delimiter
~Well ------------------------------------------------------
STRT .FT                 129.0 : START DEPTH
STOP .FT               11966.0 : STOP DEPTH
STEP .FT                   0.5 : STEP
NULL .                -9999.25 : NULL VALUE
COMP .                         : COMPANY
WELL .                         : WELL
FLD  .                         : FIELD
LOC  .                         : LOCATION
PROV .                         : PROVINCE
CNTY .                         : COUNTY
STAT .                         : STATE
CTRY .                         : COUNTRY
SRVC .                         : SERVICE COMPANY
DATE .                         : DATE
UWI  .                         : UNIQUE WELL ID
API  .                         : API NUMBER
SLAT .WGS84 1.7548774737004003 : SURFACE LATITUDE
SLON .WGS84  7.956282701443996 : SURFACE LONGITUDE
DATUM.F                    nan : DEPTH DATUM ELEV
~Curve Information -----------------------------------------
DEPT   .FT    : 
CALD   .IN    : CALIPER FROM DENSITY LOG
DPHZ_LS.DEC   : HGRD STANDARD RESOLUTION DENSITY POROSITY
DTCO   .US/F  : DELTA-T COMPRESSIONAL
DTSM   .US/F  : DELTA-T SHEAR
HDRA   .G/C3  : HRDD SPINE AND RIBS DENSITY CORRECTION
PEFZ   .B/E   : HRDD STANDARD RESOLUTION FORMATION PHOTOELECTRIC FACTOR
RHOZ   .G/C3  : HRDD STANDARD RESOLUTION FORMATION DENSITY
RLA3   .OHMM  : APPARENT RESISTIVITY FROM COMPUTED FOCUSING MODE 3
RLA4   .OHMM  : APPARENT RESISTIVITY FROM COMPUTED FOCUSING MODE 4
RLA5   .OHMM  : APPARENT RESISTIVITY FROM COMPUTED FOCUSING MODE 5
SGRDD  .GAPI  : SPECTROSCOPY GAMMA RAY FROM DENSITY LOG
TNPH_LS.DEC   : THERMAL NEUTRON POROSITY [LIMESTONE]
~Params ----------------------------------------------------
~Other -----------------------------------------------------
~ASCII -----------------------------------------------------
# ...
 8753.00000    8.66910    0.16180   74.10020  112.78300    4.12610    3.07010    2.46420   32.41010   33.17080   35.23380   73.45380    0.15610
 8753.50000    8.66470    0.16920   78.20760  118.77800    4.07440    2.81800    2.44100   39.20630   42.22080   44.81150   81.88120    0.20380
 8754.00000    8.66030    0.17070   79.71600  121.47560    3.97460    2.71310    2.43200   28.82330   34.11800   38.87800   84.31300    0.19850
 8754.50000    8.65600    0.17620   81.60290  123.06160    3.87480    2.66740    2.42260   21.98290   22.08680   23.08410   88.03870    0.18760
 8755.00000    8.65160    0.18470   82.98430  124.57570    3.77500    2.63980    2.41030   29.44780   30.62230   34.23300   92.34950    0.19410
 8755.50000    8.64720    0.19360   83.81030  126.08980    3.73960    2.59190    2.39800   41.88920   44.58720   45.86160   94.91440    0.19670
 8756.00000    8.64280    0.19800   84.31440  127.60390    3.74720    2.58170    2.38570   48.67490   49.95880   54.83500   92.29460    0.19550
 8756.50000    8.63850    0.19820   84.85650  127.47010    3.75470    2.59190    2.38570   58.15650   57.75740   59.39670   87.43720    0.18530
 8757.00000    8.63410    0.18060   85.03170  129.41980    3.95640    2.63830    2.41820   47.71400   46.89780   51.46870   83.83230    0.17500
 8757.50000    8.62970    0.16310   84.96490  130.33740    4.19830    2.67010    2.44670   27.30150   30.28630   35.99570   90.65100    0.18410
 8758.00000    8.62530    0.14580   84.51890  130.48070    4.44010    2.69210    2.46940   18.31580   19.05050   20.14200   98.74540    0.19930
 8758.50000    8.62100    0.15410   84.16200  130.62410    4.59060    2.71420    2.47400   22.40360   22.28150   25.91810  102.74660    0.21440
 8759.00000    8.61660    0.16760   84.47980  130.58100    4.43440    2.73170    2.44690   28.29560   29.54140   32.05330   97.04220    0.20880
 8759.50000    8.61220    0.17690   84.89790  130.41380    4.36570    2.72410    2.42600   29.62730   32.86580   36.56110   90.53710    0.19620
 8760.00000    8.60780    0.18170   84.02810  130.54950    4.29710    2.68330    2.41110   43.95970   47.74960   63.80410   85.33310    0.18360
 8760.50000    8.60350    0.18970   84.21030  131.00640    4.22850    2.63220    2.39130   71.92190   67.32310   91.04720   93.55160    0.18390
 8761.00000    8.59910    0.20880   84.43810  131.08660    3.93550    2.63360    2.37160   99.88410  105.65550  114.31130  108.11750    0.19180
 8761.50000    8.60650    0.21620   84.48960  131.43730    3.64240    2.68290    2.36370  112.10030  120.43060  132.12680  120.56590    0.20280
 8762.00000    8.61170    0.20970   84.26150  131.78790    3.34940    2.77520    2.37610   81.82360   99.88310   94.72390  123.45120    0.20530
 8762.50000    8.61820    0.19620   83.68990  131.99230    3.30960    2.89590    2.39160   45.90700   66.56270   50.99530  116.90260    0.20870
 8763.00000    8.62470    0.19220   82.91160  131.12270    3.50310    3.00980    2.40550   38.36740   39.90640   60.64340  107.82380    0.21740
 8763.50000    8.63120    0.18330   81.90100  130.37360    3.69660    3.10680    2.42220   75.92590   82.36690   86.51880   96.92950    0.21660
 8764.00000    8.63770    0.16890   81.84490  130.13620    3.73530    3.18400    2.44590  136.11490  124.82750  112.39420   82.30790    0.18980
 8764.50000    8.64420    0.14920   81.97510  129.78940    3.73530    3.19040    2.46840  140.59040  120.81300  103.48060   74.72400    0.16450
 8765.00000    8.65070    0.13650   81.00770  129.39830    3.73530    3.15430    2.48210   85.46710   76.51000   71.74950   77.02030    0.13910
 8765.50000    8.65720    0.15330   81.29200  129.00720    3.73540    3.05640    2.47060   22.75940   32.20700   40.01830   91.14000    0.14910
 8766.00000    8.66370    0.16090   81.18580  128.24230    3.82900    2.93190    2.44970   23.72650   24.50230   27.70740  107.57150    0.18400
 8766.50000    8.67840    0.17570   80.98900  128.07030    3.92250    2.89240    2.42870   26.14420   35.47250   34.11260  111.58100    0.21900
 8767.00000    8.70800    0.18460   81.78420  128.68530    4.01610    2.89210    2.41420   67.72000   72.40020   63.42790  101.72770    0.22150
 8767.50000    8.71410    0.18880   82.97210  129.37270    3.97200    2.89190    2.40410  109.29580  109.32780   92.74330   90.12210    0.19810
 8768.00000    8.71920    0.19340   83.13590  130.06000    3.87810    2.89700    2.39780  137.39110  132.09350  122.05860   82.75850    0.18640
 8768.50000    8.72580    0.19680   83.49930  130.62070    3.82320    2.92320    2.39010  128.79090  132.70550  117.09630   89.50480    0.17180
 8769.00000    8.73250    0.20030   83.25470  130.67430    3.76840    2.94940    2.39000   76.25850   51.64590   71.77620  103.02250    0.17480
 8769.50000    8.73920    0.19040   82.93230  130.42750    3.73550    2.95750    2.40730   23.72610   28.98330   26.45610  115.13630    0.19220
 8770.00000    8.74580    0.18040   82.42190  130.15960    3.99750    2.97370    2.42910   26.81360   31.84760   28.61850  113.40000    0.21270
 8770.50000    8.75250    0.17050   82.20830  129.97280    4.25940    2.96030    2.43660   72.49020   85.11780   78.27020   98.38550    0.22080
 8771.00000    8.75650    0.17070   82.18590  130.19210    4.52130    2.90170    2.43350  127.58790  130.87860  127.92190   83.85360    0.20170
 8771.50000    8.75650    0.17660   82.92340  130.68220    4.49280    2.81240    2.42520  121.87250  127.88900  129.70800   77.82620    0.19160
 8772.00000    8.75650    0.17880   82.86260  131.17230    4.27070    2.75770    2.42180   93.55650   89.59570  103.35480   82.39520    0.17900
 8772.50000    8.73740    0.17650   82.31120  131.58110    4.04860    2.81600    2.42830   51.99410   54.50090   59.30140   90.07610    0.17930
 8773.00000    8.71360    0.17080   81.86530  131.20920    3.92010    2.90340    2.43480   18.65770   19.40610   20.61310  100.17370    0.17960
 8773.50000    8.68980    0.17100   81.44570  130.36040    3.93220    3.01990    2.43740   20.40870   23.02590   27.34990  105.86740    0.19370
 8774.00000    8.66590    0.17220   81.64540  129.69200    3.94420    3.13650    2.43240   28.29740   32.52150   37.19440   98.87020    0.21030
 8774.50000    8.65640    0.16740   81.89700  129.74550    3.95630    3.17010    2.44120   60.62600   71.60500   69.83430   85.91160    0.21360
 8775.00000    8.66370    0.16100   81.68650  129.79900    3.94960    3.10690    2.44880   94.73070  108.78930  112.91590   77.34550    0.18760
 8775.50000    8.67110    0.16610   81.93120  129.54060    3.93050    2.97360    2.43950  104.59390  107.29150  115.02280   80.07800    0.18760
 8776.00000    8.67840    0.17950   82.18120  128.51050    3.91130    2.85220    2.41720   81.00710   85.72570   94.12930   84.25800    0.18040
 8776.50000    8.68570    0.18790   82.48340  128.53020    3.82720    2.81250    2.40380   59.33610   64.16000   62.81820   86.01100    0.18060
 8777.00000    8.68640    0.18220   83.45720  128.57730    3.85760    2.81220    2.41490   37.66510   42.59420   44.40850   85.36150    0.17850
 8777.50000    8.69100    0.17650   83.98760  129.58770    3.98160    2.81200    2.42880   34.02380   34.74040   36.39300   86.24870    0.18270
 8778.00000    8.68610    0.17190   84.18530  130.59800    4.10570    2.81070    2.43440   36.36580   37.91340   39.54900   92.07690    0.18790
 8778.50000    8.68120    0.18440   84.45220  131.31920    4.11820    2.80480    2.42080   42.22080   45.44370   45.92000  103.00710    0.19580
 8779.00000    8.67950    0.19610   84.82390  132.37130    4.05650    2.79900    2.38670   44.30980   46.71560   48.46840  111.75130    0.20610
 8779.50000    8.67410    0.20070   85.29540  132.97880    3.99470    2.80240    2.38670   36.13060   41.35050   41.99900  109.20170    0.21160
 8780.00000    8.67140    0.19190   84.67270  132.68120    4.02640    2.86930    2.40180   47.14610   52.97960   64.47670   99.92810    0.21550
 8780.50000    8.66620    0.17950   84.15520  132.38370    4.08530    2.88650    2.41690   64.38180   69.48720   72.45940   90.96240    0.20110
