~Version ---------------------------------------------------
VERS.   2.0 : CWLS log ASCII Standard -VERSION 2.0
WRAP.    NO : One line per depth step
DLM . SPACE : Column Data Section Delimiter
~Well ------------------------------------------------------
STRT .FT                 129.0 : START DEPTH
STOP .FT               11966.0 : STOP DEPTH
STEP .FT                   0.5 : STEP
NULL .                -9999.25 : NULL VALUE
COMP .                         : COMPANY
WELL .                         : WELL
FLD  .                         : FIELD
LOC  .                         : LOCATION
PROV .                         : PROVINCE
CNTY .                         : COUNTY
STAT .                         : STATE
CTRY .                         : COUNTRY
SRVC .                         : SERVICE COMPANY
DATE .                         : DATE
UWI  .                         : UNIQUE WELL ID
API  .                         : API NUMBER
SLAT .WGS84 1.7548774737004003 : SURFACE LATITUDE
SLON .WGS84  7.956282701443996 : SURFACE LONGITUDE
DATUM.F                    nan : DEPTH DATUM ELEV
~Curve Information -----------------------------------------
DEPT   .FT    : 
CALD   .IN    : CALIPER FROM DENSITY LOG
DPHZ_LS.DEC   : HGRD STANDARD RESOLUTION DENSITY POROSITY
DTCO   .US/F  : DELTA-T COMPRESSIONAL
DTSM   .US/F  : DELTA-T SHEAR
HDRA   .G/C3  : HRDD SPINE AND RIBS DENSITY CORRECTION
PEFZ   .B/E   : HRDD STANDARD RESOLUTION FORMATION PHOTOELECTRIC FACTOR
RHOZ   .G/C3  : HRDD STANDARD RESOLUTION FORMATION DENSITY
RLA3   .OHMM  : APPARENT RESISTIVITY FROM COMPUTED FOCUSING MODE 3
RLA4   .OHMM  : APPARENT RESISTIVITY FROM COMPUTED FOCUSING MODE 4
RLA5   .OHMM  : APPARENT RESISTIVITY FROM COMPUTED FOCUSING MODE 5
SGRDD  .GAPI  : SPECTROSCOPY GAMMA RAY FROM DENSITY LOG
TNPH_LS.DEC   : THERMAL NEUTRON POROSITY [LIMESTONE]
~Params ----------------------------------------------------
~Other -----------------------------------------------------
~ASCII -----------------------------------------------------
# ...
 9201.00000    8.66210    0.11740   75.71540  118.66380    4.31150    3.04730    2.52710   35.23670   48.52070   62.55630   50.27200    0.13090
 9201.50000    8.66220    0.10670   76.02980  119.18290    4.48060    3.04680    2.53960   48.56990   61.92640   86.37010   47.93790    0.12000
 9202.00000    8.66240    0.10480   76.35950  119.61640    4.64970    3.00820    2.52910   41.79510   54.40470   83.07950   51.77130    0.11410
 9202.50000    8.66250    0.12360   76.87880  120.04990    4.63370    2.95820    2.50980   37.59210   46.50980   74.05580   56.11270    0.12170
 9203.00000    8.66260    0.13720   77.36870  120.82910    4.34010    2.93320    2.49050   37.34210   46.38400   74.12460   59.40460    0.12920
 9203.50000    8.66270    0.14380   77.96800  121.69480    4.04640    2.95480    2.48140   36.11620   43.38310   71.01240   60.22730    0.13680
 9204.00000    8.66280    0.14360   78.86400  121.57110    3.92900    2.98040    2.47620   36.06050   43.58410   73.33770   60.71240    0.14250
 9204.50000    8.66300    0.14800   79.34220  122.25900    3.92900    2.97670    2.47300   37.11950   45.61920   76.30320   61.22270    0.14770
 9205.00000    8.66310    0.14910   79.78400  124.01010    3.92900    2.97290    2.47200   38.08490   47.99690   79.44050   61.17220    0.15300
 9205.50000    8.66320    0.14670   79.93930  125.07960    3.92900    2.92290    2.47590   37.94130   47.36510   75.39620   63.06320    0.15540
 9206.00000    8.66330    0.14360   79.94020  125.54100    3.90070    2.86700    2.47720   33.33570   42.78580   66.11920   64.84910    0.16080
 9206.50000    8.65380    0.14780   79.94100  126.01220    3.85340    2.88260    2.47240   34.91990   46.81980   67.35800   66.99420    0.17040
 9207.00000    8.64100    0.15210   79.86770  126.65200    3.80610    2.91330    2.46690   34.87900   48.87400   66.56820   66.44310    0.16570
 9207.50000    8.63550    0.15410   79.74490  126.30680    3.75880    2.95140    2.46240   34.43190   47.36520   65.27760   64.21550    0.15790
 9208.00000    8.59920    0.15110   79.57030  125.96170    3.78320    2.91850    2.46800   46.06980   60.51210   80.99560   60.06060    0.14980
 9208.50000    8.58330    0.15250   79.27900  125.61660    3.83960    2.86950    2.46600   40.66500   48.24900   63.86960   57.95990    0.14680
 9209.00000    8.59250    0.15420   79.36220  125.19280    3.89600    2.79800    2.46290   43.98900   51.23680   65.53280   57.05440    0.14850
 9209.50000    8.60410    0.15470   79.32730  124.66840    3.95240    2.72580    2.46090   43.02490   47.80510   62.61870   59.61600    0.15030
 9210.00000    8.61560    0.15610   79.07010  124.09390    3.96630    2.69490    2.46090   40.10510   46.62030   60.91250   60.12530    0.15060
 9210.50000    8.62720    0.15250   78.38440  123.20110    3.95210    2.72320    2.46170   36.26200   41.79870   55.76770   61.22480    0.15310
 9211.00000    8.63870    0.15380   77.01940  121.83090    3.93780    2.85710    2.46350   32.41880   37.94140   51.55890   61.27760    0.15940
 9211.50000    8.64330    0.15280   75.22570  120.32650    3.92920    3.08240    2.46940   30.11290   36.22780   50.78470   61.29480    0.16320
 9212.00000    8.63880    0.15140   73.84980  118.90250    4.16880    3.40410    2.48590   39.26250   70.05730  105.43480   57.16600    0.15510
 9212.50000    8.63420    0.13130   72.57830  117.70080    4.40840    3.67890    2.51650  122.73880  185.69590  236.66740   46.70580    0.12050
 9213.00000    8.62970    0.10940   71.96320  115.51430    4.64800    3.92240    2.55800  223.51270  272.09250  306.62760   35.41350    0.09070
 9213.50000    8.62510    0.08740   70.81710  113.65080    4.72500    3.90800    2.58390  287.26210  351.17860  428.32580   27.66710    0.06920
 9214.00000    8.62330    0.08230   69.20720  111.52070    4.91750    3.77900    2.57620  183.32050  215.15670  284.63700   30.02710    0.06780
 9214.50000    8.62330    0.09130   68.13880  110.28490    5.11010    3.64200    2.55620   46.49780   74.78710   64.88090   36.25350    0.08250
 9215.00000    8.62330    0.10030   67.29810  109.04910    5.26910    3.64200    2.55980   46.49780   47.53230   48.94140   43.04690    0.09720
 9215.50000    8.64230    0.08140   66.93670  108.05450    5.40590    3.77250    2.58130   67.21160  150.08680  201.19730   40.93370    0.09200
 9216.00000    8.63980    0.06270   67.19620  108.66710    5.54260    3.87980    2.60630  157.52170  260.12760  772.75940   36.07830    0.07260
 9216.50000    8.63720    0.07250   67.38290  108.30840    5.00750    3.89750    2.57870   62.68840   97.65200  140.38610   34.90640    0.06880
 9217.00000    8.63470    0.08960   67.77460  108.85870    4.81100    3.90450    2.55420   53.34350   55.17370   58.41760   36.93290    0.08360
 9217.50000    8.62330    0.09390   68.16870  109.67420    4.69670    3.91940    2.56380   72.65350   85.65030  106.88040   37.70790    0.08890
 9218.00000    8.63480    0.08700   68.67090  110.14860    4.58250    3.96660    2.57830   92.96150   96.26150   98.95440   35.50350    0.08220
 9218.50000    8.64630    0.08730   69.49750  111.47630    4.47670    3.90690    2.56590   87.78670   89.21810   92.18660   34.53620    0.08120
 9219.00000    8.64380    0.10530   71.02470  112.45370    4.40440    3.73560    2.53690  108.56040  115.48320  120.47440   37.74690    0.09000
 9219.50000    8.64470    0.12560   71.69040  112.71500    4.33220    3.53580    2.51420  122.78640  134.61590  141.69020   43.25330    0.10390
 9220.00000    8.64550    0.13180   71.95020  113.24210    4.28880    3.35670    2.50070   96.29110  103.60850  109.60420   48.75960    0.11770
 9220.50000    8.64640    0.12880   71.95000  113.76930    4.28880    3.36770    2.49800   90.71130   92.82120   96.21120   52.67950    0.12970
 9221.00000    8.64730    0.12090   71.94430  114.21520    4.28880    3.51420    2.51910   85.13160   87.08880   89.49670   48.70270    0.13210
 9221.50000    8.64810    0.10890   71.97950  114.33350    4.28880    3.72260    2.53810   86.30470   92.57880  109.51380   42.47640    0.11910
 9222.00000    8.64900    0.09910   72.11490  114.88990    4.28880    3.97220    2.54920  156.79630  180.11610  194.01360   36.25020    0.10700
 9222.50000    8.64990    0.10220   72.60520  115.35670    4.28880    4.01670    2.54340  132.95920  154.15030  163.36980   36.56550    0.09480
 9223.00000    8.65070    0.10750   73.57970  116.20340    4.28880    3.86200    2.53450  121.60140  141.25770  150.57140   41.00550    0.09370
 9223.50000    8.65160    0.11470   74.55430  117.05010    4.28880    3.54690    2.52570  150.76750  163.57130  188.70770   48.05690    0.10330
 9224.00000    8.65250    0.11940   75.39400  118.03480    4.19910    3.32760    2.51020  113.34260  117.53890  143.66700   58.55840    0.11490
 9224.50000    8.65330    0.13300   76.67330  119.57130    4.04940    3.17580    2.49030  102.03650  104.69510  108.37340   69.82130    0.13330
 9225.00000    8.65420    0.14580   77.95260  122.46330    3.89970    3.13320    2.47040   97.26010  100.14860  102.46060   77.17770    0.15170
 9225.50000    8.65510    0.15640   79.21980  124.97320    3.75000    3.19730    2.45810   90.31650   93.91760   96.54780   75.53770    0.17220
 9226.00000    8.65590    0.15570   79.90150  126.37840    3.85570    3.29100    2.46300   74.70430   80.94870   82.89040   72.52410    0.17790
 9226.50000    8.65680    0.14700   80.69940  127.42570    3.98780    3.33300    2.47440   61.92770   67.97990   68.55160   71.24520    0.17480
 9227.00000    8.65770    0.14020   80.83810  128.91210    4.11990    3.37060    2.48570   62.50280   62.89650   64.59480   69.68160    0.16480
 9227.50000    8.65850    0.13370   79.20280  127.87460    4.28120    3.43300    2.49710   56.18740   58.35050   60.27640   64.13660    0.15830
 9228.00000    8.65940    0.12440   76.01360  126.58040    4.17140    3.49540    2.50850   69.40790   74.39390   98.80520   55.11790    0.14050
 9228.50000    8.66030    0.11830   75.88120  124.15470    4.06150    3.60890    2.51980   70.81010   79.20910   85.33520   48.72750    0.12520
