~Version ---------------------------------------------------
VERS.   2.0 : CWLS log ASCII Standard -VERSION 2.0
WRAP.    NO : One line per depth step
DLM . SPACE : Column Data Section Delimiter
~Well ------------------------------------------------------
STRT .FT                 129.0 : START DEPTH
STOP .FT               11966.0 : STOP DEPTH
STEP .FT                   0.5 : STEP
NULL .                -9999.25 : NULL VALUE
COMP .                         : COMPANY
WELL .                         : WELL
FLD  .                         : FIELD
LOC  .                         : LOCATION
PROV .                         : PROVINCE
CNTY .                         : COUNTY
STAT .                         : STATE
CTRY .                         : COUNTRY
SRVC .                         : SERVICE COMPANY
DATE .                         : DATE
UWI  .                         : UNIQUE WELL ID
API  .                         : API NUMBER
SLAT .WGS84 1.7548774737004003 : SURFACE LATITUDE
SLON .WGS84  7.956282701443996 : SURFACE LONGITUDE
DATUM.F                    nan : DEPTH DATUM ELEV
~Curve Information -----------------------------------------
DEPT   .FT    : 
CALD   .IN    : CALIPER FROM DENSITY LOG
DPHZ_LS.DEC   : HGRD STANDARD RESOLUTION DENSITY POROSITY
DTCO   .US/F  : DELTA-T COMPRESSIONAL
DTSM   .US/F  : DELTA-T SHEAR
HDRA   .G/C3  : HRDD SPINE AND RIBS DENSITY CORRECTION
PEFZ   .B/E   : HRDD STANDARD RESOLUTION FORMATION PHOTOELECTRIC FACTOR
RHOZ   .G/C3  : HRDD STANDARD RESOLUTION FORMATION DENSITY
RLA3   .OHMM  : APPARENT RESISTIVITY FROM COMPUTED FOCUSING MODE 3
RLA4   .OHMM  : APPARENT RESISTIVITY FROM COMPUTED FOCUSING MODE 4
RLA5   .OHMM  : APPARENT RESISTIVITY FROM COMPUTED FOCUSING MODE 5
SGRDD  .GAPI  : SPECTROSCOPY GAMMA RAY FROM DENSITY LOG
TNPH_LS.DEC   : THERMAL NEUTRON POROSITY [LIMESTONE]
~Params ----------------------------------------------------
~Other -----------------------------------------------------
~ASCII -----------------------------------------------------
# ...
 7409.00000    8.83220    0.08470   67.00920  107.84330    3.73630    3.28710    2.57350  377.03650  364.67990  389.04600  117.30040    0.13030
 7409.50000    8.83620    0.08940   67.82380  109.44080    3.87210    3.28900    2.56650  424.79250  387.25290  455.09570  110.85580    0.14030
 7410.00000    8.83620    0.09490   68.80800  111.43820    3.98550    3.34360    2.55990  498.64060  465.31300  525.33520  109.55880    0.14570
 7410.50000    8.83620    0.09860   70.17930  113.28040    4.09880    3.42660    2.55320  699.40750  474.55830  668.01310  114.48650    0.15740
 7411.00000    8.83620    0.09860   70.58410  114.27480    4.21210    3.57090    2.55040 1433.96200 1245.03520 1814.37320  126.51520    0.16910
 7411.50000    8.83610    0.10090   70.30670  115.35150    3.99970    3.68700    2.54870 2055.14180 2015.51210 2037.36450  143.17280    0.17630
 7412.00000    8.82610    0.10950   69.92530  115.15430    3.87500    3.68990    2.53710 1172.26950 1990.25020 1223.66590  149.62770    0.18050
 7412.50000    8.81610    0.11670   69.69930  115.02440    3.75030    3.65650    2.52550 1505.12840 1184.72080 1534.70920  159.21760    0.19020
 7413.00000    8.80750    0.10880   69.60350  114.62300    3.86430    3.66300    2.53330 2059.89320 1873.24990 2053.11450  153.66340    0.18220
 7413.50000    8.81440    0.09480   69.23070  114.81690    3.86900    3.74590    2.55610 2022.17350 2386.84630 2304.82850  150.16070    0.15610
 7414.00000    8.81280    0.07930   69.12940  114.77970    3.87360    3.84330    2.58530 1721.03130 1966.89280 1997.24370  118.53550    0.13230
 7414.50000    8.82280    0.07810   68.78970  114.32370    3.87830    3.77730    2.58580 1106.40520 1141.50960 1276.27270  106.24460    0.12350
 7415.00000    8.83950    0.08210   68.27980  113.55910    3.88290    3.63640    2.57420  491.77910  478.97680  667.41890  114.42600    0.14160
 7415.50000    8.85630    0.08810   67.76980  112.19520    3.88750    3.52150    2.56270  510.29820  474.56100  526.01770  126.79610    0.15910
 7416.00000    8.86720    0.09090   67.26460  110.83130    3.89220    3.40660    2.56270  380.76920  259.56470  455.11030  137.74530    0.15910
 7416.50000    8.88340    0.08330   66.33710  109.35590    3.99520    3.40720    2.57680  127.00150  111.73690  140.12790  132.33090    0.15860
 7417.00000    8.89750    0.07310   64.91310  108.26560    4.04680    3.42660    2.59100  482.28950  439.06600  569.01740  116.66800    0.14250
 7417.50000    8.90410    0.06660   63.59740  106.90820    4.04870    3.44500    2.60210  921.73190  975.74770 1031.72300   98.42940    0.12140
 7418.00000    8.91060    0.06350   62.28170  105.22050    4.05060    3.43270    2.60890 1020.53940  984.80760 1126.01860   82.74400    0.10130
 7418.50000    8.91720    0.05980   61.09650  103.62760    4.06210    3.40760    2.61740 1163.63210 1089.78290 1154.41600   75.25900    0.08120
 7419.00000    8.92380    0.05260   60.05340  100.87700    4.11200    3.44680    2.63150 1533.12530 1352.14910 1571.06390   65.30910    0.06470
 7419.50000    8.93040    0.04280   59.88160  100.87700    4.16190    3.59360    2.64890 1902.61850 1784.34860 2034.24710   53.71570    0.04830
 7420.00000    8.93700    0.03570   60.34610  101.01080    4.21190    3.73350    2.65660 2556.26100 2043.66830 2833.48980   51.13130    0.03850
 7420.50000    8.94350    0.04470   61.76370  101.57110    4.20620    3.76120    2.63170 1978.15650 3321.33430 2307.91540   63.53110    0.05280
 7421.00000    8.95010    0.06640   63.18140  102.30280    4.07780    3.66640    2.60150  978.97340  861.30900 1060.37710   87.26380    0.08570
 7421.50000    8.95670    0.09120   64.69300  103.03450    3.94950    3.53500    2.55580 1436.65020 1389.44930 1470.40500  110.87440    0.12440
 7422.00000    8.96330    0.10920   65.93760  105.13880    3.87250    3.46760    2.53910 1712.38240 1644.73940 2062.64880  129.32880    0.16560
 7422.50000    8.96990    0.11300   66.78530  107.58620    3.87250    3.47630    2.52830 2069.45890 2006.25020 2226.20070  137.85210    0.16890
 7423.00000    8.96450    0.11210   67.75220  110.03360    3.87250    3.51650    2.53250 2939.33620 3114.58090 2474.48640  146.42110    0.16130
 7423.50000    8.96400    0.10700   69.86190  110.95990    3.87250    3.52400    2.54280 1975.48270 2197.78530 2009.94260  138.45840    0.15190
 7424.00000    8.96930    0.09710   69.99560  111.27370    3.87250    3.49550    2.55300  595.52580  751.09710  368.06780  123.42730    0.13820
 7424.50000    8.97460    0.09260   69.47540  111.15000    3.87250    3.49290    2.55970  409.21960  649.75870  372.32510  107.42870    0.12750
 7425.00000    8.97980    0.09330   68.21180  110.68140    3.87250    3.48910    2.56020  282.46930  282.84360  276.38400  117.19620    0.13170
 7425.50000    8.98510    0.09260   66.94830  109.23570    3.87250    3.39540    2.56020  621.40680  583.43950  704.47930  132.22430    0.14730
 7426.00000    8.99040    0.08560   65.88100  107.79010    3.96780    3.30170    2.57690  634.33950  489.56840  942.96360  127.82400    0.14170
 7426.50000    8.99560    0.06810   64.71570  106.15060    4.12630    3.20210    2.59660  250.49430  229.74480  310.76420  108.71640    0.12040
 7427.00000    9.00090    0.05700   63.38600  104.52980    4.28490    3.09500    2.61620  183.77000  175.26790  207.94470   86.63700    0.08690
 7427.50000    9.00620    0.05000   62.53200  103.17740    4.41170    3.04160    2.63590  141.61320  133.72840  151.43190   78.52590    0.05980
 7428.00000    9.01140    0.04540   61.91670  101.82490    4.36450    3.01690    2.63630  125.83470  122.55620  135.66960   76.91480    0.05440
 7428.50000    9.01670    0.04880   61.00650  100.48070    4.31720    3.00800    2.63210  122.39410  120.31190  129.93540   77.18000    0.05440
 7429.00000    9.02200    0.05030   60.20740   99.14850    4.26990    2.99910    2.62630  105.07550  104.10290  113.68640   75.95910    0.05440
 7429.50000    9.02670    0.05290   59.93110   98.77950    4.21100    2.99020    2.62220   93.83750   94.61720  104.90430   74.16920    0.04970
 7430.00000    9.02930    0.05620   59.82640   98.09060    4.10530    2.98130    2.61860   91.48260   90.16300   98.88790   72.37930    0.04680
 7430.50000    9.03190    0.05880   59.72170   97.40170    3.99960    2.99690    2.61320   88.17400   83.36440   91.42000   68.99800    0.04690
 7431.00000    9.03450    0.06220   59.63820   97.30850    3.89390    2.99690    2.60720   85.35690   77.92550   88.69230   67.88190    0.04700
 7431.50000    9.03700    0.06540   59.63960   97.53150    3.97990    2.97790    2.60630   84.11840   79.74680   87.67490   69.91700    0.04710
 7432.00000    9.03960    0.06510   59.59290   97.66530    4.11370    2.97130    2.60750   81.02200   77.56920   86.26360   72.67800    0.04710
 7432.50000    9.04220    0.06190   59.41790   97.55380    4.24750    2.96990    2.61080   78.54500   75.30680   85.07610   71.19230    0.04710
 7433.00000    9.04480    0.06060   59.26870   97.69910    4.38130    2.98580    2.61840   76.26590   72.70760   84.09970   68.49750    0.04600
 7433.50000    9.04740    0.05260   59.09260   97.97840    4.40800    3.02250    2.62390   75.60870   71.54180   83.51820   66.58930    0.04560
 7434.00000    9.05000    0.05110   58.95050   98.25770    4.31820    3.08670    2.62780   75.34570   71.04720   83.13320   65.57010    0.04560
 7434.50000    9.05250    0.04960   58.83080   98.42950    4.22140    3.21940    2.63420   79.27440   74.40710   86.66330   64.37830    0.04570
 7435.00000    9.05510    0.04550   59.08030   98.57450    4.12460    3.34010    2.64230  121.30730  116.48350  129.54430   65.36820    0.04580
 7435.50000    9.05620    0.04190   59.30740   98.71950    4.02780    3.34340    2.63440   95.75250   89.33490   97.72590   68.81870    0.04630
 7436.00000    9.05620    0.05310   59.35250   99.00710    3.93100    3.23610    2.61780   99.41720   90.34330  106.69330   73.97630    0.05060
 7436.50000    9.05620    0.06430   59.53310   99.41520    3.84250    3.12880    2.60310   72.22940   75.21760   86.86980   78.93990    0.06000
