~Version ---------------------------------------------------
VERS.   2.0 : CWLS log ASCII Standard -VERSION 2.0
WRAP.    NO : One line per depth step
DLM . SPACE : Column Data Section Delimiter
~Well ------------------------------------------------------
STRT .FT                 129.0 : START DEPTH
STOP .FT               11966.0 : STOP DEPTH
STEP .FT                   0.5 : STEP
NULL .                -9999.25 : NULL VALUE
COMP .                         : COMPANY
WELL .                         : WELL
FLD  .                         : FIELD
LOC  .                         : LOCATION
PROV .                         : PROVINCE
CNTY .                         : COUNTY
STAT .                         : STATE
CTRY .                         : COUNTRY
SRVC .                         : SERVICE COMPANY
DATE .                         : DATE
UWI  .                         : UNIQUE WELL ID
API  .                         : API NUMBER
SLAT .WGS84 1.7548774737004003 : SURFACE LATITUDE
SLON .WGS84  7.956282701443996 : SURFACE LONGITUDE
DATUM.F                    nan : DEPTH DATUM ELEV
~Curve Information -----------------------------------------
DEPT   .FT    : 
CALD   .IN    : CALIPER FROM DENSITY LOG
DPHZ_LS.DEC   : HGRD STANDARD RESOLUTION DENSITY POROSITY
DTCO   .US/F  : DELTA-T COMPRESSIONAL
DTSM   .US/F  : DELTA-T SHEAR
HDRA   .G/C3  : HRDD SPINE AND RIBS DENSITY CORRECTION
PEFZ   .B/E   : HRDD STANDARD RESOLUTION FORMATION PHOTOELECTRIC FACTOR
RHOZ   .G/C3  : HRDD STANDARD RESOLUTION FORMATION DENSITY
RLA3   .OHMM  : APPARENT RESISTIVITY FROM COMPUTED FOCUSING MODE 3
RLA4   .OHMM  : APPARENT RESISTIVITY FROM COMPUTED FOCUSING MODE 4
RLA5   .OHMM  : APPARENT RESISTIVITY FROM COMPUTED FOCUSING MODE 5
SGRDD  .GAPI  : SPECTROSCOPY GAMMA RAY FROM DENSITY LOG
TNPH_LS.DEC   : THERMAL NEUTRON POROSITY [LIMESTONE]
~Params ----------------------------------------------------
~Other -----------------------------------------------------
~ASCII -----------------------------------------------------
# ...
 5141.00000   10.43160    0.21020   81.47530  160.75710    4.15500    2.78560    2.37650    1.53430    1.33420    1.69890   45.59230    0.16120
 5141.50000   10.47640    0.22240   81.62580  161.52560    4.10070    2.70910    2.35930    1.52020    1.21740    1.65360   45.58340    0.17100
 5142.00000   10.49070    0.22920   81.77530  162.22080    4.04640    2.67880    2.34410    1.59950    1.35510    1.74090   44.45090    0.18100
 5142.50000   10.47690    0.23210   82.17780  162.91600    3.99210    2.67520    2.33770    1.65970    1.46440    1.78360   44.26090    0.18550
 5143.00000   10.42690    0.23400   82.67040  163.75230    3.95960    2.65800    2.33490    1.65970    1.38910    1.78360   44.12220    0.18270
 5143.50000   10.38890    0.23300   83.22400  165.08540    3.95960    2.63690    2.33630    1.59950    1.31380    1.74810   45.82580    0.18110
 5144.00000   10.36990    0.23070   83.15430  166.17450    3.95960    2.63750    2.34040    1.60980    1.28680    1.69890   47.81880    0.18080
 5144.50000   10.37460    0.22740   82.93040  166.16010    3.95960    2.63810    2.34440    1.62710    1.40640    1.72730   48.72210    0.17820
 5145.00000   10.39480    0.22530   82.94750  165.82000    3.95960    2.63860    2.34810    1.64440    1.46440    1.77400   48.18570    0.17500
 5145.50000   10.36470    0.22380   83.48230  165.32680    3.95960    2.65060    2.35020    1.62180    1.39830    1.77400   48.88930    0.17800
 5146.00000   10.32910    0.22280   83.70650  164.48310    3.95960    2.67080    2.35240    1.63460    1.53570    1.81310   48.82740    0.18720
 5146.50000   10.28790    0.22200   84.07420  163.15700    3.95960    2.69720    2.35320    1.68280    1.66660    1.86240   48.55880    0.19010
 5147.00000   10.26780    0.22380   84.53020  162.79140    4.01470    2.73600    2.34900    1.73010    1.53370    2.02840   46.84260    0.18720
 5147.50000   10.26780    0.22830   84.98620  162.66590    4.06410    2.77220    2.34320    2.03370    1.96820    2.25020   48.28960    0.18720
 5148.00000   10.28280    0.23470   85.21340  162.54050    4.11360    2.76670    2.33410    2.00570    1.96820    2.15540   47.55180    0.18980
 5148.50000   10.33700    0.24120   85.48950  162.57530    4.16300    2.75000    2.32500    1.94110    1.83890    2.06060   46.72250    0.19490
 5149.00000   10.34710    0.24560   85.54720  163.16690    4.16300    2.75070    2.31590    1.87650    1.65890    2.01960   45.44260    0.19030
 5149.50000   10.35710    0.24750   85.63900  163.85330    4.16300    2.75130    2.31320    1.81190    1.65890    1.98720   46.18170    0.18830
 5150.00000   10.36720    0.24410   85.45160  164.59710    4.16300    2.75190    2.31580    1.76570    1.57680    1.93420   46.38890    0.18700
 5150.50000   10.34920    0.23930   85.10730  165.42730    4.13880    2.75260    2.32470    1.74620    1.55510    1.90310   45.69570    0.18610
 5151.00000   10.31630    0.23540   84.87260  166.25750    4.03310    2.75320    2.33070    1.70630    1.53370    1.87250   43.66300    0.18760
 5151.50000   10.27810    0.23430   84.69960  166.69420    3.92740    2.75390    2.33360    1.62180    1.45980    1.68980   43.52920    0.18550
 5152.00000   10.26080    0.23420   84.22450  166.83370    3.82170    2.70460    2.33440    1.59950    1.36010    1.68070   44.48660    0.18610
 5152.50000   10.24350    0.23180   83.90540  166.70510    3.87250    2.69710    2.34000    1.63680    1.41780    1.74550   46.32840    0.19230
 5153.00000   10.23760    0.22650   83.82610  166.70510    3.99230    2.67910    2.34650    1.69840    1.57650    1.77400   46.83850    0.19980
 5153.50000   10.25990    0.21960   83.31760  165.88740    4.11210    2.70750    2.35490    1.82060    1.73510    1.91190   48.16560    0.19760
 5154.00000   10.27370    0.21960   82.06470  162.68390    4.28690    2.74230    2.35990    1.90640    1.87060    2.05640   49.41920    0.19150
 5154.50000   10.29530    0.22360   81.96210  161.01240    4.49830    2.81300    2.35120    1.95090    1.80930    2.06380   50.97680    0.18120
 5155.00000   10.26420    0.21920   81.68460  160.28230    4.70970    2.88020    2.34910    1.73810    1.65900    1.85240   50.80930    0.18740
 5155.50000   10.21640    0.20070   81.61550  155.74990    4.87880    2.89690    2.37900    2.13210    1.95790    2.70510   52.59200    0.18180
 5156.00000   10.18890    0.16840   81.33940  154.92640    4.77100    2.88240    2.41650    3.12140    2.63710    3.81210   56.70250    0.17370
 5156.50000   10.19150    0.16760   81.38550  153.50470    4.59140    2.86780    2.43910    3.55650    3.25630    3.86690   60.23780    0.16850
 5157.00000   10.19410    0.17960   81.67270  152.65160    4.41170    2.82220    2.42790    3.10570    2.82090    3.09030   61.06660    0.16500
 5157.50000   10.19670    0.19900   82.09390  154.27500    4.30410    2.75510    2.39960    2.14150    1.88140    2.20700   56.65850    0.17910
 5158.00000   10.19930    0.21190   82.51520  155.75910    4.24460    2.68540    2.37140    1.55570    1.53250    1.66930   54.42240    0.18110
 5158.50000   10.21690    0.22020   82.52700  156.65020    4.18520    2.68590    2.35150    1.87150    1.80830    1.95290   55.18580    0.18280
 5159.00000   10.28320    0.23170   82.53890  157.48700    4.08780    2.70980    2.33430    1.67960    1.46910    1.79270   54.41060    0.19300
 5159.50000   10.32070    0.24380   82.69100  158.32370    4.10690    2.74770    2.31960    1.37430    1.07840    1.52200   49.34100    0.20320
 5160.00000   10.37400    0.23740   82.85730  158.30780    4.30440    2.78360    2.32420    1.39680    1.17980    1.65830   44.32170    0.21800
 5160.50000   10.38260    0.21020   82.70400  158.13760    4.50180    2.81950    2.37010    2.09090    1.93450    2.27010   41.37230    0.18980
 5161.00000   10.39130    0.18530   81.90530  158.53900    4.69930    2.90070    2.41830    2.65850    2.58480    2.74910   42.11490    0.16640
 5161.50000   10.39990    0.17460   81.35450  155.68520    4.74050    3.01220    2.42860    2.65850    2.38490    2.71130   42.67950    0.14610
 5162.00000   10.30040    0.19050   80.65210  154.56220    4.78170    3.12370    2.40120    1.90290    1.77780    2.16120   46.69950    0.15600
 5162.50000   10.17470    0.19690   80.22760  152.62320    4.82280    3.17680    2.39350    2.04990    1.64680    2.21850   52.22670    0.17590
 5163.00000   10.00240    0.18420   79.69030  150.11280    4.82040    3.15630    2.41300    2.84930    2.63690    3.01520   60.64570    0.18100
 5163.50000    9.83040    0.17250   79.07780  146.28260    4.71350    3.10700    2.43660    3.06780    2.86120    3.33130   69.33090    0.16640
 5164.00000    9.69270    0.16150   78.81200  144.36020    4.60650    3.04100    2.45130    3.90950    3.46020    4.12640   75.72880    0.15700
 5164.50000    9.66260    0.15560   78.56470  143.74360    4.49520    3.00690    2.46130    4.12310    3.85730    4.40360   74.05900    0.15660
 5165.00000    9.65660    0.15930   78.13850  143.10800    4.36640    3.00340    2.45570    3.09630    2.62490    3.42680   67.61270    0.15590
 5165.50000    9.67900    0.15680   77.56330  142.47240    4.23770    3.00000    2.45280    3.19810    3.02430    3.36860   63.14510    0.14750
 5166.00000    9.70140    0.15180   77.31320  141.63710    4.19640    2.99650    2.46550    2.64300    2.65450    2.81170   60.98390    0.15360
 5166.50000    9.72740    0.14990   77.01390  140.66870    4.21180    2.99380    2.46880    2.52680    2.43710    2.62140   62.18210    0.15390
 5167.00000    9.75190    0.15200   76.62850  140.74260    4.11550    2.99380    2.46140    2.68610    2.55310    2.78380   63.31420    0.15810
 5167.50000    9.79820    0.15770   76.07710  140.64220    4.01930    3.01380    2.45280    2.81010    2.69030    2.94630   64.66030    0.16030
 5168.00000    9.82430    0.15910   75.80530  140.25190    3.96060    3.06690    2.45890    2.87570    2.77450    2.98740   65.70960    0.15830
 5168.50000    9.88180    0.15300   75.50380  139.33760    3.94830    3.09370    2.46660    3.12740    2.90560    3.17230   65.45900    0.14930
