~Version ---------------------------------------------------
VERS.   2.0 : CWLS log ASCII Standard -VERSION 2.0
WRAP.    NO : One line per depth step
DLM . SPACE : Column Data Section Delimiter
~Well ------------------------------------------------------
STRT .FT                 178.0 : START DEPTH
STOP .FT                4994.0 : STOP DEPTH
STEP .FT                   0.5 : STEP
NULL .                -9999.25 : NULL VALUE
COMP .                         : COMPANY
WELL .                         : WELL
FLD  .                         : FIELD
LOC  .                         : LOCATION
PROV .                         : PROVINCE
CNTY .                         : COUNTY
STAT .                         : STATE
CTRY .                         : COUNTRY
SRVC .                         : SERVICE COMPANY
DATE .                         : DATE
UWI  .                         : UNIQUE WELL ID
API  .                         : API NUMBER
SLAT .WGS84 1.7497207532499992 : SURFACE LATITUDE
SLON .WGS84 7.2173604501090125 : SURFACE LONGITUDE
DATUM.F                2670.35 : DEPTH DATUM ELEV
~Curve Information -----------------------------------------
DEPT   .FT    : 
CAL1R  .IN    : CALIPER 1 FROM RESISTIVITY LOG
CALD   .IN    : CALIPER FROM DENSITY LOG
CALSR  .IN    : MICRO RESISTIVITY CALIPER FROM RESISTIVITY
DPHI_LS.DEC   : DENSITY POROSITY LIMESTONE
DRHO   .G/C3  : BULK DENSITY CORRECTION
DTCO   .US/F  : DELTA-T COMPRESSIONAL
DTSM   .US/F  : DELTA-T SHEAR
GRD    .GAPI  : GAMMA RAY FROM DENSITY LOG
GRS    .GAPI  : GAMMA RAY FROM SONIC LOG
LLD    .OHMM  : LATEROLOG DEEP RESISTIVITY
LLS    .OHMM  : LATEROLOG SHALLOW RESISTIVITY
MSFL   .OHMM  : MICRO SPHERICALLY FOCUSED RESISTIVITY
NPHI_LS.DEC   : NEUTRON POROSITY LIMESTONE
PEF    .B/E   : PHOTOELECTRIC FACTOR
PR     .N/A   : POISSON'S RATIO
RHOB   .G/C3  : BULK DENSITY
SPHI_LS.DEC   : SONIC POROSITY [LIMESTONE]
TEND   .LBF   : TENSION FROM DENSITY LOG
TENR   .LBF   : TENSION FROM RESISTIVITY LOG
TENS   .LB    : TENSION FROM SONIC LOG
VPVS   .N/A   : COMPRESSIONAL TO SHEAR VELOCITY RATIO
~Params ----------------------------------------------------
~Other -----------------------------------------------------
~ASCII -----------------------------------------------------
# ...
 4550.50000    7.34330    7.78010    7.45200    0.11560    0.00580   64.10600  116.44730  113.62120  129.34300   39.71520   31.53480   21.33900    0.17070    3.01160    0.28070    2.53110    0.11390 2037.93410 2648.92710 2677.29270    0.68930
 4551.00000    7.37390    7.78560    7.47300    0.12520    0.00860   64.06910  111.79490  138.87190  111.95760   42.58680   31.61980   20.07090    0.21660    3.01420    0.26450    2.51050    0.11430 2041.99520 2624.26950 2665.50950    0.69350
 4551.50000    7.38910    7.79010    7.49400    0.12070    0.01020   60.74290  106.70350  147.96950   79.45780   44.64270   36.95580    8.75330    0.23500    3.16390    0.26540    2.53830    0.10220 2046.05620 2599.61190 2648.79870    0.69770
 4552.00000    7.36920    7.78830    7.49820    0.06260    0.01160   56.63620  102.08960   45.61640   53.64010   45.64870   38.00050   34.38750    0.23320    3.32620    0.26950    2.58320    0.07050 2050.11730 2620.57020 2640.29870    0.70180
 4552.50000    7.34930    7.78650    7.46910    0.02640    0.01170   55.06470   96.46650   36.30670   32.27720   48.46000   39.29070   52.60310    0.16230    3.33700    0.27240    2.63630    0.04940 2054.17840 2632.29390 2649.05740    0.69630
 4553.00000    7.32940    7.78480    7.44730    0.02070    0.01110   53.66660   95.54570   26.99700   21.93210   54.85890   40.17570   36.79980    0.12480    3.25820    0.27090    2.66920    0.04160 2058.23940 2670.27490 2666.68220    0.69070
 4553.50000    7.29810    7.78300    7.42000    0.01350    0.01000   52.52870   92.77610   24.14140   19.44410   67.03280   54.56100   10.46100    0.11550    3.17390    0.26890    2.67890    0.03550 2062.30050 2677.44970 2678.48190    0.68520
 4554.00000    7.28600    7.78120    7.39270    0.00630    0.01000   52.07270   92.20310   26.42330   23.05050  120.29040   84.77200 1188.09900    0.10380    3.08960    0.26680    2.70120    0.03200 2066.36160 2677.88390 2686.39810    0.67960
 4554.50000    7.27090    7.77940    7.37090    0.00170    0.00880   52.17910   92.31610   32.62530   30.48350  234.71470  114.98290 1786.80780    0.09110    3.00540    0.26700    2.70900    0.03260 2070.42260 2678.31820 2694.31440    0.67410
 4555.00000    7.27090    7.77760    7.35270    0.01650    0.00760   52.68020   93.80140   40.96160   38.07920  244.04510  123.06420  711.56020    0.08070    2.96000    0.27580    2.70390    0.03420 2066.64760 2678.75240 2702.23060    0.66850
 4555.50000    7.27090    7.77590    7.35270    0.03750    0.00740   53.64790   96.65520   50.59860   45.40560  232.11390  109.23670  173.22950    0.09710    2.90280    0.28290    2.66560    0.04220 2062.87250 2679.18660 2703.40580    0.66410
 4556.00000    7.32090    7.77410    7.37090    0.05850    0.00720   56.62030  104.66240   60.23550   52.73200  172.25470   79.76560   69.31500    0.12180    2.90060    0.28360    2.63690    0.05940 2059.09740 2709.07910 2702.82270    0.66890
 4556.50000    7.38910    7.77230    7.42550    0.08210    0.00690   59.34370  106.91620   62.80800   57.48810  112.39550   50.29450    6.25040    0.15920    2.94850    0.27710    2.59190    0.08080 2055.32230 2710.44780 2702.23960    0.67010
 4557.00000    7.45730    7.77050    7.48000    0.10760    0.00740   61.90100  110.73730   57.08190   55.09270   52.53630   20.59270    3.81560    0.19960    2.99640    0.27430    2.57430    0.09380 2051.54720 2694.34360 2725.77580    0.67150
 4557.50000    7.47090    7.76880    7.53460    0.13300    0.00800   63.44080  113.79590   47.91550   46.66290   23.97560   18.26390    2.44950    0.22930    3.00560    0.27430    2.53170    0.10390 2047.77220 2656.45120 2704.82850    0.67870
 4558.00000    7.47090    7.76700    7.55280    0.15330    0.00810   64.06360  116.04510   41.21840   38.20320   16.28060   15.58740    2.05730    0.28870    3.01640    0.27520    2.49200    0.11370 2043.99710 2658.85840 2688.07060    0.68120
 4558.50000    7.45270    7.76520    7.52680    0.15070    0.00830   64.84490  117.28480   39.24900   29.65400   11.34330   12.97050    2.23910    0.29920    2.99670    0.27440    2.46380    0.12100 2040.22200 2645.99960 2681.77090    0.68610
 4559.00000    7.44370    7.76340    7.49430    0.14090    0.00830   65.75050  116.39390   44.22720   32.90170   12.31470   13.11580    2.35150    0.30550    2.96980    0.26840    2.46260    0.12750 2036.44690 2647.00940 2653.18750    0.68610
 4559.50000    7.42550    7.76160    7.46180    0.12320    0.00890   65.57350  113.99080   53.61830   40.87260   14.26550   19.47460    2.35150    0.30960    2.95140    0.26000    2.50130    0.13030 2032.67190 2663.58250 2675.32960    0.68620
 4560.00000    7.40730    7.75990    7.44370    0.10230    0.01000   63.95470  111.35880   63.00940   51.04460   29.74690   41.05010   58.95620    0.30000    2.93300    0.25320    2.54190    0.12280 2028.89680 2681.41060 2672.83380    0.68150
 4560.50000    7.38000    7.75810    7.42550    0.08860    0.00940   63.28160  108.72690   67.67100   58.54130   54.34900   62.62570  153.25360    0.24740    2.91460    0.24660    2.58250    0.11300 2025.12170 2684.31460 2670.33800    0.68160
 4561.00000    7.35730    7.75630    7.42550    0.07730    0.00950   62.65880  106.60360   60.32560   52.74790   78.95110   84.20120  125.11720    0.19470    2.91520    0.24450    2.58320    0.10480 2021.34660 2683.48750 2667.84220    0.68730
 4561.50000    7.34360    7.75450    7.42550    0.08630    0.00880   61.81640  106.10960   49.42020   42.05880  103.55320  105.77680   54.77620    0.17100    2.92710    0.25200    2.57940    0.10030 2020.63550 2682.66040 2665.34640    0.69440
 4562.00000    7.35090    7.75270    7.44370    0.09730    0.00530   61.08020  105.47740   41.91220   32.93820  128.15530  111.94690   12.43240    0.15610    2.95020    0.26250    2.56040    0.09310 2032.18030 2681.83330 2662.85060    0.70150
 4562.50000    7.35790    7.75100    7.50430    0.10100    0.00220   59.59100  100.67160   35.01340   25.68850  154.24380  112.57280   26.64020    0.14390    3.01770    0.25840    2.54130    0.08140 2043.72520 2681.00620 2660.35480    0.70580
 4563.00000    7.33840    7.74920    7.51640    0.09520    0.00400   58.10190   98.03010   31.26030   26.41510  373.55690  116.39930   69.24640    0.13820    3.16470    0.24970    2.54130    0.06930 2055.27000 2680.17910 2657.85900    0.70540
 4563.50000    7.33450    7.74880    7.51640    0.06930    0.00850   55.88810   95.38860   33.31210   31.60950  640.72100  210.28640  549.46050    0.10760    3.33430    0.24820    2.54130    0.05550 2066.81480 2679.35200 2655.36320    0.70480
 4564.00000    7.34360    7.74880    7.50730    0.04990    0.01250   54.12740   93.42330   36.17360   37.38590  854.45230  394.14060  391.32880    0.08110    3.32350    0.25460    2.59500    0.05070 2078.35960 2648.87240 2652.86740    0.70420
 4564.50000    7.34360    7.74880    7.49590    0.04640    0.01640   53.87490   94.84420   38.34430   40.32830  844.98450  394.14060  118.82400    0.08230    3.16740    0.26410    2.63800    0.04470 2089.90450 2610.97970 2650.37160    0.70360
 4565.00000    7.34360    7.74880    7.48460    0.08030    0.01880   54.49190   97.48790   38.46080   38.60850  751.71770  325.85470  100.96340    0.11300    3.03840    0.26960    2.62060    0.04400 2101.44930 2630.74200 2647.87580    0.70300
 4565.50000    7.34360    7.74880    7.48000    0.09310    0.01880   55.76760  100.13150   38.51750   35.80110  581.11280  249.63820   29.80860    0.14370    2.90950    0.27460    2.57720    0.05620 2112.99410 2615.87650 2636.09250    0.70250
 4566.00000    7.34360    7.74880    7.48000    0.11050    0.01960   57.04340  102.68400   40.12400   34.52970  377.76690  181.73660   15.70890    0.17440    2.90340    0.27700    2.53380    0.06690 2124.53890 2601.01100 2635.56750    0.70190
 4566.50000    7.34360    7.74880    7.48000    0.10040    0.02030   58.31910  102.97540   43.16840   38.27170  274.79410  144.63620   26.42900    0.19900    2.91530    0.26560    2.53430    0.07460 2123.37190 2605.58010 2608.71380    0.70130
