~Version ---------------------------------------------------
VERS.   2.0 : CWLS log ASCII Standard -VERSION 2.0
WRAP.    NO : One line per depth step
DLM . SPACE : Column Data Section Delimiter
~Well ------------------------------------------------------
STRT .FT                 178.0 : START DEPTH
STOP .FT                4994.0 : STOP DEPTH
STEP .FT                   0.5 : STEP
NULL .                -9999.25 : NULL VALUE
COMP .                         : COMPANY
WELL .                         : WELL
FLD  .                         : FIELD
LOC  .                         : LOCATION
PROV .                         : PROVINCE
CNTY .                         : COUNTY
STAT .                         : STATE
CTRY .                         : COUNTRY
SRVC .                         : SERVICE COMPANY
DATE .                         : DATE
UWI  .                         : UNIQUE WELL ID
API  .                         : API NUMBER
SLAT .WGS84 1.7497207532499992 : SURFACE LATITUDE
SLON .WGS84 7.2173604501090125 : SURFACE LONGITUDE
DATUM.F                2670.35 : DEPTH DATUM ELEV
~Curve Information -----------------------------------------
DEPT   .FT    : 
CAL1R  .IN    : CALIPER 1 FROM RESISTIVITY LOG
CALD   .IN    : CALIPER FROM DENSITY LOG
CALSR  .IN    : MICRO RESISTIVITY CALIPER FROM RESISTIVITY
DPHI_LS.DEC   : DENSITY POROSITY LIMESTONE
DRHO   .G/C3  : BULK DENSITY CORRECTION
DTCO   .US/F  : DELTA-T COMPRESSIONAL
DTSM   .US/F  : DELTA-T SHEAR
GRD    .GAPI  : GAMMA RAY FROM DENSITY LOG
GRS    .GAPI  : GAMMA RAY FROM SONIC LOG
LLD    .OHMM  : LATEROLOG DEEP RESISTIVITY
LLS    .OHMM  : LATEROLOG SHALLOW RESISTIVITY
MSFL   .OHMM  : MICRO SPHERICALLY FOCUSED RESISTIVITY
NPHI_LS.DEC   : NEUTRON POROSITY LIMESTONE
PEF    .B/E   : PHOTOELECTRIC FACTOR
PR     .N/A   : POISSON'S RATIO
RHOB   .G/C3  : BULK DENSITY
SPHI_LS.DEC   : SONIC POROSITY [LIMESTONE]
TEND   .LBF   : TENSION FROM DENSITY LOG
TENR   .LBF   : TENSION FROM RESISTIVITY LOG
TENS   .LB    : TENSION FROM SONIC LOG
VPVS   .N/A   : COMPRESSIONAL TO SHEAR VELOCITY RATIO
~Params ----------------------------------------------------
~Other -----------------------------------------------------
~ASCII -----------------------------------------------------
# ...
 2768.50000    7.92870    7.93000    7.78740    0.08540    0.00090   56.66210  101.68220   45.83460   43.37340  183.37030   14.64750   10.80330    0.21620    2.97560    0.28370    2.59050    0.06790 1432.78060 2082.29380 2094.69120    0.75680
 2769.00000    7.93470    7.95420    7.76780    0.07030    0.00310   55.51970   99.86860   44.08720   41.60620  203.23210   23.15490   13.48040    0.14670    2.98390    0.28480    2.59140    0.05730 1441.27600 2077.77610 2095.12470    0.75760
 2769.50000    7.93470    7.95460    7.75420    0.08770    0.00700   54.71240   99.47750   38.83380   37.41950  193.65340   25.87050   20.96270    0.11800    3.01390    0.28650    2.58390    0.05190 1449.16670 2073.25850 2095.55830    0.75320
 2770.00000    7.93470    7.87580    7.74060    0.09910    0.01090   53.90510   99.75030   35.51020   36.11040  162.39800   25.02890   14.16110    0.12690    3.03090    0.29360    2.55680    0.04700 1457.05730 2068.74080 2095.99180    0.74780
 2770.50000    7.93480    7.76900    7.72690    0.11230    0.01480   53.22410  101.68850   37.41680   39.24660  131.14250   20.06890    8.75150    0.14180    3.04450    0.30940    2.52960    0.04000 1421.71480 2062.43000 2096.42540    0.74670
 2771.00000    7.94200    7.76880    7.71880    0.10700    0.01860   54.00830  105.96120   41.99180   42.20350   99.88710   15.10900    7.91970    0.15160    3.04450    0.31470    2.53230    0.03910 1401.26110 2064.06870 2096.85890    0.74670
 2771.50000    7.95110    7.78160    7.72140    0.09140    0.02230   56.38940  110.16750   57.41890   52.01520   81.13190   11.86520    5.79280    0.15490    3.04450    0.30900    2.55480    0.05850 1413.05370 2065.70730 2097.29250    0.74670
 2772.00000    7.96020    7.80300    7.73440    0.08490    0.02460   58.49860  112.81760   74.96610   66.77000  108.70170   14.36020    7.65480    0.18120    3.03650    0.30600    2.56550    0.07420 1399.84990 2067.34590 2097.72600    0.74260
 2772.50000    7.96930    7.82450    7.73700    0.08430    0.01830   60.45200  114.05470   92.69410   96.86210  170.74570   20.92790   15.64800    0.21010    3.00200    0.30870    2.58630    0.08920 1414.67780 2068.98450 2098.15960    0.73850
 2773.00000    7.97840    7.84600    7.72790    0.07540    0.01050   60.86840  112.58050  107.41980   94.98040  232.78970   27.49560   33.04980    0.21610    2.96650    0.29730    2.58920    0.09140 1410.33070 2070.62310 2098.59310    0.73440
 2773.50000    7.98750    7.86310    7.70060    0.05770    0.00200   60.92540  109.77200   93.90090   73.69440  270.01060   27.95610   52.80380    0.18200    2.96600    0.28460    2.61380    0.09300 1401.84330 2072.26170 2099.02670    0.73030
 2774.00000    7.98930    7.86610    7.60050    0.03450    0.00820   60.67740  105.79610   64.42270   48.20700  249.70370   26.34720   39.72520    0.12810    2.96560    0.28240    2.63840    0.09210 1407.19540 2073.90030 2099.46020    0.72620
 2774.50000    7.98930    7.86980    7.60050    0.02930    0.00870   59.38870  105.95520   40.11160   37.99210  198.95110   21.38920    7.03430    0.11700    2.96520    0.29380    2.65880    0.07770 1402.72550 2073.90030 2099.89380    0.72210
 2775.00000    7.98930    7.87360    7.60050    0.04710    0.00870   56.19780  107.07360   37.65040   38.52970  148.19850   16.43120    7.03340    0.12590    2.96620    0.30160    2.65980    0.06550 1398.25570 2072.38460 2100.32730    0.71810
 2775.50000    7.98500    7.87740    7.60050    0.07770    0.01150   56.77570  108.19200   35.89480   34.09430   92.68280   11.85530    9.55250    0.16270    2.97290    0.31070    2.64220    0.06410 1431.94580 2068.59530 2100.76090    0.71400
 2776.00000    7.97970    7.88110    7.60960    0.10820    0.02020   56.56350  108.40710   32.18690   28.80130   69.81270    9.97450    6.18650    0.22100    2.97970    0.31980    2.60230    0.06660 1419.93610 2064.80600 2101.19450    0.71650
 2776.50000    7.97430    7.88490    7.62960    0.12050    0.02880   55.66970  108.86250   25.36840   21.82500   55.67520    9.86310    2.74350    0.25430    2.98650    0.32550    2.56250    0.05620 1419.93610 2061.77460 2101.62800    0.72070
 2777.00000    7.96900    7.88870    7.63690    0.11690    0.03680   55.88800  109.98740   20.72480   20.07130   50.12800   10.25390    2.97900    0.25460    2.99330    0.32610    2.52270    0.05950 1421.47490 2062.27510 2102.06160    0.72490
 2777.50000    7.96360    7.89240    7.63690    0.10720    0.04300   57.65620  110.64140   21.26720   20.34010   42.25550   10.13930    3.98310    0.25100    3.01780    0.31610    2.51470    0.06710 1408.46680 2062.77570 2102.49510    0.72910
 2778.00000    7.95830    7.89620    7.63690    0.10500    0.04240   59.21850  110.62840   24.22600   21.61700   35.65980    9.10450    3.98260    0.25450    3.04680    0.30400    2.52900    0.07950 1407.99790 2063.27620 2102.92870    0.72990
 2778.50000    7.95290    7.90000    7.66420    0.10950    0.02770   60.72940  111.81940   26.71930   22.40100   30.85870    7.97840    3.19850    0.25940    3.02980    0.29530    2.53970    0.09080 1422.91340 2063.77680 2103.36220    0.72990
 2779.00000    7.95290    7.90370    7.69830    0.11700    0.01570   61.11300  112.75970   26.44360   22.49060   29.25160    7.97740    2.21870    0.26430    3.00750    0.29630    2.53610    0.09510 1430.26170 2064.27730 2103.79580    0.72990
 2779.50000    7.95290    7.90480    7.73240    0.11860    0.00860   61.07390  114.01860   24.13490   23.20740   29.49430    8.11080    2.26910    0.26750    3.00600    0.30030    2.52880    0.09330 1435.71820 2064.77790 2104.22930    0.72990
 2780.00000    7.94960    7.89900    7.76420    0.11700    0.00860   60.79160  114.70030   23.92890   26.86630   31.52990    8.43410    2.56370    0.26840    3.00450    0.30480    2.52310    0.09210 1441.17460 2065.27840 2104.66290    0.73710
 2780.50000    7.94080    7.89320    7.78890    0.10890    0.00750   60.49010  113.86860   26.08290   27.95650   49.60530   12.73740    4.82880    0.26600    3.00300    0.30360    2.51780    0.09170 1446.63110 2065.77900 2105.00970    0.73950
 2781.00000    7.91650    7.88750    7.79980    0.11130    0.00340   60.18850  112.24990   27.83470   25.61680   67.41620   17.41910    5.66320    0.25790    3.00150    0.29830    2.51250    0.08900 1460.59220 2066.27950 2105.00970    0.74310
 2781.50000    7.91590    7.88170    7.81070    0.12040   -0.00040   60.06660  110.63120   27.10350   23.65550   74.64740   17.23730   25.93580    0.24560    3.00150    0.29200    2.50930    0.08760 1486.67160 2066.78010 2093.80910    0.74670
 2782.00000    7.91530    7.87590    7.82150    0.12490   -0.00040   60.06440  108.86300   24.82550   24.37230   70.60230   14.91920   23.84150    0.22350    3.00150    0.28500    2.51350    0.08790 1498.24720 2067.28060 2093.71630    0.74910
 2782.50000    7.91470    7.87010    7.83240    0.11540    0.00080   59.40400  107.24300   24.36720   26.97080   50.23340   12.77900    2.99320    0.20330    3.00150    0.28210    2.52330    0.08360 1482.81230 2067.78120 2093.25230    0.74910
 2783.00000    7.91420    7.86430    7.84330    0.09280    0.00330   59.30600  107.02460   26.47930   29.74850   37.38960   11.80510    4.01430    0.19510    3.00150    0.27930    2.56160    0.08110 1465.48200 2071.01280 2092.78840    0.74980
 2783.50000    7.91360    7.85860    7.85420    0.07020    0.00560   60.27250  107.95060   29.86090   32.90910   37.40970   11.38570    5.42550    0.19870    3.00150    0.27880    2.58920    0.08920 1420.89870 2076.06510 2092.32440    0.75100
 2784.00000    7.91300    7.85280    7.86500    0.05710    0.00700   60.19840  107.95060   31.62750   36.53400   39.68160   12.78200    5.17750    0.19780    3.00260    0.28560    2.60400    0.08990 1422.73160 2081.11740 2091.86050    0.75220
 2784.50000    7.91240    7.84700    7.87590    0.04690    0.00590   59.29770  105.97930   35.69180   39.24660   73.36320   18.61250   20.74160    0.18810    3.00270    0.28420    2.61860    0.08030 1424.56450 2086.16970 2091.39650    0.75340
