~Version ---------------------------------------------------
VERS.   2.0 : CWLS log ASCII Standard -VERSION 2.0
WRAP.    NO : One line per depth step
DLM . SPACE : Column Data Section Delimiter
~Well ------------------------------------------------------
STRT .FT                 178.0 : START DEPTH
STOP .FT                4994.0 : STOP DEPTH
STEP .FT                   0.5 : STEP
NULL .                -9999.25 : NULL VALUE
COMP .                         : COMPANY
WELL .                         : WELL
FLD  .                         : FIELD
LOC  .                         : LOCATION
PROV .                         : PROVINCE
CNTY .                         : COUNTY
STAT .                         : STATE
CTRY .                         : COUNTRY
SRVC .                         : SERVICE COMPANY
DATE .                         : DATE
UWI  .                         : UNIQUE WELL ID
API  .                         : API NUMBER
SLAT .WGS84 1.7497207532499992 : SURFACE LATITUDE
SLON .WGS84 7.2173604501090125 : SURFACE LONGITUDE
DATUM.F                2670.35 : DEPTH DATUM ELEV
~Curve Information -----------------------------------------
DEPT   .FT    : 
CAL1R  .IN    : CALIPER 1 FROM RESISTIVITY LOG
CALD   .IN    : CALIPER FROM DENSITY LOG
CALSR  .IN    : MICRO RESISTIVITY CALIPER FROM RESISTIVITY
DPHI_LS.DEC   : DENSITY POROSITY LIMESTONE
DRHO   .G/C3  : BULK DENSITY CORRECTION
DTCO   .US/F  : DELTA-T COMPRESSIONAL
DTSM   .US/F  : DELTA-T SHEAR
GRD    .GAPI  : GAMMA RAY FROM DENSITY LOG
GRS    .GAPI  : GAMMA RAY FROM SONIC LOG
LLD    .OHMM  : LATEROLOG DEEP RESISTIVITY
LLS    .OHMM  : LATEROLOG SHALLOW RESISTIVITY
MSFL   .OHMM  : MICRO SPHERICALLY FOCUSED RESISTIVITY
NPHI_LS.DEC   : NEUTRON POROSITY LIMESTONE
PEF    .B/E   : PHOTOELECTRIC FACTOR
PR     .N/A   : POISSON'S RATIO
RHOB   .G/C3  : BULK DENSITY
SPHI_LS.DEC   : SONIC POROSITY [LIMESTONE]
TEND   .LBF   : TENSION FROM DENSITY LOG
TENR   .LBF   : TENSION FROM RESISTIVITY LOG
TENS   .LB    : TENSION FROM SONIC LOG
VPVS   .N/A   : COMPRESSIONAL TO SHEAR VELOCITY RATIO
~Params ----------------------------------------------------
~Other -----------------------------------------------------
~ASCII -----------------------------------------------------
# ...
 1976.50000    9.40960    9.44890    9.21200   -9999.25   -9999.25   -9999.25   -9999.25    8.40000   11.60930  367.66250  420.22340  276.25260   -0.00780   -9999.25    0.20620   -9999.25   -9999.25 1255.30970 1954.68550 1896.65940    1.04360
 1977.00000    9.52420    9.64640    9.36670   -9999.25   -9999.25   -9999.25   -9999.25    8.68880   11.80880  288.44770  367.89620    0.66490   -0.00870   -9999.25    0.20640   -9999.25   -9999.25 1250.73820 1964.36840 1893.54360    1.07290
 1977.50000    9.62510    9.84400    9.52140   -9999.25   -9999.25   -9999.25   -9999.25    8.77720   11.83930  201.97870  294.15830    0.52610   -0.00720   -9999.25    0.20660   -9999.25   -9999.25 1272.56410 1945.06920 1890.97570    1.09290
 1978.00000    9.59860    9.95750    9.55310   -9999.25   -9999.25   -9999.25   -9999.25    8.99190   12.52550  114.24870  167.16630    0.69040    0.01380   -9999.25    0.20670   -9999.25   -9999.25 1265.43520 1914.32300 1881.36040    1.09050
 1978.50000    9.49760    9.79690    9.30050   -9999.25   -9999.25   -9999.25   -9999.25    9.55280   13.58660   77.40130   89.95560    1.28160    0.03810   -9999.25    0.20690   -9999.25   -9999.25 1258.30640 1874.05420 1879.26870    1.05450
 1979.00000    9.38260    9.56500    9.09110   -9999.25   -9999.25   -9999.25   -9999.25   10.27060   13.52160   77.83080   88.92740   19.17100    0.03950   -9999.25    0.20710   -9999.25   -9999.25 1251.17750 1840.50550 1843.16430    1.01860
 1979.50000    9.26760    9.34540    9.03370   -9999.25   -9999.25   -9999.25   -9999.25   11.13200   12.39660   80.07520   90.82440  338.02900    0.02810   -9999.25    0.20720   -9999.25   -9999.25 1244.04860 1839.32820 1831.10450    1.00420
 1980.00000    9.14660    9.16170    9.01990   -9999.25   -9999.25   -9999.25   -9999.25   12.62020   11.86720   82.31960   95.43900 1736.51970    0.01680   -9999.25    0.20730   -9999.25   -9999.25 1236.91970 1842.98540 1849.31870    1.00290
 1980.50000    9.12780    9.15030    9.07490   -9999.25   -9999.25   -9999.25   -9999.25   14.72830   17.79770   84.56410   98.74620  982.98160    0.00540   -9999.25    0.20870   -9999.25   -9999.25 1231.21660 1854.82390 1851.05710    1.00200
 1981.00000    9.18370    9.23630    9.12990   -9999.25   -9999.25   -9999.25   -9999.25   18.04930   25.15430   86.86660   99.16720   41.23980    0.00300   -9999.25    0.21050   -9999.25   -9999.25 1231.21660 1866.66230 1852.79540    1.00090
 1981.50000    9.27710    9.30890    9.20000   -9999.25   -9999.25   -9999.25   -9999.25   22.53800   31.04000   89.81150  101.32550   34.97920    0.00210   -9999.25    0.21270   -9999.25   -9999.25 1231.21660 1874.02630 1854.53370    0.99980
 1982.00000    9.36920    9.38160    9.26520   -9999.25   -9999.25   76.15360   96.99360   29.28610   34.32980   91.79900  102.61530   85.55000    0.00210   -9999.25    0.21520   -9999.25    0.20440 1248.27620 1876.28860 1856.27210    0.99870
 1982.50000    9.38680    9.45430    9.28690   -9999.25   -9999.25   77.09950  100.28580   34.06290   34.52020   91.78450  102.59800  117.18120    0.00720   -9999.25    0.21780   -9999.25    0.21090 1276.70890 1878.55100 1858.01040    0.99760
 1983.00000    9.24630    9.46880    9.13390   -9999.25   -9999.25   80.13360  108.19750   35.65510   33.68020   89.74870  100.88470   86.64760    0.02240   -9999.25    0.22040   -9999.25    0.23020 1268.43750 1880.81330 1859.74880    0.99650
 1983.50000    9.08590    9.43470    8.94290   -9999.25   -9999.25   84.17870  113.20310   34.10840   33.38890   83.31920   88.94840   44.45200    0.03730   -9999.25    0.22310   -9999.25    0.25570 1247.75920 1883.07560 1861.48710    0.99540
 1984.00000    8.92710    9.33690    8.75200   -9999.25   -9999.25   85.89460  113.79800   31.78820   33.61290   72.22930   80.74340   32.63330    0.05210   -9999.25    0.22430   -9999.25    0.27210 1227.80450 1885.33790 1863.22540    0.99430
 1984.50000    8.76830    9.24070    8.66320   -9999.25   -9999.25   86.64600  112.28710   29.35890   32.39430   71.81590  111.53600   28.21430    0.05150   -9999.25    0.22550   -9999.25    0.27530 1210.74430 1887.60030 1864.96380    0.99320
 1985.00000    8.70440    9.12380    8.65680   -9999.25   -9999.25   86.25400  112.08840   26.12890   27.17930  121.17650  187.41320  303.01060    0.03840   -9999.25    0.22610   -9999.25    0.27340 1197.09610 1889.86260 1866.70210    0.99210
 1985.50000    8.70730    9.00690    8.65730   -9999.25   -9999.25   84.46580  109.79320   21.64330   20.10050  181.37070  263.29040  374.22220    0.02280   -9999.25    0.22360   -9999.25    0.26210 1209.56110 1892.12490 1868.44050    0.99100
 1986.00000    8.72410    8.89000    8.65780   -9999.25   -9999.25   80.48210  106.64080   15.27420   13.89990  241.56490  329.43540  467.66510    0.00720   -9999.25    0.22050   -9999.25    0.23690 1230.33610 1894.38720 1870.17880    0.98990
 1986.50000    8.73910    8.82050    8.65840   -9999.25   -9999.25   76.49830   99.76670   11.63480   11.21180  254.99740  310.09930  528.17930    0.00170   -9999.25    0.21740   -9999.25    0.20370 1231.21660 1896.64960 1871.91710    0.98880
 1987.00000    8.73250    8.80910    8.65890   -9999.25   -9999.25   74.75010   98.79340   10.36100   10.58450  210.18780  260.75840  833.92150    0.00170   -9999.25    0.21430   -9999.25    0.19220 1231.21660 1898.91190 1873.65550    0.98890
 1987.50000    8.72180    8.80910    8.65950   -9999.25   -9999.25   73.40400   98.74830   10.08800   11.61500  177.41710  212.99720 1660.63510    0.00440   -9999.25    0.21120   -9999.25    0.18060 1231.21660 1901.17420 1875.39380    0.98940
 1988.00000    8.71310    8.80910    8.66000   -9999.25   -9999.25   73.11500  100.47550   11.16470   13.00380  146.29550  156.90580  219.30460    0.00910   -9999.25    0.20820   -9999.25    0.18440 1240.55480 1903.43650 1877.13220    0.98990
 1988.50000    8.74220    8.82040    8.66050   -9999.25   -9999.25   77.54480  104.65540   13.90950   14.79590  115.17390  100.81440   55.33610    0.01310   -9999.25    0.20630   -9999.25    0.20790 1249.89300 1905.69890 1878.87050    0.99040
 1989.00000    8.78520    8.83440    8.66110   -9999.25   -9999.25   80.11660  106.85210   14.21270   15.51280   84.05240   73.41610   22.91770    0.01560   -9999.25    0.20570   -9999.25    0.23140 1251.76060 1907.96120 1895.02740    0.99090
 1989.50000    8.82820    8.84850    8.73440   -9999.25   -9999.25   80.07910  109.18170   14.09140   16.31920   52.93080   52.15530  792.41290    0.01890   -9999.25    0.20570   -9999.25    0.23220 1280.81830 1910.22350 1897.06100    0.99140
 1990.00000    8.86860    8.86260    8.77820    0.01900    0.01250   77.25070  107.50010   18.12600   19.72760   31.09450   30.89440 1106.32540    0.02210    4.15410    0.22090    2.83600    0.21210 1269.96610 1912.48590 1899.09460    0.99180
 1990.50000    8.86770    8.87660    8.77400    0.01780    0.01490   71.79760  104.69900   25.02810   26.01710   18.74750   13.88540  316.40140    0.02500    4.25260    0.24610    2.76260    0.17210 1247.32030 1914.74820 1899.78440    0.99230
 1991.00000    8.84250    8.86380    8.76880    0.04030    0.01680   72.02090  104.95140   27.15530   29.08110   18.32940   13.57600    2.84160    0.02530    4.49790    0.27130    2.68920    0.17310 1229.20360 1917.01050 1895.09870    0.99280
 1991.50000    8.81110    8.84830    8.76360   -0.00490    0.01860   71.98120  100.86170   23.22500   24.92880   18.37600   14.18970   12.56560    0.02380    4.77710    0.27810    2.64470    0.17240 1229.20360 1919.27280 1890.41310    0.99330
 1992.00000    8.81010    8.82540    8.75840   -0.10030    0.01970   69.85970   99.28680   16.71570   19.76140  110.00080  164.67970  166.88680    0.01640    5.07860    0.27870    2.64560    0.16330 1229.20360 1921.53520 1876.40080    0.99380
 1992.50000    8.85240    8.81720    8.75320   -0.13110    0.01810   66.05960   95.73620   10.95950   14.30150  224.08160  315.16960  671.91260    0.00770    5.11000    0.27870    2.92680    0.13770 1248.27800 1923.79750 1878.72930    0.99430
