~Version ---------------------------------------------------
VERS.   2.0 : CWLS log ASCII Standard -VERSION 2.0
WRAP.    NO : One line per depth step
DLM . SPACE : Column Data Section Delimiter
~Well ------------------------------------------------------
STRT .FT                 178.0 : START DEPTH
STOP .FT                4994.0 : STOP DEPTH
STEP .FT                   0.5 : STEP
NULL .                -9999.25 : NULL VALUE
COMP .                         : COMPANY
WELL .                         : WELL
FLD  .                         : FIELD
LOC  .                         : LOCATION
PROV .                         : PROVINCE
CNTY .                         : COUNTY
STAT .                         : STATE
CTRY .                         : COUNTRY
SRVC .                         : SERVICE COMPANY
DATE .                         : DATE
UWI  .                         : UNIQUE WELL ID
API  .                         : API NUMBER
SLAT .WGS84 1.7497207532499992 : SURFACE LATITUDE
SLON .WGS84 7.2173604501090125 : SURFACE LONGITUDE
DATUM.F                2670.35 : DEPTH DATUM ELEV
~Curve Information -----------------------------------------
DEPT   .FT    : 
CAL1R  .IN    : CALIPER 1 FROM RESISTIVITY LOG
CALD   .IN    : CALIPER FROM DENSITY LOG
CALSR  .IN    : MICRO RESISTIVITY CALIPER FROM RESISTIVITY
DPHI_LS.DEC   : DENSITY POROSITY LIMESTONE
DRHO   .G/C3  : BULK DENSITY CORRECTION
DTCO   .US/F  : DELTA-T COMPRESSIONAL
DTSM   .US/F  : DELTA-T SHEAR
GRD    .GAPI  : GAMMA RAY FROM DENSITY LOG
GRS    .GAPI  : GAMMA RAY FROM SONIC LOG
LLD    .OHMM  : LATEROLOG DEEP RESISTIVITY
LLS    .OHMM  : LATEROLOG SHALLOW RESISTIVITY
MSFL   .OHMM  : MICRO SPHERICALLY FOCUSED RESISTIVITY
NPHI_LS.DEC   : NEUTRON POROSITY LIMESTONE
PEF    .B/E   : PHOTOELECTRIC FACTOR
PR     .N/A   : POISSON'S RATIO
RHOB   .G/C3  : BULK DENSITY
SPHI_LS.DEC   : SONIC POROSITY [LIMESTONE]
TEND   .LBF   : TENSION FROM DENSITY LOG
TENR   .LBF   : TENSION FROM RESISTIVITY LOG
TENS   .LB    : TENSION FROM SONIC LOG
VPVS   .N/A   : COMPRESSIONAL TO SHEAR VELOCITY RATIO
~Params ----------------------------------------------------
~Other -----------------------------------------------------
~ASCII -----------------------------------------------------
# ...
 2174.50000    8.93210    9.79710    9.80860   -0.14320    0.01490   63.29220  100.48440    5.49050    7.52670  337.47080  247.78170  318.08830   -0.00300    4.85870    0.17600    2.94050    0.10950 1324.05910 1975.94840 2017.63480    1.16150
 2175.00000    8.92060    9.76770    9.75890   -0.14090    0.01160   57.95690   99.73630    6.91640    7.75070  340.01370  253.38900  155.35980   -0.00300    4.96710    0.20960    2.93920    0.06920 1337.87180 1974.96340 2017.91450    1.14260
 2175.50000    8.90920    9.70610    9.73640   -0.13980    0.01240   52.83580   99.62460    7.03530    8.87080  330.68900  256.24620  622.64350   -0.00310    5.07560    0.25100    2.93370    0.04210 1351.68440 1973.97830 2018.19430    1.13910
 2176.00000    8.90480    9.69920    9.73240   -0.13990    0.01340   52.86980   99.58850    7.47400   11.29010  307.58450  241.01750  832.49140   -0.00190    5.18400    0.28770    2.91140    0.03650 1351.63780 1972.99330 2018.47410    1.14060
 2176.50000    8.90520    9.69230    9.71460   -0.13900    0.01380   54.08840   99.85540    9.84500   14.93820  225.69070  183.06920 1662.42240    0.00130    5.17460    0.29630    2.88920    0.04380 1337.15510 1972.00830 2018.75390    1.14200
 2177.00000    8.90550    9.68530    9.73770   -0.11630    0.01280   55.61170  100.12230   13.25620   19.26490  123.94870  114.57200 1429.76590    0.00580    4.91370    0.30380    2.86690    0.05630 1322.67230 1971.02320 2019.03370    1.14350
 2177.50000    8.90590    9.69290    9.73770   -0.09920    0.01180   58.35970  102.53140   18.00480   24.59630   98.11370   46.07480  358.07400    0.01170    4.61500    0.30100    2.81820    0.08590 1332.54730 1970.03820 2019.31350    1.14500
 2178.00000    8.92450    9.70720    9.75550   -0.07630    0.01090   66.19760  107.70620   22.98170   31.65260   75.03670   29.61210   97.90820    0.01470    4.31620    0.27700    2.76950    0.13330 1351.92340 1969.05310 2019.59330    1.14790
 2178.50000    8.96380    9.71390    9.78430   -0.04770    0.01110   70.90010  114.61850   28.54460   41.54640   51.95980   21.09880   40.62390    0.05190    4.18610    0.24970    2.72080    0.15720 1359.06330 1968.71970 2019.87300    1.14300
 2179.00000    8.97980    9.75290    9.78730   -0.00750    0.01180   71.13940  114.98850   35.34790   47.63100   28.88280   12.58560   21.64140    0.09770    3.86910    0.22150    2.67210    0.16690 1366.20310 1970.99250 2020.15280    1.12840
 2179.50000    8.98020    9.75750    9.69370    0.04440    0.01440   70.31040  112.91830   41.77880   50.17830   10.42130    8.97780    6.78120    0.14350    3.76810    0.19340    2.64210    0.16180 1343.54910 1973.26540 2020.43260    1.11380
 2180.00000    8.95330    9.69800    9.58300    0.01130    0.01960   69.88580  110.79220   45.05910   46.21780   10.36320    8.92770    3.76680    0.15170    3.78700    0.17150    2.64020    0.15620 1276.20430 1975.53820 2020.71240    1.10150
 2180.50000    8.91690    9.67110    9.45260   -0.03700    0.02720   69.24520  109.97580   34.35070   38.22650   61.66480   27.87790 1217.30320    0.07200    4.01960    0.17480    2.67750    0.15400 1253.45880 1977.81110 2020.99220    1.08540
 2181.00000    8.88060    9.58840    9.37450   -0.07580    0.03120   68.69760  108.72510   25.70990   33.43610   86.20980   51.11950   83.74060    0.00810    4.26980    0.18400    2.76970    0.15100 1276.55550 1980.08390 2021.27200    1.06930
 2181.50000    8.84420    9.50320    9.33280   -0.09910    0.02920   67.83310  106.16130   23.03200   28.64570   87.31600   66.45650  248.46220    0.00550    4.32680    0.17810    2.84380    0.14340 1300.72930 1982.35680 2021.55180    1.05320
 2182.00000    8.82600    9.47500    9.28990   -0.10400    0.02060   66.96850  105.81650   23.84750   26.97080   87.33210   68.81760  194.18000    0.00500    4.29550    0.17900    2.89370    0.13560 1301.64200 1984.62960 2021.83150    1.04590
 2182.50000    8.78960    9.43730    9.20220   -0.09320    0.01200   65.07510  105.56730   25.31530   26.52280   85.42540   65.34660  195.55370    0.00950    4.20980    0.25990    2.87840    0.12470 1302.55480 1986.90240 2022.11130    1.03230
 2183.00000    8.73510    9.38550    9.16020   -0.07600    0.00900   58.83060  107.68290   26.60110   26.52280   77.91990   56.64060  122.45800    0.01950    4.05010    0.28840    2.84110    0.08910 1296.87070 1989.17530 2022.39110    1.01540
 2183.50000    8.69870    9.33380    9.09270   -0.05890    0.00920   58.86890  110.04100   27.47780   26.47160   61.20850   47.66960   31.08020    0.02780    4.07780    0.30820    2.80370    0.07890 1281.29160 1991.44810 2022.67090    0.99840
 2184.00000    8.69870    9.28200    9.02520   -0.04860    0.00930   59.30200  112.39920   27.77780   26.43320   50.33840   46.62840   30.91600    0.02560    4.32290    0.31870    2.78860    0.08320 1277.99330 1993.72100 2022.95070    0.99060
 2184.50000    8.69870    9.23020    8.95770   -0.06610    0.00950   58.90940  114.47830   27.92610   26.07480   49.24180   46.63230   47.76640    0.01980    4.68990    0.32940    2.81700    0.07780 1293.11630 1995.99380 2023.23050    0.98510
 2185.00000    8.69870    9.17850    8.92290   -0.08360    0.00830   57.66090  115.24820   25.92130   23.56590   84.20080   47.70580   40.19730    0.01410    4.97850    0.34010    2.85740    0.06900 1308.23940 1992.81040 2023.51020    0.97960
 2185.50000    8.66840    9.11670    8.87630   -0.09730    0.00680   56.25400  113.56650   22.60280   20.32630  127.89800   70.30350  185.64230    0.00840    5.18600    0.34490    2.88160    0.06000 1310.39640 1981.44270 2023.79000    0.97410
 2186.00000    8.63800    9.05000    8.85500   -0.11590    0.00530   60.38850  110.93490   18.30320   17.01790  171.59520   97.54190  294.05850    0.00260    5.28310    0.25830    2.89960    0.08340 1303.90950 1970.07500 2024.06980    0.96860
 2186.50000    8.60770    9.01220    8.83370   -0.12230    0.00430   64.59540  108.23860   14.63730   13.70940  215.29230  109.51680  130.08030    0.00090    5.34470    0.22520    2.91170    0.11360 1297.42250 1960.98080 2024.34960    0.96310
 2187.00000    8.57740    8.99070    8.81240   -0.12760    0.00340   64.59760  106.11590   11.92210   12.99260  258.98950  136.12590  210.93590    0.00100    5.42200    0.21100    2.92420    0.12040 1277.40050 1964.44530 2024.62940    0.95760
 2187.50000    8.53500    8.97640    8.78510   -0.13380    0.00190   62.13340  104.07310    9.20690   10.87190  304.13910  199.58880  390.85050    0.00110    5.45340    0.21690    2.93180    0.11120 1281.63820 1968.77590 2024.90920    0.95070
 2188.00000    8.52590    8.92810    8.74850   -0.13560    0.00120   59.32120  101.26190    7.84510    9.31880  343.47640  271.15410 1960.55470    0.00180    5.31960    0.23740    2.92460    0.09580 1298.69310 1973.10640 2025.18900    0.93860
 2188.50000    8.51680    8.88570    8.74550   -0.12770    0.00160   57.55280   98.43420    8.65830   10.12520  382.81370  317.62630 1971.52200    0.00420    4.82800    0.25210    2.90610    0.07420 1304.73350 1977.43700 2025.46870    0.93840
 2189.00000    8.53500    8.82920    8.74250   -0.11180    0.00210   55.28660   95.66540   12.29150   14.87420  415.19870  327.25080 1381.32530    0.00650    4.24690    0.26540    2.88770    0.05580 1293.32620 1981.76760 2025.74850    0.94030
 2189.50000    8.58040    8.76710    8.73940   -0.10150    0.00260   52.88450   93.93170   15.67890   18.81700  427.49910  337.32370  397.66300    0.00800    3.79980    0.27340    2.87290    0.03950 1281.91890 1986.09820 2026.02830    0.94290
 2190.00000    8.58950    8.71750    8.73640   -0.09880    0.00300   51.79290   92.38780   18.79360   22.84930  445.63140  347.39660  929.53960    0.00830    3.98980    0.28000    2.87290    0.02730 1289.19100 1990.42880 2026.30810    0.94380
 2190.50000    8.60780    8.71510    8.73330   -0.10910    0.00530   50.83540   92.01580   19.30920   24.10380  443.60630  351.64670 1470.70730    0.00650    4.29090    0.28930    2.89390    0.02140 1305.46990 1991.10800 2026.58790    0.94380
