~Version ---------------------------------------------------
VERS.   2.0 : CWLS log ASCII Standard -VERSION 2.0
WRAP.    NO : One line per depth step
DLM . SPACE : Column Data Section Delimiter
~Well ------------------------------------------------------
STRT .FT                 178.0 : START DEPTH
STOP .FT                4994.0 : STOP DEPTH
STEP .FT                   0.5 : STEP
NULL .                -9999.25 : NULL VALUE
COMP .                         : COMPANY
WELL .                         : WELL
FLD  .                         : FIELD
LOC  .                         : LOCATION
PROV .                         : PROVINCE
CNTY .                         : COUNTY
STAT .                         : STATE
CTRY .                         : COUNTRY
SRVC .                         : SERVICE COMPANY
DATE .                         : DATE
UWI  .                         : UNIQUE WELL ID
API  .                         : API NUMBER
SLAT .WGS84 1.7497207532499992 : SURFACE LATITUDE
SLON .WGS84 7.2173604501090125 : SURFACE LONGITUDE
DATUM.F                2670.35 : DEPTH DATUM ELEV
~Curve Information -----------------------------------------
DEPT   .FT    : 
CAL1R  .IN    : CALIPER 1 FROM RESISTIVITY LOG
CALD   .IN    : CALIPER FROM DENSITY LOG
CALSR  .IN    : MICRO RESISTIVITY CALIPER FROM RESISTIVITY
DPHI_LS.DEC   : DENSITY POROSITY LIMESTONE
DRHO   .G/C3  : BULK DENSITY CORRECTION
DTCO   .US/F  : DELTA-T COMPRESSIONAL
DTSM   .US/F  : DELTA-T SHEAR
GRD    .GAPI  : GAMMA RAY FROM DENSITY LOG
GRS    .GAPI  : GAMMA RAY FROM SONIC LOG
LLD    .OHMM  : LATEROLOG DEEP RESISTIVITY
LLS    .OHMM  : LATEROLOG SHALLOW RESISTIVITY
MSFL   .OHMM  : MICRO SPHERICALLY FOCUSED RESISTIVITY
NPHI_LS.DEC   : NEUTRON POROSITY LIMESTONE
PEF    .B/E   : PHOTOELECTRIC FACTOR
PR     .N/A   : POISSON'S RATIO
RHOB   .G/C3  : BULK DENSITY
SPHI_LS.DEC   : SONIC POROSITY [LIMESTONE]
TEND   .LBF   : TENSION FROM DENSITY LOG
TENR   .LBF   : TENSION FROM RESISTIVITY LOG
TENS   .LB    : TENSION FROM SONIC LOG
VPVS   .N/A   : COMPRESSIONAL TO SHEAR VELOCITY RATIO
~Params ----------------------------------------------------
~Other -----------------------------------------------------
~ASCII -----------------------------------------------------
# ...
 2570.50000    8.18680    7.96510    8.04010   -0.07580    0.00190   47.47380   81.77380   23.94840   13.95600  570.30710  473.31490 1807.77240    0.01920    3.45030    0.25560    2.84180   -0.00080 1430.43020 2029.04770 2051.78950    0.84170
 2571.00000    8.21780    7.96680    8.04810   -0.07610    0.00100   46.47010   81.43060   22.28400   15.46810  575.66510  488.27450 1026.10020    0.01520    3.30340    0.26170    2.83200   -0.00740 1415.17420 2026.38630 2052.57230    0.84680
 2571.50000    8.24880    7.96850    8.05800   -0.07610    0.00510   46.86730   83.29780   23.95920   18.07790  531.42780  480.22030  469.64230    0.01610    3.23430    0.27110    2.82570   -0.00750 1416.07390 2023.72490 2053.35500    0.85190
 2572.00000    8.26170    7.96860    8.06970   -0.05890    0.00450   47.78920   85.11490   25.02790   18.43630  434.07970  352.80210  331.29500    0.02750    3.32900    0.27690    2.82450    0.00130 1421.01240 2021.06350 2054.13780    0.85700
 2572.50000    8.27060    7.96770    8.07040   -0.04110    0.00680   49.37960   86.83450   24.30710   16.88310  371.52130  318.07040  171.41380    0.04390    3.56010    0.27940    2.80080    0.01080 1410.60020 2018.40210 2054.92060    0.86210
 2573.00000    8.27540    7.96670    8.07120   -0.01070    0.00600   50.40620   88.93560   21.00620   14.79230  367.44380  330.75380   39.59530    0.06030    3.79160    0.28150    2.78450    0.01760 1413.84120 2015.74070 2055.70330    0.86430
 2573.50000    8.27620    7.96580    8.07200    0.00730    0.00530   50.82940   90.31190   17.70530   13.50800  380.15630  338.23240  233.38640    0.06510    3.77130    0.28200    2.72620    0.02250 1417.08230 2013.07930 2056.48610    0.86440
 2574.00000    8.25410    7.96480    8.07270    0.01210    0.00450   50.69940   91.14270   16.59690   15.41960  397.90320  338.26600 1113.70850    0.05800    3.73780    0.28240    2.69130    0.02230 1420.32330 2010.41790 2057.26890    0.86460
 2574.50000    8.23720    7.96390    8.06440    0.00100    0.00370   50.47880   91.01210   18.01480   19.15310  404.03630  336.42110  911.44650    0.04040    3.70430    0.28270    2.69130    0.02050 1423.56440 2007.75650 2058.05160    0.85560
 2575.00000    8.22020    7.96290    8.02820   -0.02290    0.00350   49.63120   90.27760   21.79810   23.80570  393.41870  332.17040 1294.44750    0.02270    3.67480    0.28430    2.69550    0.01640 1426.80550 2005.09510 2058.83440    0.84730
 2575.50000    8.20320    7.96190    7.99410   -0.03910    0.00410   48.90920   88.48280   26.91300   28.45830  373.63310  328.17470  812.22440    0.01950    3.61770    0.28670    2.70610    0.00920 1430.04650 2002.43370 2059.61720    0.83890
 2576.00000    8.18630    7.96100    7.96700   -0.06430    0.00470   47.89800   87.53210   32.27800   31.42910  351.63680  324.17910  158.71770    0.01730    3.57490    0.28960    2.71670    0.00280 1433.28760 2001.31280 2060.08680    0.83060
 2576.50000    8.16930    7.96000    7.94960   -0.07600    0.00510   47.31140   86.64430   32.28600   30.18950  345.84940  320.18350 1828.14300    0.01490    3.54420    0.29340    2.77800   -0.00240 1436.52860 2002.50280 2059.57910    0.82230
 2577.00000    8.15240    7.95910    7.94130   -0.07750    0.00460   47.11030   86.89010   30.27200   27.93450  359.62520  316.18780 1621.27060    0.01430    3.40310    0.29660    2.80990   -0.00450 1413.49120 2003.69270 2058.94450    0.81760
 2577.50000    8.13540    7.95810    7.94210   -0.07710    0.00410   47.00560   86.89650   29.66130   28.39530  403.79110  312.19220  535.88400    0.01490    3.21110    0.29780    2.82060   -0.00500 1405.37990 2004.88270 2058.30980    0.82020
 2578.00000    8.12550    7.95720    7.94340   -0.07800    0.00460   46.87110   86.90290   31.35270   29.80340  488.77930  375.70650  101.73950    0.01590    3.12280    0.29530    2.83330   -0.00330 1405.37990 2006.07260 2057.67520    0.82040
 2578.50000    8.11400    7.95620    7.94460   -0.08420    0.00510   47.18260   86.58990   32.86170   30.44340  573.76740  456.09830 1540.85500    0.01640    3.21520    0.29220    2.83980   -0.00110 1405.37990 2007.26250 2057.04050    0.82260
 2579.00000    8.09670    7.95530    7.94580   -0.08840    0.00560   47.44410   86.06410   31.72310   27.20770  652.57450  536.49010 2009.60430    0.01400    3.30850    0.29100    2.84630   -0.00210 1405.37990 2008.45250 2056.40590    0.82230
 2579.50000    8.08840    7.95430    7.94710   -0.09480    0.00610   46.80220   85.53820   29.01650   24.08140  663.59820  555.67980 2009.60370    0.01140    3.29950    0.29540    2.85270   -0.00620 1405.37990 2009.64240 2055.77130    0.82190
 2580.00000    8.08010    7.95340    7.94830   -0.09790    0.00660   46.67600   86.14290   26.10840   23.72300  659.96320  504.82350 1614.01620    0.01080    3.33350    0.29990    2.85920   -0.00840 1393.60730 2010.83240 2055.13660    0.82160
 2580.50000    8.07190    7.95240    7.94950   -0.09650    0.00710   47.12730   87.13830   23.20020   23.09580  548.91120  420.02980  625.04830    0.01480    3.42060    0.29880    2.86310   -0.00380 1400.47930 2012.02230 2054.50200    0.82120
 2581.00000    8.06360    7.95270    7.95080   -0.09290    0.00760   47.72720   87.26070   20.94610   21.23330  437.85930  352.19870  216.57920    0.01710    3.51700    0.29550    2.86310    0.00080 1407.74400 2013.21220 2053.86730    0.82090
 2581.50000    8.05530    7.95300    7.95200   -0.08910    0.00810   47.74190   87.16960   18.95220   19.47320  386.94210  348.34130  212.30270    0.01730    3.58450    0.29260    2.85830    0.00170 1415.27050 2014.40220 2053.23270    0.82050
 2582.00000    8.04700    7.95320    7.95330   -0.08860    0.00790   47.43670   86.43040   19.01130   17.71300  498.50530  356.20840  521.27410    0.01620    3.65190    0.29310    2.85060   -0.00150 1422.79690 2015.59210 2052.59800    0.82020
 2582.50000    8.03870    7.95350    7.95450   -0.08980    0.00790   46.53220   85.24650   19.25410   17.00260  677.19970  512.42840  830.24270    0.01600    3.71940    0.29590    2.85350   -0.00700 1430.32340 2016.78210 2051.96340    0.81980
 2583.00000    8.03050    7.95380    7.95570   -0.09430    0.01020   45.69200   84.33160   18.34350   16.94880  848.00420  666.65880  850.17190    0.01320    3.78690    0.29880    2.86260   -0.01180 1433.67270 2017.64890 2051.32870    0.81950
 2583.50000    8.02220    7.95400    7.95700   -0.09900    0.01030   45.14090   83.59600   17.73780   17.27140  887.12440  774.14290  767.70430    0.01000    3.74150    0.29970    2.86690   -0.01670 1402.31930 2017.22360 2050.69410    0.81910
 2584.00000    8.02110    7.95430    7.95820   -0.10340    0.01180   45.20950   82.86290   19.52330   18.34670  916.75540  785.02170 1175.40400    0.00970    3.74710    0.29380    2.87300   -0.01980 1389.53580 2016.79830 2050.05940    0.81880
 2584.50000    8.03400    7.95460    7.95940   -0.10120    0.01330   45.61990   83.42200   23.61590   23.69310  932.22480  579.12360 1710.24950    0.01540    3.76990    0.28650    2.86910   -0.01040 1412.83660 2016.37290 2049.42480    0.81840
 2585.00000    8.03860    7.95480    7.96070   -0.09360    0.01320   47.85040   84.79720   28.03320   30.30490  824.08040  235.93790 1197.73040    0.02070    3.78450    0.28060    2.85150   -0.00140 1425.23450 2015.94760 2048.79020    0.81810
 2585.50000    8.04420    7.95510    7.96190   -0.08010    0.01130   48.28490   85.82030   34.92740   35.84420  360.33130  158.86720  557.07270    0.02600    3.64990    0.27470    2.83970    0.00620 1434.65240 2015.52220 2048.15550    0.81770
 2586.00000    8.04970    7.95540    7.96320   -0.07910    0.01120   47.92820   85.25250   41.20530   38.23910  170.52680  155.66740   44.54850    0.02480    3.57710    0.27200    2.84210    0.00640 1432.15080 2015.09690 2047.52090    0.81740
 2586.50000    8.05530    7.95570    7.96440   -0.08820    0.01160   47.13250   84.10090   38.10670   32.44460  518.29190  309.91710  333.41560    0.01880    3.57990    0.27290    2.84830    0.00020 1429.64920 2014.67150 2046.88620    0.81700
