~Version ---------------------------------------------------
VERS.   2.0 : CWLS log ASCII Standard -VERSION 2.0
WRAP.    NO : One line per depth step
DLM . SPACE : Column Data Section Delimiter
~Well ------------------------------------------------------
STRT .FT                 178.0 : START DEPTH
STOP .FT                4994.0 : STOP DEPTH
STEP .FT                   0.5 : STEP
NULL .                -9999.25 : NULL VALUE
COMP .                         : COMPANY
WELL .                         : WELL
FLD  .                         : FIELD
LOC  .                         : LOCATION
PROV .                         : PROVINCE
CNTY .                         : COUNTY
STAT .                         : STATE
CTRY .                         : COUNTRY
SRVC .                         : SERVICE COMPANY
DATE .                         : DATE
UWI  .                         : UNIQUE WELL ID
API  .                         : API NUMBER
SLAT .WGS84 1.7497207532499992 : SURFACE LATITUDE
SLON .WGS84 7.2173604501090125 : SURFACE LONGITUDE
DATUM.F                2670.35 : DEPTH DATUM ELEV
~Curve Information -----------------------------------------
DEPT   .FT    : 
CAL1R  .IN    : CALIPER 1 FROM RESISTIVITY LOG
CALD   .IN    : CALIPER FROM DENSITY LOG
CALSR  .IN    : MICRO RESISTIVITY CALIPER FROM RESISTIVITY
DPHI_LS.DEC   : DENSITY POROSITY LIMESTONE
DRHO   .G/C3  : BULK DENSITY CORRECTION
DTCO   .US/F  : DELTA-T COMPRESSIONAL
DTSM   .US/F  : DELTA-T SHEAR
GRD    .GAPI  : GAMMA RAY FROM DENSITY LOG
GRS    .GAPI  : GAMMA RAY FROM SONIC LOG
LLD    .OHMM  : LATEROLOG DEEP RESISTIVITY
LLS    .OHMM  : LATEROLOG SHALLOW RESISTIVITY
MSFL   .OHMM  : MICRO SPHERICALLY FOCUSED RESISTIVITY
NPHI_LS.DEC   : NEUTRON POROSITY LIMESTONE
PEF    .B/E   : PHOTOELECTRIC FACTOR
PR     .N/A   : POISSON'S RATIO
RHOB   .G/C3  : BULK DENSITY
SPHI_LS.DEC   : SONIC POROSITY [LIMESTONE]
TEND   .LBF   : TENSION FROM DENSITY LOG
TENR   .LBF   : TENSION FROM RESISTIVITY LOG
TENS   .LB    : TENSION FROM SONIC LOG
VPVS   .N/A   : COMPRESSIONAL TO SHEAR VELOCITY RATIO
~Params ----------------------------------------------------
~Other -----------------------------------------------------
~ASCII -----------------------------------------------------
# ...
 3956.50000    7.81220    8.02780    8.13700   -0.01620    0.02060   51.76450   94.71860   80.23630   76.21840  215.69630   76.60200   19.94880    0.10240    3.06930    0.29460    2.71360    0.02670 1914.19320 2452.41110 2463.65760    0.81490
 3957.00000    7.80370    8.02720    8.12510   -0.00820    0.02130   51.98460   94.61500   89.75290   83.78110  208.52380   77.86570   64.13470    0.10550    3.10000    0.29180    2.70420    0.02840 1931.84030 2454.18470 2462.25220    0.81500
 3957.50000    7.77450    8.02660    8.10500    0.00050    0.03090   51.92420   94.72400   79.19910   76.93040  219.18850   80.36680   86.63690    0.10550    3.11820    0.28980    2.69470    0.02940 1934.58560 2476.54430 2462.78170    0.81350
 3958.00000    7.76520    8.02600    8.08720    0.01160    0.03190   51.93870   94.99710   63.92560   63.61170  237.18750   82.37360   32.16790    0.10960    3.09470    0.28890    2.68530    0.02960 1917.52660 2488.59070 2463.31120    0.81280
 3958.50000    7.79230    8.02540    8.07880    0.01580    0.03530   52.28440   96.87050   54.08830   52.24000  244.75530   83.62150   48.17630    0.11980    3.06540    0.29790    2.68600    0.03110 1900.46750 2481.90180 2474.51190    0.81280
 3959.00000    7.84660    8.02480    8.06280    0.00590    0.03440   52.69240   97.21060   51.75690   49.82060  235.32970   80.84930   53.04470    0.12890    3.03620    0.29880    2.70270    0.03650 1900.46750 2473.74740 2496.91330    0.81280
 3959.50000    7.88270    8.02290    8.02060    0.00280    0.02540   53.43270   97.85210   50.26710   49.64140  211.86640   65.78330   20.73400    0.13010    3.03620    0.29540    2.70970    0.04190 1900.46750 2460.56610 2519.31460    0.80900
 3960.00000    7.88830    8.01600    8.00520    0.00490    0.01630   53.67860   98.02930   53.70170   52.64320  170.99800   55.83100    4.87390    0.13130    3.12620    0.29220    2.71070    0.04370 1900.46750 2456.03750 2519.31460    0.79040
 3960.50000    7.87150    8.00910    8.00140    0.00430    0.01240   53.79650   98.20640   58.64900   57.32960  130.12970   48.42760   10.50250    0.13160    3.20170    0.29250    2.69240    0.04380 1900.42050 2453.67200 2519.31460    0.77170
 3961.00000    7.85470    8.00220    7.99370    0.00610    0.01200   53.76400   98.26220   69.46450   64.85640   95.01200   32.60290    8.64430    0.14440    3.21930    0.29460    2.67570    0.04230 1900.30620 2451.30650 2541.71600    0.75600
 3961.50000    7.81990    7.99530    7.98590    0.02450    0.01060   53.73150   98.23710   81.09880   72.92770   61.10530   21.61590    9.66160    0.15590    3.19600    0.29720    2.65890    0.04230 1899.73470 2473.48800 2537.51700    0.75010
 3962.00000    7.81690    7.98840    7.97810    0.06050    0.00930   53.30470   98.05510   90.14010   83.17630   38.98690   19.21580    0.87360    0.16730    2.89690    0.29780    2.62770    0.04230 1899.16320 2476.37690 2516.52180    0.75010
 3962.50000    7.83390    7.98160    7.97040    0.06190    0.00790   52.65370   97.08520   94.30260   87.72380   37.70700   17.54210   86.00880    0.16550    2.79300    0.29780    2.60790    0.04120 1898.59170 2464.46650 2495.52670    0.75020
 3963.00000    7.85100    7.97470    7.96260    0.03360    0.01280   51.99830   96.54490   85.71390   79.58250   36.62200   16.87590   79.47210    0.15040    2.78410    0.29770    2.62250    0.02840 1898.02010 2452.55600 2474.53150    0.75690
 3963.50000    7.86810    7.96780    7.95920    0.00090    0.01740   51.10670   95.53540   76.54810   69.39300   36.46920   16.64250   46.78890    0.13530    2.80090    0.29800    2.65910    0.02470 1897.44860 2431.34720 2461.93450    0.76210
 3964.00000    7.87790    7.96090    7.96240    0.00410    0.01690   51.10670   95.19680   69.82850   60.17650   36.46920   16.55020   14.10560    0.12890    2.80200    0.29880    2.69850    0.02400 1896.87710 2403.93950 2461.93450    0.76730
 3964.50000    7.88810    7.95400    7.96560    0.02120    0.01630   51.33730   96.24110   69.66470   57.16830   37.08300   16.09620    1.03230    0.13790    2.79030    0.30590    2.70870    0.02520 1896.30560 2405.21340 2461.93450    0.77260
 3965.00000    7.89840    7.94710    7.96880    0.03150    0.01600   51.73450   97.49970   69.55550   56.98910   38.34160   16.14110   10.10130    0.15040    2.88930    0.31280    2.68840    0.02770 1895.73410 2432.49310 2485.45590    0.77780
 3965.50000    7.91080    7.94020    7.97200    0.01540    0.01470   52.13160   98.53560   63.30810   56.36180   43.99850   17.11200    6.12260    0.15320    2.96980    0.31070    2.66320    0.03030 1895.16260 2459.77280 2524.65830    0.77950
 3966.00000    7.90980    7.93330    7.97520    0.00320    0.01170   52.52870   98.52890   56.75740   53.71210   65.19490   27.17920    6.15680    0.13480    2.96410    0.30470    2.65850    0.03560 1894.59110 2454.06710 2534.73890    0.78120
 3966.50000    7.90860    7.92640    7.97830   -0.00410    0.00870   52.55830   98.25710   52.80190   50.63990   95.78100   37.24650    2.79430    0.11600    2.98980    0.29870    2.67410    0.03460 1894.01960 2458.32500 2520.73810    0.78290
 3967.00000    7.87100    7.91950    7.98150   -0.00800    0.00580   52.56070   96.41300   50.72230   47.56770  126.36720   45.30030    7.49810    0.10790    3.00330    0.29360    2.69570    0.03220 1893.44810 2463.34560 2517.93790    0.78460
 3967.50000    7.82450    7.91260    7.98470   -0.00730    0.00140   52.56310   94.82770   52.88760   46.68440  140.93410   45.30030   31.24840    0.10700    3.00980    0.28850    2.71730    0.03050 1892.87650 2473.98290 2517.93790    0.78630
 3968.00000    7.77790    7.90570    7.98790   -0.00310    0.00070   52.56550   94.54480   57.39120   50.35830  144.10640   39.61720   31.95180    0.11330    3.01160    0.28530    2.72090    0.03050 1892.30500 2464.85490 2517.93790    0.78800
 3968.50000    7.76780    7.89880    7.99110    0.00060   -0.00060   52.56790   95.28260   60.45730   54.39050  118.75010   33.93410   27.50900    0.12100    3.01240    0.28480    2.71950    0.03560 1891.73350 2459.42270 2514.85920    0.78960
 3969.00000    7.76650    7.89200    7.99430    0.00750    0.00010   52.81690   95.84790   61.00320   57.97470   93.39380   28.25100   17.04060    0.12860    3.00270    0.28400    2.71030    0.03750 1891.16200 2459.53440 2499.46570    0.79130
 3969.50000    7.76650    7.88780    7.99740    0.01070    0.00010   53.23190   96.58310   58.00530   58.33320   87.83290   24.84120    5.69550    0.13740    2.98710    0.28250    2.70190    0.03940 1890.59050 2459.91170 2473.13510    0.79300
 3970.00000    7.76410    7.87640    8.00060    0.01380    0.00070   53.73940   96.81620   53.46360   51.92000   90.82610   25.14730   20.36090    0.14800    2.97150    0.28130    2.69410    0.04170 1890.01900 2460.68710 2486.84120    0.79470
 3970.50000    7.76330    7.87600    8.02710    0.01500    0.00360   53.95910   97.04930   49.83590   45.60920   98.30910   25.91270   17.80330    0.15870    2.93260    0.28140    2.68630    0.04450 1889.44750 2461.46260 2500.54730    0.79640
 3971.00000    7.77330    7.87560    8.07170    0.01170    0.00450   53.97130   97.77190   52.36140   45.60920  104.87420   26.67810   12.26830    0.16260    3.01230    0.28140    2.68290    0.04540 1888.87600 2462.23810 2524.04740    0.79810
 3971.50000    7.78340    7.87520    8.08000    0.00270    0.00450   53.80310   96.78800   57.43250   50.08940  109.63340   27.57730    9.87240    0.16170    3.01600    0.28180    2.68830    0.04440 1888.30450 2463.01360 2534.22980    0.79980
 3972.00000    7.79340    7.87480    8.04110   -0.00710    0.00300   53.66860   95.46810   61.75740   53.52430  113.28660   29.04830   22.23250    0.14040    2.97110    0.28010    2.70000    0.04300 1887.98080 2463.78910 2536.95520    0.80150
 3972.50000    7.80350    7.87440    7.98690   -0.01600    0.00420   53.50030   94.60900   63.09820   56.80990  122.25440   30.51930   24.98070    0.11640    2.99750    0.27710    2.72170    0.03990 1888.19800 2464.56460 2528.49520    0.80320
