~Version ---------------------------------------------------
VERS.   2.0 : CWLS log ASCII Standard -VERSION 2.0
WRAP.    NO : One line per depth step
DLM . SPACE : Column Data Section Delimiter
~Well ------------------------------------------------------
STRT .FT                 178.0 : START DEPTH
STOP .FT                4994.0 : STOP DEPTH
STEP .FT                   0.5 : STEP
NULL .                -9999.25 : NULL VALUE
COMP .                         : COMPANY
WELL .                         : WELL
FLD  .                         : FIELD
LOC  .                         : LOCATION
PROV .                         : PROVINCE
CNTY .                         : COUNTY
STAT .                         : STATE
CTRY .                         : COUNTRY
SRVC .                         : SERVICE COMPANY
DATE .                         : DATE
UWI  .                         : UNIQUE WELL ID
API  .                         : API NUMBER
SLAT .WGS84 1.7497207532499992 : SURFACE LATITUDE
SLON .WGS84 7.2173604501090125 : SURFACE LONGITUDE
DATUM.F                2670.35 : DEPTH DATUM ELEV
~Curve Information -----------------------------------------
DEPT   .FT    : 
CAL1R  .IN    : CALIPER 1 FROM RESISTIVITY LOG
CALD   .IN    : CALIPER FROM DENSITY LOG
CALSR  .IN    : MICRO RESISTIVITY CALIPER FROM RESISTIVITY
DPHI_LS.DEC   : DENSITY POROSITY LIMESTONE
DRHO   .G/C3  : BULK DENSITY CORRECTION
DTCO   .US/F  : DELTA-T COMPRESSIONAL
DTSM   .US/F  : DELTA-T SHEAR
GRD    .GAPI  : GAMMA RAY FROM DENSITY LOG
GRS    .GAPI  : GAMMA RAY FROM SONIC LOG
LLD    .OHMM  : LATEROLOG DEEP RESISTIVITY
LLS    .OHMM  : LATEROLOG SHALLOW RESISTIVITY
MSFL   .OHMM  : MICRO SPHERICALLY FOCUSED RESISTIVITY
NPHI_LS.DEC   : NEUTRON POROSITY LIMESTONE
PEF    .B/E   : PHOTOELECTRIC FACTOR
PR     .N/A   : POISSON'S RATIO
RHOB   .G/C3  : BULK DENSITY
SPHI_LS.DEC   : SONIC POROSITY [LIMESTONE]
TEND   .LBF   : TENSION FROM DENSITY LOG
TENR   .LBF   : TENSION FROM RESISTIVITY LOG
TENS   .LB    : TENSION FROM SONIC LOG
VPVS   .N/A   : COMPRESSIONAL TO SHEAR VELOCITY RATIO
~Params ----------------------------------------------------
~Other -----------------------------------------------------
~ASCII -----------------------------------------------------
# ...
 3362.50000    8.34550    8.13010    8.26210   -0.01340    0.01150   49.72830   88.06450   17.21530   14.83270  282.69920  178.67400   60.85990    0.07470    2.88860    0.28200    2.72850    0.01410 1592.29750 2246.08040 2282.45040    0.85250
 3363.00000    8.34390    8.12100    8.25770   -0.02530    0.01070   48.90750   87.67010   14.90800   13.35920  409.40270  228.21230  435.29590    0.04880    3.16060    0.28200    2.76320    0.01150 1608.31790 2253.07570 2287.97920    0.85260
 3363.50000    8.34230    8.11180    8.25340   -0.04440    0.01150   48.65670   87.69040   12.13990   12.09180  510.75920  288.89360  435.26900    0.04820    3.41710    0.28200    2.79110    0.00920 1601.60270 2251.34360 2293.50810    0.85190
 3364.00000    8.34060    8.10260    8.24900   -0.05050    0.00790   48.68190   87.71060   11.10570   10.82440  505.08500  318.41620  312.62310    0.06120    3.39250    0.28280    2.78740    0.00800 1614.58390 2247.01320 2294.51070    0.85120
 3364.50000    8.33900    8.09350    8.24460   -0.04360    0.00430   48.90240   88.09800   10.98360   10.57830  447.42940  320.16970  101.43730    0.07760    3.30000    0.28340    2.76960    0.00910 1642.25910 2242.68290 2294.43000    0.85050
 3365.00000    8.33740    8.08430    8.24030   -0.03220    0.00080   49.18960   88.82550   11.84990   10.21260  389.77390  268.50550  213.40280    0.09390    3.28180    0.28390    2.75190    0.01220 1657.29580 2239.73820 2283.10290    0.84990
 3365.50000    8.33580    8.08250    8.23590   -0.02070   -0.00280   49.67900   89.55290   14.03460   10.66770  330.98040  182.41270  398.13090    0.11020    3.29610    0.28410    2.73420    0.01490 1663.90700 2228.82570 2281.20450    0.84920
 3366.00000    8.33410    8.08330    8.23160   -0.01270   -0.00430   50.16840   89.01610   16.21930   12.60170  292.85440  181.90000  255.67820    0.12330    3.32380    0.28170    2.72980    0.01670 1670.51820 2230.99090 2279.30610    0.84850
 3366.50000    8.33250    8.08410    8.22720   -0.01350   -0.00150   50.02400   89.04500   18.32210   14.35600  291.74910  256.24900   68.70120    0.12330    3.44590    0.28110    2.75290    0.01750 1668.55570 2241.81680 2277.40770    0.84780
 3367.00000    8.33090    8.08480    8.22280   -0.02400    0.00140   49.49550   88.87030   18.74860   13.74980  307.11930  260.53950  172.81310    0.10300    3.60420    0.28200    2.77900    0.01480 1656.13760 2252.64270 2275.50940    0.84720
 3367.50000    8.32930    8.08560    8.21850   -0.04480    0.00440   49.07160   88.29920   17.13570   12.47750  345.93340  247.03020  277.29920    0.07980    3.70150    0.28340    2.80520    0.01150 1647.98450 2259.13820 2273.61100    0.84650
 3368.00000    8.32760    8.08640    8.21410   -0.05930    0.00790   48.69910   88.17360   15.52640   11.45680  361.33580  233.52330  278.43940    0.05660    3.89470    0.28410    2.80670    0.00860 1640.89770 2247.01320 2271.71260    0.84580
 3368.50000    8.32600    8.08720    8.20980   -0.06300    0.01010   48.98770   87.95920   13.91700   10.49890  375.75860  224.16120  255.06880    0.04730    3.95520    0.28490    2.80670    0.00850 1635.58850 2184.36640 2269.81420    0.84510
 3369.00000    8.32440    8.08790    8.20280   -0.05890    0.01000   49.20680   87.84960   12.30770    9.64590  386.54300  219.21540  158.00270    0.05080    3.88020    0.28420    2.80630    0.01020 1651.59860 2156.07430 2267.91580    0.84450
 3369.50000    8.32280    8.08870    8.20540   -0.05310    0.00970   49.03360   88.30520   11.01840   10.13090  340.11190  216.76800  124.45910    0.05460    3.80540    0.28240    2.80360    0.01190 1667.60880 2176.32800 2266.01750    0.84380
 3370.00000    8.32110    8.08950    8.20800   -0.05440    0.00920   48.99200   88.30520   10.23550   10.93170  381.01570  215.55150  161.93640    0.05280    3.83130    0.28170    2.80030    0.01210 1671.59250 2211.80600 2264.11910    0.84310
 3370.50000    8.31950    8.09020    8.21060   -0.05920    0.00870   48.95650   88.30520   10.14450   10.93640  399.58820  209.61930  252.16900    0.05000    3.88220    0.28250    2.78420    0.01000 1672.56960 2247.28400 2262.22070    0.84240
 3371.00000    8.31790    8.09100    8.21330   -0.05740    0.00920   48.96560   88.30520   10.40440   10.99290  327.89780  195.61210  257.83080    0.05000    3.75600    0.28360    2.76560    0.00900 1673.54670 2255.69080 2261.91690    0.84180
 3371.50000    8.31620    8.09180    8.21590   -0.04650    0.00840   49.15490   88.67130   11.05430   11.26760  273.36910  158.41700  237.31610    0.06830    3.58220    0.28400    2.74690    0.01050 1674.52380 2264.08040 2284.44750    0.84110
 3372.00000    8.31460    8.09250    8.21850   -0.03290    0.00760   49.44630   89.37610   13.32890   12.17800  177.62290   90.79530   91.84450    0.09720    3.34620    0.28420    2.73170    0.01230 1692.16910 2272.48720 2284.53360    0.84040
 3372.50000    8.31300    8.09250    8.22110   -0.01350    0.00660   49.73780   89.79900   14.42070   13.12250   89.99200   61.31010   26.06730    0.11490    3.33000    0.28370    2.73120    0.01550 1703.54190 2245.52500 2284.66210    0.83970
 3373.00000    8.31140    8.09250    8.22370   -0.01430    0.00470   49.94680   90.21840   14.32970   13.75320  102.64490   72.49110   60.44420    0.10890    3.32930    0.28290    2.75310    0.01590 1703.54190 2200.38480 2262.37900    0.83910
 3373.50000    8.30970    8.09320    8.22640   -0.02510    0.00810   50.14690   90.23820   13.69280   13.83620  168.42800  124.98470  129.33470    0.09430    3.33550    0.28220    2.76890    0.01720 1706.06390 2170.37300 2240.06380    0.83840
 3374.00000    8.30810    8.09630    8.22900   -0.03950    0.00890   50.24760   89.88920   12.87400   13.11080  234.21100  155.37570  114.94260    0.07940    3.34160    0.28150    2.77580    0.01810 1700.79020 2213.12340 2223.39640    0.83770
 3374.50000    8.30650    8.09940    8.23160   -0.04360    0.00960   49.99880   89.38270   11.96410   12.43860  273.67640  176.82860   85.68610    0.07730    3.29730    0.28070    2.78270    0.01700 1695.51650 2231.59470 2212.30300    0.83700
 3375.00000    8.30490    8.10250    8.23420   -0.04330    0.01030   49.87440   89.46950   11.05430   11.59890  266.16180  185.40520   86.15810    0.07430    3.18590    0.28000    2.78410    0.01580 1690.24270 2204.65270 2206.72970    0.83640
 3375.50000    8.30320    8.10570    8.23680   -0.04500    0.01110   50.26950   89.55630   11.05430   10.75920  219.06520  157.49330  127.16850    0.07340    3.13080    0.27930    2.78340    0.01710 1684.96900 2177.66000 2206.72970    0.83570
 3376.00000    8.30160    8.10880    8.23950   -0.04670    0.01180   50.76670   90.54740   11.50920   10.66260  172.52060  124.87370  116.94490    0.07900    3.14070    0.27750    2.76610    0.02180 1679.69530 2182.02810 2206.72970    0.83500
 3376.50000    8.30000    8.11190    8.24210   -0.03590    0.01230   51.13690   90.92480   13.11660   11.46070  115.85890   88.05930   55.15530    0.09350    3.19720    0.27450    2.74550    0.02470 1674.42160 2192.43830 2206.72970    0.83430
 3377.00000    8.29840    8.11500    8.24470   -0.02530    0.01240   51.48750   91.30220   15.53060   12.43920   99.97160   57.31740   28.38880    0.10810    3.21400    0.27160    2.72640    0.02770 1669.14790 2202.84850 2207.25540    0.83330
 3377.50000    8.29670    8.11820    8.23630   -0.01160    0.00980   51.58790   91.26490   16.96820   14.04380   97.76650   56.67930   26.04600    0.12030    3.20420    0.27010    2.72290    0.02840 1663.87420 2216.30330 2207.37360    0.83210
 3378.00000    8.29510    8.12130    8.22510   -0.01100    0.00820   51.05430   90.72380   16.29230   16.41090  111.28760   74.64420  123.20520    0.12090    3.16320    0.27030    2.73220    0.02560 1658.60050 2221.71210 2229.88300    0.83090
 3378.50000    8.27600    8.12440    8.21400   -0.01750    0.00650   50.56380   89.65280   14.73260   17.89670  167.91920   94.69720  181.49720    0.10110    3.08310    0.27300    2.76010    0.02010 1653.32680 2225.48480 2241.21290    0.82980
