~Version ---------------------------------------------------
VERS.   2.0 : CWLS log ASCII Standard -VERSION 2.0
WRAP.    NO : One line per depth step
DLM . SPACE : Column Data Section Delimiter
~Well ------------------------------------------------------
STRT .FT                 178.0 : START DEPTH
STOP .FT                4994.0 : STOP DEPTH
STEP .FT                   0.5 : STEP
NULL .                -9999.25 : NULL VALUE
COMP .                         : COMPANY
WELL .                         : WELL
FLD  .                         : FIELD
LOC  .                         : LOCATION
PROV .                         : PROVINCE
CNTY .                         : COUNTY
STAT .                         : STATE
CTRY .                         : COUNTRY
SRVC .                         : SERVICE COMPANY
DATE .                         : DATE
UWI  .                         : UNIQUE WELL ID
API  .                         : API NUMBER
SLAT .WGS84 1.7497207532499992 : SURFACE LATITUDE
SLON .WGS84 7.2173604501090125 : SURFACE LONGITUDE
DATUM.F                2670.35 : DEPTH DATUM ELEV
~Curve Information -----------------------------------------
DEPT   .FT    : 
CAL1R  .IN    : CALIPER 1 FROM RESISTIVITY LOG
CALD   .IN    : CALIPER FROM DENSITY LOG
CALSR  .IN    : MICRO RESISTIVITY CALIPER FROM RESISTIVITY
DPHI_LS.DEC   : DENSITY POROSITY LIMESTONE
DRHO   .G/C3  : BULK DENSITY CORRECTION
DTCO   .US/F  : DELTA-T COMPRESSIONAL
DTSM   .US/F  : DELTA-T SHEAR
GRD    .GAPI  : GAMMA RAY FROM DENSITY LOG
GRS    .GAPI  : GAMMA RAY FROM SONIC LOG
LLD    .OHMM  : LATEROLOG DEEP RESISTIVITY
LLS    .OHMM  : LATEROLOG SHALLOW RESISTIVITY
MSFL   .OHMM  : MICRO SPHERICALLY FOCUSED RESISTIVITY
NPHI_LS.DEC   : NEUTRON POROSITY LIMESTONE
PEF    .B/E   : PHOTOELECTRIC FACTOR
PR     .N/A   : POISSON'S RATIO
RHOB   .G/C3  : BULK DENSITY
SPHI_LS.DEC   : SONIC POROSITY [LIMESTONE]
TEND   .LBF   : TENSION FROM DENSITY LOG
TENR   .LBF   : TENSION FROM RESISTIVITY LOG
TENS   .LB    : TENSION FROM SONIC LOG
VPVS   .N/A   : COMPRESSIONAL TO SHEAR VELOCITY RATIO
~Params ----------------------------------------------------
~Other -----------------------------------------------------
~ASCII -----------------------------------------------------
# ...
 2966.50000    7.78960    7.95040    7.89830    0.01980    0.00440   58.82730  106.25730   25.15360   24.39510   60.76090   16.30170   21.87260    0.16160    3.22160    0.28230    2.69060    0.08150 1487.36540 2062.67060 2082.48860    0.79280
 2967.00000    7.79010    7.93420    7.82770    0.03470    0.00360   59.03920  107.32610   27.63590   24.57430   51.96880   13.35600   14.91580    0.18650    3.14730    0.28830    2.66790    0.08200 1471.52390 2063.75840 2082.48860    0.79180
 2967.50000    7.79070    7.91790    7.79300    0.04930    0.00290   58.51440  106.96290   27.62030   22.11010   43.17670   10.35240    4.48060    0.21900    3.12190    0.29070    2.64530    0.07930 1443.97750 2064.03400 2082.48860    0.78910
 2968.00000    7.79130    7.90160    7.75820    0.05450    0.00280   58.28450  106.16170   22.98580   19.73560   41.41830   10.01260    7.43350    0.21930    3.21950    0.28870    2.62260    0.07300 1439.21820 2063.76810 2082.48860    0.78400
 2968.50000    7.79190    7.88540    7.72340    0.04780    0.00480   57.94790  104.26640   20.29630   17.94350   46.60920   10.01260    7.43350    0.19600    3.29610    0.28090    2.62200    0.07050 1440.15560 2063.50230 2082.48860    0.77890
 2969.00000    7.79240    7.86910    7.70740    0.03950    0.00670   58.12100  102.65990   19.38320   17.94350   55.78930   10.52670   17.80370    0.16960    3.47440    0.27300    2.64000    0.07030 1441.09300 2063.23640 2082.48860    0.77380
 2969.50000    7.79300    7.85290    7.69830    0.03400    0.00660   58.74830  102.55120   19.27400   18.39150   60.12680   11.37930   17.60660    0.14310    3.62190    0.26340    2.65790    0.07560 1442.03050 2062.97050 2082.48860    0.76870
 2970.00000    7.78090    7.83660    7.69440    0.03760    0.00520   59.48910  103.49460   18.19750   18.66030   50.99460   11.44490    9.00510    0.14510    3.64840    0.25390    2.65640    0.08180 1442.96790 2062.70470 2082.48860    0.76360
 2970.50000    7.78220    7.82030    7.69050    0.05050    0.00380   61.64210  103.98160   17.42400   18.67240   40.82320   10.33090    6.77010    0.15790    3.53290    0.24430    2.65640    0.09200 1443.90530 2062.43880 2082.48860    0.75850
 2971.00000    7.78130    7.80700    7.68660    0.06370    0.00240   61.77430  104.49420   18.58970   19.13400   34.34650    9.12680    6.55320    0.17080    3.40190    0.23970    2.63260    0.10070 1484.44590 2062.17300 2082.48860    0.75340
 2971.50000    7.78040    7.80510    7.68340    0.07300    0.00130   61.50750  104.90420   22.21280   21.13620   33.99760    8.82320    2.10860    0.17680    3.33580    0.23940    2.60880    0.10090 1524.98640 2061.90710 2082.48860    0.74460
 2972.00000    7.77960    7.80330    7.68460    0.06260    0.00310   60.57000  104.19940   25.83590   23.18530   32.79080    8.56450   13.65690    0.16240    3.28490    0.24470    2.59430    0.09520 1537.24530 2061.64130 2082.48860    0.73980
 2972.50000    7.77460    7.80150    7.68600    0.05260    0.00530   59.80410  104.11850   27.00420   24.55080   31.22520    7.97310   19.55070    0.13180    3.23400    0.25410    2.60450    0.08670 1505.20480 2061.37540 2082.48860    0.73960
 2973.00000    7.78160    7.79970    7.68600    0.05660    0.00830   58.22870  107.61070   26.16800   23.44210   28.08050    7.32720   14.05380    0.13270    3.15870    0.28700    2.62450    0.07790 1521.79740 2061.10960 2082.48860    0.73930
 2973.50000    7.79010    7.79780    7.68600    0.06820    0.01280   57.81710  111.21920   24.14940   20.97390   24.93570    6.86500    5.23950    0.15730    3.14270    0.31240    2.62030    0.07200 1538.39000 2060.84370 2082.48860    0.73900
 2974.00000    7.79850    7.79600    7.68940    0.07290    0.01720   57.92470  114.06040   22.31460   18.50580   24.46220    6.83920    1.69550    0.18760    3.14170    0.32680    2.60130    0.07370 1554.98260 2060.44330 2082.48860    0.73880
 2974.50000    7.80700    7.79420    7.69050    0.05290    0.02670   58.07850  114.55140   21.29730   17.43570   32.68540    6.87290    8.42410    0.19980    3.20020    0.32760    2.58960    0.07540 1540.53940 2057.92130 2082.48860    0.73850
 2975.00000    7.81540    7.79240    7.69370    0.03110    0.03080   58.14010  112.41120   21.64560   18.85280   42.50970    6.99970   13.97790    0.19580    3.25890    0.32230    2.60660    0.07480 1504.48570 2054.93790 2082.48860    0.73820
 2975.50000    7.83000    7.79050    7.70460    0.01300    0.03540   58.12470  110.27100   23.90290   21.20580   45.10320   12.08530   19.01300    0.18820    3.37020    0.30490    2.63790    0.07370 1502.65880 2051.95460 2082.48860    0.73790
 2976.00000    7.85120    7.78870    7.71550    0.00890    0.03430   58.10420  108.85260   25.25290   22.67490   47.59450   12.36850    4.43080    0.18180    3.49820    0.28980    2.69840    0.08010 1500.83180 2048.97120 2082.48860    0.73770
 2976.50000    7.86270    7.78690    7.71890    0.01930    0.03090   59.50390  106.54780   23.90110   21.55230   46.85320   11.72100    7.27580    0.17190    3.54710    0.27470    2.69840    0.08580 1497.90150 2045.98790 2082.48860    0.73740
 2977.00000    7.86390    7.78510    7.70560    0.01630    0.02750   59.45010  104.29740   22.21570   20.90860   47.52710   11.27310    8.55730    0.16230    3.46870    0.26220    2.68560    0.08500 1490.55770 2043.00450 2082.48860    0.73330
 2977.50000    7.84080    7.78320    7.67950    0.01620    0.02410   59.21680  101.19920   22.92800   21.19040   51.30430   11.47450    8.33840    0.16140    3.39020    0.24970    2.68490    0.08330 1483.21380 2040.02120 2082.48860    0.72930
 2978.00000    7.80870    7.78140    7.63520    0.02230    0.02070   59.01170  100.99050   25.08340   22.39140   59.35630   12.35920   12.37820    0.16140    3.30220    0.24480    2.68340    0.08150 1475.86990 2037.03780 2082.48860    0.72520
 2978.50000    7.78250    7.77960    7.60900    0.02700    0.01850   58.67840  100.57270   26.62540   23.80560   69.63630   13.58170   10.40180    0.16140    3.27600    0.24630    2.67670    0.07750 1468.52610 2034.05440 2082.48860    0.72120
 2979.00000    7.77160    7.77650    7.60110    0.03250    0.01830   57.27870  100.88050   26.88450   24.36630   81.44820   15.19380    7.43210    0.15450    3.24900    0.25920    2.66860    0.06880 1467.76530 2031.07110 2078.62180    0.71710
 2979.50000    7.76630    7.77350    7.59480    0.01980    0.02150   54.94580  100.92210   25.13840   22.92950   93.26010   17.73360    7.60700    0.14110    3.38640    0.29530    2.65810    0.05330 1462.87650 2051.94450 2067.18730    0.71300
 2980.00000    7.76640    7.77040    7.58470    0.00200    0.02650   53.97740  100.14330   22.66300   21.49110  104.45950   20.27340    9.99860    0.12020    3.49720    0.29420    2.65740    0.04300 1464.00430 2088.72240 2067.18570    0.70900
 2980.50000    7.76650    7.76740    7.58120   -0.01720    0.03410   54.24890   99.82610   20.82430   20.25080  103.18790   20.76040  117.14300    0.11190    3.67740    0.28940    2.68440    0.04610 1479.71250 2123.21200 2067.29920    0.70490
 2981.00000    7.76670    7.76430    7.55830   -0.01780    0.03180   55.61660  102.98420   18.80310   20.34040   87.71970   18.48330   85.39580    0.11430    3.78750    0.29140    2.71130    0.05660 1495.42070 2123.46840 2067.41280    0.70080
 2981.50000    7.76680    7.76130    7.54990   -0.00270    0.02950   56.98440  105.68210   18.70910   21.78530   66.72220   14.07990    7.74020    0.13840    3.69020    0.29330    2.73280    0.06710 1520.59990 2104.00510 2067.52630    0.69920
 2982.00000    7.75900    7.75820    7.56410    0.02150    0.02040   58.45380  106.93810   19.84260   24.08140   45.72460    8.73130    4.97920    0.16250    3.45800    0.29190    2.73360    0.07770 1529.19590 2084.54190 2067.63980    0.69930
 2982.50000    7.75570    7.75520    7.61220    0.04570    0.01230   59.92320  108.96770   21.24130   25.26870   35.53280    8.15710    3.26560    0.18660    3.19840    0.28280    2.68120    0.08830 1537.79190 2065.07870 2067.75330    0.69930
