~Version ---------------------------------------------------
VERS.   2.0 : CWLS log ASCII Standard -VERSION 2.0
WRAP.    NO : One line per depth step
DLM . SPACE : Column Data Section Delimiter
~Well ------------------------------------------------------
STRT .FT                 178.0 : START DEPTH
STOP .FT                4994.0 : STOP DEPTH
STEP .FT                   0.5 : STEP
NULL .                -9999.25 : NULL VALUE
COMP .                         : COMPANY
WELL .                         : WELL
FLD  .                         : FIELD
LOC  .                         : LOCATION
PROV .                         : PROVINCE
CNTY .                         : COUNTY
STAT .                         : STATE
CTRY .                         : COUNTRY
SRVC .                         : SERVICE COMPANY
DATE .                         : DATE
UWI  .                         : UNIQUE WELL ID
API  .                         : API NUMBER
SLAT .WGS84 1.7497207532499992 : SURFACE LATITUDE
SLON .WGS84 7.2173604501090125 : SURFACE LONGITUDE
DATUM.F                2670.35 : DEPTH DATUM ELEV
~Curve Information -----------------------------------------
DEPT   .FT    : 
CAL1R  .IN    : CALIPER 1 FROM RESISTIVITY LOG
CALD   .IN    : CALIPER FROM DENSITY LOG
CALSR  .IN    : MICRO RESISTIVITY CALIPER FROM RESISTIVITY
DPHI_LS.DEC   : DENSITY POROSITY LIMESTONE
DRHO   .G/C3  : BULK DENSITY CORRECTION
DTCO   .US/F  : DELTA-T COMPRESSIONAL
DTSM   .US/F  : DELTA-T SHEAR
GRD    .GAPI  : GAMMA RAY FROM DENSITY LOG
GRS    .GAPI  : GAMMA RAY FROM SONIC LOG
LLD    .OHMM  : LATEROLOG DEEP RESISTIVITY
LLS    .OHMM  : LATEROLOG SHALLOW RESISTIVITY
MSFL   .OHMM  : MICRO SPHERICALLY FOCUSED RESISTIVITY
NPHI_LS.DEC   : NEUTRON POROSITY LIMESTONE
PEF    .B/E   : PHOTOELECTRIC FACTOR
PR     .N/A   : POISSON'S RATIO
RHOB   .G/C3  : BULK DENSITY
SPHI_LS.DEC   : SONIC POROSITY [LIMESTONE]
TEND   .LBF   : TENSION FROM DENSITY LOG
TENR   .LBF   : TENSION FROM RESISTIVITY LOG
TENS   .LB    : TENSION FROM SONIC LOG
VPVS   .N/A   : COMPRESSIONAL TO SHEAR VELOCITY RATIO
~Params ----------------------------------------------------
~Other -----------------------------------------------------
~ASCII -----------------------------------------------------
# ...
 3560.50000    7.96200    7.90450    7.89600    0.01070    0.00200   55.45280  101.45660   38.78220   36.30110   31.19220   23.67680   19.01390    0.12460    3.21630    0.27560    2.69410    0.05710 1756.58870 2382.02060 2401.80830    0.75950
 3561.00000    7.96200    7.90690    7.89610    0.02120    0.00390   56.90480  105.12580   46.13490   39.24010   29.46320   23.47950   22.23570    0.12940    3.11160    0.28440    2.68200    0.06770 1756.58870 2361.05290 2386.62880    0.76050
 3561.50000    7.96220    7.90940    7.89620    0.02440    0.00470   58.47890  107.68090   63.85560   46.14870   27.28280   23.18610   22.11230    0.14190    3.09930    0.28330    2.67380    0.07820 1756.58870 2361.05290 2383.59290    0.76140
 3562.00000    7.96340    7.91180    7.89630    0.02250    0.00460   59.76100  106.76080   74.93490   55.51240   25.10230   22.37070   11.46100    0.15450    3.09240    0.27890    2.67550    0.08880 1785.85280 2377.64340 2383.59290    0.76240
 3562.50000    7.96460    7.91420    7.89640    0.00710    0.00450   60.22670  104.94060   63.39750   63.27210   37.12520   26.46800  120.62720    0.16200    3.02280    0.27620    2.69210    0.09150 1783.92390 2367.27440 2379.85930    0.76340
 3563.00000    7.96580    7.91660    7.89650   -0.00820    0.00430   56.86330   97.63530   46.75550   57.64200   57.39550   47.76940  302.35700    0.13170    2.98750    0.27770    2.70870    0.07620 1758.66960 2366.73680 2373.63670    0.76430
 3563.50000    7.96690    7.91910    7.89650   -0.00850    0.00420   54.50850   94.76860   30.11340   39.34770   71.32540   58.85490  338.70300    0.09450    2.93020    0.27810    2.72220    0.05310 1731.67920 2375.83080 2373.73630    0.76530
 3564.00000    7.96810    7.92150    7.89660   -0.00500    0.00310   52.59120   93.20370   23.18040   24.62690   72.32270   59.84650  118.49990    0.08280    2.89550    0.27880    2.72000    0.03250 1733.09070 2381.51450 2375.97640    0.76670
 3564.50000    7.96930    7.92390    7.89670    0.00250    0.00130   52.95730   94.56070   28.18180   19.00740   71.52210   60.18050   74.04600    0.08590    2.92820    0.28000    2.70910    0.03140 1734.50220 2387.19830 2378.21660    0.76820
 3565.00000    7.97050    7.92640    7.89680    0.00690    0.00000   54.60950   98.32380   38.82710   25.78150   69.55760   57.55850   97.27880    0.09850    3.00950    0.28030    2.69490    0.04710 1735.91360 2392.88200 2380.45670    0.76970
 3565.50000    7.97170    7.92880    7.89690    0.01140    0.00040   56.26180  100.46980   51.44420   36.80890   59.21980   50.94850   56.38050    0.12560    3.07230    0.27900    2.69490    0.06070 1737.32510 2395.15550 2382.69680    0.77120
 3566.00000    7.97280    7.93120    7.89700    0.00800    0.00370   57.20650  100.90420   59.37190   47.06360   48.88200   33.49110   15.48210    0.12800    3.13520    0.27450    2.69850    0.07050 1738.73650 2395.15550 2388.39320    0.77270
 3566.50000    7.97400    7.93360    7.89700    0.00260    0.00450   57.87570  102.36700   54.02200   48.14680   38.54420   28.85240   87.25750    0.11580    3.15890    0.27060    2.70770    0.07340 1740.14800 2395.15550 2391.99340    0.77420
 3567.00000    7.97520    7.93610    7.89710    0.00190    0.00450   58.51370  103.82990   47.84120   44.90310   37.41660   28.21680  234.52120    0.10080    3.15640    0.27080    2.70780    0.07520 1741.55950 2382.75460 2383.59290    0.77570
 3567.50000    7.97640    7.94010    7.89720    0.00490    0.00450   58.77550  105.47250   46.68440   46.78490   37.07020   27.59520  113.12510    0.10050    3.08750    0.27530    2.70720    0.08120 1742.97090 2367.25340 2383.59290    0.77720
 3568.00000    7.97760    7.95040    7.89730    0.01130    0.00450   59.63210  107.10720   58.41700   53.66200   32.11800   25.35000   15.91940    0.10140    3.07900    0.28070    2.69800    0.08760 1744.38240 2370.31690 2383.59290    0.77870
 3568.50000    7.97870    7.96070    7.89740    0.01420    0.00440   62.00710  110.00870   69.34360   61.61440   26.55630   22.32350   17.39460    0.12870    3.06260    0.28480    2.68680    0.09770 1745.79380 2364.52690 2383.59290    0.78020
 3569.00000    7.97990    7.97100    7.89750    0.01960    0.00430   64.27730  114.96240   71.78580   68.12780   22.12300   19.42910   20.00310    0.15130    3.02390    0.28450    2.67550    0.11090 1768.04830 2363.92600 2383.59290    0.78170
 3569.50000    7.98110    7.98130    7.89750    0.02900    0.00470   66.47770  119.02460   80.37640   73.68190   19.38210   16.63240   17.30640    0.16730    2.98530    0.27970    2.66420    0.12420 1768.04830 2371.10870 2383.59290    0.78320
 3570.00000    7.98230    7.99160    7.89760    0.03670    0.00540   68.10090  120.66590   88.78600   79.23600   16.64120   14.32620   14.08370    0.18940    2.94660    0.27630    2.65300    0.14340 1775.53730 2378.29130 2383.59290    0.78470
 3570.50000    7.98350    8.00190    7.89770    0.04180    0.00840   67.42000  120.17450   84.65280   82.43920   15.36720   13.51910    8.38440    0.22760    2.93600    0.27170    2.64400    0.14380 1784.08050 2385.47400 2383.59290    0.79030
 3571.00000    7.98460    8.01220    7.89780    0.02710    0.01210   65.31080  115.66970   63.50970   68.13690   15.35780   13.48700    8.75520    0.21820    2.98470    0.26710    2.64460    0.13070 1787.65020 2392.65660 2383.59290    0.79030
 3571.50000    7.98580    8.02250    7.89790    0.00710    0.02090   61.60850  112.72820   46.65200   48.36330   18.53000   15.70790   13.37630    0.17870    3.06170    0.26680    2.66070    0.10900 1779.70180 2398.47930 2382.86810    0.79650
 3572.00000    7.98700    8.03280    7.89800   -0.00540    0.02150   59.27690  108.52420   29.70110   31.76870   28.20990   22.85830   28.79810    0.13910    3.13860    0.26700    2.71830    0.08160 1771.75350 2398.86190 2379.35730    0.79990
 3572.50000    7.98820    8.04310    7.89810   -0.00050    0.02140   58.23720  104.86090   29.13820   27.81830   37.88970   30.00870   41.59380    0.10750    3.21560    0.26740    2.71830    0.07450 1763.80520 2388.93020 2375.84640    0.79840
 3573.00000    7.98940    8.05120    7.89800    0.01440    0.02100   58.73120  102.46030   40.13860   40.39250   42.21590   32.85670  152.00810    0.11110    3.20380    0.26770    2.70100    0.07580 1755.85680 2373.67150 2372.33560    0.79590
 3573.50000    7.98990    8.05020    7.89440    0.02800    0.01770   60.47790  104.43890   54.18090   52.96670   41.25530   27.91340  262.42790    0.13070    3.10350    0.26890    2.65980    0.08770 1754.44530 2377.34940 2368.82470    0.79350
 3574.00000    7.96450    8.02630    7.88940    0.04980    0.01310   62.22460  107.73300   67.67740   64.09970   34.04890   20.29750   94.33590    0.15770    2.99920    0.26890    2.63340    0.10040 1746.72140 2382.13960 2365.31390    0.79100
 3574.50000    7.95830    8.00930    7.88440    0.03680    0.01250   62.29720  110.36930   74.34040   62.98290   26.84250   15.20730   10.19680    0.17990    2.89490    0.26870    2.63600    0.10330 1738.99750 2383.13460 2361.80300    0.78850
 3575.00000    7.94870    7.99350    7.87940    0.02170    0.01490   61.43360  109.78470   71.14430   60.42650   19.63500   14.78090   13.46720    0.17930    2.85240    0.26800    2.66350    0.09970 1731.27360 2393.46670 2358.29220    0.78610
 3575.50000    7.93910    7.96380    7.87440    0.00620    0.01580   60.47140  107.81090   68.03920   59.39690   20.82680   15.47660   15.55160    0.16220    2.90360    0.26680    2.68420    0.09180 1723.54970 2385.24730 2354.78130    0.78360
 3576.00000    7.92960    7.96630    7.86940   -0.00110    0.01580   59.50930  104.82510   68.87420   61.23150   22.31800   16.50480   15.25010    0.15170    2.96430    0.26520    2.70200    0.08380 1711.30200 2385.52190 2351.27050    0.78120
 3576.50000    7.92000    7.96990    7.86440    0.00000    0.01500   58.54710  102.72300   69.65030   61.01200   23.29330   17.53290   14.44800    0.14570    2.99100    0.26470    2.70850    0.07640 1711.30200 2385.79640 2347.75960    0.77990
