~Version ---------------------------------------------------
VERS.   2.0 : CWLS log ASCII Standard -VERSION 2.0
WRAP.    NO : One line per depth step
DLM . SPACE : Column Data Section Delimiter
~Well ------------------------------------------------------
STRT .FT                 178.0 : START DEPTH
STOP .FT                4994.0 : STOP DEPTH
STEP .FT                   0.5 : STEP
NULL .                -9999.25 : NULL VALUE
COMP .                         : COMPANY
WELL .                         : WELL
FLD  .                         : FIELD
LOC  .                         : LOCATION
PROV .                         : PROVINCE
CNTY .                         : COUNTY
STAT .                         : STATE
CTRY .                         : COUNTRY
SRVC .                         : SERVICE COMPANY
DATE .                         : DATE
UWI  .                         : UNIQUE WELL ID
API  .                         : API NUMBER
SLAT .WGS84 1.7497207532499992 : SURFACE LATITUDE
SLON .WGS84 7.2173604501090125 : SURFACE LONGITUDE
DATUM.F                2670.35 : DEPTH DATUM ELEV
~Curve Information -----------------------------------------
DEPT   .FT    : 
CAL1R  .IN    : CALIPER 1 FROM RESISTIVITY LOG
CALD   .IN    : CALIPER FROM DENSITY LOG
CALSR  .IN    : MICRO RESISTIVITY CALIPER FROM RESISTIVITY
DPHI_LS.DEC   : DENSITY POROSITY LIMESTONE
DRHO   .G/C3  : BULK DENSITY CORRECTION
DTCO   .US/F  : DELTA-T COMPRESSIONAL
DTSM   .US/F  : DELTA-T SHEAR
GRD    .GAPI  : GAMMA RAY FROM DENSITY LOG
GRS    .GAPI  : GAMMA RAY FROM SONIC LOG
LLD    .OHMM  : LATEROLOG DEEP RESISTIVITY
LLS    .OHMM  : LATEROLOG SHALLOW RESISTIVITY
MSFL   .OHMM  : MICRO SPHERICALLY FOCUSED RESISTIVITY
NPHI_LS.DEC   : NEUTRON POROSITY LIMESTONE
PEF    .B/E   : PHOTOELECTRIC FACTOR
PR     .N/A   : POISSON'S RATIO
RHOB   .G/C3  : BULK DENSITY
SPHI_LS.DEC   : SONIC POROSITY [LIMESTONE]
TEND   .LBF   : TENSION FROM DENSITY LOG
TENR   .LBF   : TENSION FROM RESISTIVITY LOG
TENS   .LB    : TENSION FROM SONIC LOG
VPVS   .N/A   : COMPRESSIONAL TO SHEAR VELOCITY RATIO
~Params ----------------------------------------------------
~Other -----------------------------------------------------
~ASCII -----------------------------------------------------
# ...
 3164.50000    8.19600    8.36570    8.28350   -0.03920    0.00890   48.44460   87.86810   58.47920   55.68810 1228.13600  670.33820  310.77340    0.05930    3.92150    0.28650    2.76860    0.00570 1577.07140 2130.31120 2150.43950    0.86170
 3165.00000    8.18940    8.35910    8.27180   -0.03690    0.00610   48.55300   87.70370   51.54700   48.73580 1291.56240  761.09700  349.20020    0.05270    3.75300    0.28550    2.76820    0.00630 1577.07140 2127.78500 2152.87870    0.85810
 3165.50000    8.18940    8.35260    8.26010   -0.03590    0.00430   48.67160   87.73780   45.46860   41.61220 1265.02090  773.36950  257.35260    0.05140    3.57050    0.28100    2.77160    0.00780 1577.07140 2115.65970 2155.31790    0.85750
 3166.00000    8.18940    8.34600    8.24390   -0.03730    0.00280   48.82760   87.77200   39.89850   36.70440 1132.25430  778.29190  202.24680    0.05030    3.38800    0.27980    2.77430    0.00870 1581.10630 2126.68310 2157.75710    0.85680
 3166.50000    8.18940    8.33950    8.23940   -0.04030    0.00280   48.91740   87.95580   35.29500   33.27380  993.93620  761.15230 1100.99260    0.04970    3.23640    0.28200    2.77280    0.00890 1569.12060 2137.70640 2160.19630    0.85610
 3167.00000    8.20760    8.34040    8.27120   -0.04330    0.00310   48.94920   88.17710   32.14120   29.84320  900.10540  704.26490  961.73840    0.04970    3.24980    0.28360    2.76530    0.00980 1559.53200 2133.84810 2162.63550    0.85540
 3167.50000    8.23030    8.35270    8.29850   -0.03740    0.00410   48.98110   88.61400   29.12220   27.28630  798.19090  637.40430  234.58730    0.06120    3.31850    0.28550    2.75780    0.01020 1565.83050 2127.50990 2162.36820    0.85470
 3168.00000    8.25300    8.36510    8.30760   -0.02910    0.00500   49.01290   88.80410   26.19310   25.31170  730.82480  570.54370   88.66690    0.06920    3.34220    0.28650    2.75030    0.01010 1573.37830 2137.15510 2195.26940    0.85400
 3168.50000    8.25300    8.37740    8.30780   -0.02420    0.00600   49.04470   88.99420   24.15470   23.73270  707.53920  503.68310 1399.23380    0.07620    3.36130    0.28660    2.75030    0.00990 1580.92600 2146.80030 2213.01850    0.85360
 3169.00000    8.25300    8.38970    8.30800   -0.02470    0.00670   49.08630   89.18430   24.58680   24.46520  699.71190  453.35460  965.32860    0.07740    3.38050    0.28610    2.75110    0.01040 1582.89160 2156.44550 2215.18170    0.85360
 3169.50000    8.25300    8.39470    8.30820   -0.02870    0.00890   49.15720   89.17480   27.20380   26.31750  695.84290  443.37820   97.50250    0.07790    3.39960    0.28630    2.75810    0.01100 1582.95680 2170.22470 2217.34480    0.85270
 3170.00000    8.25310    8.38880    8.30850   -0.02990    0.00940   49.33580   89.12540   29.82070   27.41880  688.15830  440.92910  179.99930    0.07820    3.35900    0.28640    2.76520    0.01200 1585.30250 2182.35010 2219.50800    0.85120
 3170.50000    8.25310    8.38300    8.30870   -0.03390    0.00860   49.42760   89.07590   31.75570   26.97100  688.17710  445.90130   81.14030    0.07850    3.28160    0.28660    2.77220    0.01340 1587.17700 2159.53880 2221.67120    0.84960
 3171.00000    8.25630    8.37710    8.30890   -0.03740    0.00950   49.56240   89.58110   31.66710   24.93250  707.64620  487.83150   89.33910    0.07850    3.21800    0.28710    2.77520    0.01470 1605.88110 2139.83530 2223.83440    0.84810
 3171.50000    8.26030    8.37120    8.30910   -0.03980    0.01030   49.63160   89.57360   27.63740   22.83240  782.33020  545.17390  100.29510    0.07510    3.18670    0.28720    2.76910    0.01500 1605.23490 2139.83530 2225.99760    0.84650
 3172.00000    8.26440    8.36540    8.30940   -0.04120    0.00920   49.63510   89.56610   23.50910   20.73230  791.10890  602.51630 1113.54190    0.07330    3.15550    0.28900    2.76100    0.01510 1619.50100 2172.84310 2228.16070    0.84660
 3172.50000    8.26840    8.35950    8.30960   -0.03650    0.00810   49.63860   89.76090   20.02470   19.89220  720.98800  582.59730  610.19280    0.07520    3.12420    0.29000    2.75580    0.01480 1622.98740 2191.36840 2225.44430    0.84660
 3173.00000    8.27240    8.35360    8.30980   -0.03330    0.00690   49.64130   89.88980   19.66250   22.84230  650.86700  466.09170  110.65660    0.07990    3.07040    0.29000    2.76230    0.01450 1626.47380 2209.89370 2211.86210    0.84660
 3173.50000    8.27650    8.34780    8.31000   -0.02900    0.00530   49.64100   89.75540   23.35810   26.52990  580.74610  389.53410   99.45580    0.08200    3.11760    0.29000    2.77980    0.01390 1621.91280 2224.71400 2198.27990    0.84690
 3174.00000    8.28050    8.34190    8.31030   -0.03240    0.00480   49.45640   89.62110   30.95150   29.74870  535.69060  367.01500  371.59830    0.07540    3.21080    0.29140    2.78340    0.01300 1617.35180 2208.95110 2184.69770    0.84750
 3174.50000    8.28450    8.33600    8.31050   -0.04130    0.00530   49.25280   89.48670   36.32540   29.30070  593.49980  403.93920  224.34030    0.06680    3.46580    0.29270    2.78340    0.01190 1610.18370 2176.21120 2204.38260    0.84800
 3175.00000    8.28860    8.33020    8.31070   -0.04580    0.00580   49.04920   89.52620   34.72760   27.89340  707.82010  451.67770  454.16760    0.05870    3.48520    0.29420    2.77760    0.01010 1592.58710 2136.80340 2185.97510    0.84860
 3175.50000    8.29260    8.32430    8.31090   -0.04360    0.00640   48.88640   89.24650   31.63940   26.57570  800.66260  499.41620  362.32830    0.05350    3.38100    0.29450    2.77070    0.00900 1578.40230 2109.52010 2181.16730    0.84920
 3176.00000    8.29660    8.31890    8.31120   -0.04080    0.00690   48.95330   88.96680   28.55120   25.25800  896.77650  524.33550  192.60890    0.05320    3.24960    0.29440    2.76370    0.00850 1588.25190 2109.95380 2176.35960    0.84980
 3176.50000    8.30070    8.31380    8.31140   -0.03440    0.00740   48.95570   89.37720   26.49840   24.37250  950.99680  526.70270  260.90800    0.06110    3.15700    0.29380    2.75680    0.00910 1598.10150 2142.43320 2191.88540    0.85030
 3177.00000    8.30470    8.30880    8.31160   -0.02860    0.00790   49.24610   89.65890   27.59170   26.16460  967.03950  533.21010  211.77030    0.07780    3.19620    0.29170    2.74980    0.01210 1600.07150 2174.91260 2220.96700    0.85090
 3177.50000    8.30880    8.30370    8.31180   -0.02330    0.00840   49.66230   89.81110   33.55040   29.00200 1016.77860  556.87420  146.63380    0.09150    3.23780    0.29020    2.73870    0.01460 1600.07150 2206.52560 2226.78340    0.85150
 3178.00000    8.31280    8.29860    8.31210   -0.01350    0.00700   49.87350   90.37310   38.45600   32.34730 1106.62860  581.32490  358.08690    0.10490    3.27850    0.28980    2.72780    0.01580 1591.77470 2206.52560 2226.78340    0.85210
 3178.50000    8.31680    8.29350    8.31230   -0.00650    0.00520   50.08470   90.23760   40.07630   35.37140 1204.69290  586.23010  320.87470    0.11830    3.27820    0.29020    2.70700    0.01710 1579.91800 2200.46280 2226.78340    0.85260
 3179.00000    8.32090    8.28850    8.31250   -0.00060    0.00340   50.29580   90.31360   39.11690   37.54440 1263.53840  582.54210   95.66320    0.13150    3.23460    0.28970    2.69780    0.01830 1576.31820 2185.30570 2226.78340    0.85320
 3179.50000    8.32490    8.28340    8.31270    0.00470    0.00170   50.52890   90.70680   37.16950   37.09630  836.76820  570.17520  215.40810    0.13780    3.19090    0.28830    2.69780    0.01960 1578.22280 2163.47230 2226.78340    0.85380
 3180.00000    8.32890    8.27830    8.31300    0.00680    0.00310   50.51050   91.01760   33.61420   31.31840  818.31190  548.56780   65.39860    0.13810    3.18580    0.28700    2.70120    0.01970 1580.12750 2161.93810 2212.51880    0.85440
 3180.50000    8.33300    8.27330    8.31320    0.00140    0.00490   50.49200   90.56120   30.24070   27.19490  822.51300  533.36010  369.39340    0.13470    3.18070    0.28570    2.70960    0.01980 1562.42590 2160.40390 2198.25420    0.85490
