~Version ---------------------------------------------------
VERS.   2.0 : CWLS log ASCII Standard -VERSION 2.0
WRAP.    NO : One line per depth step
DLM . SPACE : Column Data Section Delimiter
~Well ------------------------------------------------------
STRT .FT                 178.0 : START DEPTH
STOP .FT                4994.0 : STOP DEPTH
STEP .FT                   0.5 : STEP
NULL .                -9999.25 : NULL VALUE
COMP .                         : COMPANY
WELL .                         : WELL
FLD  .                         : FIELD
LOC  .                         : LOCATION
PROV .                         : PROVINCE
CNTY .                         : COUNTY
STAT .                         : STATE
CTRY .                         : COUNTRY
SRVC .                         : SERVICE COMPANY
DATE .                         : DATE
UWI  .                         : UNIQUE WELL ID
API  .                         : API NUMBER
SLAT .WGS84 1.7497207532499992 : SURFACE LATITUDE
SLON .WGS84 7.2173604501090125 : SURFACE LONGITUDE
DATUM.F                2670.35 : DEPTH DATUM ELEV
~Curve Information -----------------------------------------
DEPT   .FT    : 
CAL1R  .IN    : CALIPER 1 FROM RESISTIVITY LOG
CALD   .IN    : CALIPER FROM DENSITY LOG
CALSR  .IN    : MICRO RESISTIVITY CALIPER FROM RESISTIVITY
DPHI_LS.DEC   : DENSITY POROSITY LIMESTONE
DRHO   .G/C3  : BULK DENSITY CORRECTION
DTCO   .US/F  : DELTA-T COMPRESSIONAL
DTSM   .US/F  : DELTA-T SHEAR
GRD    .GAPI  : GAMMA RAY FROM DENSITY LOG
GRS    .GAPI  : GAMMA RAY FROM SONIC LOG
LLD    .OHMM  : LATEROLOG DEEP RESISTIVITY
LLS    .OHMM  : LATEROLOG SHALLOW RESISTIVITY
MSFL   .OHMM  : MICRO SPHERICALLY FOCUSED RESISTIVITY
NPHI_LS.DEC   : NEUTRON POROSITY LIMESTONE
PEF    .B/E   : PHOTOELECTRIC FACTOR
PR     .N/A   : POISSON'S RATIO
RHOB   .G/C3  : BULK DENSITY
SPHI_LS.DEC   : SONIC POROSITY [LIMESTONE]
TEND   .LBF   : TENSION FROM DENSITY LOG
TENR   .LBF   : TENSION FROM RESISTIVITY LOG
TENS   .LB    : TENSION FROM SONIC LOG
VPVS   .N/A   : COMPRESSIONAL TO SHEAR VELOCITY RATIO
~Params ----------------------------------------------------
~Other -----------------------------------------------------
~ASCII -----------------------------------------------------
# ...
 4946.50000    7.18160    7.67620    7.25380   -0.00530    0.01150   -9999.25   -9999.25   59.84190   -9999.25  114.95500   54.45120   49.89640    0.08000    3.13640   -9999.25    2.78860   -9999.25 2300.10420 3016.21320 2960.57690   -9999.25
 4947.00000    7.16170    7.70850    7.25180    0.01180    0.00710   -9999.25   -9999.25   61.75690   -9999.25  106.54840   52.91580   25.65640    0.08870    3.09280   -9999.25    2.76890   -9999.25 2332.03520 3010.31680 2963.64200   -9999.25
 4947.50000    7.13610    7.76180    7.22040    0.01270    0.00530   -9999.25   -9999.25   64.49400   -9999.25   99.58340   53.75600   11.11020    0.09290    3.12990   -9999.25    2.72250   -9999.25 2332.51840 3004.61320 2966.70710   -9999.25
 4948.00000    7.11060    7.79670    7.18300   -0.01180    0.00650   -9999.25   -9999.25   64.40970   -9999.25   93.86720   51.36690   53.02140    0.08380    3.11230   -9999.25    2.68530   -9999.25 2314.66260 3008.10780 2969.78920   -9999.25
 4948.50000    7.08510    7.82100    7.14550   -0.02510    0.00690   -9999.25   -9999.25   61.23530   -9999.25   84.85490   47.74870   63.33520    0.07490    3.06750   -9999.25    2.76640   -9999.25 2290.87650 3021.91210 2958.75060   -9999.25
 4949.00000    7.05950    7.81360    7.10800   -0.03420    0.00770   -9999.25   -9999.25   59.87920   -9999.25   74.81410   40.32540   42.74290    0.07120    3.02280   -9999.25    2.76710   -9999.25 2243.36940 3043.29810 2936.47980   -9999.25
 4949.50000    7.03400    7.80430    7.07670   -0.03290    0.00770   -9999.25   -9999.25   60.94670   -9999.25   61.03330   33.93910   15.53370    0.07560    2.99990   -9999.25    2.76710   -9999.25 2227.65230 3064.68410 2936.64310   -9999.25
 4950.00000    7.00850    7.78720    7.07300   -0.02100    0.00820   -9999.25   -9999.25   63.52000   -9999.25   50.06240   32.63900   15.01250    0.08160    3.00720   -9999.25    2.76990   -9999.25 2236.27980 3083.89770 2937.42200   -9999.25
 4950.50000    7.00050    7.75130    7.08550   -0.01800    0.01040   -9999.25   -9999.25   64.72360   -9999.25   50.10590   33.59340   15.53370    0.08750    3.01030   -9999.25    2.76990   -9999.25 2244.90720 3074.07450 2939.08370   -9999.25
 4951.00000    7.00410    7.71000    7.09810   -0.02350    0.01270   -9999.25   -9999.25   64.57060   -9999.25   56.43950   36.84340   24.48160    0.08440    2.94350   -9999.25    2.74070   -9999.25 2253.17710 3052.50320 2940.74550   -9999.25
 4951.50000    7.00410    7.68120    7.11060   -0.03070    0.01830   -9999.25   -9999.25   64.41940   -9999.25   79.43070   48.26360   37.96810    0.07060    2.95860   -9999.25    2.74070   -9999.25 2294.58290 3041.09680 2942.40720   -9999.25
 4952.00000    7.01310    7.65250    7.12160   -0.03440    0.02700   -9999.25   -9999.25   67.56890   -9999.25   97.85230   59.68380   51.45470    0.05680    3.05360   -9999.25    2.75020   -9999.25 2305.65770 3033.41920 2944.06890   -9999.25
 4952.50000    7.04590    7.62940    7.12540   -0.03500    0.02980   -9999.25   -9999.25   75.20020   -9999.25   97.93840   62.79830   58.26650    0.05370    3.18890   -9999.25    2.76920   -9999.25 2292.32030 3048.21490 2945.73070   -9999.25
 4953.00000    7.07700    7.62890    7.15430   -0.03020    0.03270   -9999.25   -9999.25   82.83160   -9999.25   98.02440   62.68170   38.99340    0.06170    3.28560   -9999.25    2.77000   -9999.25 2251.55030 3048.21490 2947.39240   -9999.25
 4953.50000    7.10810    7.62790    7.18360   -0.02510    0.03380   -9999.25   -9999.25   89.36530   -9999.25   98.11060   61.12770   41.98010    0.07450    3.41480   -9999.25    2.76120   -9999.25 2229.90890 3040.87740 2949.05410   -9999.25
 4954.00000    7.11980    7.63050    7.19140   -0.02200    0.03480   -9999.25   -9999.25   93.84600   -9999.25  103.24620   59.56560   18.56820    0.08730    3.54900   -9999.25    2.75030   -9999.25 2229.90890 3019.30680 2950.71580   -9999.25
 4954.50000    7.12040    7.64660    7.19140   -0.02760    0.03500   -9999.25   -9999.25   98.32670   -9999.25  116.59530   59.28750   48.58340    0.08940    3.47220   -9999.25    2.74450   -9999.25 2229.90890 2985.80170 2952.37760   -9999.25
 4955.00000    7.10950    7.64940    7.19140   -0.03680    0.03520   -9999.25   -9999.25   98.85520   -9999.25  129.94440   80.55230   70.27150    0.08300    3.37900   -9999.25    2.76610   -9999.25 2234.06090 2952.29650 2954.03930   -9999.25
 4955.50000    7.11370    7.67230    7.19140   -0.04500    0.03840   -9999.25   -9999.25   -9999.25   -9999.25  143.29350   84.76470   29.52690    0.07950    3.28570   -9999.25    2.78350   -9999.25 2261.04610 2918.60220 2955.70100   -9999.25
 4956.00000    7.12620    7.68180    7.19140   -0.03700    0.03820   -9999.25   -9999.25   -9999.25   -9999.25  152.04070   87.22890   57.12420    0.08490    3.26330   -9999.25    2.77920   -9999.25 2299.49570 2917.82990 2957.36280   -9999.25
 4956.50000    7.13180    7.70650    7.19140   -0.02820    0.03850   -9999.25   -9999.25   -9999.25   -9999.25  162.53790   89.64880   67.31270    0.09360    3.25220   -9999.25    2.75800   -9999.25 2317.83600 2958.04510 2959.02450   -9999.25
 4957.00000    7.13850    7.71760    7.19140   -0.02450    0.04700   -9999.25   -9999.25   -9999.25   -9999.25  175.67920   99.12630   42.87360    0.09460    3.25280   -9999.25    2.74860   -9999.25 2307.56920 2998.26020 2960.68620   -9999.25
 4957.50000    7.14510    7.71120    7.19140   -0.02400    0.05440   -9999.25   -9999.25   -9999.25   -9999.25  189.34940  127.62090   18.78520    0.08520    3.26270   -9999.25    2.75520   -9999.25 2307.56920 3024.77600 2962.34800   -9999.25
 4958.00000    7.15180    7.70340    7.19140   -0.03760    0.05960   -9999.25   -9999.25   -9999.25   -9999.25  607.30960  220.04530  119.45560    0.07580    3.18280   -9999.25    2.78600   -9999.25 2298.96200 3033.32410 2962.54220   -9999.25
 4958.50000    7.15850    7.69560    7.20980   -0.06470    0.06290   -9999.25   -9999.25   -9999.25   -9999.25 1025.26980  311.03190  338.41320    0.06640    3.10420   -9999.25    2.81670   -9999.25 2310.44130 3029.93630 2951.17410   -9999.25
 4959.00000    7.16510    7.68790    7.19320   -0.08160    0.06080   -9999.25   -9999.25   -9999.25   -9999.25 1443.22990  472.28390  303.12480    0.05300    3.05080   -9999.25    2.84130   -9999.25 2316.15590 3006.88710 2951.02090   -9999.25
 4959.50000    7.17180    7.68010    7.17740   -0.07740    0.04170   -9999.25   -9999.25   -9999.25   -9999.25 1861.19010  733.84520 1436.75030    0.03890    3.03100   -9999.25    2.84130   -9999.25 2298.81210 2983.83800 2962.08350   -9999.25
 4960.00000    7.17840    7.67230    7.16160   -0.07150    0.02380   -9999.25   -9999.25   -9999.25   -9999.25 2046.15900  846.50840 1837.86480    0.02490    3.02660   -9999.25    2.84130   -9999.25 2281.46830 2934.14110 2962.73800   -9999.25
 4960.50000    7.18510    7.66450    7.15170   -0.06560    0.02010   -9999.25   -9999.25   -9999.25   -9999.25 2077.10690  838.69380  251.38230    0.01900    3.03570   -9999.25    2.83190   -9999.25 2306.18000 2923.73530 2963.39250   -9999.25
 4961.00000    7.19180    7.65680    7.15090   -0.06130    0.01830   -9999.25   -9999.25   -9999.25   -9999.25 1979.68260  747.00720  209.60560    0.01910    3.04720   -9999.25    2.81090   -9999.25 2274.61570 2927.75670 2964.04700   -9999.25
 4961.50000    7.19840    7.64900    7.15100   -0.06290    0.01750   -9999.25   -9999.25   -9999.25   -9999.25 1561.63370  674.78480  196.80360    0.02010    3.05870   -9999.25    2.80980   -9999.25 2268.30280 2922.67140 2964.70150   -9999.25
 4962.00000    7.20350    7.64120    7.15100   -0.06600    0.01750   -9999.25   -9999.25   -9999.25   -9999.25 1222.89560  502.88210  201.20450    0.02080    3.07020   -9999.25    2.81590   -9999.25 2268.30280 2902.98650 2965.35600   -9999.25
 4962.50000    7.20270    7.63340    7.15110   -0.06990    0.01670   -9999.25   -9999.25   -9999.25   -9999.25 1067.84810  498.64340  312.08800    0.01980    3.08170   -9999.25    2.82490   -9999.25 2274.70450 2892.82670 2966.01050   -9999.25
