~Version ---------------------------------------------------
VERS.   2.0 : CWLS log ASCII Standard -VERSION 2.0
WRAP.    NO : One line per depth step
DLM . SPACE : Column Data Section Delimiter
~Well ------------------------------------------------------
STRT .FT                 178.0 : START DEPTH
STOP .FT                4994.0 : STOP DEPTH
STEP .FT                   0.5 : STEP
NULL .                -9999.25 : NULL VALUE
COMP .                         : COMPANY
WELL .                         : WELL
FLD  .                         : FIELD
LOC  .                         : LOCATION
PROV .                         : PROVINCE
CNTY .                         : COUNTY
STAT .                         : STATE
CTRY .                         : COUNTRY
SRVC .                         : SERVICE COMPANY
DATE .                         : DATE
UWI  .                         : UNIQUE WELL ID
API  .                         : API NUMBER
SLAT .WGS84 1.7497207532499992 : SURFACE LATITUDE
SLON .WGS84 7.2173604501090125 : SURFACE LONGITUDE
DATUM.F                2670.35 : DEPTH DATUM ELEV
~Curve Information -----------------------------------------
DEPT   .FT    : 
CAL1R  .IN    : CALIPER 1 FROM RESISTIVITY LOG
CALD   .IN    : CALIPER FROM DENSITY LOG
CALSR  .IN    : MICRO RESISTIVITY CALIPER FROM RESISTIVITY
DPHI_LS.DEC   : DENSITY POROSITY LIMESTONE
DRHO   .G/C3  : BULK DENSITY CORRECTION
DTCO   .US/F  : DELTA-T COMPRESSIONAL
DTSM   .US/F  : DELTA-T SHEAR
GRD    .GAPI  : GAMMA RAY FROM DENSITY LOG
GRS    .GAPI  : GAMMA RAY FROM SONIC LOG
LLD    .OHMM  : LATEROLOG DEEP RESISTIVITY
LLS    .OHMM  : LATEROLOG SHALLOW RESISTIVITY
MSFL   .OHMM  : MICRO SPHERICALLY FOCUSED RESISTIVITY
NPHI_LS.DEC   : NEUTRON POROSITY LIMESTONE
PEF    .B/E   : PHOTOELECTRIC FACTOR
PR     .N/A   : POISSON'S RATIO
RHOB   .G/C3  : BULK DENSITY
SPHI_LS.DEC   : SONIC POROSITY [LIMESTONE]
TEND   .LBF   : TENSION FROM DENSITY LOG
TENR   .LBF   : TENSION FROM RESISTIVITY LOG
TENS   .LB    : TENSION FROM SONIC LOG
VPVS   .N/A   : COMPRESSIONAL TO SHEAR VELOCITY RATIO
~Params ----------------------------------------------------
~Other -----------------------------------------------------
~ASCII -----------------------------------------------------
# ...
 2372.50000    8.71540    8.77620    9.15810    0.02430    0.00350   74.95460  103.02180   47.08050   47.72010   80.78040   76.76800   53.50580    0.02220    3.36490    0.15700    2.70170    0.19520 1532.27380 2074.24870 2132.44720    1.00370
 2373.00000    8.73970    8.80200    9.15080    0.00250    0.00460   76.03310  105.01290   46.73000   47.36700   80.88540   76.89110   47.40620    0.01570    3.68330    0.14870    2.73050    0.20250 1500.17720 2074.24870 2132.44720    1.00510
 2373.50000    8.72670    8.82770    9.13080   -0.01930    0.00430   76.14040  105.28330   44.45830   44.91700   81.44500   77.09950   46.80340    0.01570    3.87690    0.14170    2.78640    0.20190 1459.83320 2074.24870 2132.44720    1.00650
 2374.00000    8.69420    8.85340    9.11560   -0.04110    0.00410   75.00520  105.83440   42.45690   42.63770   82.11980   77.18020   98.75480    0.01720    3.89420    0.13470    2.81020    0.19510 1485.79340 2074.24870 2132.44720    1.00790
 2374.50000    8.65780    8.87910    9.10350   -0.06290    0.00390   74.38280  106.96320   41.70640   40.35850   81.77150   71.38370   24.66150    0.02750    3.80430    0.12850    2.81020    0.18830 1489.06270 2074.24870 2132.44720    1.00940
 2375.00000    8.61240    8.89990    9.09440   -0.06320    0.00390   74.95770  107.10590   40.95220   38.07920   78.21080   65.29230   99.81050    0.03770    3.61190    0.12670    2.80980    0.19000 1497.77110 2074.14930 2132.44720    1.01080
 2375.50000    8.57600    8.90100    9.08760   -0.05300    0.00320   77.50000  106.46530   39.92500   37.53870   71.86510   61.92910   68.33550    0.04750    3.46430    0.12670    2.80840    0.19680 1512.94720 2073.78620 2132.44720    1.01190
 2376.00000    8.56690    8.90200    9.08530   -0.03290    0.00320   80.04240  105.06290   39.30470   38.29080   65.51930   56.74210  149.02860    0.05700    3.30080    0.14240    2.76890    0.20150 1526.56140 2073.42300 2132.44720    1.01120
 2376.50000    8.58210    8.90380    9.09160   -0.01070    0.00350   80.37090  104.76190   41.26600   43.13500   52.92870   45.17460   72.50490    0.07000    3.08100    0.18150    2.72940    0.18710 1533.92840 2073.05980 2132.44720    1.01410
 2377.00000    8.61240    8.91620    9.10210    0.00620    0.00430   69.01320  104.91540   45.99500   50.60800   38.77690   33.60710   25.15220    0.09140    2.91920    0.22070    2.70180    0.15020 1541.29550 2072.69660 2132.44720    1.01690
 2377.50000    8.61240    8.94020    9.11260    0.01510    0.00500   63.47890  105.68150   50.60420   55.48200   29.78330   24.35300   15.01640    0.10890    2.91310    0.23810    2.69480    0.11980 1536.92620 2072.33340 2132.44720    1.01980
 2378.00000    8.61630    8.96430    9.12170    0.01710    0.00580   62.81770  106.44760   50.70950   55.66640   32.18890   29.38890   24.10460    0.10860    2.99420    0.22500    2.68780    0.10760 1529.62270 2071.97020 2132.44720    1.02150
 2378.50000    8.63580    9.01080    9.12600    0.01710    0.00660   64.47620  106.26320   48.35510   52.10930   39.03120   35.85340   36.19940    0.08900    2.98020    0.20780    2.68210    0.11370 1520.11560 2071.60710 2132.44720    1.01470
 2379.00000    8.65520    9.06780    9.13680    0.01800    0.00680   64.88860  104.51830   46.20090   48.82060   45.87350   42.31800   33.41200    0.06670    2.90830    0.19060    2.68190    0.12180 1507.30280 2071.24390 2132.44720    1.00470
 2379.50000    8.67470    9.12480    9.14760    0.01800    0.00810   65.10410  102.91820   44.53010   45.53190   49.70220   46.97300   30.79540    0.05030    2.89920    0.17340    2.68170    0.12120 1513.44440 2070.88070 2132.44720    0.99750
 2380.00000    8.69420    9.18190    9.15840    0.01600    0.00940   68.57560  103.43150   46.42430   44.13060   50.25750   47.32180   70.21590    0.03930    2.94010    0.14710    2.67120    0.13000 1514.76530 2070.51750 2132.44720    0.99900
 2380.50000    8.71370    9.23890    9.16710    0.01710    0.01070   68.47720  103.76720   50.14830   44.73310   50.25600   46.72890   49.22760    0.02990    3.01590    0.11840    2.65820    0.14430 1527.52580 2070.15430 2132.44720    1.00970
 2381.00000    8.72150    9.30730    9.22100    0.02500    0.01200   68.84600  103.38500   52.36330   45.73430   40.52050   43.44690   26.03800    0.03020    3.05300    0.10130    2.64730    0.14890 1518.23930 2069.79120 2132.44720    1.02420
 2381.50000    8.72150    9.38120    9.26490    0.03380    0.01200   70.13950  104.76400   54.57750   50.23990   29.93950   32.52270   26.79140    0.04010    3.06160    0.10310    2.64650    0.15500 1508.92160 2069.42800 2132.44720    1.04040
 2382.00000    8.73970    9.41370    9.30870    0.04120    0.01080   72.57380  106.90550   55.01780   55.80130   30.44390   32.52270   21.16390    0.04040    3.04760    0.12290    2.65340    0.16690 1503.48110 2069.06480 2132.44720    1.05810
 2382.50000    8.75790    9.44610    9.35260    0.03250    0.00860   72.53720  109.04710   54.54530   51.14760   33.27590   36.86650   19.28800    0.03890    3.19140    0.14220    2.68540    0.17630 1500.62530 2068.70160 2132.44720    1.06550
 2383.00000    8.78510    9.47850    9.39640    0.01400    0.00980   72.06970  109.59850   50.58230   51.19760   34.79770   48.54570   46.13230    0.02870    3.46760    0.17540    2.74460    0.17550 1497.76950 2068.41110 2132.44720    1.07430
 2383.50000    8.79420    9.48430    9.44030   -0.02240    0.01060   69.01370  108.08780   44.55790   50.97940   59.91720   84.65960   90.14880    0.01840    3.75270    0.21580    2.82830    0.16530 1478.52010 2068.41110 2132.44720    1.08310
 2384.00000    8.79420    9.48320    9.47630   -0.06660    0.01100   60.55580  104.78210   37.16130   39.03010   99.14030  120.77360  117.20920    0.00810    4.05630    0.25040    2.85270    0.13440 1473.00920 2068.41110 2132.44720    1.09200
 2384.50000    8.79420    9.49070    9.49750   -0.09990    0.00920   57.17230  100.52550   29.84990   28.24570  138.36350  140.90160   49.71370    0.00100    4.55710    0.26740    2.91060    0.12100 1453.84490 2068.41110 2132.44720    1.09730
 2385.00000    8.79420    9.49810    9.53090   -0.11900    0.00460   63.91010   99.15350   22.66630   21.22050  177.58660  153.52770  244.50150   -0.00220    4.98440    0.26700    2.94790    0.11420 1465.39310 2068.41110 2132.44720    1.09750
 2385.50000    8.79420    9.50550    9.54000   -0.13350    0.00680   65.89950   98.14270   17.57490   16.70140  284.06660  166.15390  353.10230   -0.00370    5.00410    0.22190    2.93970    0.11360 1472.38590 2068.41110 2132.44720    1.09770
 2386.00000    8.79420    9.51300    9.55820   -0.14500    0.00870   65.53270   97.80840   13.31530   14.71700  282.48680  178.78010 1519.08900   -0.00370    4.82980    0.15710    2.92800    0.12060 1444.13330 2068.41110 2132.44720    1.09980
 2386.50000    8.79420    9.52040    9.55820   -0.13680    0.01140   65.67550   98.27710   13.97630   16.31810  235.18280  185.88840  939.79450   -0.00310    4.58970    0.10870    2.91570    0.12910 1427.24630 2068.41110 2132.44720    1.10320
 2387.00000    8.79420    9.52790    9.55800   -0.12380    0.01500   65.99770   98.80560   16.02000   18.38440  203.37400  185.88840  165.54860   -0.00180    4.27170    0.10610    2.90070    0.13240 1444.48400 2068.41110 2125.92100    1.10650
 2387.50000    8.79420    9.53530    9.55780   -0.11580    0.01640   66.40960   98.80740   17.74290   19.39330  250.43520  193.27980  162.80560   -0.00010    4.12160    0.10160    2.89510    0.13640 1461.72170 2068.41110 2125.96340    1.10990
 2388.00000    8.79420    9.54280    9.55320   -0.11770    0.01890   66.82160   97.80520   17.53740   15.84910  370.91590  271.49610  702.01090    0.00050    4.22880    0.08770    2.90740    0.13890 1478.95940 2068.41110 2126.00590    1.11330
 2388.50000    8.79420    9.55020    9.58060   -0.13050    0.02200   67.14370   96.88180   15.29510   12.30490  491.39660  366.56210 1588.32540   -0.00200    4.45610    0.06730    2.92770    0.13890 1496.19710 2068.41110 2126.04830    1.11660
