~Version ---------------------------------------------------
VERS.   2.0 : CWLS log ASCII Standard -VERSION 2.0
WRAP.    NO : One line per depth step
DLM . SPACE : Column Data Section Delimiter
~Well ------------------------------------------------------
STRT .FT                 178.0 : START DEPTH
STOP .FT                4994.0 : STOP DEPTH
STEP .FT                   0.5 : STEP
NULL .                -9999.25 : NULL VALUE
COMP .                         : COMPANY
WELL .                         : WELL
FLD  .                         : FIELD
LOC  .                         : LOCATION
PROV .                         : PROVINCE
CNTY .                         : COUNTY
STAT .                         : STATE
CTRY .                         : COUNTRY
SRVC .                         : SERVICE COMPANY
DATE .                         : DATE
UWI  .                         : UNIQUE WELL ID
API  .                         : API NUMBER
SLAT .WGS84 1.7497207532499992 : SURFACE LATITUDE
SLON .WGS84 7.2173604501090125 : SURFACE LONGITUDE
DATUM.F                2670.35 : DEPTH DATUM ELEV
~Curve Information -----------------------------------------
DEPT   .FT    : 
CAL1R  .IN    : CALIPER 1 FROM RESISTIVITY LOG
CALD   .IN    : CALIPER FROM DENSITY LOG
CALSR  .IN    : MICRO RESISTIVITY CALIPER FROM RESISTIVITY
DPHI_LS.DEC   : DENSITY POROSITY LIMESTONE
DRHO   .G/C3  : BULK DENSITY CORRECTION
DTCO   .US/F  : DELTA-T COMPRESSIONAL
DTSM   .US/F  : DELTA-T SHEAR
GRD    .GAPI  : GAMMA RAY FROM DENSITY LOG
GRS    .GAPI  : GAMMA RAY FROM SONIC LOG
LLD    .OHMM  : LATEROLOG DEEP RESISTIVITY
LLS    .OHMM  : LATEROLOG SHALLOW RESISTIVITY
MSFL   .OHMM  : MICRO SPHERICALLY FOCUSED RESISTIVITY
NPHI_LS.DEC   : NEUTRON POROSITY LIMESTONE
PEF    .B/E   : PHOTOELECTRIC FACTOR
PR     .N/A   : POISSON'S RATIO
RHOB   .G/C3  : BULK DENSITY
SPHI_LS.DEC   : SONIC POROSITY [LIMESTONE]
TEND   .LBF   : TENSION FROM DENSITY LOG
TENR   .LBF   : TENSION FROM RESISTIVITY LOG
TENS   .LB    : TENSION FROM SONIC LOG
VPVS   .N/A   : COMPRESSIONAL TO SHEAR VELOCITY RATIO
~Params ----------------------------------------------------
~Other -----------------------------------------------------
~ASCII -----------------------------------------------------
# ...
 4154.50000    7.71650    7.83440    7.79830    0.03740    0.00850   57.87720  105.36320   70.28400   65.38510   34.18990   28.31070   24.83880    0.20990    2.91370    0.29010    2.65740    0.07240 1938.26860 2562.78880 2581.69340    0.77300
 4155.00000    7.70640    7.83860    7.80240    0.04670    0.00800   57.68780  103.38800   66.04200   60.75320   31.64600   27.84220   18.39360    0.20800    2.82860    0.28490    2.64550    0.07110 1938.26860 2590.57670 2580.69420    0.77460
 4155.50000    7.69830    7.84280    7.80740    0.04960    0.00750   57.42850  100.92200   53.41870   48.49260   31.47050   28.15350   23.33140    0.19060    2.87600    0.27160    2.63350    0.06970 1938.26860 2612.80710 2591.71850    0.77630
 4156.00000    7.69760    7.84630    7.80740    0.04330    0.00720   56.76580   99.26370   44.21410   42.46560   32.35820   28.78720   25.25690    0.17310    2.92280    0.26610    2.62860    0.06450 1938.26860 2606.74480 2591.71850    0.77800
 4156.50000    7.69630    7.84400    7.80740    0.03230    0.00830   56.12530   98.54280   46.03400   43.36570   36.43890   33.85890   23.89000    0.15560    2.99790    0.25950    2.64090    0.06020 1938.26860 2588.55570 2591.71850    0.77900
 4157.00000    7.69510    7.84110    7.80740    0.02360    0.00990   56.40700   98.46070   49.17570   47.04140   44.35950   39.59310   37.07420    0.14360    3.00040    0.25630    2.65650    0.06200 1938.26860 2558.24170 2591.71850    0.77380
 4157.50000    7.69390    7.83810    7.77100    0.01080    0.01150   55.73030   98.37860   51.33860   47.49390   49.66090   44.67470   47.62160    0.13690    2.98530    0.26430    2.67200    0.05960 1938.26860 2546.11600 2591.71850    0.76860
 4158.00000    7.69260    7.83510    7.74380    0.00440    0.01320   54.75940   95.39170   49.80220   43.39990   51.46300   45.93500   44.66990    0.13450    2.97780    0.27070    2.68760    0.05440 1938.26860 2540.65020 2591.71850    0.76340
 4158.50000    7.69140    7.83210    7.74410   -0.00030    0.01490   54.09670   94.60220   43.84260   34.97760   54.57870   46.44860   37.95190    0.13120    2.97020    0.27370    2.70310    0.04720 1918.53890 2543.63230 2590.32870    0.75820
 4159.00000    7.69020    7.82910    7.74450   -0.00490    0.01660   53.43390   93.71320   37.16340   27.85080   57.38960   47.23030   35.26470    0.12790    2.96010    0.27670    2.71330    0.04020 1918.53890 2546.61450 2590.12980    0.75780
 4159.50000    7.68460    7.82610    7.74480   -0.00540    0.01640   52.77110   93.47820   30.48410   20.72410   57.38960   47.84820   41.40920    0.12600    2.91850    0.27880    2.71810    0.03730 1918.53890 2549.59670 2589.93090    0.75950
 4160.00000    7.67210    7.82310    7.74520    0.00430    0.01750   52.84290   94.16710   26.02620   19.22350   53.85440   47.73180   47.35710    0.12850    2.92870    0.27930    2.71810    0.04370 1918.53890 2552.57880 2586.69000    0.76120
 4160.50000    7.67470    7.82020    7.74550    0.01830    0.01610   54.33100   96.26240   25.86190   27.54280   50.21670   46.32780   32.44140    0.13000    3.00360    0.27910    2.67790    0.04340 1918.53890 2555.56100 2586.80550    0.76280
 4161.00000    7.67730    7.81720    7.74580    0.01880    0.01350   55.81910   98.04690   34.89520   38.13870   48.89440   44.92390   42.84470    0.12710    3.01380    0.27930    2.67770    0.05490 1918.53890 2563.95140 2587.12750    0.76450
 4161.50000    7.68000    7.81420    7.74620    0.01320    0.01150   56.79730  101.34170   48.21780   49.68630   48.56830   44.18030   29.02540    0.12090    3.02410    0.28280    2.67880    0.06300 1918.53890 2581.93930 2587.33460    0.76620
 4162.00000    7.68260    7.81120    7.74650    0.00800    0.00950   57.10730  103.55220   59.69750   65.93700   50.21670   44.18030   71.93920    0.12440    3.10910    0.28280    2.68940    0.06910 1918.53890 2591.02620 2587.54170    0.76790
 4162.50000    7.68530    7.80820    7.74690    0.00580    0.00760   58.17880  103.16190   70.71660   69.98670   53.98270   48.17920  114.69120    0.13060    3.17060    0.27900    2.69640    0.07470 1918.53890 2600.13680 2576.59400    0.76570
 4163.00000    7.68790    7.80520    7.74720    0.00330    0.00600   57.63230  102.81880   70.62560   60.37370   66.45900   52.76680   73.70580    0.13070    3.20280    0.27640    2.70160    0.07440 1918.53890 2605.48590 2576.82440    0.76480
 4163.50000    7.69050    7.80220    7.74760   -0.00140    0.00600   55.82790  101.02090   59.83760   48.68020   76.84290   57.35440   33.17130    0.12700    3.24450    0.27830    2.71050    0.06450 1918.53890 2581.02340 2567.79870    0.76380
 4164.00000    7.69320    7.79930    7.74790   -0.00520    0.00600   53.92470   97.30050   45.42330   39.94720   86.74880   61.94210   85.66990    0.12190    3.41550    0.27780    2.71790    0.04940 1918.53890 2562.59010 2567.79870    0.76280
 4164.50000    7.69580    7.79730    7.74830   -0.00860    0.00770   52.60830   94.07980   37.29550   31.21410   96.65460   71.36650  215.05070    0.10820    3.43560    0.27360    2.72230    0.03480 1918.53890 2562.86180 2567.79870    0.76190
 4165.00000    7.69850    7.79970    7.74860   -0.00910    0.00830   51.93760   92.69500   31.34360   28.31030  106.56050  100.13820  165.30000    0.09230    3.42710    0.27060    2.72390    0.02900 1918.53890 2563.43240 2594.02010    0.76090
 4165.50000    7.70110    7.80210    7.74900   -0.00620    0.00880   51.12020   91.19330   27.49960   26.78220  115.26880  100.69740  123.29390    0.08270    3.25720    0.27330    2.71780    0.02360 1918.53890 2564.00300 2598.17540    0.75990
 4166.00000    7.70370    7.80450    7.74930   -0.00230    0.00820   51.54720   91.54110   28.31850   33.49670  118.28010   97.67240  175.63580    0.09250    3.10370    0.27860    2.71030    0.02440 1918.53890 2564.57370 2597.46010    0.75900
 4166.50000    7.70640    7.80690    7.74970    0.00140    0.00540   53.32370   96.29760   36.88600   41.41080  115.03640   87.56360  213.85830    0.10400    3.10920    0.28000    2.70280    0.04260 1918.53890 2565.14430 2594.80530    0.75800
 4167.00000    7.70900    7.80930    7.75000    0.00130    0.00260   55.49640   98.36500   42.02050   48.16900  100.84810   70.98820  117.00360    0.11270    3.13720    0.27190    2.70400    0.05650 1918.53890 2565.71500 2592.15050    0.75700
 4167.50000    7.71170    7.81170    7.75040   -0.00070    0.00320   56.47820  100.43240   46.42410   53.74910   85.49280   54.41290   63.63520    0.11560    3.14840    0.26890    2.70580    0.06460 1918.53890 2566.28560 2589.49570    0.75610
 4168.00000    7.71430    7.81410    7.75070    0.00020    0.00510   57.86750  102.49980   55.06750   61.58540   70.13750   44.20250  118.62590    0.12040    3.09410    0.27840    2.70520    0.06890 1918.53890 2566.85630 2586.84090    0.75510
 4168.50000    7.71690    7.81650    7.75110    0.00170    0.00710   58.00390  103.40190   66.03100   66.66060   54.78220   37.53000  104.88940    0.12730    3.03530    0.28320    2.70210    0.07140 1918.53890 2588.93330 2584.18610    0.75410
 4169.00000    7.71960    7.81890    7.75140    0.00450    0.00910   58.04690  103.36560   77.08540   61.40660   41.56290   34.79840   30.68570    0.15580    3.11180    0.27400    2.69890    0.07390 1918.53890 2584.43550 2581.53130    0.75320
 4169.50000    7.72220    7.82130    7.75190    0.00610    0.00850   57.97520  102.52210   77.08540   54.43400   40.19850   34.60510   49.23800    0.18220    3.20750    0.26990    2.68540    0.07420 1918.53890 2585.75990 2578.87650    0.75220
 4170.00000    7.72490    7.82370    7.75110    0.01770    0.00630   57.15930  101.42560   58.25250   28.92340   38.44860   33.46950   49.32980    0.18780    3.24140    0.27430    2.67100    0.06860 1918.53890 2566.38280 2576.22160    0.75120
 4170.50000    7.72750    7.82610    7.74380    0.02760    0.00410   56.22920  100.19890   31.68520   24.50260   34.97750   30.79960   33.14420    0.16600    3.15890    0.27940    2.66380    0.06020 1918.53890 2551.41580 2576.67850    0.75030
