~Version ---------------------------------------------------
VERS.   2.0 : CWLS log ASCII Standard -VERSION 2.0
WRAP.    NO : One line per depth step
DLM . SPACE : Column Data Section Delimiter
~Well ------------------------------------------------------
STRT .FT                 178.0 : START DEPTH
STOP .FT                4994.0 : STOP DEPTH
STEP .FT                   0.5 : STEP
NULL .                -9999.25 : NULL VALUE
COMP .                         : COMPANY
WELL .                         : WELL
FLD  .                         : FIELD
LOC  .                         : LOCATION
PROV .                         : PROVINCE
CNTY .                         : COUNTY
STAT .                         : STATE
CTRY .                         : COUNTRY
SRVC .                         : SERVICE COMPANY
DATE .                         : DATE
UWI  .                         : UNIQUE WELL ID
API  .                         : API NUMBER
SLAT .WGS84 1.7497207532499992 : SURFACE LATITUDE
SLON .WGS84 7.2173604501090125 : SURFACE LONGITUDE
DATUM.F                2670.35 : DEPTH DATUM ELEV
~Curve Information -----------------------------------------
DEPT   .FT    : 
CAL1R  .IN    : CALIPER 1 FROM RESISTIVITY LOG
CALD   .IN    : CALIPER FROM DENSITY LOG
CALSR  .IN    : MICRO RESISTIVITY CALIPER FROM RESISTIVITY
DPHI_LS.DEC   : DENSITY POROSITY LIMESTONE
DRHO   .G/C3  : BULK DENSITY CORRECTION
DTCO   .US/F  : DELTA-T COMPRESSIONAL
DTSM   .US/F  : DELTA-T SHEAR
GRD    .GAPI  : GAMMA RAY FROM DENSITY LOG
GRS    .GAPI  : GAMMA RAY FROM SONIC LOG
LLD    .OHMM  : LATEROLOG DEEP RESISTIVITY
LLS    .OHMM  : LATEROLOG SHALLOW RESISTIVITY
MSFL   .OHMM  : MICRO SPHERICALLY FOCUSED RESISTIVITY
NPHI_LS.DEC   : NEUTRON POROSITY LIMESTONE
PEF    .B/E   : PHOTOELECTRIC FACTOR
PR     .N/A   : POISSON'S RATIO
RHOB   .G/C3  : BULK DENSITY
SPHI_LS.DEC   : SONIC POROSITY [LIMESTONE]
TEND   .LBF   : TENSION FROM DENSITY LOG
TENR   .LBF   : TENSION FROM RESISTIVITY LOG
TENS   .LB    : TENSION FROM SONIC LOG
VPVS   .N/A   : COMPRESSIONAL TO SHEAR VELOCITY RATIO
~Params ----------------------------------------------------
~Other -----------------------------------------------------
~ASCII -----------------------------------------------------
# ...
 3758.50000    8.05850    7.94250    7.62110    0.02600    0.00450   53.26010   97.07420   62.74370   60.75250  128.87990   56.32990   21.98990    0.14090    2.99680    0.29210    2.68340    0.03620 1800.21170 2445.92960 2462.73310    0.72770
 3759.00000    8.05730    7.94310    7.66220    0.03770    0.00700   54.42480   98.95540   59.61390   60.39410   60.91510   37.07100   24.17370    0.16860    3.03050    0.28810    2.65240    0.04460 1794.52530 2451.51380 2469.72130    0.73290
 3759.50000    8.06560    7.94370    7.65970    0.04880    0.00740   55.56450  101.87400   57.30490   57.13880   46.34150   31.89550    5.84210    0.18850    3.07410    0.28400    2.63160    0.05290 1779.21960 2455.43000 2479.45660    0.73650
 3760.00000    8.10360    7.94430    7.66310    0.05250    0.00740   56.62770  102.53960   53.31140   54.24180   34.70830   27.44250    9.94720    0.18970    3.11770    0.27990    2.61440    0.06090 1783.60370 2459.34630 2480.70790    0.73650
 3760.50000    8.14160    7.94470    7.68010    0.06050    0.00730   57.52840  102.34980   49.60850   50.37130   32.82820   26.98780   12.45990    0.18430    3.16130    0.27580    2.60470    0.06900 1787.98780 2463.26250 2476.30320    0.73650
 3761.00000    8.14160    7.94470    7.66840    0.06460    0.00690   57.56550  101.47590   46.34150   45.04050   32.10460   26.83800   12.52950    0.17760    3.16060    0.27420    2.60470    0.07070 1792.37190 2441.66390 2487.66530    0.73280
 3761.50000    8.14160    7.94470    7.66400    0.06250    0.00710   57.21240  101.17370   42.95660   39.61990   33.75480   27.64080   12.11770    0.17370    3.14680    0.27420    2.60960    0.06700 1796.75600 2447.34770 2509.53860    0.72740
 3762.00000    8.14160    7.94470    7.65960    0.05570    0.00730   56.30110   99.18710   39.10080   34.13950   38.56080   30.85310    4.18250    0.16920    3.12420    0.27420    2.61770    0.06030 1801.14020 2456.44190 2505.79860    0.72700
 3762.50000    8.14160    7.94470    7.61090    0.04870    0.00930   55.28480   98.14380   35.24490   29.50450   42.88880   39.23720    9.23310    0.15060    3.10160    0.27420    2.63290    0.05440 1805.52430 2474.50770 2498.98420    0.72630
 3763.00000    8.14160    7.94470    7.59600    0.04180    0.01140   54.26850   96.09780   31.38900   25.96490   64.09990   47.62130   10.78010    0.13560    3.07890    0.27420    2.64670    0.04740 1809.90840 2473.89520 2492.16980    0.72570
 3763.50000    8.14160    7.94470    7.61870    0.03660    0.01620   53.22340   94.76090   27.44220   27.09450   89.71070   58.23060   14.89050    0.11880    3.04740    0.27350    2.65510    0.04100 1814.29250 2442.71440 2470.88060    0.72500
 3764.00000    8.14160    7.94470    7.63690    0.02810    0.02310   53.09730   93.69670   28.81900   33.20320  115.32140   71.04510   15.39650    0.11700    2.94890    0.26950    2.67670    0.03810 1818.67660 2443.66740 2470.88060    0.72440
 3764.50000    8.13120    7.94470    7.66870    0.00530    0.03500   52.78940   92.90300   35.70330   40.88170  140.93210   84.63170   26.63550    0.11870    2.90920    0.26800    2.70670    0.03730 1823.06070 2444.62040 2481.16050    0.72370
 3765.00000    8.10520    7.94470    7.64690   -0.01030    0.03650   52.52730   92.50560   42.58750   48.56020  166.54290  101.30680   44.64240    0.12810    2.90870    0.26930    2.73580    0.03570 1823.06070 2445.57340 2481.16050    0.72310
 3765.50000    8.07610    7.94470    7.62320   -0.02190    0.03700   52.33870   92.67470   51.06700   60.16930  192.15360  117.98180   54.51000    0.12590    2.90820    0.27060    2.74210    0.03410 1823.06070 2446.52640 2474.67510    0.72250
 3766.00000    8.05070    7.94470    7.62320   -0.01640    0.02740   52.69900   93.18220   65.92720   74.39880  208.57360  134.65680   75.12010    0.12200    2.94020    0.27190    2.72590    0.03430 1794.62920 2447.47940 2481.70670    0.72520
 3766.50000    8.04160    7.94470    7.64140   -0.00080    0.01530   53.35690   94.31750   88.50360   86.46320  206.73250  131.73220  155.48320    0.11880    2.97220    0.27140    2.71080    0.03910 1766.19780 2458.19210 2484.12120    0.72780
 3767.00000    8.02330    7.94470    7.72000    0.00850    0.01270   53.98840   95.45290  105.07050   95.28000  199.76900  100.43410  275.63130    0.12450    3.00430    0.27040    2.69120    0.04310 1769.35680 2447.76080 2485.68870    0.75110
 3767.50000    8.02270    7.94470    7.79850    0.02110    0.00960   54.41000   96.34480  117.78280  102.77900  140.47180   69.13600   14.08380    0.13510    3.03630    0.27030    2.67330    0.04690 1772.51580 2444.14390 2489.33280    0.76930
 3768.00000    8.02210    7.94470    7.89610    0.03460    0.00690   54.93310   96.56010  114.87140   96.23310   67.71320   49.79920   20.93380    0.14570    3.06840    0.27030    2.66030    0.04860 1775.67480 2440.52710 2492.97700    0.77980
 3768.50000    8.02140    7.94470    7.90760    0.04040    0.00570   54.36300   96.30420   86.30330   76.16620   66.59120   48.97400   28.09580    0.15150    3.09520    0.27190    2.64590    0.04850 1775.28240 2440.46830 2491.76810    0.77980
 3769.00000    8.02080    7.94470    7.91070    0.03860    0.00390   53.92950   95.38870   69.98350   66.28800   85.82780   62.67680   26.26730    0.15000    3.10120    0.27380    2.64710    0.04680 1753.09710 2440.40960 2489.34590    0.77980
 3769.50000    8.02020    7.94470    7.91380    0.02660    0.00360   52.75990   94.26440   59.82770   58.20510  114.75460   82.74130   23.21990    0.13840    3.10150    0.27620    2.70130    0.04300 1763.48610 2440.35080 2484.77240    0.77980
 3770.00000    8.01960    7.94370    7.91680   -0.00440    0.00420   51.59600   91.88630   64.22780   59.31600  143.68130  106.26160   22.61040    0.11760    3.13600    0.27880    2.73230    0.03050 1773.87510 2440.29200 2491.63340    0.77980
 3770.50000    8.01900    7.93890    7.91990   -0.02330    0.00580   49.96760   90.92780   72.04360   64.89630  182.44200  143.60470 1048.34390    0.09380    3.16290    0.28460    2.75090    0.01710 1784.26410 2440.23330 2495.75000    0.77980
 3771.00000    8.01840    7.93410    7.92300   -0.01370    0.00750   49.56390   90.76540   77.00330   70.47670  193.93340  180.94790 1253.20510    0.09410    3.11330    0.29040    2.75090    0.01510 1784.78380 2440.17450 2480.62940    0.77980
 3771.50000    8.01780    7.92930    7.92600    0.00570    0.00690   49.89840   92.02370   77.35540   71.95110  330.93100  191.55870   42.40630    0.11650    3.03020    0.29640    2.75090    0.01420 1770.49960 2440.11570 2465.50880    0.77980
 3772.00000    8.01720    7.92440    7.92910    0.02810    0.00610   51.20240   93.74770   68.79890   62.66230  312.07810  183.17730   36.68460    0.14980    3.02750    0.29660    2.70270    0.02100 1756.21540 2440.05690 2471.10910    0.77980
 3772.50000    8.01660    7.91960    7.93220    0.04200    0.00770   52.15170   94.09430   60.03710   51.96970  265.03830  161.40750   15.22300    0.17700    3.02480    0.28480    2.64230    0.03190 1759.05380 2439.99820 2465.50890    0.77980
 3773.00000    8.01600    7.91480    7.93530    0.03630    0.01150   52.66820   93.59540   53.61660   44.58640  235.48520  150.69260   19.71840    0.17700    3.00570    0.27830    2.64080    0.03670 1785.12950 2439.93940 2462.66970    0.77980
 3773.50000    8.01540    7.91000    7.93830    0.02690    0.01120   52.38140   93.17670   49.55720   40.37510  310.10700  184.34280   59.07430    0.14680    3.03250    0.27730    2.64230    0.03610 1792.64970 2439.88060 2463.97210    0.77980
 3774.00000    8.01480    7.90520    7.94140    0.01330    0.01080   51.86190   93.07870   46.03740   36.66040  389.74950  218.73870   98.43010    0.12360    3.04350    0.27730    2.65830    0.03000 1787.79960 2439.82190 2465.27450    0.77980
 3774.50000    8.01420    7.90030    7.94450    0.00740    0.01160   50.79810   91.62260   44.67570   34.93230  469.39200  339.52140  125.48210    0.12300    3.08190    0.27870    2.67430    0.02540 1782.94950 2439.76310 2466.57680    0.77980
