~Version ---------------------------------------------------
VERS.   2.0 : CWLS log ASCII Standard -VERSION 2.0
WRAP.    NO : One line per depth step
DLM . SPACE : Column Data Section Delimiter
~Well ------------------------------------------------------
STRT .FT                 178.0 : START DEPTH
STOP .FT                4994.0 : STOP DEPTH
STEP .FT                   0.5 : STEP
NULL .                -9999.25 : NULL VALUE
COMP .                         : COMPANY
WELL .                         : WELL
FLD  .                         : FIELD
LOC  .                         : LOCATION
PROV .                         : PROVINCE
CNTY .                         : COUNTY
STAT .                         : STATE
CTRY .                         : COUNTRY
SRVC .                         : SERVICE COMPANY
DATE .                         : DATE
UWI  .                         : UNIQUE WELL ID
API  .                         : API NUMBER
SLAT .WGS84 1.7497207532499992 : SURFACE LATITUDE
SLON .WGS84 7.2173604501090125 : SURFACE LONGITUDE
DATUM.F                2670.35 : DEPTH DATUM ELEV
~Curve Information -----------------------------------------
DEPT   .FT    : 
CAL1R  .IN    : CALIPER 1 FROM RESISTIVITY LOG
CALD   .IN    : CALIPER FROM DENSITY LOG
CALSR  .IN    : MICRO RESISTIVITY CALIPER FROM RESISTIVITY
DPHI_LS.DEC   : DENSITY POROSITY LIMESTONE
DRHO   .G/C3  : BULK DENSITY CORRECTION
DTCO   .US/F  : DELTA-T COMPRESSIONAL
DTSM   .US/F  : DELTA-T SHEAR
GRD    .GAPI  : GAMMA RAY FROM DENSITY LOG
GRS    .GAPI  : GAMMA RAY FROM SONIC LOG
LLD    .OHMM  : LATEROLOG DEEP RESISTIVITY
LLS    .OHMM  : LATEROLOG SHALLOW RESISTIVITY
MSFL   .OHMM  : MICRO SPHERICALLY FOCUSED RESISTIVITY
NPHI_LS.DEC   : NEUTRON POROSITY LIMESTONE
PEF    .B/E   : PHOTOELECTRIC FACTOR
PR     .N/A   : POISSON'S RATIO
RHOB   .G/C3  : BULK DENSITY
SPHI_LS.DEC   : SONIC POROSITY [LIMESTONE]
TEND   .LBF   : TENSION FROM DENSITY LOG
TENR   .LBF   : TENSION FROM RESISTIVITY LOG
TENS   .LB    : TENSION FROM SONIC LOG
VPVS   .N/A   : COMPRESSIONAL TO SHEAR VELOCITY RATIO
~Params ----------------------------------------------------
~Other -----------------------------------------------------
~ASCII -----------------------------------------------------
# ...
 4352.50000    7.78020    7.75140    7.68020    0.05380    0.00020   66.82430  116.48040   75.58450   69.70020   13.98570   15.41760   16.47740    0.20310    3.06240    0.24780    2.62320    0.14970 1990.55980 2615.31610 2622.28900    0.72310
 4353.00000    7.78020    7.75140    7.67290    0.04200    0.00040   63.73710  113.36320   58.86070   59.68030   14.54500   16.45280    9.15430    0.18620    3.24180    0.26090    2.66620    0.12710 1991.07310 2613.31960 2622.28900    0.72310
 4353.50000    7.78020    7.75140    7.65470    0.03010    0.00070   61.32540  110.24610   50.37690   50.96050   15.81520   17.48800   11.43080    0.16930    3.34380    0.26600    2.68010    0.10680 1991.58640 2599.36800 2622.28900    0.72310
 4354.00000    7.78020    7.75140    7.64380    0.01910    0.00410   59.92680  107.12890   47.20000   47.35150   17.08280   19.86190   20.26010    0.16010    3.43650    0.26800    2.70640    0.09340 1992.09970 2599.36800 2622.28900    0.72310
 4354.50000    7.77750    7.75140    7.64560    0.00480    0.00650   58.52820  104.01170   45.10060   44.22450   20.26500   41.05970   26.74450    0.14600    3.29450    0.26710    2.73870    0.07820 1992.61300 2599.36800 2622.28900    0.72310
 4355.00000    7.76410    7.75140    7.64780   -0.00670    0.00890   56.90740  100.89460   42.51780   39.74710   52.80440   74.26040   41.32320    0.13190    3.28710    0.26890    2.75170    0.06370 1993.12630 2599.36800 2622.28900    0.72310
 4355.50000    7.75080    7.75140    7.65000   -0.02260    0.00990   54.31580   97.83550   39.00850   34.44030  105.58410  107.46120   74.04000    0.11770    3.27970    0.27120    2.75170    0.05090 1993.63960 2599.36800 2624.48050    0.72310
 4356.00000    7.73740    7.75140    7.65220   -0.02860    0.00860   53.65540   96.06420   35.83860   29.60170  158.36380  140.66190  407.56410    0.10300    3.30620    0.26850    2.75170    0.04180 1994.15290 2599.36800 2630.71840    0.72310
 4356.50000    7.73470    7.75140    7.65440   -0.02680    0.00740   53.34000   93.78940   35.84380   26.02170  211.14350  173.86260  202.19550    0.08840    3.43570    0.26270    2.75050    0.03930 1994.66620 2599.36800 2623.81750    0.72310
 4357.00000    7.77110    7.75520    7.65660   -0.02310    0.00610   53.34970   93.15830   36.63840   26.31240  226.77520  183.59420  576.08460    0.07640    3.52400    0.26240    2.74760    0.03900 1995.17950 2603.34260 2639.37290    0.72310
 4357.50000    7.80750    7.75520    7.65890   -0.02340    0.00480   53.70810   93.59470   37.03910   28.32400  223.10190  181.64230  391.38740    0.07610    3.58540    0.26350    2.74480    0.04220 1995.69280 2613.27920 2622.03400    0.72310
 4358.00000    7.80750    7.75520    7.66110   -0.02220    0.00650   54.82610   94.38960   36.22660   27.32510  189.42590  144.40210  112.81620    0.07730    3.53080    0.26500    2.73790    0.04560 1996.20610 2615.62780 2622.43250    0.72310
 4358.50000    7.78280    7.75520    7.65990   -0.01800    0.00790   55.33130   95.72000   35.45240   26.05670  138.30910  102.83580   76.85300    0.08250    3.46650    0.26520    2.73220    0.05090 1996.71940 2606.59460 2627.03100    0.72310
 4359.00000    7.74380    7.75520    7.65650   -0.01450    0.00920   55.83950   96.74450   35.05550   27.97860   96.34440   80.77820   82.65140    0.08810    3.39820    0.26520    2.73220    0.05620 1997.23270 2600.88920 2631.62950    0.72310
 4359.50000    7.73470    7.75520    7.65320   -0.01780    0.01090   56.42280   96.97580   36.45290   31.45750   82.93000   74.63300   81.27910    0.09380    3.33570    0.26430    2.73220    0.06170 1997.74610 2608.49530 2636.22800    0.72310
 4360.00000    7.73520    7.75520    7.64980   -0.02080    0.01260   57.11420   97.20710   38.86800   34.64700   73.42230   68.04980   64.26660    0.09700    3.24660    0.26020    2.73380    0.06730 1998.25940 2609.57920 2640.82650    0.72310
 4360.50000    7.73740    7.75520    7.64640   -0.02710    0.01330   57.68880   97.43840   40.93790   36.16370   64.37390   60.43470   52.29710    0.09730    3.22900    0.25840    2.75400    0.07030 1998.77270 2599.57750 2669.80030    0.71770
 4361.00000    7.73960    7.75520    7.64300   -0.02950    0.01020   57.79550   97.66970   42.36470   37.23890   60.09520   53.77820   42.18180    0.10000    3.29010    0.25700    2.75400    0.07200 1999.28600 2599.57750 2645.92130    0.71760
 4361.50000    7.74180    7.75520    7.63960   -0.02450    0.00900   57.90230   97.90100   45.22960   40.47750   60.33670   52.02630   47.64550    0.10890    3.31080    0.25470    2.75400    0.07260 1999.79930 2599.57750 2641.14540    0.71740
 4362.00000    7.74400    7.75520    7.63620   -0.01600    0.00670   57.96590   98.13230   48.77350   43.42170   60.73150   50.89850   51.58170    0.11870    3.29810    0.25030    2.74160    0.07270 2000.31260 2599.57750 2641.14540    0.71730
 4362.50000    7.74620    7.75520    7.63280   -0.01510    0.00450   57.90960   98.36360   50.74490   43.69050   60.82450   49.79000   50.74010    0.12090    3.21940    0.24930    2.73080    0.07270 2000.82590 2599.57750 2641.14540    0.71710
 4363.00000    7.74840    7.75520    7.62940   -0.01640    0.00310   58.29700   99.91200   53.37470   44.58660   60.62090   49.80840   42.94500    0.10220    3.10570    0.25080    2.73080    0.07350 2001.33920 2607.69730 2641.14540    0.71700
 4363.50000    7.75060    7.75520    7.62600   -0.01110    0.00170   59.30440  101.97430   61.83690   47.45400   59.19190   49.27310   63.80340    0.09360    3.00790    0.25600    2.72850    0.08530 2001.85250 2615.17560 2641.14540    0.71690
 4364.00000    7.75290    7.75520    7.62270    0.01270   -0.00200   62.22910  104.76690   73.71710   59.79960   54.18950   44.30690   64.89890    0.09540    3.01820    0.25730    2.72330    0.10020 2002.36580 2610.40090 2641.14540    0.71670
 4364.50000    7.75290    7.75520    7.61930    0.03640   -0.00730   64.57550  107.55950   85.59720   70.40790   47.92840   37.83160   29.92350    0.12820    3.05720    0.25490    2.68310    0.11510 2002.57170 2602.66990 2641.14540    0.71660
 4365.00000    7.75290    7.75520    7.61590    0.04620   -0.00850   65.07930  110.13720   92.77750   75.85890   41.43980   33.20280   65.67150    0.16140    3.09610    0.25370    2.64300    0.12200 2001.54810 2604.44940 2639.27870    0.71640
 4365.50000    7.75290    7.75520    7.61250    0.04440   -0.00440   64.82610  110.41180   93.02720   75.50050   33.57160   29.21660   49.30170    0.18440    3.13500    0.25430    2.63420    0.12170 2000.52450 2612.56920 2629.94480    0.71630
 4366.00000    7.75290    7.75520    7.60910    0.03720   -0.00030   63.45810  109.25960   72.95730   60.14810   27.40030   22.41100   23.72040    0.18960    3.17400    0.25710    2.63420    0.11010 1999.50080 2620.68900 2638.90530    0.71610
 4366.50000    7.76200    7.75520    7.60570    0.03150    0.00370   62.09010  108.33390   56.75430   50.14210   21.22900   15.60540   11.81090    0.17770    3.19520    0.26100    2.64150    0.10330 1998.47720 2615.49230 2641.14540    0.71600
 4367.00000    7.76200    7.75520    7.60230    0.02790    0.00360   61.80070  108.38330   48.98070   42.45100   15.05770   13.25130   11.68250    0.16440    3.15570    0.26530    2.64870    0.09970 1997.45360 2604.12460 2641.14540    0.71580
 4367.50000    7.76200    7.75520    7.59890    0.02530    0.00130   61.83420  108.67160   47.46090   40.46470   13.91330   12.60900   12.08280    0.16210    3.11610    0.26560    2.65590    0.09970 1996.43000 2599.57750 2641.14540    0.71570
 4368.00000    7.76340    7.75520    7.59830    0.02700    0.00460   62.11900  109.28190   51.35140   43.74650   13.25240   12.33090   10.33900    0.16680    3.06190    0.26360    2.66310    0.10460 1995.40630 2599.57750 2641.14540    0.71550
 4368.50000    7.76530    7.71690    7.59830    0.02910    0.00680   62.83550  109.46280   55.31420   46.28910   13.03590   12.33360   10.75270    0.17020    3.06110    0.26290    2.66300    0.10810 1994.38270 2599.57750 2641.14540    0.71540
