~Version ---------------------------------------------------
VERS.   2.0 : CWLS log ASCII Standard -VERSION 2.0
WRAP.    NO : One line per depth step
DLM . SPACE : Column Data Section Delimiter
~Well ------------------------------------------------------
STRT .FT                 178.0 : START DEPTH
STOP .FT                4994.0 : STOP DEPTH
STEP .FT                   0.5 : STEP
NULL .                -9999.25 : NULL VALUE
COMP .                         : COMPANY
WELL .                         : WELL
FLD  .                         : FIELD
LOC  .                         : LOCATION
PROV .                         : PROVINCE
CNTY .                         : COUNTY
STAT .                         : STATE
CTRY .                         : COUNTRY
SRVC .                         : SERVICE COMPANY
DATE .                         : DATE
UWI  .                         : UNIQUE WELL ID
API  .                         : API NUMBER
SLAT .WGS84 1.7497207532499992 : SURFACE LATITUDE
SLON .WGS84 7.2173604501090125 : SURFACE LONGITUDE
DATUM.F                2670.35 : DEPTH DATUM ELEV
~Curve Information -----------------------------------------
DEPT   .FT    : 
CAL1R  .IN    : CALIPER 1 FROM RESISTIVITY LOG
CALD   .IN    : CALIPER FROM DENSITY LOG
CALSR  .IN    : MICRO RESISTIVITY CALIPER FROM RESISTIVITY
DPHI_LS.DEC   : DENSITY POROSITY LIMESTONE
DRHO   .G/C3  : BULK DENSITY CORRECTION
DTCO   .US/F  : DELTA-T COMPRESSIONAL
DTSM   .US/F  : DELTA-T SHEAR
GRD    .GAPI  : GAMMA RAY FROM DENSITY LOG
GRS    .GAPI  : GAMMA RAY FROM SONIC LOG
LLD    .OHMM  : LATEROLOG DEEP RESISTIVITY
LLS    .OHMM  : LATEROLOG SHALLOW RESISTIVITY
MSFL   .OHMM  : MICRO SPHERICALLY FOCUSED RESISTIVITY
NPHI_LS.DEC   : NEUTRON POROSITY LIMESTONE
PEF    .B/E   : PHOTOELECTRIC FACTOR
PR     .N/A   : POISSON'S RATIO
RHOB   .G/C3  : BULK DENSITY
SPHI_LS.DEC   : SONIC POROSITY [LIMESTONE]
TEND   .LBF   : TENSION FROM DENSITY LOG
TENR   .LBF   : TENSION FROM RESISTIVITY LOG
TENS   .LB    : TENSION FROM SONIC LOG
VPVS   .N/A   : COMPRESSIONAL TO SHEAR VELOCITY RATIO
~Params ----------------------------------------------------
~Other -----------------------------------------------------
~ASCII -----------------------------------------------------
# ...
 4748.50000    7.31230    7.77650    7.24130   -0.07000    0.01460   47.06750   86.24770   28.95640   24.01750 3684.74960 1147.99770 1708.95210    0.03400    3.54300    0.28690    2.80870   -0.00030 2191.59060 2819.64650 2825.97610    0.66210
 4749.00000    7.31320    7.77250    7.23960   -0.08280    0.01460   46.50200   85.18880   26.95470   25.00760 5054.02210 1286.57920 1708.24800    0.02610    3.42530    0.28390    2.84080   -0.00830 2216.86460 2817.64250 2802.79700    0.66360
 4749.50000    7.31420    7.76840    7.23790   -0.08180    0.01370   46.02860   83.77650   29.31350   30.02760 5109.06320 1286.05250 1335.34360    0.02640    3.30760    0.28040    2.84080   -0.00950 2232.02910 2815.63860 2805.08220    0.66370
 4750.00000    7.31510    7.76430    7.23620   -0.07150    0.01320   46.50040   83.47770   33.61820   34.13730 3183.47860 1083.34320  832.49970    0.02850    3.18990    0.27710    2.84080   -0.01020 2239.10500 2813.63460 2807.36740    0.66150
 4750.50000    7.31600    7.76030    7.23470   -0.06110    0.01310   47.59070   84.25790   36.36090   35.41310 2016.87880  792.98880  329.65570    0.03480    3.07370    0.27390    2.76490   -0.00660 2231.59130 2811.63070 2809.65260    0.65770
 4751.00000    7.31560    7.75620    7.22470   -0.05070    0.01300   48.41170   86.10570   36.30670   32.55830  916.90070  502.63440  171.60940    0.05480    3.05840    0.27290    2.72270    0.00530 2203.28650 2809.62680 2811.93780    0.65660
 4751.50000    7.31010    7.75210    7.20300   -0.02070    0.01000   49.51930   89.22470   34.84070   29.88380  391.14060  212.28000   96.49930    0.08760    3.04300    0.27490    2.67760    0.01620 2161.12090 2807.62280 2814.22300    0.65540
 4752.00000    7.27120    7.74930    7.17610    0.01540    0.00560   51.84650   91.40050   33.55290   27.21120  171.01830   92.45320   21.38930    0.11840    3.02770    0.27650    2.63250    0.02710 2134.98810 2805.61890 2816.50830    0.65430
 4752.50000    7.22940    7.74950    7.14920    0.03860    0.00240   52.88320   93.68050   27.24990   24.77610  172.87180   88.39880   10.63470    0.15090    2.93200    0.27440    2.63250    0.03630 2151.30580 2803.61500 2818.79350    0.65320
 4753.00000    7.19400    7.74950    7.11890    0.04950    0.00120   53.12480   93.98650   23.97740   22.40030  208.49560   88.85770   21.39440    0.16420    2.91270    0.27500    2.63080    0.03900 2172.20380 2803.47670 2810.09860    0.65200
 4753.50000    7.20670    7.74950    7.11130    0.04190    0.00440   52.67090   94.29240   27.47060   20.37300  242.18490  115.39420   25.83690    0.15900    3.00930    0.27790    2.63220    0.03720 2203.47130 2810.80090 2815.31760    0.65090
 4754.00000    7.23810    7.74950    7.15060    0.03720    0.00760   52.04820   93.87330   25.27520   18.66230  275.87410  124.90480   14.48330    0.15080    3.22510    0.28040    2.64710    0.03150 2220.05270 2818.12520 2818.03800    0.64970
 4754.50000    7.27840    7.74950    7.20170    0.03440    0.01080   51.85790   93.17540   21.80740   18.49840  306.08770  130.27740   37.06190    0.14880    3.40660    0.28220    2.65420    0.02940 2252.79360 2825.44940 2818.29020    0.64900
 4755.00000    7.32950    7.74950    7.25280    0.03240    0.01320   51.41470   92.70920   22.93360   19.71560  332.77570  143.84600   22.27220    0.14820    3.59240    0.28180    2.66950    0.02730 2271.87700 2832.77370 2834.45810    0.64670
 4755.50000    7.38060    7.74950    7.30390    0.02330    0.01930   51.06110   92.48190   25.50150   20.94510  371.62850  156.69190  174.12600    0.14130    3.52560    0.28140    2.67580    0.02420 2239.47320 2840.09790 2854.60490    0.64360
 4756.00000    7.43160    7.74950    7.34330    0.01190    0.02170   50.88200   91.51390   27.09630   21.13650  399.30770  171.11710  336.77010    0.12500    3.42290    0.28100    2.68650    0.02180 2192.88500 2840.10370 2858.04000    0.64200
 4756.50000    7.44250    7.74950    7.34240    0.00200    0.02560   51.01890   91.12580   26.31350   20.38330  403.61560  190.94050  188.78950    0.11580    3.32020    0.27950    2.69930    0.02250 2151.72960 2829.13180 2851.17650    0.64040
 4757.00000    7.41890    7.74950    7.30420    0.00370    0.02760   51.31880   91.62530   25.89180   18.80400  348.62550  189.80820  148.04050    0.12520    3.21750    0.27710    2.70720    0.02530 2132.30520 2828.15540 2848.09140    0.63950
 4757.50000    7.34060    7.74950    7.26800    0.01080    0.02500   51.68400   92.73240   25.38470   17.41380  293.63550  125.88530   15.18990    0.13700    3.11480    0.27710    2.69880    0.02940 2116.28930 2846.00770 2840.85900    0.64170
 4758.00000    7.28510    7.74950    7.23170    0.01930    0.01690   52.54080   93.31530   25.41750   17.10510  238.64540  111.93080   18.75890    0.14880    3.09730    0.27950    2.68520    0.03430 2160.31350 2840.98590 2833.62650    0.64390
 4758.50000    7.27560    7.74950    7.20260    0.02020    0.01500   52.55450   93.47310   26.22450   16.90290  205.61950  104.57330   22.40410    0.14810    3.10520    0.27950    2.67600    0.03620 2247.99650 2825.72410 2826.39410    0.64610
 4759.00000    7.27430    7.74950    7.20760    0.01380    0.01180   52.30250   93.44200   26.57660   16.82780  212.52180  105.11710   18.43530    0.13990    3.14970    0.27700    2.68150    0.03530 2291.10770 2810.46230 2819.16170    0.64830
 4759.50000    7.27350    7.74950    7.22070    0.00650    0.01180   51.78960   92.74850   25.67430   17.10880  241.50580  118.32650   20.16220    0.13010    3.20480    0.27650    2.69640    0.03100 2274.52490 2793.31800 2817.52310    0.65050
 4760.00000    7.27530    7.74950    7.22870   -0.00700    0.01180   51.07320   92.16290   24.66420   18.22510  275.79560  129.03330   52.51020    0.10470    3.24770    0.27880    2.71350    0.02710 2245.56620 2810.94910 2817.33170    0.65270
 4760.50000    7.28770    7.74950    7.23660   -0.02330    0.01270   50.79400   91.45400   23.65410   19.25030  416.70250  165.54840  145.82690    0.09790    3.28760    0.28100    2.73070    0.02370 2198.04370 2832.76250 2842.86650    0.65490
 4761.00000    7.30020    7.74950    7.24450   -0.02610    0.01320   50.31630   90.96380   23.63360   19.78800  557.60930  221.55530   47.16210    0.10070    3.33950    0.28310    2.74210    0.02010 2150.52110 2866.79850 2848.46680    0.65710
 4761.50000    7.31270    7.74950    7.25250   -0.02100    0.01100   49.36160   90.55510   24.72510   20.93290  645.82730  250.25700   14.59220    0.10390    3.42360    0.28740    2.74810    0.01380 2141.01660 2870.21650 2854.06710    0.65930
 4762.00000    7.32520    7.74950    7.26040   -0.02550    0.00910   48.91830   89.62510   23.81470   22.02810 2086.41610  305.20740 1013.45950    0.09420    3.47970    0.29210    2.74850    0.00700 2186.74430 2831.47830 2859.21330    0.66150
 4762.50000    7.33770    7.74950    7.26180   -0.03580    0.01030   47.70650   87.33940   22.26730   22.11770 1944.76670  463.25300 1649.24510    0.07070    3.49090    0.29270    2.76360    0.00100 2216.25900 2778.95250 2820.99520    0.66370
 4763.00000    7.35020    7.74950    7.28370   -0.05040    0.01010   46.91830   85.33770   21.99390   22.24570 1976.54200  617.31690 1949.19140    0.04710    3.38950    0.28870    2.79310   -0.00340 2205.95840 2800.36780 2798.06430    0.66590
 4763.50000    7.36270    7.74950    7.30410   -0.05500    0.00850   46.39020   84.92850   23.08530   22.56570 2476.09200  755.45400 1549.47850    0.04220    3.33190    0.28610    2.79360   -0.00750 2218.72480 2852.85400 2822.06550    0.66570
 4764.00000    7.37520    7.74950    7.32450   -0.05340    0.00600   46.26220   84.51930   25.34410   23.48730 2508.58480  866.01020  312.89960    0.03710    3.18210    0.28620    2.79400   -0.01000 2215.34340 2881.20220 2854.06710    0.66520
 4764.50000    7.40850    7.78890    7.34490   -0.05450    0.00150   46.29580   84.11020   30.27040   24.51140 2435.45270  899.43440  596.43420    0.03270    3.09840    0.28660    2.79440   -0.01140 2197.53780 2772.16060 2863.97450    0.66470
