~Version ---------------------------------------------------
VERS.   2.0 : CWLS log ASCII Standard -VERSION 2.0
WRAP.    NO : One line per depth step
DLM . SPACE : Column Data Section Delimiter
~Well ------------------------------------------------------
STRT .F                   38.0 : START DEPTH
STOP .F                 5502.0 : STOP DEPTH
STEP .F                    0.5 : STEP
NULL .                -9999.25 : NULL VALUE
COMP .                         : COMPANY
WELL .                         : WELL
FLD  .                         : FIELD
LOC  .                         : LOCATION
PROV .                         : PROVINCE
CNTY .                         : COUNTY
STAT .                         : STATE
CTRY .                         : COUNTRY
SRVC .                         : SERVICE COMPANY
DATE .                         : DATE
UWI  .                         : UNIQUE WELL ID
API  .                         : API NUMBER
SLAT .WGS84    1.2915234988875 : SURFACE LATITUDE
SLON .WGS84 7.3264640520940105 : SURFACE LONGITUDE
DATUM.F                2565.58 : DEPTH DATUM ELEV
~Curve Information -----------------------------------------
DEPT.F     : 
PEF .B/E   : PHOTOELECTRIC FACTOR
NPHI.DEC   : NEUTRON POROSITY LIMESTONE
DPHI.DEC   : DENSITY POROSITY SANDSTONE
RHOB.G/C3  : BULK DENSITY
DRHO.G/C3  : DENSITY CORRECTION
DTCO.US/F  : COMPRESSIONAL-WAVE INTERVAL TRANSIT TIME ACOUSTIC SLOWNESS
DTSM.US/F  : INTERVAL TRANSIT TIME FROM TRANSMITTER ARRAY
DTST.US/F  : DELTA T STONELEY WAVE SLOWNESS
GRS .GAPI  : GAMMA RAY FROM SONIC LOG
CALR.IN    : CALIPER FROM RESISTIVITY
MSFL.OHMM  : MICRO SPHERICALLY FOCUSED
LLD .OHMM  : LATEROLOG LOG DEEP
LLS .OHMM  : LATEROLOG LOG SHALLOW
~Params ----------------------------------------------------
~Other -----------------------------------------------------
~ASCII -----------------------------------------------------
# ...
 3418.00000    3.12650    0.07550   -0.04950    2.74110    0.07650   42.74320   91.17410  193.64370   47.64170    8.76130   28.64740  400.90020  129.88330
 3418.50000    3.24790    0.07430   -0.03560    2.75790    0.05430   42.83170   91.21460  193.55010   44.64750    8.74100  307.16890  402.58070  142.21900
 3419.00000    3.27610    0.07310   -0.01310    2.77540    0.04010   42.92020   91.21460  193.42110   38.90170    8.72110  110.66590  385.86770  159.38170
 3419.50000    3.42570    0.07200   -0.01530    2.78060    0.05800   42.97570   90.20240  193.29200   33.18920    8.70010   36.91080  370.61700  158.01710
 3420.00000    3.38100    0.07090   -0.02790    2.74700    0.08570   42.79350   89.40830  193.16300   28.43160    8.68130   89.91390  355.96910  151.67250
 3420.50000    3.33100    0.06710   -0.04540    2.73250    0.11070   42.60770   88.61410  193.03390   27.14410    8.68610   59.68690  341.90010  145.65250
 3421.00000    3.26990    0.06510   -0.04210    2.74900    0.10420   42.42190   87.82000  192.90490   25.72700    8.64730  312.45290  328.38710  139.85850
 3421.50000    3.21310    0.06790   -0.02830    2.76170    0.09660   42.23600   87.02580  192.77580   25.08460    8.64270 1223.91240  322.30980  137.22960
 3422.00000    3.15630    0.07070   -0.00910    2.77570    0.08740   42.05020   86.76110  192.64680   25.20850    8.64010  213.88530  326.67950  140.22750
 3422.50000    3.09330    0.06660   -0.01680    2.78630    0.09060   41.88260   86.76110  192.51770   26.56300    8.64000   78.81400  373.58680  150.49410
 3423.00000    3.09660    0.05830   -0.02930    2.72540    0.10390   41.97980   87.32790  192.42920   29.01120    8.64280 1246.80520  463.12480  176.10210
 3423.50000    3.16670    0.05310   -0.04190    2.73380    0.11650   42.28950   87.84410  192.76570   33.57040    8.64740  386.44320  561.98170  215.46010
 3424.00000    3.23170    0.05310   -0.05600    2.74910    0.13220   42.61130   88.36030  192.63660   36.54630    8.68490   32.70830  663.98270  343.10180
 3424.50000    3.29590    0.04910   -0.06010    2.76610    0.12780   42.73280   88.78540  192.50760   33.67510    8.69400  553.87930 1467.98000  594.59830
 3425.00000    3.31330    0.04090   -0.06490    2.78070    0.11950   42.51420   88.44280  192.02430   28.66170    8.75120 1899.60440 3178.60990 1030.76540
 3425.50000    3.31430    0.03280   -0.07210    2.79610    0.11100   42.32830   87.56930  192.02430   24.21070    8.80240 1676.07740 6251.72410 1709.77090
 3426.00000    3.31460    0.02570   -0.06950    2.81180    0.10270   42.14250   86.69570  191.61940   19.93030    8.87190 1704.04250 8727.08110 1843.83590
 3426.50000    3.34880    0.02640   -0.06420    2.82390    0.09420   41.95670   85.82220  191.61940   19.70340    8.91460 1720.85720 8890.31840 1808.18620
 3427.00000    3.38150    0.02820   -0.05900    2.82170    0.09190   41.77090   84.94860  192.02430   24.68670    8.89310 1878.51460 3888.32350 1772.44510
 3427.50000    3.37890    0.03010   -0.05380    2.81400    0.09550   41.71260   84.28750  192.88460   36.33850    8.85780 1718.54990 1979.71850 1222.40120
 3428.00000    3.33880    0.04750   -0.04850    2.80610    0.09900   41.96030   85.59780  193.64370   43.29900    8.81920 1806.19400  694.60980  510.22740
 3428.50000    3.31060    0.07250   -0.04300    2.79820    0.10150   42.20810   88.33260  199.24810   46.96940    8.78330   50.51780  334.47990  253.30610
 3429.00000    3.24050    0.07250   -0.04860    2.79040    0.10630   42.45590   89.50640  204.26260   40.93040    8.74700  275.48910  342.38200  253.30610
 3429.50000    3.16220    0.05870   -0.05490    2.78220    0.11160   42.61130   90.78340  208.17810   34.14350    8.70990 1568.90770  417.00830  380.65100
 3430.00000    3.07360    0.04660   -0.06110    2.77970    0.11680   42.57760   90.35980  209.83810   29.26590    8.67390  830.11570  605.22280  552.04650
 3430.50000    3.05460    0.03620   -0.06740    2.78020    0.12510   42.40550   88.13640  205.45110   26.28520    8.64210  187.40470  979.87540  755.95300
 3431.00000    3.03380    0.04930   -0.06760    2.79690    0.13630   42.23350   85.55840  199.99420   24.76240    8.64820   73.18300  944.22230  689.05410
 3431.50000    3.01660    0.06090   -0.06400    2.82020    0.14390   42.06140   85.14170  194.85830   24.24790    8.65650  125.25950  596.64790  442.97790
 3432.00000    2.99970    0.07250   -0.05170    2.82080    0.14390   42.00410   85.14170  193.69430   23.61880    8.66570   27.91900  339.83240  258.74650
 3432.50000    2.96420    0.08380   -0.03780    2.80460    0.12910   41.98890   85.54660  192.40390   23.54470    8.67470   43.94890  253.30610  195.42030
 3433.00000    2.90160    0.07700   -0.02870    2.78680    0.11820   41.95790   86.12490  192.02430   23.52390    8.68360  182.54870  304.44420  244.63290
 3433.50000    2.84570    0.07030   -0.03230    2.76870    0.11250   41.92690   85.38750  192.02430   23.03140    8.69250  180.34070  359.28280  331.02670
 3434.00000    2.79170    0.06120   -0.03600    2.75550    0.10980   41.89600   84.65010  192.02430   23.25120    8.70150   89.73080  395.18880  380.80980
 3434.50000    2.88340    0.06540   -0.03970    2.75760    0.11510   41.88260   83.92710  192.02430   25.04980    8.71050  310.58240  351.85900  345.86390
 3435.00000    2.97600    0.07190   -0.04220    2.76310    0.12020   42.55930   87.08500  194.85830   35.46740    8.71940   46.90850  297.43880  292.86250
 3435.50000    3.07200    0.09840   -0.03330    2.76900    0.12590   43.13450   91.11130  198.47170   53.88620    8.72840  245.30930  251.43540  248.78040
 3436.00000    3.19920    0.13080   -0.01110    2.77630    0.11520   43.46150   95.13760  200.93120   78.85810    8.73730   48.31950  230.88950  213.58020
 3436.50000    3.32450    0.14690    0.01110    2.76780    0.09070   43.87540   99.71660  199.71660   93.63610    8.74620  117.94570  248.65510  227.57440
 3437.00000    3.37700    0.11110    0.01600    2.74720    0.07910   44.27360   98.52410  197.83950   80.22270    8.75530  504.38760  351.15990  324.89890
 3437.50000    3.38050    0.08010   -0.02850    2.72720    0.08450   44.55470   95.99010  195.96250   67.49080    8.76430  316.01180  492.24000  460.24010
 3438.00000    3.32350    0.05390   -0.03770    2.70940    0.08780   44.10730   93.45600  194.08540   55.17180    8.77250  399.01880  689.99970  651.80850
 3438.50000    3.27030    0.05140   -0.04790    2.68900    0.09060   43.22980   90.92200  192.83400   41.61670    8.78260  580.54580  864.41870  833.65140
 3439.00000    3.21950    0.04990   -0.05840    2.70920    0.08440   42.48990   88.78540  192.83400   39.25780    8.79220  393.14350  876.76070  881.02940
 3439.50000    3.15820    0.05070   -0.05310    2.73230    0.07930   42.34780   87.83000  194.04860   37.19740    8.79510  277.89910  966.09970  944.12670
 3440.00000    3.09680    0.05470   -0.04330    2.75720    0.07910   42.16190   86.96360  194.04860   37.15420    8.83470  316.39180 1075.00950 1039.72530
 3440.50000    2.95260    0.06860   -0.03350    2.78150    0.07930   42.20400   86.76110  194.04860   40.79240    8.80890  184.16840  996.35550  836.83440
 3441.00000    2.99430    0.08190   -0.02530    2.79660    0.07510   42.39460   88.51550  194.04860   46.97580    8.77850  410.11080  611.93320  554.78810
 3441.50000    3.02310    0.09530   -0.01940    2.78410    0.06710   42.58520   90.23620  194.04860   61.34800    8.74160  249.43970  334.47990  321.85910
 3442.00000    3.05540    0.10970   -0.01390    2.77200    0.05890   42.77580   91.95680  193.64370   72.73370    8.72040   88.08320  340.73620  322.59880
 3442.50000    3.09320    0.09360   -0.01610    2.75950    0.05040   42.96640   94.45340  193.58750   68.13410    8.72310 1806.19400  395.92180  363.63940
 3443.00000    3.09240    0.07600   -0.02020    2.74680    0.05000   43.21860   94.45340  193.45680   57.61690    8.76820 1076.47140  449.92760  417.78180
 3443.50000    3.02950    0.06490   -0.02420    2.73370    0.05930   43.21860   94.04860  193.34220   46.74700    8.82340  399.45940  972.72880  712.20680
