~Version ---------------------------------------------------
VERS.   2.0 : CWLS log ASCII Standard -VERSION 2.0
WRAP.    NO : One line per depth step
DLM . SPACE : Column Data Section Delimiter
~Well ------------------------------------------------------
STRT .F                   38.0 : START DEPTH
STOP .F                 5502.0 : STOP DEPTH
STEP .F                    0.5 : STEP
NULL .                -9999.25 : NULL VALUE
COMP .                         : COMPANY
WELL .                         : WELL
FLD  .                         : FIELD
LOC  .                         : LOCATION
PROV .                         : PROVINCE
CNTY .                         : COUNTY
STAT .                         : STATE
CTRY .                         : COUNTRY
SRVC .                         : SERVICE COMPANY
DATE .                         : DATE
UWI  .                         : UNIQUE WELL ID
API  .                         : API NUMBER
SLAT .WGS84    1.2915234988875 : SURFACE LATITUDE
SLON .WGS84 7.3264640520940105 : SURFACE LONGITUDE
DATUM.F                2565.58 : DEPTH DATUM ELEV
~Curve Information -----------------------------------------
DEPT.F     : 
PEF .B/E   : PHOTOELECTRIC FACTOR
NPHI.DEC   : NEUTRON POROSITY LIMESTONE
DPHI.DEC   : DENSITY POROSITY SANDSTONE
RHOB.G/C3  : BULK DENSITY
DRHO.G/C3  : DENSITY CORRECTION
DTCO.US/F  : COMPRESSIONAL-WAVE INTERVAL TRANSIT TIME ACOUSTIC SLOWNESS
DTSM.US/F  : INTERVAL TRANSIT TIME FROM TRANSMITTER ARRAY
DTST.US/F  : DELTA T STONELEY WAVE SLOWNESS
GRS .GAPI  : GAMMA RAY FROM SONIC LOG
CALR.IN    : CALIPER FROM RESISTIVITY
MSFL.OHMM  : MICRO SPHERICALLY FOCUSED
LLD .OHMM  : LATEROLOG LOG DEEP
LLS .OHMM  : LATEROLOG LOG SHALLOW
~Params ----------------------------------------------------
~Other -----------------------------------------------------
~ASCII -----------------------------------------------------
# ...
 4042.00000    3.30370    0.02860   -0.07370    2.83680    0.08010   41.51820   82.23750  192.28270   26.97240    8.59620  327.24500  262.87080  250.19090
 4042.50000    3.16480    0.03890   -0.06410    2.82610    0.07040   41.51820   82.69460  191.64490   29.99330    8.63170 1003.76860  272.79650  269.70680
 4043.00000    3.07410    0.04590   -0.05600    2.81590    0.06080   41.51820   83.15160  191.00730   31.96640    8.61310 1322.78340  419.42190  387.35450
 4043.50000    3.10280    0.04590   -0.04950    2.80590    0.05470   41.61860   83.52230  190.37120   28.05680    8.56030 1672.92580  553.90620  663.98270
 4044.00000    3.07410    0.03740   -0.04870    2.79860    0.05590   41.72150   83.52230  190.01340   24.60550    8.52790  551.66300  677.32580  651.79110
 4044.50000    2.97950    0.02710   -0.05570    2.79310    0.05730   41.70280   83.00410  190.07000   20.43000    8.56770  663.98270  593.69680  503.46460
 4045.00000    2.95690    0.01920   -0.06230    2.79680    0.05890   41.43840   82.48990  190.12760   20.13080    8.60360  149.85730  277.18780  247.12380
 4045.50000    3.01440    0.01920   -0.06570    2.80400    0.06040   41.17400   81.90280  190.18520   21.36570    8.63850   38.97340  142.37360  135.54900
 4046.00000    3.06950    0.02970   -0.06360    2.81080    0.06540   41.03240   82.78540  190.24040   25.83460    8.62160   39.70240  125.19980  118.48570
 4046.50000    3.12370    0.04220   -0.06170    2.81740    0.07180   41.49490   83.81380  190.29090   30.05510    8.60520  126.71870  139.40560  124.51890
 4047.00000    3.14770    0.05310   -0.06080    2.81450    0.07830   41.88260   84.84210  190.33790   34.42230    8.58650  177.86250  152.85560  132.42060
 4047.50000    3.07000    0.05470   -0.06630    2.81190    0.08470   41.88260   85.95140  191.32250   35.14410    8.56890 1164.14480  168.49360  195.14890
 4048.00000    3.00570    0.04720   -0.07110    2.81050    0.08940   41.79380   85.95140  194.23620   33.12220    8.56180  468.00240  246.87210  279.78520
 4048.50000    2.94840    0.03720   -0.07600    2.81340    0.09010   41.62550   86.35630  197.28740   29.78780    8.59080  662.74280  357.10330  402.72990
 4049.00000    2.97460    0.02730   -0.08080    2.82640    0.09070   41.45730   85.46340  197.28740   26.01970    8.61520 1458.17820  516.55410  585.15030
 4049.50000    3.04640    0.02170   -0.08560    2.83920    0.09310   41.28900   84.52620  194.30360   24.21250    8.64070  139.54470  784.49710  893.16030
 4050.00000    3.25880    0.01760   -0.09050    2.85260    0.09940   41.15390   83.58900  191.61940   24.70860    8.66440  272.65230  893.16030  876.76070
 4050.50000    3.47900    0.01760   -0.09410    2.85860    0.10590   41.15390   82.65180  191.61940   25.10710    8.69180 1029.29870  581.90560  711.20190
 4051.00000    3.55460    0.02030   -0.08430    2.85820    0.10970   41.15390   82.30770  191.58360   26.59010    8.72290  351.86910  403.92600  472.38730
 4051.50000    3.37980    0.03080   -0.06960    2.85680    0.10530   41.27530   83.99930  191.44430   29.92340    8.75880  202.01150  214.69140  306.55870
 4052.00000    3.21840    0.06230   -0.05850    2.83950    0.10110   41.94090   85.98580  191.30620   36.68280    8.73330   50.66780   59.68690   61.83480
 4052.50000    3.05870    0.09280   -0.05170    2.81700    0.09690   42.56280   87.97230  191.35210   43.57340    8.71370   19.27230   58.59100   50.95170
 4053.00000    2.94560    0.08680   -0.05390    2.79280    0.09400   42.85430   89.95880  191.57660   48.23090    8.69550   61.22330   64.27950   60.30330
 4053.50000    2.95440    0.06730   -0.06050    2.79250    0.09180   42.85430   91.61940  191.68600   43.43800    8.67500  242.44720  109.06610  105.91550
 4054.00000    2.96650    0.04780   -0.07020    2.79240    0.08970   42.73280   91.21460  192.50750   36.76200    8.65470  605.22280  174.27340  174.35980
 4054.50000    2.97850    0.02810   -0.08420    2.81190    0.08480   42.42430   90.00000  194.37680   29.20170    8.63650  347.10960  278.46620  252.03840
 4055.00000    2.98300    0.02400   -0.08130    2.83010    0.07860   42.11340   88.33000  193.52690   28.26750    8.61720  448.81730  394.35270  370.88670
 4055.50000    2.96610    0.02340   -0.07650    2.84420    0.07210   41.80240   83.92710  190.87080   27.63870    8.57190  560.48250  358.00100  341.87470
 4056.00000    2.94980    0.02270   -0.07370    2.84160    0.07350   41.51820   83.52230  190.85480   27.41160    8.46190  200.07840  325.00020  308.06020
 4056.50000    2.93080    0.02300   -0.07520    2.83370    0.08050   41.51820   83.49070  190.83930   26.78770    8.36940  162.15630  310.58240  277.59030
 4057.00000    2.91630    0.02400   -0.08170    2.83140    0.08250   41.51820   83.38700  190.82680   25.78490    8.40590  325.99370  300.17050  261.89830
 4057.50000    2.91280    0.02720   -0.07730    2.83630    0.07860   41.57590   83.28340  190.92900   24.82890    8.39350  744.23060  284.93930  243.12210
 4058.00000    3.00890    0.03100   -0.06780    2.84010    0.07500   41.63970   83.17980  191.07500   23.84260    8.43290  325.69240  272.79650  225.69210
 4058.50000    3.10310    0.03520   -0.06000    2.83190    0.07110   41.63970   83.11740  191.22560   24.21080    8.45580  106.15750  241.05520  202.55940
 4059.00000    3.10800    0.04060   -0.05690    2.81800    0.07350   41.77160   83.96610  191.36380   26.16900    8.47610  131.31380  218.40340  180.34410
 4059.50000    3.11050    0.04610   -0.05370    2.80260    0.08570   41.90250   84.80820  191.51190   32.47470    8.46890  193.94740  173.94270  160.56520
 4060.00000    3.12130    0.05150   -0.05270    2.79850    0.09500   42.03350   85.65030  191.21460   40.04140    8.45530   83.33720  159.38170  142.95560
 4060.50000    3.15950    0.05700   -0.05690    2.79390    0.10650   42.16440   86.49240  191.21460   47.00420    8.44040  146.10740  153.58260  129.98920
 4061.00000    3.19510    0.06240   -0.06070    2.79440    0.09300   42.29530   87.33450  192.16600   54.19460    8.43980  367.29120  142.60960  120.70190
 4061.50000    3.22890    0.06780   -0.05300    2.80150    0.07660   42.42620   88.17660  193.02970   55.11150    8.43940  236.75400  127.72780  106.10450
 4062.00000    3.20670    0.07170   -0.04610    2.80700    0.06670   42.55710   88.78540  193.23890   48.63020    8.43940   64.60310  115.69530   94.50980
 4062.50000    3.18440    0.06060   -0.04220    2.79660    0.07350   42.61130   88.78540  192.73280   42.99830    8.43930   77.03360  104.79630   83.31980
 4063.00000    3.15960    0.05390   -0.04800    2.78720    0.08000   42.65820   88.78240  192.21460   37.04020    8.44590   48.12500  100.28390   81.79000
 4063.50000    3.13720    0.05880   -0.05290    2.78100    0.08670   42.71650   88.78780  192.02430   39.56770    8.46880  106.43940   95.97470   79.73960
 4064.00000    3.11190    0.07040   -0.05840    2.78410    0.08910   42.77480   88.79280  192.02430   47.83990    8.49130   78.48400   91.40920   77.36690
 4064.50000    3.12950    0.08060   -0.05920    2.79030    0.08840   42.83310   89.46390  192.02430   56.21560    8.51390  122.05430   88.91140   77.36690
 4065.00000    3.15070    0.07230   -0.05780    2.79600    0.08780   42.89140   90.09230  191.95780   59.92320    8.53660   75.63420   86.46590   77.36690
 4065.50000    3.17350    0.06260   -0.05590    2.80210    0.08740   42.94970   90.72210  191.88370   52.99240    8.55940   44.92380   86.46590   77.36690
 4066.00000    3.19470    0.05470   -0.05060    2.80390    0.08680   42.85430   91.25040  191.80970   47.34080    8.58200   47.21060   86.46590   77.36690
 4066.50000    3.21340    0.05780   -0.04540    2.80370    0.08630   42.65680   90.56270  191.73570   41.36410    8.60040   88.44960   92.48910   77.33810
 4067.00000    3.23150    0.06440   -0.04310    2.79730    0.08570   42.48720   88.42600  191.66170   40.94030    8.60000  112.08410  100.98440   77.39560
 4067.50000    3.24960    0.06510   -0.04080    2.78960    0.08500   42.31760   88.42710  191.61940   42.14340    8.60160   56.64520  100.33700   75.96670
