~Version ---------------------------------------------------
VERS.   2.0 : CWLS log ASCII Standard -VERSION 2.0
WRAP.    NO : One line per depth step
DLM . SPACE : Column Data Section Delimiter
~Well ------------------------------------------------------
STRT .F                   38.0 : START DEPTH
STOP .F                 5502.0 : STOP DEPTH
STEP .F                    0.5 : STEP
NULL .                -9999.25 : NULL VALUE
COMP .                         : COMPANY
WELL .                         : WELL
FLD  .                         : FIELD
LOC  .                         : LOCATION
PROV .                         : PROVINCE
CNTY .                         : COUNTY
STAT .                         : STATE
CTRY .                         : COUNTRY
SRVC .                         : SERVICE COMPANY
DATE .                         : DATE
UWI  .                         : UNIQUE WELL ID
API  .                         : API NUMBER
SLAT .WGS84    1.2915234988875 : SURFACE LATITUDE
SLON .WGS84 7.3264640520940105 : SURFACE LONGITUDE
DATUM.F                2565.58 : DEPTH DATUM ELEV
~Curve Information -----------------------------------------
DEPT.F     : 
PEF .B/E   : PHOTOELECTRIC FACTOR
NPHI.DEC   : NEUTRON POROSITY LIMESTONE
DPHI.DEC   : DENSITY POROSITY SANDSTONE
RHOB.G/C3  : BULK DENSITY
DRHO.G/C3  : DENSITY CORRECTION
DTCO.US/F  : COMPRESSIONAL-WAVE INTERVAL TRANSIT TIME ACOUSTIC SLOWNESS
DTSM.US/F  : INTERVAL TRANSIT TIME FROM TRANSMITTER ARRAY
DTST.US/F  : DELTA T STONELEY WAVE SLOWNESS
GRS .GAPI  : GAMMA RAY FROM SONIC LOG
CALR.IN    : CALIPER FROM RESISTIVITY
MSFL.OHMM  : MICRO SPHERICALLY FOCUSED
LLD .OHMM  : LATEROLOG LOG DEEP
LLS .OHMM  : LATEROLOG LOG SHALLOW
~Params ----------------------------------------------------
~Other -----------------------------------------------------
~ASCII -----------------------------------------------------
# ...
 3626.00000    3.18370    0.11540    0.01200    2.68440    0.04000   43.36880   93.11310  192.83400   34.14890    9.10170   36.86580   52.53550   46.70030
 3626.50000    3.11730    0.12320    0.01590    2.70600    0.04310   43.72730   93.83620  192.83400   31.98340    9.10870   13.55240   43.49250   37.55540
 3627.00000    3.15500    0.12830    0.00780    2.72600    0.04340   44.06880   94.55920  192.83400   34.09790    9.11570   11.25990   37.55540   34.55600
 3627.50000    3.22690    0.11900   -0.00490    2.73690    0.04020   44.00200   95.28220  192.83400   38.60540    9.12280   14.22140   36.32330   31.63500
 3628.00000    3.34750    0.10240   -0.01960    2.73920    0.03710   44.06880   96.68320  192.83400   43.55810    9.12980   25.13110   35.52440   29.51510
 3628.50000    3.53950    0.10240   -0.01610    2.71960    0.03420   44.27650   98.85980  192.83400   48.72840    9.13680   73.19430   40.74590   32.14630
 3629.00000    3.51520    0.11670   -0.00870    2.70670    0.03220   44.58380  101.04420  194.01610   65.30700    9.14390   70.55070   46.90850   46.03190
 3629.50000    3.45110    0.13800   -0.00020    2.71570    0.03540   44.89110  102.56640  196.03980   84.56450    9.15100   32.85620   46.60810   45.12260
 3630.00000    3.33250    0.14360   -0.00020    2.72890    0.03870   45.16190  102.57350  203.48700   93.96340    9.15780   16.61680   45.03450   40.37200
 3630.50000    3.33620    0.13040   -0.00780    2.73120    0.04080   45.40490  102.57890  211.67260   84.64060    9.16500   21.07560   43.55700   36.10840
 3631.00000    3.31120    0.11620   -0.01560    2.71980    0.04530   45.52630  102.17610  218.68830   71.19060    9.16520   32.98630   43.69610   32.28210
 3631.50000    3.26270    0.11710   -0.00890    2.70640    0.04980   45.22930  101.76990  219.07840   63.15840    9.16540   28.97320   44.37170   28.43880
 3632.00000    3.07930    0.13990   -0.00140    2.69290    0.05440   44.96930  100.95460  218.26060   58.43720    9.16530  152.27890   40.86880   26.48400
 3632.50000    3.06310    0.16050    0.00620    2.67940    0.04990   44.70930  100.44360  210.29800   54.79680    9.16530    4.58860   34.79150   23.23310
 3633.00000    3.13360    0.15220    0.01380    2.66590    0.03970   44.45290   99.77700  203.54930   51.09360    9.16530    5.75580   29.61780   23.59010
 3633.50000    3.13620    0.12990    0.02140    2.65510    0.02930   44.19590   99.12510  196.72070   47.50320    9.16530   12.92600   27.91900   23.23580
 3634.00000    3.11280    0.14250    0.02900    2.65650    0.02460   44.07490   98.47330  193.64370   45.72620    9.16530   45.90120   30.76380   25.46990
 3634.50000    3.14190    0.18080    0.03530    2.66270    0.03340   44.07410   98.09720  192.83400   51.62750    9.16530   28.85310   38.25780   27.45150
 3635.00000    3.17770    0.18330    0.02960    2.66940    0.04190   44.03590   98.09720  192.42920   58.79770    9.16530    6.26770   37.59510   29.51740
 3635.50000    3.22160    0.17540    0.02470    2.67370    0.05110   43.88040   97.52230  192.42920   60.22650    9.16530    7.39930   35.97110   28.01380
 3636.00000    3.17960    0.16670    0.02290    2.66920    0.05320   43.82640   97.73550  192.82080   57.63890    9.16530   13.05950   34.23180   24.97560
 3636.50000    3.12090    0.16160    0.02390    2.65950    0.04920   43.82590   98.41840  193.19320   51.64910    9.16530   23.04590   34.23180   24.98570
 3637.00000    3.08250    0.15640    0.02480    2.65030    0.04340   43.78220   98.90690  193.56570   45.68470    9.16530   16.01220   40.13640   26.64930
 3637.50000    3.07180    0.15170    0.02840    2.64100    0.03340   43.62850   98.40080  193.93820   39.97460    9.16530   23.85000   46.04720   28.89650
 3638.00000    3.07800    0.15910    0.03580    2.63150    0.02330   43.47490   97.13630  193.50810   38.46580    9.16530   35.52440   46.04720   30.62960
 3638.50000    3.08380    0.17680    0.04800    2.62730    0.02010   43.34010   95.77060  192.83400   45.56760    9.16530   34.23180   42.50450   28.84460
 3639.00000    3.08960    0.18600    0.05250    2.62690    0.02680   43.62480   94.85830  193.40890   52.95760    9.16530   17.47910   34.33530   23.47290
 3639.50000    3.09490    0.19310    0.04920    2.63600    0.03420   44.11640   98.90690  193.92110   70.02600    9.16530    6.22280   27.73620   19.10160
 3640.00000    3.10080    0.20890    0.04320    2.64770    0.03850   44.60810  103.45650  194.45340   87.54230    9.16530    6.33920   22.77030   16.61680
 3640.50000    3.10830    0.21570    0.03600    2.66000    0.03700   45.10560  107.42560  194.85830   99.44060    9.16530    9.35510   23.20480   16.01220
 3641.00000    3.09380    0.20040    0.02870    2.66570    0.03610   45.59830  111.45750  195.89800   92.61790    9.16530   13.78290   25.06910   16.89850
 3641.50000    3.05560    0.18240    0.02250    2.66480    0.03520   46.09080  109.17250  196.71740   81.20050    9.16530   18.91840   27.08320   17.95940
 3642.00000    3.03500    0.18540    0.02510    2.66410    0.03360   46.38460  106.85070  196.88260   68.56250    9.16530   15.66000   29.25910   19.08680
 3642.50000    3.06270    0.18890    0.02960    2.65090    0.03060   46.22570  104.52900  196.47770   58.08660    9.16530    9.01470   30.62960   20.37410
 3643.00000    3.08860    0.18720    0.03410    2.63930    0.02760   45.49490  102.20730  196.47770   47.07910    9.16530   11.49810   29.51510   20.37410
 3643.50000    3.13550    0.16950    0.03870    2.62650    0.02460   44.76390   99.88560  195.17410   35.72600    9.16530   10.65100   28.44120   18.74950
 3644.00000    3.24570    0.16060    0.04540    2.61370    0.02150   44.07320   97.69230  193.23890   29.13000    9.16530    7.91080   26.27250   17.00120
 3644.50000    3.24010    0.18320    0.05440    2.60630    0.01850   44.07200   96.46960  192.83400   32.60200    9.16530    6.07950   23.70020   15.41590
 3645.00000    3.19420    0.19620    0.06440    2.60550    0.01540   44.11930   96.87480  192.83400   37.43000    9.16530    4.54120   21.14340   14.32720
 3645.50000    3.14820    0.18660    0.05950    2.61930    0.01360   44.22000   98.15720  192.99820   42.25020    9.16540    4.62610   20.75520   14.77300
 3646.00000    3.10460    0.16800    0.05000    2.65900    0.01290   44.32080   99.34600  193.56720   42.72740    9.16520   52.42530   25.90180   17.30580
 3646.50000    3.05920    0.14770    0.04040    2.65450    0.01190   44.42200  100.53660  194.13630   36.06460    9.16530   51.46270   31.28740   20.85930
 3647.00000    3.01140    0.14880    0.03230    2.63870    0.01410   44.52400  101.72940  194.70540   37.82500    9.16580   29.26670   38.25780   25.44820
 3647.50000    2.99580    0.18050    0.04280    2.62480    0.01870   44.55140  102.92370  194.85830   49.64890    9.16460   16.83370   38.97340   24.98100
 3648.00000    3.02590    0.21290    0.05460    2.61120    0.02300   44.73490  104.11810  194.74660   60.14550    9.16320    9.80060   35.52440   20.37130
 3648.50000    3.05610    0.23070    0.07280    2.59640    0.02730   45.07270  105.27850  194.54170   63.63720    9.12900    5.88630   21.91330   16.05230
 3649.00000    3.07780    0.23340    0.08580    2.58420    0.02450   45.40800  106.59920  195.46440   64.28580    9.10020    7.48980   17.93520   12.58410
 3649.50000    3.09870    0.22750    0.08790    2.57040    0.02000   45.74320  107.00410  197.95200   67.40740    9.07030    4.98200   16.01220   12.69030
 3650.00000    2.98560    0.21060    0.07110    2.60570    0.01660   46.01210  108.21860  200.43960   75.52990    9.04500   15.42960   16.01220   12.81950
 3650.50000    2.91410    0.19370    0.05310    2.64050    0.02270   45.24700  106.02950  211.86240   83.46200    9.04240   12.74090   18.87560   14.15040
 3651.00000    3.00710    0.17680    0.03500    2.67670    0.02770   44.67610  103.30120  208.65590   83.89860    9.03560    7.08480   21.57720   18.34400
 3651.50000    3.09970    0.14890    0.01700    2.71300    0.03340   44.58780  100.57290  203.58880   82.77380    9.02960    7.21730   24.98100   25.61570
