~Version ---------------------------------------------------
VERS.   2.0 : CWLS log ASCII Standard -VERSION 2.0
WRAP.    NO : One line per depth step
DLM . SPACE : Column Data Section Delimiter
~Well ------------------------------------------------------
STRT .F                   38.0 : START DEPTH
STOP .F                 5502.0 : STOP DEPTH
STEP .F                    0.5 : STEP
NULL .                -9999.25 : NULL VALUE
COMP .                         : COMPANY
WELL .                         : WELL
FLD  .                         : FIELD
LOC  .                         : LOCATION
PROV .                         : PROVINCE
CNTY .                         : COUNTY
STAT .                         : STATE
CTRY .                         : COUNTRY
SRVC .                         : SERVICE COMPANY
DATE .                         : DATE
UWI  .                         : UNIQUE WELL ID
API  .                         : API NUMBER
SLAT .WGS84    1.2915234988875 : SURFACE LATITUDE
SLON .WGS84 7.3264640520940105 : SURFACE LONGITUDE
DATUM.F                2565.58 : DEPTH DATUM ELEV
~Curve Information -----------------------------------------
DEPT.F     : 
PEF .B/E   : PHOTOELECTRIC FACTOR
NPHI.DEC   : NEUTRON POROSITY LIMESTONE
DPHI.DEC   : DENSITY POROSITY SANDSTONE
RHOB.G/C3  : BULK DENSITY
DRHO.G/C3  : DENSITY CORRECTION
DTCO.US/F  : COMPRESSIONAL-WAVE INTERVAL TRANSIT TIME ACOUSTIC SLOWNESS
DTSM.US/F  : INTERVAL TRANSIT TIME FROM TRANSMITTER ARRAY
DTST.US/F  : DELTA T STONELEY WAVE SLOWNESS
GRS .GAPI  : GAMMA RAY FROM SONIC LOG
CALR.IN    : CALIPER FROM RESISTIVITY
MSFL.OHMM  : MICRO SPHERICALLY FOCUSED
LLD .OHMM  : LATEROLOG LOG DEEP
LLS .OHMM  : LATEROLOG LOG SHALLOW
~Params ----------------------------------------------------
~Other -----------------------------------------------------
~ASCII -----------------------------------------------------
# ...
 2612.00000    3.15700    0.05370   -0.03300    2.75340    0.02610   43.07970   88.60450  193.20640   28.09910    9.15910 1277.98170 1765.08140 1500.65720
 2612.50000    3.36670    0.04540   -0.04050    2.76190    0.02980   43.30000   88.50850  193.42250   31.74470    9.12990 1526.63120 1836.18520 1500.65720
 2613.00000    3.35130    0.03860   -0.04790    2.76930    0.03190   43.20490   88.34600  193.63820   37.05320    9.10030 1818.52770 2344.51930 1634.49690
 2613.50000    3.26050    0.02810   -0.04780    2.77650    0.03020   43.08680   88.18320  193.80130   42.87390    9.07030 1789.30490 3673.35890 1763.85390
 2614.00000    3.12250    0.03360   -0.04560    2.78380    0.02740   42.96860   88.02130  193.69070   48.87600    9.04240 1822.05130 3426.99370 1839.97830
 2614.50000    3.23320    0.03890   -0.04300    2.78550    0.02480   42.85050   87.85740  193.45170   54.92240    9.01270 1909.24410 3091.46830 1806.19400
 2615.00000    3.34420    0.04140   -0.04030    2.77710    0.02270   42.73230   87.68170  193.21230   57.00150    8.99900  483.15680 1677.14750 1139.84270
 2615.50000    3.31080    0.04060   -0.03410    2.76570    0.03010   42.72790   87.48000  192.97310   48.25930    9.04760  212.91680  877.19420  770.09280
 2616.00000    3.23620    0.06200   -0.02230    2.76240    0.03680   42.76630   87.24860  192.73540   37.58220    9.08900  233.78600  638.83610  557.31460
 2616.50000    3.08710    0.10160    0.00700    2.73660    0.04420   42.80470   90.06490  193.03110   39.79020    9.12510  394.94620  517.01700  572.49330
 2617.00000    2.95250    0.16760    0.03290    2.71320    0.05140   43.18000   94.95370  194.18490   53.84470    9.12440  922.35720  215.40880  198.37580
 2617.50000    3.01970    0.22750    0.03700    2.68780    0.05600   43.68400  101.53060  195.33850   66.50710    9.13240   59.97160   70.52020   94.96730
 2618.00000    3.16530    0.25760    0.03190    2.65110    0.05320   44.38000  108.17760  196.49140   79.84940    9.14060   19.64400   59.68690   65.42600
 2618.50000    3.30060    0.20450   -0.00900    2.65790    0.05060   46.51120  139.00000  197.64900   93.51490    9.14820   23.14720   61.26480   49.41800
 2619.00000    3.33920    0.13430   -0.02770    2.68510    0.04790   49.18000  140.20000  198.80100  100.57990    9.15470   19.62550   66.45000   53.46830
 2619.50000    3.13500    0.08450   -0.04010    2.71060    0.04510   49.18000  139.40000  199.80000  100.36270    9.16490   32.40370   70.52020   80.15640
 2620.00000    2.93020    0.05330   -0.04680    2.73580    0.04230   48.70000  130.34860  198.68000   75.99760    9.17150  911.86910  121.93850  133.71740
 2620.50000    2.89450    0.02970   -0.05360    2.76050    0.04050   47.25680  119.23090  196.63200   45.94080    9.21630 1870.22020  226.17460  229.51740
 2621.00000    3.00870    0.02520   -0.06030    2.78830    0.04060   45.75490  108.20000  194.60000   28.31030    9.23100 1810.20610 1214.42310  855.73860
 2621.50000    3.15550    0.02160   -0.06480    2.79610    0.04880   44.25310   96.43520  193.39600   25.00820    9.25080 1819.01330 5877.80420 1806.19400
 2622.00000    3.31290    0.03130   -0.07540    2.80470    0.05850   42.82720   85.40000  192.20130   25.95760    9.27140 1822.89530 11312.14840 1783.57580
 2622.50000    3.47840    0.04040   -0.07340    2.81230    0.07030   41.74000   85.00000  191.40000   26.62170    9.29040 1817.76030 10503.93260 1763.56320
 2623.00000    3.56390    0.04950   -0.07050    2.82020    0.07280   41.74000   84.20000  191.80000   27.77810    9.30980 1812.63960 6388.75630 1740.47510
 2623.50000    3.50500    0.05880   -0.06270    2.82370    0.07230   41.74000   84.68530  191.99620   28.18690    9.32990 1807.53340 3059.55150 1696.90590
 2624.00000    3.43140    0.05880   -0.05560    2.81430    0.06250   41.74000   85.36800  192.17430   26.36450    9.34950  288.39230 2475.05760 1646.35300
 2624.50000    3.35980    0.05340   -0.05190    2.80540    0.05470   41.86000   86.05070  192.35240   24.89070    9.36770 1566.58350 2616.55690 1586.45000
 2625.00000    3.28490    0.04720   -0.05690    2.79590    0.05290   42.34000   86.60000  192.53040   19.07870    9.38950 1921.76980 3841.00420 1661.67880
 2625.50000    3.21380    0.04020   -0.06250    2.78990    0.06140   42.34000   87.00000  192.70850   14.82500    9.41280 1772.11230 7665.33250 1722.08060
 2626.00000    3.15650    0.03780   -0.06800    2.79420    0.07030   42.34000   86.89770  192.89000   13.66550    9.45120 1898.27980 7386.42720 1738.81710
 2626.50000    3.23080    0.03670   -0.07130    2.80300    0.07480   42.34000   86.73600  193.07080   13.75320    9.43700 1874.92830 7117.66990 1755.71630
 2627.00000    3.25240    0.03800   -0.06780    2.81100    0.07270   42.22000   86.57430  193.24610   14.98420    9.42690 1761.96880 5698.47120 1772.77980
 2627.50000    3.18290    0.03940   -0.06230    2.81930    0.06360   42.22000   86.41260  193.39570   15.75890    9.41740 1780.36390 4320.86380 1790.00900
 2628.00000    3.16110    0.04080   -0.05690    2.81950    0.05360   42.22000   86.25100  192.97690   15.73440    9.40640 1782.91200 3409.25730 1807.40580
 2628.50000    3.19370    0.04220   -0.05240    2.81230    0.04560   42.22000   86.08930  192.70120   15.81650    9.39600 1831.41650 2616.55690 1824.97170
 2629.00000    3.22870    0.04740   -0.04830    2.80450    0.04450   42.27280   85.92760  192.49810   17.59170    9.38560 1747.59360 2429.61250 1839.97830
 2629.50000    3.18600    0.06920   -0.04420    2.79660    0.04460   42.34110   86.20000  192.66710   19.36300    9.37500 1646.35300 2298.22290 1708.51790
 2630.00000    3.13220    0.09480   -0.02380    2.78860    0.04040   42.40930   86.53600  193.80000   21.66510    9.36730 1693.38760 2173.93870 1604.18840
 2630.50000    3.07590    0.10180   -0.01220    2.77870    0.02500   42.54640   87.00000  200.44000   25.00890    9.36720 1773.03020 1393.44020  944.22230
 2631.00000    3.03080    0.11010   -0.01500    2.76530    0.02590   42.88150   88.77600  210.68000   28.30060    9.36550  331.76360  442.64970  434.45770
 2631.50000    3.02970    0.10240   -0.02040    2.75190    0.02830   43.21660   90.82400  215.80000   31.64340    9.38280   57.12220  182.80820  184.85230
 2632.00000    3.01820    0.07880   -0.03080    2.73880    0.03690   43.55180   92.87200  216.60000   34.99490    9.41180   58.77590  139.99110  143.71060
 2632.50000    3.15700    0.05530   -0.05650    2.72770    0.04930   43.90000   94.92000  214.19330   36.28840    9.43980  102.15970  137.42070  129.98920
 2633.00000    3.56530    0.03180   -0.08170    2.74060    0.06100   43.90000   95.80000  210.95070   33.29530    9.46670   66.66740  153.66800  150.76260
 2633.50000    3.99500    0.00590   -0.10390    2.76850    0.07250   43.90000   95.40000  209.00000   29.51770    9.48750  309.20910  493.61020  218.61160
 2634.00000    4.45500    0.00100   -0.12220    2.79780    0.08510   43.78000   93.73600  212.83310   25.96940    9.48010 1471.33120  942.43040  510.81300
 2634.50000    4.31900    0.00260   -0.13920    2.83100    0.09240   43.52320   91.80000  218.53830   20.17630    9.47170 1801.98690 1766.63440 1367.85500
 2635.00000    3.98780    0.02690   -0.10770    2.86650    0.08350   43.21600   91.26000  217.68000   15.83800    9.46280 1786.22330 4082.15190 1806.19400
 2635.50000    3.66210    0.05030   -0.10040    2.90240    0.06320   42.90880   90.60000  211.38970   15.13380    9.45390 1774.37850 3861.39550 1796.27540
 2636.00000    3.36780    0.07350   -0.06850    2.92830    0.04520   42.84730   90.60000  205.09940   17.47070    9.44530 1764.00120 3179.00270 1770.40340
 2636.50000    3.40390    0.08030   -0.04540    2.91140    0.04480   42.88570   90.60000  202.20000   20.84840    9.43660 1748.09020 2424.81470 1740.47510
 2637.00000    3.43440    0.08000   -0.03750    2.85510    0.04440   42.92410   90.40400  202.97600   24.09750    9.42750  342.55120 1827.32570  911.77360
 2637.50000    3.47430    0.07790   -0.03500    2.79810    0.04490   42.94000   90.20000  204.00000   27.26210    9.41890 1398.82240 1500.91150  915.80730
