~Version ---------------------------------------------------
VERS.   2.0 : CWLS log ASCII Standard -VERSION 2.0
WRAP.    NO : One line per depth step
DLM . SPACE : Column Data Section Delimiter
~Well ------------------------------------------------------
STRT .F                   38.0 : START DEPTH
STOP .F                 5502.0 : STOP DEPTH
STEP .F                    0.5 : STEP
NULL .                -9999.25 : NULL VALUE
COMP .                         : COMPANY
WELL .                         : WELL
FLD  .                         : FIELD
LOC  .                         : LOCATION
PROV .                         : PROVINCE
CNTY .                         : COUNTY
STAT .                         : STATE
CTRY .                         : COUNTRY
SRVC .                         : SERVICE COMPANY
DATE .                         : DATE
UWI  .                         : UNIQUE WELL ID
API  .                         : API NUMBER
SLAT .WGS84    1.2915234988875 : SURFACE LATITUDE
SLON .WGS84 7.3264640520940105 : SURFACE LONGITUDE
DATUM.F                2565.58 : DEPTH DATUM ELEV
~Curve Information -----------------------------------------
DEPT.F     : 
PEF .B/E   : PHOTOELECTRIC FACTOR
NPHI.DEC   : NEUTRON POROSITY LIMESTONE
DPHI.DEC   : DENSITY POROSITY SANDSTONE
RHOB.G/C3  : BULK DENSITY
DRHO.G/C3  : DENSITY CORRECTION
DTCO.US/F  : COMPRESSIONAL-WAVE INTERVAL TRANSIT TIME ACOUSTIC SLOWNESS
DTSM.US/F  : INTERVAL TRANSIT TIME FROM TRANSMITTER ARRAY
DTST.US/F  : DELTA T STONELEY WAVE SLOWNESS
GRS .GAPI  : GAMMA RAY FROM SONIC LOG
CALR.IN    : CALIPER FROM RESISTIVITY
MSFL.OHMM  : MICRO SPHERICALLY FOCUSED
LLD .OHMM  : LATEROLOG LOG DEEP
LLS .OHMM  : LATEROLOG LOG SHALLOW
~Params ----------------------------------------------------
~Other -----------------------------------------------------
~ASCII -----------------------------------------------------
# ...
 2404.00000   -9999.25    0.09500   -9999.25   -9999.25   -9999.25   -9999.25   -9999.25   -9999.25   20.07980   11.16200  122.42450 1003.64700  876.24910
 2404.50000   -9999.25    0.09560   -9999.25   -9999.25   -9999.25   -9999.25   -9999.25   -9999.25   19.65140   11.15930   67.41560  858.03420  761.03080
 2405.00000   -9999.25    0.11010   -9999.25   -9999.25   -9999.25   -9999.25   -9999.25   -9999.25   19.26530   11.15670   74.19470  919.71230  856.67000
 2405.50000   -9999.25    0.12460   -9999.25   -9999.25   -9999.25   -9999.25   -9999.25   -9999.25   19.26340   11.15380  151.41210 1554.52990 1059.59950
 2406.00000   -9999.25    0.14190   -9999.25   -9999.25   -9999.25   -9999.25   -9999.25   -9999.25   19.47980   11.15070  302.66710 4293.46630 1310.27970
 2406.50000   -9999.25    0.16020   -9999.25   -9999.25   -9999.25   -9999.25   -9999.25   -9999.25   20.20570   11.15840  129.08970 5215.48140 1808.18130
 2407.00000   -9999.25    0.17710   -9999.25   -9999.25   -9999.25   -9999.25   -9999.25   -9999.25   21.37930   11.18210  260.19390 8738.90430 1796.86280
 2407.50000   -9999.25    0.19290   -9999.25   -9999.25   -9999.25   -9999.25   -9999.25   -9999.25   23.97740   11.20570  523.70810 8678.67090 1775.55650
 2408.00000   -9999.25    0.19940   -9999.25   -9999.25   -9999.25   -9999.25   -9999.25   -9999.25   26.48620   11.23090  187.22270 8948.05370 1755.39260
 2408.50000   -9999.25    0.19480   -9999.25   -9999.25   -9999.25   -9999.25   -9999.25   -9999.25   27.23680   11.25230  361.63100 3776.74630 1740.31410
 2409.00000   -9999.25    0.18830   -9999.25   -9999.25   -9999.25   -9999.25   -9999.25   -9999.25   25.51790   11.26610  206.66120 2172.49170 1398.75740
 2409.50000   -9999.25    0.18240   -9999.25   -9999.25   -9999.25   -9999.25   -9999.25   -9999.25   24.61540   11.21840  243.88900 2295.67410 1267.53000
 2410.00000   -9999.25    0.16020   -9999.25   -9999.25   -9999.25   -9999.25   -9999.25   -9999.25   23.69390   11.20320  314.09730 2516.69380 1283.95780
 2410.50000   -9999.25    0.11540   -9999.25   -9999.25   -9999.25   -9999.25   -9999.25   -9999.25   22.74730   11.18200  132.03850 3542.69190 1310.93460
 2411.00000   -9999.25    0.10900   -9999.25   -9999.25   -9999.25   -9999.25   -9999.25   -9999.25   21.80400   11.16120  136.88240 6754.18460 1793.74740
 2411.50000   -9999.25    0.09990   -9999.25   -9999.25   -9999.25   -9999.25   -9999.25   -9999.25   20.95520   11.15180   99.00130 14699.32710 1755.97310
 2412.00000   -9999.25    0.09820   -9999.25   -9999.25   -9999.25   -9999.25   -9999.25   -9999.25   20.73630   11.19600   41.31740 14972.05760 1757.66990
 2412.50000   -9999.25    0.10190   -9999.25   -9999.25   -9999.25   -9999.25   -9999.25   -9999.25   20.90690   11.23570  118.98190 9773.54100 1760.51940
 2413.00000   -9999.25    0.10100   -9999.25   -9999.25   -9999.25   -9999.25   -9999.25   -9999.25   21.96530   11.27120  309.49300 3768.42380 1517.15940
 2413.50000   -9999.25    0.09770   -9999.25   -9999.25   -9999.25   -9999.25   -9999.25   -9999.25   20.64430   11.27200  134.66050 2172.49170 1170.76460
 2414.00000   -9999.25    0.09210   -9999.25   -9999.25   -9999.25   -9999.25   -9999.25   -9999.25   18.77910   11.27250   52.02350 1351.35830  903.74310
 2414.50000   -9999.25    0.08640   -9999.25   -9999.25   -9999.25   -9999.25   -9999.25   -9999.25   16.85960   11.27240   67.29400  761.84800  684.46400
 2415.00000   -9999.25    0.09170   -9999.25   -9999.25   -9999.25   -9999.25   -9999.25   -9999.25   15.97630   11.27240   88.66180  673.97140  579.70130
 2415.50000   -9999.25    0.09680   -9999.25   -9999.25   -9999.25   -9999.25   -9999.25   -9999.25   15.71880   11.27220   41.44830   -9999.25   -9999.25
 2416.00000   -9999.25    0.11300   -9999.25   -9999.25   -9999.25   -9999.25   -9999.25   -9999.25   15.91590   11.27190   73.71680   -9999.25   -9999.25
 2416.50000   -9999.25    0.12990   -9999.25   -9999.25   -9999.25   -9999.25   -9999.25   -9999.25   17.07660   11.25710  224.52810   -9999.25   -9999.25
 2417.00000   -9999.25    0.14090   -9999.25   -9999.25   -9999.25   -9999.25   -9999.25   -9999.25   17.68480   11.24030   85.19560   -9999.25   -9999.25
 2417.50000   -9999.25    0.15390   -9999.25   -9999.25   -9999.25   -9999.25   -9999.25   -9999.25   18.78320   11.22280  114.59050   -9999.25   -9999.25
 2418.00000   -9999.25    0.15900   -9999.25   -9999.25   -9999.25   -9999.25   -9999.25   -9999.25   20.07160   11.20630   72.32040   -9999.25   -9999.25
 2418.50000   -9999.25    0.14990   -9999.25   -9999.25   -9999.25   -9999.25   -9999.25   -9999.25   21.40700   11.19220   26.87430   -9999.25   -9999.25
 2419.00000   -9999.25    0.13920   -9999.25   -9999.25   -9999.25   -9999.25   -9999.25   -9999.25   21.29120   11.20340   28.87510   -9999.25   -9999.25
 2419.50000   -9999.25    0.12360   -9999.25   -9999.25   -9999.25   -9999.25   -9999.25   -9999.25   20.40310   11.21320   57.87710   -9999.25   -9999.25
 2420.00000   -9999.25    0.13040   -9999.25   -9999.25   -9999.25   -9999.25   -9999.25   -9999.25   19.54440   11.22390  168.72430   -9999.25   -9999.25
 2420.50000   -9999.25    0.14520   -9999.25   -9999.25   -9999.25   -9999.25   -9999.25   -9999.25   19.48360   11.23470  109.33380   -9999.25   -9999.25
 2421.00000   -9999.25    0.15740   -9999.25   -9999.25   -9999.25   -9999.25   -9999.25   -9999.25   19.74350   11.24490   54.97330   -9999.25   -9999.25
 2421.50000   -9999.25    0.15030   -9999.25   -9999.25   -9999.25   -9999.25   -9999.25   -9999.25   20.41770   11.25540  125.72830   -9999.25   -9999.25
 2422.00000   -9999.25    0.14220   -9999.25   -9999.25   -9999.25   -9999.25   -9999.25   -9999.25   21.60540   11.26700  123.43810   -9999.25   -9999.25
 2422.50000   -9999.25    0.13310   -9999.25   -9999.25   -9999.25   -9999.25   -9999.25   -9999.25   19.67890   11.27320  216.65090   -9999.25   -9999.25
 2423.00000   -9999.25    0.17970   -9999.25   -9999.25   -9999.25   -9999.25   -9999.25   -9999.25   18.27850   11.25860  282.57240   -9999.25   -9999.25
 2423.50000   -9999.25    0.25350   -9999.25   -9999.25   -9999.25   -9999.25   -9999.25   -9999.25   17.83370   11.23770  174.64160   -9999.25   -9999.25
 2424.00000    2.58130    0.24090   -9999.25   -9999.25    0.05340   -9999.25   -9999.25   -9999.25   18.39840   11.19760  184.96850   -9999.25   -9999.25
 2424.50000    2.77090    0.22060    0.03980    2.65000    0.16850   42.81420   92.44880  206.99260   20.80750   11.19210  116.81460    1.19590    1.32190
 2425.00000    2.96080    0.20030    0.01180    2.69400    0.12640   42.55270   92.20000  207.19190   23.02240   11.19060  163.75840   13.30350    4.54910
 2425.50000    3.15040    0.17990   -0.01640    2.73540    0.07820   42.29120   92.20000  207.00000   24.85900   11.19010  287.55080   23.19620   23.19620
 2426.00000    3.10690    0.16220   -0.00740    2.70600    0.02420   42.02970   90.68000  208.60000   26.11290   11.18680  181.59920   17.32430   18.71140
 2426.50000    3.06910    0.17790    0.00160    2.67940    0.02770   41.95240   89.00000  213.52000   26.04170   11.10970  239.26230    9.22960    8.68670
 2427.00000    2.96190    0.19870    0.02260    2.65290    0.03480   41.74000   89.27200  218.64000   23.76320   11.04030   99.61610   15.56120   24.07200
 2427.50000    2.91600    0.21950    0.04740    2.62640    0.03850   41.97700   89.80000  222.18000   21.43700   10.96400   53.39460   15.16210   26.01790
 2428.00000    2.81530    0.24030    0.05950    2.61360    0.04520   42.34000   91.83300  224.60000   20.82370   10.97470   18.34030   22.35220   22.14600
 2428.50000    2.79790    0.21750    0.04720    2.62540    0.05110   43.17310   93.24950  224.59050   23.23830   11.01630    0.99600   15.27840   16.50170
 2429.00000    2.82950    0.19510    0.02710    2.63580    0.04390   43.56810   95.48100  222.18250   27.17090   10.98830    0.51640    9.59660    9.18340
 2429.50000    2.85360    0.17260    0.00690    2.70010    0.02910   44.50000   97.80000  216.63150   31.45780   10.94430    0.54230    5.77820    5.88630
