~Version ---------------------------------------------------
VERS.   2.0 : CWLS log ASCII Standard -VERSION 2.0
WRAP.    NO : One line per depth step
DLM . SPACE : Column Data Section Delimiter
~Well ------------------------------------------------------
STRT .F                   38.0 : START DEPTH
STOP .F                 5502.0 : STOP DEPTH
STEP .F                    0.5 : STEP
NULL .                -9999.25 : NULL VALUE
COMP .                         : COMPANY
WELL .                         : WELL
FLD  .                         : FIELD
LOC  .                         : LOCATION
PROV .                         : PROVINCE
CNTY .                         : COUNTY
STAT .                         : STATE
CTRY .                         : COUNTRY
SRVC .                         : SERVICE COMPANY
DATE .                         : DATE
UWI  .                         : UNIQUE WELL ID
API  .                         : API NUMBER
SLAT .WGS84    1.2915234988875 : SURFACE LATITUDE
SLON .WGS84 7.3264640520940105 : SURFACE LONGITUDE
DATUM.F                2565.58 : DEPTH DATUM ELEV
~Curve Information -----------------------------------------
DEPT.F     : 
PEF .B/E   : PHOTOELECTRIC FACTOR
NPHI.DEC   : NEUTRON POROSITY LIMESTONE
DPHI.DEC   : DENSITY POROSITY SANDSTONE
RHOB.G/C3  : BULK DENSITY
DRHO.G/C3  : DENSITY CORRECTION
DTCO.US/F  : COMPRESSIONAL-WAVE INTERVAL TRANSIT TIME ACOUSTIC SLOWNESS
DTSM.US/F  : INTERVAL TRANSIT TIME FROM TRANSMITTER ARRAY
DTST.US/F  : DELTA T STONELEY WAVE SLOWNESS
GRS .GAPI  : GAMMA RAY FROM SONIC LOG
CALR.IN    : CALIPER FROM RESISTIVITY
MSFL.OHMM  : MICRO SPHERICALLY FOCUSED
LLD .OHMM  : LATEROLOG LOG DEEP
LLS .OHMM  : LATEROLOG LOG SHALLOW
~Params ----------------------------------------------------
~Other -----------------------------------------------------
~ASCII -----------------------------------------------------
# ...
 2820.00000    3.08400    0.03260   -0.05610    2.82830    0.06970   42.36700   86.08000  192.11380   59.68120    9.20560   -9999.25 19614.59180   -9999.25
 2820.50000    3.05900    0.03630   -0.05480    2.81760    0.06120   42.35850   86.17910  192.19640   55.23650    9.20560   -9999.25 17428.95900   -9999.25
 2821.00000    3.03430    0.04010   -0.05370    2.80610    0.05880   42.34990   86.20000  191.85190   48.21420    9.20570   -9999.25 13833.62790   -9999.25
 2821.50000    3.04610    0.03990   -0.05360    2.79590    0.05750   42.34000   86.20000  191.56130   45.33820    9.20570   -9999.25 10979.96000   -9999.25
 2822.00000    3.06870    0.03700   -0.05110    2.79170    0.05300   42.40420   86.41400  191.40240   48.11970    9.20200   -9999.25 8714.96000   -9999.25
 2822.50000    3.16520    0.03450   -0.04720    2.78770    0.04560   42.48100   86.60000  192.71380   50.16700    9.18470   -9999.25 6858.69140   -9999.25
 2823.00000    3.10510    0.03680   -0.04340    2.78400    0.04380   42.55780   87.14240  193.41130   49.20090    9.16750   -9999.25 6732.75730   -9999.25
 2823.50000    2.99670    0.03870   -0.04220    2.77990    0.04600   42.63460   87.80000  193.41380   47.71980    9.15010   -9999.25 6850.56150   -9999.25
 2824.00000    2.85940    0.03890   -0.04220    2.77710    0.04870   42.71140   87.52800  193.01440   46.04370    9.13270   -9999.25 6986.98100   -9999.25
 2824.50000    2.90290    0.03300   -0.04800    2.78370    0.05470   42.78820   87.23540  192.30730   44.57940    9.11530   -9999.25 7386.42720   -9999.25
 2825.00000    3.07760    0.02700   -0.06000    2.79990    0.06210   42.70000   87.00000  191.81000   43.74660    9.09760   -9999.25 8566.84180   -9999.25
 2825.50000    3.25640    0.02450   -0.06610    2.81580    0.06970   42.65500   86.75520  192.26580   41.34510    9.08440   -9999.25 10935.50100   -9999.25
 2826.00000    3.26890    0.02410   -0.07130    2.82220    0.07300   42.59920   86.55040  192.64660   41.06610    9.07140   -9999.25 13439.84280   -9999.25
 2826.50000    3.04590    0.02560   -0.07050    2.82190    0.06040   42.54340   86.34560  193.00050   44.53590    9.05600   -9999.25 16517.70510   -9999.25
 2827.00000    3.04760    0.02680   -0.06020    2.80590    0.04530   42.48750   86.20000  192.88340   56.85030    9.04050   -9999.25 19723.94530   -9999.25
 2827.50000    3.05050    0.02650   -0.05030    2.78280    0.02690   42.49120   86.28670  192.77680   68.90700    9.02520   -9999.25 20851.56450   -9999.25
 2828.00000    3.06520    0.02620   -0.04140    2.77420    0.02380   42.55180   86.45700  192.66910   80.92720    9.00990   -9999.25 20851.56450   -9999.25
 2828.50000    3.13520    0.02370   -0.04890    2.79310    0.03200   42.61350   86.63100  192.56130   91.22410    8.99450   -9999.25 20851.56450   -9999.25
 2829.00000    3.23430    0.02120   -0.06040    2.81430    0.05510   42.67540   86.80610  192.45350   90.06890    8.97910   -9999.25 20851.56450   -9999.25
 2829.50000    3.23120    0.02000   -0.07180    2.83190    0.07780   42.73710   87.01200  192.34570   88.04920    8.96380   -9999.25 19006.28320   -9999.25
 2830.00000    3.13180    0.02030   -0.07860    2.82520    0.08380   42.79880   87.01490  192.23790   83.37170    8.94840   -9999.25 17978.45310   -9999.25
 2830.50000    3.07620    0.02080   -0.07230    2.81650    0.07560   42.80180   86.61520  192.20000   77.30570    8.93310   -9999.25 14510.96190   -9999.25
 2831.00000    3.09140    0.02400   -0.06630    2.80620    0.05960   42.72950   86.22300  192.20000   71.46850    8.91770   -9999.25 11405.23440   -9999.25
 2831.50000    3.17570    0.02740   -0.06030    2.79540    0.05190   42.65700   85.40170  192.19960   66.77680    8.90240   -9999.25 8964.21390   -9999.25
 2832.00000    3.12260    0.03080   -0.05430    2.79260    0.04320   42.58450   85.00000  192.19970   63.74980    8.88700   -9999.25 8103.56050   -9999.25
 2832.50000    3.15710    0.03130   -0.05270    2.80460    0.05250   42.51220   85.10290  192.19980   59.91920    8.87160   -9999.25 8103.56050   -9999.25
 2833.00000    3.24090    0.03010   -0.05720    2.80950    0.06830   42.43990   85.39540  192.19990   52.52820    8.85630   -9999.25 8103.56050   -9999.25
 2833.50000    3.32810    0.02760   -0.06230    2.80660    0.06720   42.36770   85.68800  192.20000   47.82380    8.84300   -9999.25 8566.84180   -9999.25
 2834.00000    3.33890    0.02500   -0.06310    2.80570    0.06600   42.34000   85.00000  192.20000   43.08880    8.84330   -9999.25 9569.81450   -9999.25
 2834.50000    3.30790    0.02250   -0.05980    2.80580    0.06460   42.34000   84.92400  192.20000   41.85670    8.84340   -9999.25 10816.03810   -9999.25
 2835.00000    3.28010    0.02010   -0.05920    2.80760    0.06300   42.34000   84.75330  192.20000   42.53760    8.86320   -9999.25 11958.86520   -9999.25
 2835.50000    3.27550    0.01880   -0.06320    2.81030    0.06520   42.34000   84.59620  192.20000   40.70390    8.88490   -9999.25 12182.55080   -9999.25
 2836.00000    3.35820    0.02000   -0.06350    2.81400    0.07270   42.34000   84.41860  192.20020   39.94270    8.90710   -9999.25 12182.55080   -9999.25
 2836.50000    3.55700    0.02120   -0.06460    2.81450    0.07900   42.34000   84.24350  192.20050   39.03170    8.92920   -9999.25 12182.55080   -9999.25
 2837.00000    3.79310    0.02240   -0.06590    2.83070    0.08110   42.34000   84.42250  192.20050   37.54350    8.95100   -9999.25 12642.55470   -9999.25
 2837.50000    3.93380    0.02240   -0.06890    2.84910    0.08300   42.34000   84.71610  192.20040   35.59890    8.97310   -9999.25 13742.06930   -9999.25
 2838.00000    3.80510    0.02140   -0.08490    2.84980    0.08480   42.34000   85.01190  192.20050   30.88080    8.99560   -9999.25 16656.86910   -9999.25
 2838.50000    3.45840    0.02030   -0.08930    2.85010    0.08660   42.34000   85.30790  192.33210   29.22180    9.00440   -9999.25 20377.86910   -9999.25
 2839.00000    3.10740    0.02120   -0.08660    2.84690    0.08850   42.34000   85.60360  192.46070   28.23230    9.00440   -9999.25 22876.00000   -9999.25
 2839.50000    3.00720    0.02320   -0.08100    2.84430    0.09030   42.34000   85.80000  192.60000   28.87210    9.00410   -9999.25 23078.68550   -9999.25
 2840.00000    2.98720    0.02390   -0.08040    2.83860    0.09220   42.33680   85.40000  192.60000   29.91230    9.00190   -9999.25 23303.88870   -9999.25
 2840.50000    2.93360    0.02470   -0.08260    2.82600    0.09480   42.33580   84.93500  192.60000   31.50560    9.02940   -9999.25 26531.78130   -9999.25
 2841.00000    3.08080    0.02560   -0.07880    2.81360    0.09830   42.33550   84.29500  193.37440   33.20170    9.08110   -9999.25 26044.62500   -9999.25
 2841.50000    3.08280    0.04090   -0.07270    2.80130    0.10120   42.21610   83.65500  194.20000   34.99780    9.13010   -9999.25 19318.77930   -9999.25
 2842.00000    3.06920    0.05800   -0.06450    2.78880    0.09950   42.14140   83.87910  194.02000   36.82000    9.16370   -9999.25 10550.75490   -9999.25
 2842.50000    3.03510    0.07590   -0.05600    2.77590    0.09810   42.06670   84.67560  193.16670   41.88880    9.12290   -9999.25 5762.18700   -9999.25
 2843.00000    3.02900    0.08920   -0.04590    2.77310    0.09640   41.98200   85.47200  192.20000   48.41890    9.07870  373.08450 3146.95950   -9999.25
 2843.50000    3.03270    0.08920   -0.04140    2.77670    0.09490   42.18720   86.26840  192.89070   51.84180    9.03220  571.30430 2173.93870   -9999.25
 2844.00000    3.08450    0.08730   -0.04170    2.77920    0.09370   42.42610   87.06490  193.68710   49.05030    8.98440 1866.79930 2173.93870   -9999.25
 2844.50000    3.19460    0.07960   -0.04480    2.77890    0.09030   42.66510   87.86130  194.48360   43.32130    8.96210 1718.34580 2385.00200   -9999.25
 2845.00000    3.30120    0.07330   -0.04300    2.77800    0.08420   42.82000   88.65780  195.00000   37.85050    8.95770  704.92630 2838.41310   -9999.25
 2845.50000    3.23190    0.05420   -0.04300    2.78560    0.07780   42.70000   89.00000  195.00000   33.11090    8.95000 1845.21960 3487.10690   -9999.25
