~Version ---------------------------------------------------
VERS.   2.0 : CWLS log ASCII Standard -VERSION 2.0
WRAP.    NO : One line per depth step
DLM . SPACE : Column Data Section Delimiter
~Well ------------------------------------------------------
STRT .F                   38.0 : START DEPTH
STOP .F                 5502.0 : STOP DEPTH
STEP .F                    0.5 : STEP
NULL .                -9999.25 : NULL VALUE
COMP .                         : COMPANY
WELL .                         : WELL
FLD  .                         : FIELD
LOC  .                         : LOCATION
PROV .                         : PROVINCE
CNTY .                         : COUNTY
STAT .                         : STATE
CTRY .                         : COUNTRY
SRVC .                         : SERVICE COMPANY
DATE .                         : DATE
UWI  .                         : UNIQUE WELL ID
API  .                         : API NUMBER
SLAT .WGS84    1.2915234988875 : SURFACE LATITUDE
SLON .WGS84 7.3264640520940105 : SURFACE LONGITUDE
DATUM.F                2565.58 : DEPTH DATUM ELEV
~Curve Information -----------------------------------------
DEPT.F     : 
PEF .B/E   : PHOTOELECTRIC FACTOR
NPHI.DEC   : NEUTRON POROSITY LIMESTONE
DPHI.DEC   : DENSITY POROSITY SANDSTONE
RHOB.G/C3  : BULK DENSITY
DRHO.G/C3  : DENSITY CORRECTION
DTCO.US/F  : COMPRESSIONAL-WAVE INTERVAL TRANSIT TIME ACOUSTIC SLOWNESS
DTSM.US/F  : INTERVAL TRANSIT TIME FROM TRANSMITTER ARRAY
DTST.US/F  : DELTA T STONELEY WAVE SLOWNESS
GRS .GAPI  : GAMMA RAY FROM SONIC LOG
CALR.IN    : CALIPER FROM RESISTIVITY
MSFL.OHMM  : MICRO SPHERICALLY FOCUSED
LLD .OHMM  : LATEROLOG LOG DEEP
LLS .OHMM  : LATEROLOG LOG SHALLOW
~Params ----------------------------------------------------
~Other -----------------------------------------------------
~ASCII -----------------------------------------------------
# ...
 4848.00000    3.00940    0.04690   -0.04400    2.76350    0.06330   42.50200   89.59340  190.42430   13.83630    9.01340   91.40920  145.59870  101.51420
 4848.50000    3.00180    0.04070   -0.05050    2.76620    0.06820   42.48990   89.58970  190.47760   13.10210    9.02080   60.80330  174.86460  125.38960
 4849.00000    2.99370    0.03940   -0.05180    2.77470    0.06720   42.34420   88.29020  190.53090   12.18030    9.02820  616.54330  211.74270  154.88020
 4849.50000    2.99690    0.04190   -0.05180    2.78340    0.06210   42.18750   86.91140  190.58420   11.74350    9.03530  318.66600  244.08950  195.42030
 4850.00000    3.02760    0.04820   -0.04670    2.79170    0.05710   42.03270   86.46810  190.63750   12.08640    9.04400  104.07050  227.80270  195.42030
 4850.50000    3.05960    0.05500   -0.04110    2.79700    0.05440   42.08260   87.09890  190.69080   12.35230    9.04180  104.07050  210.96470  165.90580
 4851.00000    2.99730    0.05970   -0.03740    2.79940    0.05640   42.27910   87.73030  190.74410   12.58050    9.03640   96.63500  191.12240  144.40860
 4851.50000    2.88670    0.05970   -0.03840    2.78280    0.06180   42.47550   88.36120  190.79740   12.92650    9.03070   89.73080  162.36290  125.69690
 4852.00000    2.76920    0.05990   -0.03410    2.77340    0.06710   42.67200   88.99100  190.85070   13.27050    9.02520   42.75730  137.93100  109.40980
 4852.50000    2.69220    0.06050   -0.02300    2.77230    0.07380   42.85310   89.62000  190.90400   15.08700    9.01970   47.45490  117.17550   95.23300
 4853.00000    2.76290    0.06300   -0.01460    2.77120    0.09060   42.85320   90.24900  190.95730   15.09800    9.01400   59.68690  106.01710   82.89330
 4853.50000    2.87460    0.06410   -0.01730    2.75430    0.11580   42.85430   90.80970  191.01060   13.75280    9.00880   42.01480  107.98410   78.81400
 4854.00000    2.98320    0.06000   -0.02690    2.73470    0.10740   42.85430   90.80970  191.06390   12.89610    9.00440   26.87700  118.45540   80.28820
 4854.50000    3.03000    0.04890   -0.03950    2.73620    0.06780   42.85430   90.80970  191.11720   12.17340    9.02040   91.86080  135.94220   92.53250
 4855.00000    3.08310    0.03780   -0.04650    2.74690    0.03200   42.85430   89.96360  191.17050   11.43880    9.04080  236.52290  160.84690  111.88950
 4855.50000    3.10500    0.03000   -0.04680    2.75780    0.01020   42.85430   88.83240  191.21460   10.56140    9.06080  230.90250  190.30230  135.29580
 4856.00000    3.07840    0.02950   -0.04710    2.76920    0.00430   42.61380   87.70120  191.13760   10.72430    9.08230  164.23920  225.16020  163.59850
 4856.50000    3.05560    0.02930   -0.04170    2.78110   -0.00370   42.30530   86.35630  191.07190   10.46060    9.08140  264.09150  263.35750  191.83210
 4857.00000    3.03250    0.02920   -0.03520    2.78640   -0.00890   41.99680   85.95140  191.00630   10.51420    9.03580  173.21750  262.39020  182.58250
 4857.50000    3.00940    0.02910   -0.03130    2.77920   -0.00900   41.64130   86.20330  190.94060   10.68960    8.99240  114.17450  233.02240  159.38170
 4858.00000    2.98930    0.02890   -0.02930    2.77280   -0.01040   41.72950   86.60320  190.87500   11.23950    8.94580  159.38170  206.97450  139.12900
 4858.50000    3.00350    0.03180   -0.02930    2.76660   -0.01030   41.92520   87.00320  190.80940   11.65980    8.92150  133.03550  183.84780  122.95960
 4859.00000    3.01530    0.03600   -0.02650    2.76000   -0.00790   42.12050   87.40310  190.74370   12.54060    8.93230  114.17450  163.29600  115.50460
 4859.50000    3.02690    0.04010   -0.02370    2.75670   -0.00550   42.31580   87.80300  190.67810   13.64930    8.94500   56.72130  153.90490  109.06870
 4860.00000    3.00820    0.04420   -0.02580    2.75570   -0.00290   42.48820   88.20290  190.61250   14.19250    8.95740   23.63010  150.04160  102.15970
 4860.50000    2.99100    0.04590   -0.02990    2.75270   -0.00050   42.48770   88.60280  190.54680   13.27250    8.96420   32.41820  145.24480  104.11440
 4861.00000    2.97260    0.04060   -0.03400    2.74790    0.00180   42.48990   88.78510  190.48120   12.66400    8.96370   20.81540  147.94620  108.54740
 4861.50000    2.95390    0.02890   -0.03820    2.75310    0.00090   42.37170   88.78510  190.41550   12.18060    8.96350   22.41440  155.73210  113.16910
 4862.00000    2.94710    0.02240   -0.04250    2.75960   -0.00030   42.26880   88.09680  190.34990   12.72260    8.96380   41.73950  163.87430  117.98770
 4862.50000    2.94730    0.02190   -0.04770    2.76640   -0.00160   42.16600   87.38750  190.28430   14.07320    8.96410   58.59100  168.49360  120.70190
 4863.00000    2.98060    0.02120   -0.05180    2.77300   -0.00290   42.06320   86.67900  190.21860   13.02280    8.95820   25.44820  171.64520  122.95960
 4863.50000    3.02980    0.02060   -0.05270    2.77960   -0.00410   42.00410   85.96960  190.15300   11.85080    8.94200   49.36100  183.87610  131.88490
 4864.00000    3.08170    0.02010   -0.04890    2.78640   -0.00560   42.00410   85.15230  190.08740   10.53710    8.92630   75.59530  206.59250  148.85390
 4864.50000    3.10390    0.02240   -0.04520    2.79320   -0.00650   42.24700   85.73610  190.02170   11.59990    8.91050   93.11890  232.11530  168.00640
 4865.00000    3.07240    0.02490   -0.04250    2.79600   -0.00420   42.09210   86.41030  190.03530   13.63600    8.89450   76.26520  244.08950  184.85230
 4865.50000    3.04190    0.03040   -0.04350    2.78960   -0.00220   41.88260   87.09580  190.08800   15.59400    8.87880  111.32070  215.80500  165.24660
 4866.00000    3.06430    0.03690   -0.04380    2.78300   -0.00450   42.00610   87.78140  190.14080   17.10860    8.86300   68.66070  190.79800  147.72040
 4866.50000    3.17510    0.04100   -0.04340    2.77820   -0.00650   42.18240   88.38060  190.19350   16.56350    8.84660   42.32820  168.68880  132.05300
 4867.00000    3.28910    0.03740   -0.04270    2.78080   -0.00820   42.36840   88.38060  190.24620   15.81670    8.85040   72.87230  149.14160  118.04730
 4867.50000    3.35290    0.02980   -0.04360    2.78410   -0.00830   42.36840   87.97570  190.29900   13.88370    8.87290   68.09880  136.27950  105.52710
 4868.00000    3.20390    0.02400   -0.04760    2.78250   -0.00690   42.48990   88.16600  190.35170   12.80690    8.89510   66.71310  125.25950   98.44260
 4868.50000    3.16470    0.02480   -0.05110    2.78160   -0.00550   42.48990   88.38060  190.40440   12.24010    8.91800  103.56000  122.95960  100.16780
 4869.00000    3.15520    0.02630   -0.04910    2.78480   -0.00400   42.48990   87.97570  190.45720   12.36670    8.91300  100.90530  127.60240  104.07050
 4869.50000    3.19140    0.02800   -0.04710    2.78900   -0.00260   42.41190   87.97570  190.50990   12.49690    8.88190   61.94060  133.52950  108.12530
 4870.00000    3.20900    0.02800   -0.04710    2.79350   -0.00100   42.28480   87.97570  190.56270   12.66070    8.85230   67.95430  147.35580  115.66530
 4870.50000    3.23000    0.02810   -0.05140    2.79100   -0.00020   42.15780   87.68060  190.61540   12.80880    8.82090   52.30400  162.61380  126.77750
 4871.00000    3.21630    0.02650   -0.05290    2.78850   -0.00020   42.03080   87.22360  190.66810   12.96430    8.79640   58.80860  179.45170  138.95720
 4871.50000    3.19870    0.02530   -0.04660    2.78630   -0.00020   41.90370   86.76650  190.72090   13.11400    8.83670   75.94630  198.03300  152.30710
 4872.00000    3.20530    0.02400   -0.04040    2.79280   -0.00050   41.77670   86.35630  190.77360   13.25890    8.84300   80.28820  222.48860  166.93950
 4872.50000    3.25470    0.02500   -0.03620    2.79560    0.00280   41.63970   86.51820  190.76340   13.44380    8.86370   75.94630  230.88950  181.45810
 4873.00000    3.24680    0.02870   -0.03800    2.78490    0.00870   41.51820   87.03240  190.61600   13.53810    8.87780   35.52440  217.99900  169.06230
 4873.50000    3.18130    0.03250   -0.03980    2.77390    0.01560   41.82430   87.54660  190.47220   13.60770    8.89440   37.55540  195.87350  153.38860
