~Version ---------------------------------------------------
VERS.   2.0 : CWLS log ASCII Standard -VERSION 2.0
WRAP.    NO : One line per depth step
DLM . SPACE : Column Data Section Delimiter
~Well ------------------------------------------------------
STRT .F                   38.0 : START DEPTH
STOP .F                 5502.0 : STOP DEPTH
STEP .F                    0.5 : STEP
NULL .                -9999.25 : NULL VALUE
COMP .                         : COMPANY
WELL .                         : WELL
FLD  .                         : FIELD
LOC  .                         : LOCATION
PROV .                         : PROVINCE
CNTY .                         : COUNTY
STAT .                         : STATE
CTRY .                         : COUNTRY
SRVC .                         : SERVICE COMPANY
DATE .                         : DATE
UWI  .                         : UNIQUE WELL ID
API  .                         : API NUMBER
SLAT .WGS84    1.2915234988875 : SURFACE LATITUDE
SLON .WGS84 7.3264640520940105 : SURFACE LONGITUDE
DATUM.F                2565.58 : DEPTH DATUM ELEV
~Curve Information -----------------------------------------
DEPT.F     : 
PEF .B/E   : PHOTOELECTRIC FACTOR
NPHI.DEC   : NEUTRON POROSITY LIMESTONE
DPHI.DEC   : DENSITY POROSITY SANDSTONE
RHOB.G/C3  : BULK DENSITY
DRHO.G/C3  : DENSITY CORRECTION
DTCO.US/F  : COMPRESSIONAL-WAVE INTERVAL TRANSIT TIME ACOUSTIC SLOWNESS
DTSM.US/F  : INTERVAL TRANSIT TIME FROM TRANSMITTER ARRAY
DTST.US/F  : DELTA T STONELEY WAVE SLOWNESS
GRS .GAPI  : GAMMA RAY FROM SONIC LOG
CALR.IN    : CALIPER FROM RESISTIVITY
MSFL.OHMM  : MICRO SPHERICALLY FOCUSED
LLD .OHMM  : LATEROLOG LOG DEEP
LLS .OHMM  : LATEROLOG LOG SHALLOW
~Params ----------------------------------------------------
~Other -----------------------------------------------------
~ASCII -----------------------------------------------------
# ...
 5264.00000    3.10880    0.06070    0.00810    2.69010    0.08850   41.89020   94.89580  193.04880   12.19240    8.17070   71.83930   95.63740   70.42690
 5264.50000    3.01900    0.06330    0.02320    2.66970    0.12540   41.98980   95.88260  193.04880   11.25020    8.19460  222.48860   78.69730   59.17560
 5265.00000    2.91410    0.06830    0.01850    2.68120    0.15780   42.25610   93.59900  196.60570   10.81240    8.16650   88.57430   61.94060   47.94440
 5265.50000    2.91410    0.07100   -0.00280    2.73330    0.18890   42.56710   91.66130  201.14070   11.56350    8.13850   29.51510   68.14350   48.23740
 5266.00000    3.00430    0.06300   -0.03870    2.78730    0.16660   42.87810   89.72590  205.67580   13.81800    8.11950   33.63760  102.97700   57.06930
 5266.50000    3.05170    0.04650   -0.06650    2.81670    0.11030   43.10980   87.79060  206.86990   18.24800    8.18910   40.44500  171.78840  107.54080
 5267.00000    2.98380    0.03620   -0.05890    2.80630    0.05290   42.98780   85.85380  201.75960   20.61280    8.25870  267.78770  286.58090  202.64890
 5267.50000    2.91710    0.03100   -0.05000    2.78960    0.02090   42.42890   83.69920  195.84870   21.66560    8.35210  322.30980  521.83000  315.31860
 5268.00000    2.86790    0.02730   -0.04110    2.77430    0.02680   41.91060   83.69920  190.61660   22.87900    8.35720  259.72560  556.00430  373.81760
 5268.50000    2.86720    0.02730   -0.03660    2.76650    0.03830   41.78660   83.59180  190.20740   24.14710    8.36000  272.31460  525.80160  349.56260
 5269.00000    2.98580    0.03000   -0.03960    2.76960    0.05050   41.84150   83.44370  190.61080   24.94070    8.35860  320.81620  481.81530  317.09610
 5269.50000    3.15900    0.03240   -0.04240    2.77440    0.06600   41.89630   83.29270  191.72350   24.85170    8.35960  198.71470  441.00530  288.39230
 5270.00000    3.33730    0.03480   -0.04160    2.77890    0.06600   41.95120   83.69920  193.62540   24.85260    8.34670  238.42920  449.70210  277.89910
 5270.50000    3.44040    0.03540   -0.03710    2.76860    0.06550   42.00610   84.53250  195.53290   24.91480    8.32510  157.67240  516.57490  277.89910
 5271.00000    3.35630    0.03540   -0.03250    2.75970    0.06470   42.06100   85.32520  197.44620   24.27200    8.30460  187.13910  605.31850  317.00800
 5271.50000    3.28070    0.03270   -0.02850    2.75750    0.06390   42.11580   85.32520  199.95940   22.33760    8.28490  299.58860  699.28410  378.26890
 5272.00000    3.20410    0.02710   -0.03440    2.76020    0.06260   42.13420   85.73170  198.96340   19.67030    8.26480  134.89750  809.00560  451.36820
 5272.50000    3.12590    0.02080   -0.04180    2.77010    0.06960   41.82550   85.15580  195.33540   16.03550    8.24440  267.78770  936.38090  483.20180
 5273.00000    3.04870    0.01940   -0.04920    2.77990    0.08250   41.47560   84.59350  191.42280   15.86110    8.22450  224.06090 1055.27100  502.84300
 5273.50000    2.97270    0.01920   -0.05650    2.78950    0.09510   41.12580   83.55690  191.42280   15.78840    8.20550  178.12640  963.93580  482.57540
 5274.00000    2.95830    0.02450   -0.06320    2.79880    0.09720   41.03660   82.47970  192.19510   16.51820    8.18440  206.59250  843.92070  358.43160
 5274.50000    3.01600    0.03170   -0.05920    2.80930    0.08670   41.03660   82.07320  192.64230   17.21410    8.16210  148.51640  609.05960  240.34600
 5275.00000    3.00820    0.03700   -0.05110    2.78780    0.07600   41.03660   83.00230  191.82930   17.82290    8.14220   52.42530  361.55370  148.91140
 5275.50000    2.94210    0.03430   -0.02520    2.75080    0.08030   41.03650   84.16880  191.01630   17.67050    8.11930   13.80590  214.62780   89.99170
 5276.00000    2.87450    0.03290    0.00070    2.71640    0.08270   41.27110   85.29330  191.61250   16.86290    8.14750    9.18340  127.51770   67.95430
 5276.50000    2.82100    0.04020    0.01680    2.68180    0.13020   41.55580   88.53110  192.99460   15.22440    8.18570   21.14340   98.46500   57.51520
 5277.00000    2.84020    0.04750    0.00460    2.70210    0.15810   41.84050   91.02170  194.37670   13.44510    8.22870   13.05930  100.25580   61.29700
 5277.50000    2.85200    0.04830   -0.00760    2.72340    0.19480   42.12550   94.20000  195.89430   13.90760    8.23920   26.30100  109.32160   65.50940
 5278.00000    2.86340    0.04710   -0.01960    2.74670    0.21750   42.37730   95.97730  195.48780   14.48290    8.22770   61.93080  127.50330   70.01120
 5278.50000    2.83530    0.05400   -0.04870    2.76910    0.24530   42.15190   94.71860  193.17070   15.17600    8.20880  127.60240  125.39910   74.82240
 5279.00000    2.80610    0.06550   -0.05950    2.79350    0.22900   41.88980   91.40720  191.09760   15.43990    8.19110   49.62700  123.59280   75.94630
 5279.50000    2.77800    0.07700   -0.05240    2.80630    0.19210   41.64630   89.33570  190.97270   15.58310    8.17380   20.49910  120.98250   75.94630
 5280.00000    2.74690    0.08470   -0.03660    2.78680    0.16580   41.75310   89.32800  191.50870   15.79090    8.15600   13.71460  120.70190   75.94630
 5280.50000    2.78280    0.08300   -0.03630    2.76340    0.14990   42.29730   89.23610  192.03920   15.39390    8.13840   17.84370  116.31010   73.18300
 5281.00000    2.82440    0.07980   -0.03560    2.75830    0.13040   42.62190   89.14290  192.56530   14.54430    8.12080   32.98630   95.40470   67.60260
 5281.50000    2.86650    0.07500   -0.02100    2.74920    0.11010   42.74390   89.04700  193.08900   14.74660    8.10320   10.41410   72.71760   50.81420
 5282.00000    2.94230    0.07720    0.00140    2.71240    0.07140   42.70240   89.35660  193.46870   14.41500    8.08560   10.86430   54.40490   38.19510
 5282.50000    3.02660    0.08150    0.02380    2.66070    0.06150   42.64020   90.74330  193.46980   13.96950    8.06800   20.97750   50.82300   33.00670
 5283.00000    3.05160    0.08630    0.03180    2.67610    0.08270   42.84150   92.12740  193.82930   13.76770    8.05040   15.15750   48.67970   32.38060
 5283.50000    3.07690    0.08710    0.01180    2.69660    0.11410   43.15240   93.50950  193.72560   13.91050    8.03280   10.26340   49.92600   31.78610
 5284.00000    3.10790    0.07950   -0.01740    2.72100    0.13920   42.98780   93.86180  193.62190   14.42470    8.01510   29.48230   53.55020   38.63540
 5284.50000    3.04040    0.06040   -0.00070    2.73940    0.13080   42.81100   93.66530  193.51830   16.16750    7.99780  153.58260   75.46650   48.11020
 5285.00000    2.91070    0.03700    0.06460    2.70470    0.11950   42.50000   93.45530  193.45530   18.48750    7.98010   45.31350  102.22860   59.90850
 5285.50000    2.78640    0.04230    0.12850    2.57400    0.11570   42.18900   93.04880  192.00410   20.97520    7.96130    1.57910  134.84370   74.60030
 5286.00000    2.72230    0.05550    0.12860    2.49360    0.14900   41.87810   92.64230  190.60980   22.64460    7.96370    4.48510  138.54570   94.86070
 5286.50000    2.78720    0.06870    0.06790    2.53200    0.19180   41.52440   89.73580  190.60980   23.15970    7.98000   30.44990  153.82860   98.44260
 5287.00000    2.85050    0.07660    0.00800    2.61600    0.19470   41.67340   87.35770  190.64460   21.73620    7.99540   74.55190  153.35930   95.09540
 5287.50000    2.92110    0.06680   -0.01930    2.69820    0.15440   41.84620   86.95120  190.64960   19.48020    8.01020   38.99920  147.05890   87.70730
 5288.00000    2.91040    0.05880   -0.01230    2.73420    0.14250   42.01900   86.95120  190.64500   17.37450    8.02540   14.32720  137.35700   79.84580
 5288.50000    2.82730    0.05880   -0.01720    2.73780    0.17230   42.25610   86.74060  195.27030   15.00120    8.03780   24.53940  140.14120   81.77830
 5289.00000    2.84290    0.06050   -0.02920    2.74770    0.18350   42.13420   86.55210  199.40840   15.12270    8.04330  120.70190  169.91850  104.46840
 5289.50000    2.90480    0.06120   -0.04130    2.76020    0.15570   41.84630   86.36360  203.63730   16.04260    8.04910   87.84680  236.44390  159.54440
