~Version ---------------------------------------------------
VERS.   2.0 : CWLS log ASCII Standard -VERSION 2.0
WRAP.    NO : One line per depth step
DLM . SPACE : Column Data Section Delimiter
~Well ------------------------------------------------------
STRT .F                   38.0 : START DEPTH
STOP .F                 5502.0 : STOP DEPTH
STEP .F                    0.5 : STEP
NULL .                -9999.25 : NULL VALUE
COMP .                         : COMPANY
WELL .                         : WELL
FLD  .                         : FIELD
LOC  .                         : LOCATION
PROV .                         : PROVINCE
CNTY .                         : COUNTY
STAT .                         : STATE
CTRY .                         : COUNTRY
SRVC .                         : SERVICE COMPANY
DATE .                         : DATE
UWI  .                         : UNIQUE WELL ID
API  .                         : API NUMBER
SLAT .WGS84    1.2915234988875 : SURFACE LATITUDE
SLON .WGS84 7.3264640520940105 : SURFACE LONGITUDE
DATUM.F                2565.58 : DEPTH DATUM ELEV
~Curve Information -----------------------------------------
DEPT.F     : 
PEF .B/E   : PHOTOELECTRIC FACTOR
NPHI.DEC   : NEUTRON POROSITY LIMESTONE
DPHI.DEC   : DENSITY POROSITY SANDSTONE
RHOB.G/C3  : BULK DENSITY
DRHO.G/C3  : DENSITY CORRECTION
DTCO.US/F  : COMPRESSIONAL-WAVE INTERVAL TRANSIT TIME ACOUSTIC SLOWNESS
DTSM.US/F  : INTERVAL TRANSIT TIME FROM TRANSMITTER ARRAY
DTST.US/F  : DELTA T STONELEY WAVE SLOWNESS
GRS .GAPI  : GAMMA RAY FROM SONIC LOG
CALR.IN    : CALIPER FROM RESISTIVITY
MSFL.OHMM  : MICRO SPHERICALLY FOCUSED
LLD .OHMM  : LATEROLOG LOG DEEP
LLS .OHMM  : LATEROLOG LOG SHALLOW
~Params ----------------------------------------------------
~Other -----------------------------------------------------
~ASCII -----------------------------------------------------
# ...
 3210.00000    3.08790    0.26070    0.08390    2.54430    0.11350   47.38000  115.37650  195.40000   19.77490    8.84710    4.71260   42.53970   12.81950
 3210.50000    3.16410    0.24830    0.06540    2.57980    0.11810   47.15320  115.36260  195.40000   22.26560    8.79590    5.07520   63.63030   18.12140
 3211.00000    3.23340    0.22970    0.05410    2.61400    0.11430   46.66000  112.71870  195.81600   25.83330    8.74560    8.94880   94.95000   25.55200
 3211.50000    3.29030    0.20750    0.04090    2.65540    0.10100   46.90000  109.85810  196.40110   31.59740    8.69520   15.29010  141.68560   36.02520
 3212.00000    3.34510    0.18370    0.03210    2.64950    0.08790   46.78720  111.15520  196.98630   49.42780    8.67200   14.15300  156.45530   43.67260
 3212.50000    3.40640    0.16220    0.03990    2.63430    0.07470   46.42000  115.01520  197.57140  124.39860    8.64670   18.74390  147.99440   41.42330
 3213.00000    3.39400    0.20670    0.05660    2.61860    0.06640   46.90340  118.87070  198.15660  131.40970    8.62190   23.63010  142.60960   42.78600
 3213.50000    3.25290    0.24740    0.07660    2.60580    0.07610   48.07070  123.30090  198.60000  133.79830    8.60220   23.19620  156.45530   47.74470
 3214.00000    3.12750    0.26890    0.06580    2.59560    0.08590   48.81330  123.69360  198.91470  128.99760    8.60200  102.15970  222.29900   62.90340
 3214.50000    2.99930    0.21090    0.04310    2.63900    0.08980   49.05900  122.91140  199.59730   94.58990    8.59580   75.94630  336.83070   93.35830
 3215.00000    3.09690    0.15010    0.02040    2.67650    0.08380   49.30000  120.52480  200.20000   50.46420    8.63560  258.04410  511.41500  165.40720
 3215.50000    3.19970    0.11200   -0.00240    2.71550    0.07850   49.30000  112.59200  199.02600   41.89570    8.64280 1342.73950  777.98250  313.36860
 3216.00000    3.30860    0.07750   -0.02510    2.75590    0.07300   47.88950  105.42400  196.72200   34.44120    8.69260  736.72880 1190.38160  353.95050
 3216.50000    3.39110    0.05960   -0.03490    2.77340    0.06940   46.39740   98.20000  195.24960   29.99540    8.73120  120.70190 1311.15310  441.18410
 3217.00000    3.38640    0.04430   -0.02820    2.76100    0.06670   45.12740   96.32200  193.80000   32.26140    8.77260  204.91480 1367.31790  423.71120
 3217.50000    3.37260    0.05270   -0.02030    2.73920    0.07630   44.68860   94.60000  193.40000   35.66750    8.81600 1616.12390 1504.54710  443.96520
 3218.00000    3.35230    0.05560   -0.01720    2.74430    0.08990   44.24970   94.20000  193.40000   35.21940    8.86050  891.06620 1647.03380  558.88410
 3218.50000    3.39620    0.05080   -0.02460    2.75150    0.10390   43.90000   94.20000  193.80360   33.02430    8.87050  512.24850 1803.46970  703.09300
 3219.00000    3.48910    0.04370   -0.03280    2.75870    0.11200   43.95700   94.81780  194.26910   32.35420    8.82810  770.09280 1942.94080  879.68790
 3219.50000    3.59760    0.05150   -0.02890    2.76410    0.10820   44.03890   95.38670  194.73450   38.27010    8.78850  366.95390 2083.21850  873.65030
 3220.00000    3.52340    0.06520   -0.01350    2.73680    0.10500   44.12080   95.95560  195.20000   44.83760    8.74990  944.22230 2141.55590  748.15140
 3220.50000    3.36580    0.09060    0.00790    2.70320    0.10070   44.20270   96.20000  195.40000   50.19210    8.71010  926.88530 2142.80880  637.72330
 3221.00000    3.20370    0.09030    0.00360    2.71330    0.11230   44.28460   96.20000  194.89500   51.02150    8.67030  153.58260 1847.71900  543.66580
 3221.50000    3.03700    0.08710   -0.01740    2.74570    0.13310   44.38000   95.80000  194.25500   51.81870    8.64050  267.78770 1379.55180  464.71740
 3222.00000    2.95220    0.07540   -0.03210    2.77690    0.14280   44.26270   95.40000  193.61500   58.21700    8.65160   93.11890  809.49720  280.51210
 3222.50000    2.99700    0.06360   -0.04790    2.78590    0.14950   43.99940   94.16570  193.40000   66.19320    8.67270  191.83210  474.86630  169.74720
 3223.00000    3.02690    0.07270   -0.03330    2.76250    0.13990   43.73610   92.99540  193.40000   73.78900    8.69350   56.45910  299.54460  110.02030
 3223.50000    2.99450    0.09100   -0.00380    2.73310    0.12830   43.53590   92.23280  194.24600   81.87130    8.71410  165.39980  259.95130   84.87830
 3224.00000    2.97300    0.10940    0.01840    2.68070    0.12300   43.53650   92.33520  194.60000   83.47000    8.73480  129.04110  234.86410  166.80350
 3224.50000    2.95150    0.13230    0.01530    2.68480    0.12230   43.53720   92.43760  194.08720   83.83490    8.75550   61.92920  292.66090  272.79650
 3225.00000    3.01530    0.12840    0.00920    2.69470    0.12150   43.53780   92.54000  193.78000   79.33170    8.77620   20.00000  283.85980  360.21620
 3225.50000    3.07380    0.11810    0.00220    2.70460    0.12050   43.58400   92.60000  193.47280   75.03690    8.79690   58.15830  511.70160  490.69170
 3226.00000    3.12960    0.10770    0.00070    2.71590    0.11960   43.62240   91.90130  193.16560   71.55360    8.81730  561.98170  753.36400  668.42720
 3226.50000    3.18330    0.09740   -0.00100    2.72600    0.11870   43.65810   91.21870  193.00000   68.59920    8.83800  112.07810  945.54140  866.74460
 3227.00000    3.06410    0.08700   -0.01590    2.73310    0.11770   43.43930   90.53600  192.69110   65.74330    8.84610 1446.05540  943.25440 1002.96290
 3227.50000    2.95030    0.07670   -0.03070    2.76710    0.11600   43.23600   89.56860  192.41060   63.22900    8.85020  221.12520  781.26070 1136.46790
 3228.00000    2.83110    0.06760   -0.04540    2.78440    0.10620   43.03120   88.32510  192.13090   61.67520    8.85420  368.56680  627.83390 1059.77840
 3228.50000    2.84250    0.06170   -0.04810    2.78760    0.09940   42.82640   87.08170  191.85210   60.30430    8.85840 1500.65720  502.85930  774.67320
 3229.00000    2.85490    0.06220   -0.05030    2.78880    0.10700   42.62160   85.83830  192.19080   58.92920    8.86250  622.54640  426.33430  493.61020
 3229.50000    2.87140    0.08020   -0.04900    2.78970    0.11510   42.34000   84.59490  192.70220   57.46180    8.86670  152.64210  395.08710  205.15790
 3230.00000    2.88800    0.09590   -0.04710    2.78030    0.11740   42.34000   83.40000  193.21820   56.65770    8.87080   43.55700  402.32320   86.46590
 3230.50000    2.90280    0.11170   -0.03370    2.76270    0.12120   42.61130   84.52370  193.73200   56.90040    8.87490   94.89230  447.58240   98.51560
 3231.00000    2.96800    0.11540   -0.01880    2.74220    0.12480   42.87240   86.25660  194.24400   57.09330    8.87920   36.18890  492.84230  116.31010
 3231.50000    3.05000    0.11530   -0.02320    2.74590    0.12750   43.13360   87.98950  194.41280   57.18120    8.88330  328.33840  521.14670  114.17450
 3232.00000    3.13310    0.11640   -0.02690    2.74740    0.13020   43.39470   89.72250  193.79840   55.06960    8.89210  143.32490  400.04970   96.86210
 3232.50000    3.27730    0.11860   -0.01010    2.74900    0.10500   43.65580   91.45540  193.40000   52.72040    8.90040   36.12190  318.63070   80.18910
 3233.00000    3.38740    0.14040    0.01170    2.71990    0.06600   43.91690   93.13440  193.48950   50.73410    8.90910   15.42960  253.38510   66.38600
 3233.50000    3.36200    0.15330    0.03350    2.67780    0.05360   44.17800   94.77280  193.58260   51.21360    8.91810   50.88420  232.80580   59.68690
 3234.00000    3.33750    0.14900    0.04750    2.63040    0.04100   44.38000   95.40000  193.67560   52.18240    8.92830   44.30930  210.69700   54.72850
 3234.50000    3.31280    0.13830    0.03940    2.63470    0.04450   44.38000   95.40000  193.76870   52.53990    8.94210   71.83930  173.59760   49.77410
 3235.00000    3.29080    0.12780    0.03150    2.65150    0.05400   44.38000   95.40000  194.34000   48.31870    8.95690   15.44390  134.93150   45.27340
 3235.50000    3.20720    0.13290    0.03470    2.65820    0.06380   44.38000   95.40000  194.85200   44.34760    8.96000    3.70370  104.87910   41.17970
