~Version ---------------------------------------------------
VERS.   2.0 : CWLS log ASCII Standard -VERSION 2.0
WRAP.    NO : One line per depth step
DLM . SPACE : Column Data Section Delimiter
~Well ------------------------------------------------------
STRT .F                   38.0 : START DEPTH
STOP .F                 5502.0 : STOP DEPTH
STEP .F                    0.5 : STEP
NULL .                -9999.25 : NULL VALUE
COMP .                         : COMPANY
WELL .                         : WELL
FLD  .                         : FIELD
LOC  .                         : LOCATION
PROV .                         : PROVINCE
CNTY .                         : COUNTY
STAT .                         : STATE
CTRY .                         : COUNTRY
SRVC .                         : SERVICE COMPANY
DATE .                         : DATE
UWI  .                         : UNIQUE WELL ID
API  .                         : API NUMBER
SLAT .WGS84    1.2915234988875 : SURFACE LATITUDE
SLON .WGS84 7.3264640520940105 : SURFACE LONGITUDE
DATUM.F                2565.58 : DEPTH DATUM ELEV
~Curve Information -----------------------------------------
DEPT.F     : 
PEF .B/E   : PHOTOELECTRIC FACTOR
NPHI.DEC   : NEUTRON POROSITY LIMESTONE
DPHI.DEC   : DENSITY POROSITY SANDSTONE
RHOB.G/C3  : BULK DENSITY
DRHO.G/C3  : DENSITY CORRECTION
DTCO.US/F  : COMPRESSIONAL-WAVE INTERVAL TRANSIT TIME ACOUSTIC SLOWNESS
DTSM.US/F  : INTERVAL TRANSIT TIME FROM TRANSMITTER ARRAY
DTST.US/F  : DELTA T STONELEY WAVE SLOWNESS
GRS .GAPI  : GAMMA RAY FROM SONIC LOG
CALR.IN    : CALIPER FROM RESISTIVITY
MSFL.OHMM  : MICRO SPHERICALLY FOCUSED
LLD .OHMM  : LATEROLOG LOG DEEP
LLS .OHMM  : LATEROLOG LOG SHALLOW
~Params ----------------------------------------------------
~Other -----------------------------------------------------
~ASCII -----------------------------------------------------
# ...
 3834.00000    3.29950    0.10100   -0.01070    2.72350    0.08120   43.34010   93.08720  194.85830   35.60090    8.74040   28.25340   22.47110   23.54590
 3834.50000    3.36100    0.10050   -0.00940    2.72280    0.08240   43.28810   91.76810  194.04860   31.20020    8.74230   63.09920   32.47680   31.72490
 3835.00000    3.31330    0.10180   -0.00750    2.72360    0.08440   43.22590   90.40490  193.55700   31.14850    8.74420   33.75940   46.12040   44.23100
 3835.50000    3.18160    0.10100   -0.01040    2.72720    0.08600   43.16370   90.40490  192.81670   32.56830    8.74600   24.98100   56.91430   45.08820
 3836.00000    3.03840    0.09830   -0.01380    2.73860    0.08680   43.09720   90.61890  192.02430   37.84240    8.74790   20.37410   59.68690   46.79310
 3836.50000    3.07940    0.09520   -0.01710    2.73560    0.07710   43.09720   90.81330  192.02430   43.92290    8.74980   29.00400   64.84180   48.59760
 3837.00000    3.12230    0.09090   -0.01820    2.73480    0.06740   43.09720   91.00760  192.02430   49.91630    8.75170   47.45280   70.52020   49.09930
 3837.50000    3.17730    0.08610   -0.01720    2.73460    0.06480   43.09720   91.20190  192.16890   56.09760    8.75360   84.87830   70.52020   49.58950
 3838.00000    3.15190    0.07810   -0.01800    2.75230    0.06510   43.09720   91.39630  192.31700   62.97200    8.75550   24.52230   66.70660   50.04950
 3838.50000    3.07380    0.07400   -0.02850    2.76790    0.07130   43.09720   91.61940  192.42920   68.38990    8.75730   32.25490   69.27670   50.51780
 3839.00000    2.98420    0.05920   -0.04060    2.78450    0.07840   43.09720   91.21460  192.42920   68.29130    8.75920   67.71550   77.36690   63.46440
 3839.50000    3.05280    0.04420   -0.05430    2.80180    0.07410   42.90930   89.59510  192.37500   64.71790    8.76120  142.16100  109.47620   79.59830
 3840.00000    3.15810    0.03860   -0.05950    2.81130    0.06980   42.63290   88.36710  192.29520   63.79790    8.76220  298.45100  159.64040  122.73190
 3840.50000    3.26230    0.04760   -0.05690    2.80190    0.06500   42.35650   86.35630  192.21550   62.59860    8.76210  484.54690  230.88950  235.20820
 3841.00000    3.13390    0.05890   -0.05030    2.78470    0.06630   42.12550   86.35630  192.13580   61.70930    8.76210  218.60590  210.45670  195.38410
 3841.50000    3.04040    0.07220   -0.03990    2.76920    0.07240   42.20570   86.76110  192.05610   56.98060    8.76210  230.88950  164.82860  147.47420
 3842.00000    3.09220    0.08550   -0.02940    2.75070    0.07850   42.30930   86.85410  192.02430   50.93060    8.76210  102.15970  127.06090  111.31230
 3842.50000    3.19310    0.09660   -0.02070    2.74220    0.08260   42.41300   87.37550  191.98380   44.90160    8.76210  116.13780   97.88170   85.29880
 3843.00000    3.16800    0.10000   -0.01310    2.73230    0.08030   42.51660   87.89800  191.88960   39.89930    8.76210   45.20170   79.06070   65.67620
 3843.50000    3.00980    0.10340   -0.00670    2.72310    0.07810   42.61130   88.41970  191.79540   37.36940    8.76210   46.90850   65.32500   50.56780
 3844.00000    2.91150    0.10860   -0.00240    2.71380    0.07590   42.73280   88.94080  191.70110   36.59640    8.76190   22.35220   53.95550   42.75730
 3844.50000    2.99640    0.11870    0.00190    2.70430    0.07360   42.73280   89.46130  191.61940   38.53740    8.76240   19.35460   44.55020   38.97820
 3845.00000    3.10060    0.13280    0.00640    2.69500    0.07290   42.85430   90.81540  196.07290   43.55210    8.76220   13.05930   35.99670   34.48650
 3845.50000    3.05600    0.14680    0.01910    2.68530    0.07360   42.97570   92.45930  202.33850   51.72020    8.76090   13.60270   28.80170   28.10580
 3846.00000    3.00560    0.16090    0.03620    2.67610    0.07670   43.46480   94.09510  213.32470   60.22680    8.76360   15.71820   23.02910   22.90570
 3846.50000    3.00270    0.17030    0.03220    2.66650    0.07950   43.87930   95.73620  218.46960   68.96860    8.76720    6.64170   18.29440   18.66770
 3847.00000    3.02840    0.15790    0.02010    2.65430    0.08290   44.29390   97.28750  222.38870   74.30070    8.84220   10.73590   15.71820   15.14630
 3847.50000    3.05570    0.13640    0.00800    2.66460    0.08240   44.70850   98.09720  223.60320   67.07570    8.91790   28.05150   17.51100   17.70980
 3848.00000    3.06050    0.11490   -0.00020    2.68770    0.08180   44.38340   98.09720  223.60320   56.83210    8.92150  125.25950   20.86760   20.77920
 3848.50000    3.02700    0.10560    0.00880    2.70950    0.08140   43.82590   96.07290  222.79350   51.56820    8.91120   83.57030   24.52230   24.07200
 3849.00000    2.99570    0.13990    0.02440    2.70010    0.08280   43.94740   96.07290  221.17410   53.60870    8.89320   33.45290   22.66640   19.44920
 3849.50000    2.96460    0.18190    0.04100    2.68010    0.08400   44.22430   97.46370  212.52550   61.09100    8.87610   13.39110   17.24970   14.44790
 3850.00000    2.93270    0.21690    0.03980    2.66150    0.08540   44.46540   99.29900  202.18150   63.42910    8.86100    4.64610   11.40750   10.75440
 3850.50000    2.90110    0.21510    0.03310    2.64520    0.08710   44.70650  101.13440  195.66800   66.09200    8.84420    3.77430    9.18340    8.97880
 3851.00000    2.86970    0.17480    0.02620    2.67640    0.08390   44.91900  102.95550  194.85830   59.59780    8.85880    3.97870    9.82790    9.57390
 3851.50000    2.83800    0.13680    0.00550    2.70470    0.07810   44.79760  101.09130  194.45340   53.25050    8.87520   17.88270   19.63280   20.03600
 3852.00000    2.80560    0.09890   -0.01670    2.73580    0.07270   43.86870   96.86370  192.94580   46.14990    8.88410  106.83850   44.45400   39.67670
 3852.50000    2.78440    0.06140   -0.03890    2.76770    0.07110   43.00490   92.63610  191.61940   42.72430    8.87810  317.10090  104.07050   78.51990
 3853.00000    2.78630    0.04340   -0.04920    2.78700    0.07820   42.59800   87.97570  193.23890   41.92250    8.86570  216.97720  119.17940  118.15590
 3853.50000    2.82670    0.04870   -0.04980    2.79090    0.08580   42.36840   87.57080  205.00810   40.95120    8.85510   83.35510  129.98920  130.32660
 3854.00000    2.91740    0.05730   -0.05050    2.79590    0.09150   42.38850   87.16600  214.29150   40.05730    8.84390   42.17400  124.77760  124.67280
 3854.50000    2.99200    0.06440   -0.05420    2.79900    0.09210   42.41660   87.16600  215.50610   38.11100    8.85930  145.64720  114.63250  120.70190
 3855.00000    3.04260    0.06700   -0.05680    2.79980    0.09250   42.44460   87.69910  212.08210   35.17960    8.87570  145.08180   99.64870  101.89970
 3855.50000    3.06620    0.06930   -0.04670    2.77610    0.09310   42.47260   87.87050  203.56160   33.11170    8.88250  100.97810   77.03170   82.98080
 3856.00000    3.06360    0.08520   -0.02620    2.74400    0.08590   42.48990   88.78540  195.04110   33.23430    8.87650   53.05970   58.59100   66.70660
 3856.50000    3.00680    0.10270    0.00300    2.71350    0.07760   42.76190   89.49100  191.21460   34.02740    8.87090   27.84300   43.49250   37.86850
 3857.00000    2.95430    0.12180    0.01520    2.68510    0.07760   43.03620   90.96010  192.02430   35.09260    8.86560   14.59990   33.60330   23.19620
 3857.50000    2.88920    0.12100    0.00980    2.70200    0.08790   43.31040   92.42920  193.64370   36.52600    8.86000    8.37760   35.86020   23.22020
 3858.00000    2.92740    0.12020   -0.00040    2.71820    0.09810   43.58460   93.89820  196.96490   44.38860    8.85440   17.21620   38.74850   26.70790
 3858.50000    3.11930    0.12670   -0.01060    2.73190    0.10800   43.85880   95.36730  200.90690   53.90510    8.84910   41.26200   41.86940   31.87130
 3859.00000    3.14670    0.14280   -0.01470    2.73410    0.11810   44.13310   96.83630  203.36030   54.70460    8.84320   27.84620   47.02830   40.39850
 3859.50000    3.02380    0.14120   -0.01310    2.73640    0.12880   44.43320   97.28750  201.74090   49.94990    8.84300   19.00190   46.90850   39.74280
