~Version ---------------------------------------------------
VERS.   2.0 : CWLS log ASCII Standard -VERSION 2.0
WRAP.    NO : One line per depth step
DLM . SPACE : Column Data Section Delimiter
~Well ------------------------------------------------------
STRT .F                   38.0 : START DEPTH
STOP .F                 5502.0 : STOP DEPTH
STEP .F                    0.5 : STEP
NULL .                -9999.25 : NULL VALUE
COMP .                         : COMPANY
WELL .                         : WELL
FLD  .                         : FIELD
LOC  .                         : LOCATION
PROV .                         : PROVINCE
CNTY .                         : COUNTY
STAT .                         : STATE
CTRY .                         : COUNTRY
SRVC .                         : SERVICE COMPANY
DATE .                         : DATE
UWI  .                         : UNIQUE WELL ID
API  .                         : API NUMBER
SLAT .WGS84    1.2915234988875 : SURFACE LATITUDE
SLON .WGS84 7.3264640520940105 : SURFACE LONGITUDE
DATUM.F                2565.58 : DEPTH DATUM ELEV
~Curve Information -----------------------------------------
DEPT.F     : 
PEF .B/E   : PHOTOELECTRIC FACTOR
NPHI.DEC   : NEUTRON POROSITY LIMESTONE
DPHI.DEC   : DENSITY POROSITY SANDSTONE
RHOB.G/C3  : BULK DENSITY
DRHO.G/C3  : DENSITY CORRECTION
DTCO.US/F  : COMPRESSIONAL-WAVE INTERVAL TRANSIT TIME ACOUSTIC SLOWNESS
DTSM.US/F  : INTERVAL TRANSIT TIME FROM TRANSMITTER ARRAY
DTST.US/F  : DELTA T STONELEY WAVE SLOWNESS
GRS .GAPI  : GAMMA RAY FROM SONIC LOG
CALR.IN    : CALIPER FROM RESISTIVITY
MSFL.OHMM  : MICRO SPHERICALLY FOCUSED
LLD .OHMM  : LATEROLOG LOG DEEP
LLS .OHMM  : LATEROLOG LOG SHALLOW
~Params ----------------------------------------------------
~Other -----------------------------------------------------
~ASCII -----------------------------------------------------
# ...
 4250.00000    3.12880    0.25510    0.10400    2.59880    0.03770   44.25100  106.34620  211.06880   36.24750    9.14880    1.55010    9.17340    7.47520
 4250.50000    3.31190    0.23670    0.09920    2.57620    0.02550   45.17650  112.67210  213.16950   45.68220    9.17040    2.23080    7.65820    6.09740
 4251.00000    3.50410    0.21410    0.09180    2.55670    0.01640   46.01210  112.31980  212.73630   39.02190    9.19160    4.96890    6.82700    7.17990
 4251.50000    3.42120    0.18730    0.08300    2.54220    0.00920   46.14820  110.77730  212.55940   32.19400    9.21330   12.12620    6.78280    9.19030
 4252.00000    3.33690    0.18810    0.09650    2.57310    0.01320   46.20700  109.23480  212.19490   26.33260    9.23610    8.40950    6.70160    8.06190
 4252.50000    3.23670    0.26640    0.11290    2.55110    0.01760   46.02190  107.81380  211.83430   28.95990    9.24150    4.29890    5.98250    6.35760
 4253.00000    3.23550    0.29800    0.13230    2.53320    0.01290   45.76920  108.14670  211.45750   35.12180    9.22850    2.75340    5.05650    5.01290
 4253.50000    3.24740    0.29800    0.13800    2.51440    0.00770   46.11540  109.28930  210.24290   41.40230    9.21660    3.03470    4.27370    3.95190
 4254.00000    3.26150    0.28190    0.13640    2.49390    0.00170   46.37650  110.43180  207.81380   38.09050    9.20520    2.46360    3.50340    3.19340
 4254.50000    3.27510    0.26260    0.13130    2.48420    0.00210   46.37650  111.57440  204.53790   30.66260    9.19350    3.19340    3.69090    3.40340
 4255.00000    3.28840    0.26770    0.12660    2.49760    0.00700   46.49800  109.43320  201.01210   23.11660    9.18160    6.95470    4.13930    3.91540
 4255.50000    3.30220    0.27280    0.12540    2.50950    0.01170   46.43620  110.64780  198.09720   19.96050    9.16960    5.72490    4.64220    4.50450
 4256.00000    3.31570    0.27290    0.12400    2.51590    0.01220   46.37200  112.26720  197.28740   23.89730    9.17050    2.46360    5.20620    5.18220
 4256.50000    3.32950    0.24910    0.11110    2.51580    0.01340   46.30770  111.45100  197.31900   26.07250    9.19310    3.96290    5.88630    5.88630
 4257.00000    3.34310    0.21790    0.10060    2.54900    0.01440   46.24340  110.64780  196.93070   26.34460    9.21510    7.08480    5.72900    5.56800
 4257.50000    3.35350    0.22000    0.10410    2.54470    0.02310   46.17910  111.17410  196.94290   22.26110    9.23720    5.15220    5.31780    5.02840
 4258.00000    3.35380    0.22930    0.10730    2.54350    0.03850   46.11490  111.68830  198.16250   18.28590    9.25410    3.74690    4.93610    4.54120
 4258.50000    3.35420    0.23890    0.10560    2.54050    0.06350   46.05060  111.55260  196.68350   14.15620    9.26840    2.80490    4.58180    4.10110
 4259.00000    3.34200    0.23800    0.10290    2.54420    0.06220   45.98630  110.39580  194.44180   12.43860    9.28320    2.28760    4.25290    3.84350
 4259.50000    3.28700    0.23010    0.10030    2.54780    0.05900   45.92210  109.23890  192.86310   13.86990    9.27260    2.51500    3.98870    3.91540
 4260.00000    3.23420    0.22120    0.09760    2.55280    0.05490   46.10120  108.21860  193.24630   16.05720    9.23120    3.55990    4.52020    4.10650
 4260.50000    3.19770    0.22330    0.09090    2.56220    0.04610   46.51260  112.35790  193.67380   24.46900    9.19100    5.03900    5.68530    4.48140
 4261.00000    3.22790    0.22530    0.08470    2.57520    0.03440   46.86240  115.50610  194.11450   35.32880    9.15050    8.48600    7.15070    4.89060
 4261.50000    3.26640    0.22530    0.08310    2.57040    0.02270   46.98380  116.72060  194.55520   47.91800    9.10980    8.06610    7.77260    4.82750
 4262.00000    3.21470    0.21800    0.09150    2.55400    0.02250   46.98380  116.72060  194.99600   46.32850    9.07040    5.01290    5.94110    4.73010
 4262.50000    3.09190    0.21390    0.10020    2.54760    0.02810   46.80160  113.58300  196.19430   36.93550    9.02870    3.19340    4.54120    4.63470
 4263.00000    3.02140    0.21650    0.10270    2.54870    0.03430   46.33890  110.75510  198.55950   29.02540    8.98500    4.37590    4.48540    4.54120
 4263.50000    3.06070    0.21880    0.09470    2.54850    0.03960   45.89070  107.92710  200.92470   21.03590    8.98990    4.13930    4.45780    4.45780
 4264.00000    3.19950    0.21720    0.08240    2.57430    0.04570   45.86610  105.78950  203.28990   20.55370    9.04470    3.37590    4.89060    4.89060
 4264.50000    3.34520    0.17110    0.06340    2.60920    0.04410   45.82920  106.66530  205.70200   24.36730    9.03280    6.60910    7.18390    7.23400
 4265.00000    3.33920    0.11860    0.03240    2.64280    0.02900   45.78830  107.00910  208.17000   36.20250    9.02010   49.59020   10.98510   10.07500
 4265.50000    3.21990    0.08210    0.02640    2.67540    0.01970   45.64500  104.61520  210.63810   35.17350    9.00770   31.15430   16.79740   14.52770
 4266.00000    3.11110    0.07660    0.02280    2.67330    0.02230   45.03430  101.89970  213.10610   28.83460    9.01230   15.00660   20.75520   21.14340
 4266.50000    2.99970    0.09090    0.02590    2.67110    0.02870   44.51080   99.18520  214.69640   22.40630    9.04070    9.11270   17.86770   17.47210
 4267.00000    3.00370    0.11160    0.02890    2.66720    0.03520   43.98750   96.47250  211.06810   17.81830    9.06860    7.30700   14.86820   14.86820
 4267.50000    3.21870    0.11170    0.02680    2.66870    0.04190   43.46450   94.60800  206.11340   17.90540    9.09590    6.22280   15.68180   15.39390
 4268.00000    3.41360    0.09060    0.01870    2.68500    0.04680   42.94160   93.43350  201.15860   18.67590    9.12390   24.29610   17.81260   17.48560
 4268.50000    3.62490    0.07410    0.01060    2.69370    0.05060   42.92540   92.25800  196.16970   19.89210    9.15300   95.36400   20.00000   19.72230
 4269.00000    3.52540    0.09800    0.02190    2.68110    0.05440   43.25590   93.94610  192.58580   21.18230    9.16640   39.51900   19.63280   19.53410
 4269.50000    3.30500    0.14880    0.04340    2.64570    0.05860   43.58650   96.37100  190.78200   22.99720    9.17970   12.03240   14.90260   13.66250
 4270.00000    3.08510    0.20440    0.06440    2.61110    0.06330   43.91700   98.79430  189.97860   24.79270    9.19860    4.52640    7.91800    9.55990
 4270.50000    3.03080    0.23530    0.06950    2.59490    0.06940   44.24750  101.21660  190.51650   26.48160    9.21710    7.69180    6.64600    6.69240
 4271.00000    3.11130    0.24710    0.07410    2.58890    0.06710   44.55470  103.63830  191.40500   26.45580    9.23440    3.11150    5.36540    5.10410
 4271.50000    3.14900    0.23590    0.07860    2.58290    0.05950   44.74960  105.77790  192.72300   23.30270    9.27380    7.38010    4.69960    4.52010
 4272.00000    3.07050    0.22770    0.08810    2.55380    0.05270   45.03760  106.93320  194.06830   20.45090    9.33710    2.33040    4.21670    4.20070
 4272.50000    3.00290    0.24460    0.10080    2.51580    0.04480   45.32550  108.21860  195.26320   18.55020    9.40210    2.74060    3.92270    3.92150
 4273.00000    2.93780    0.27730    0.12570    2.50400    0.04710   45.61340  109.50410  195.20290   20.84580    9.40100    3.91540    3.60880    3.50340
 4273.50000    2.86670    0.30760    0.13680    2.49190    0.05280   45.90140  110.76440  195.08860   23.34170    9.32290    2.49620    3.19340    3.16390
 4274.00000    2.88000    0.33680    0.14930    2.48090    0.05780   46.18930  113.43810  194.97440   30.37710    9.25610    1.46630    3.02070    2.96520
 4274.50000    3.01850    0.36910    0.14690    2.47210    0.06160   46.96920  116.82240  194.85830   37.50690    9.20660    1.52170    3.02070    3.13470
 4275.00000    3.25870    0.28650    0.12470    2.48980    0.04540   47.89470  121.37650  197.89470   44.92960    9.23680    4.09770    3.65260    3.76520
 4275.50000    3.49990    0.24510    0.09520    2.55990    0.03120   48.80570  125.93060  199.71660   45.49180    9.26970   10.16020    6.10860    5.92280
