~Version ---------------------------------------------------
VERS.   2.0 : CWLS log ASCII Standard -VERSION 2.0
WRAP.    NO : One line per depth step
DLM . SPACE : Column Data Section Delimiter
~Well ------------------------------------------------------
STRT .F                   38.0 : START DEPTH
STOP .F                 5502.0 : STOP DEPTH
STEP .F                    0.5 : STEP
NULL .                -9999.25 : NULL VALUE
COMP .                         : COMPANY
WELL .                         : WELL
FLD  .                         : FIELD
LOC  .                         : LOCATION
PROV .                         : PROVINCE
CNTY .                         : COUNTY
STAT .                         : STATE
CTRY .                         : COUNTRY
SRVC .                         : SERVICE COMPANY
DATE .                         : DATE
UWI  .                         : UNIQUE WELL ID
API  .                         : API NUMBER
SLAT .WGS84    1.2915234988875 : SURFACE LATITUDE
SLON .WGS84 7.3264640520940105 : SURFACE LONGITUDE
DATUM.F                2565.58 : DEPTH DATUM ELEV
~Curve Information -----------------------------------------
DEPT.F     : 
PEF .B/E   : PHOTOELECTRIC FACTOR
NPHI.DEC   : NEUTRON POROSITY LIMESTONE
DPHI.DEC   : DENSITY POROSITY SANDSTONE
RHOB.G/C3  : BULK DENSITY
DRHO.G/C3  : DENSITY CORRECTION
DTCO.US/F  : COMPRESSIONAL-WAVE INTERVAL TRANSIT TIME ACOUSTIC SLOWNESS
DTSM.US/F  : INTERVAL TRANSIT TIME FROM TRANSMITTER ARRAY
DTST.US/F  : DELTA T STONELEY WAVE SLOWNESS
GRS .GAPI  : GAMMA RAY FROM SONIC LOG
CALR.IN    : CALIPER FROM RESISTIVITY
MSFL.OHMM  : MICRO SPHERICALLY FOCUSED
LLD .OHMM  : LATEROLOG LOG DEEP
LLS .OHMM  : LATEROLOG LOG SHALLOW
~Params ----------------------------------------------------
~Other -----------------------------------------------------
~ASCII -----------------------------------------------------
# ...
 5056.00000    2.82880    0.04100   -0.03820    2.78530    0.03870   42.06740   86.80270  191.42280   24.33210    8.76050  195.42030  285.29400  199.74070
 5056.50000    2.95310    0.04750   -0.04010    2.77430    0.03860   42.32280   87.91270  193.68290   25.08200    8.75630  150.76260  203.11080  153.01660
 5057.00000    3.03480    0.04750   -0.04220    2.77230    0.04460   42.57830   89.02280  195.76420   25.09330    8.75220   54.40490  157.57260  117.22230
 5057.50000    3.10600    0.04270   -0.04780    2.77890    0.05090   42.74390   90.13280  197.84550   23.39140    8.74790   32.38060  130.81080   97.17380
 5058.00000    3.10310    0.03650   -0.05340    2.78700    0.05290   42.74390   90.60980  199.55290   21.79210    8.74370   83.31980  120.70190   87.62730
 5058.50000    3.09900    0.03030   -0.05550    2.79510    0.05220   42.66100   90.60980  199.55290   20.36850    8.73950   67.95430  118.48570   86.46590
 5059.00000    3.09250    0.02710   -0.05190    2.80130    0.05140   42.45290   90.07450  195.88210   20.35410    8.73520  131.66200  140.93860   99.91290
 5059.50000    3.08620    0.02570   -0.05450    2.79650    0.05100   42.24470   89.20730  192.23980   19.78850    8.73100  316.39180  170.65240  122.16460
 5060.00000    3.07930    0.02480   -0.05740    2.79470    0.05370   42.01220   88.34010  190.20320   18.86060    8.72680  744.82820  206.63080  149.37210
 5060.50000    3.07560    0.02600   -0.05770    2.79720    0.05620   41.83260   87.47290  190.20320   17.32270    8.72250  137.42070  248.65510  184.85230
 5061.00000    3.07350    0.02690   -0.05250    2.79980    0.04760   41.71550   86.54470  190.76660   16.58270    8.71830  125.25950  253.30610  184.47580
 5061.50000    3.14390    0.02760   -0.04900    2.80310    0.03850   41.59850   85.73850  191.25630   16.37240    8.71410  131.89000  242.14580  183.28740
 5062.00000    3.20540    0.02940   -0.04790    2.79920    0.03190   41.40240   84.87130  191.74600   16.55960    8.70980  139.99110  231.64870  182.10660
 5062.50000    3.22960    0.03290   -0.04280    2.78900    0.02480   41.41220   84.71540  192.23580   16.71790    8.70560  110.02030  222.48860  164.12760
 5063.00000    3.21990    0.03870   -0.03700    2.77950    0.02450   41.53450   85.41110  192.72550   16.74100    8.70140   86.46590  172.34260  131.89640
 5063.50000    3.21070    0.04020   -0.04000    2.77000    0.03130   41.85340   86.60050  193.21520   15.44080    8.69710   57.86260  131.58290  105.65400
 5064.00000    3.20490    0.03740   -0.04620    2.77470    0.03900   42.16390   87.78980  193.70490   14.47320    8.69300   14.59520  100.45180   84.63760
 5064.50000    3.19700    0.02610   -0.05190    2.78370    0.03940   42.47370   88.64230  194.26830   13.34020    8.68870   58.80860   87.88800   70.05450
 5065.00000    3.18540    0.01980   -0.05230    2.79320    0.03140   42.62470   88.98370  194.00410   13.56370    8.68430 1646.35300  142.16750  140.40070
 5065.50000    3.22760    0.01740   -0.05270    2.79260    0.02240   42.49630   87.38520  193.29470   13.81820    8.68120 1430.33060  261.65360  257.21160
 5066.00000    3.30830    0.01850   -0.05380    2.79210    0.02450   42.12150   85.95430  192.51420   15.04310    8.67400 1128.07470  481.66130  597.72190
 5066.50000    3.40740    0.02070   -0.05600    2.79530    0.02920   41.89020   84.51220  191.73370   16.65160    8.66610 1229.59580  799.17090  492.23620
 5067.00000    3.35860    0.02290   -0.05190    2.79710    0.03410   41.90900   84.72090  190.95320   18.87430    8.65800  597.82110  649.25950  350.38680
 5067.50000    3.29300    0.02480   -0.05110    2.79430    0.03830   41.92790   85.06770  190.20320   21.41690    8.65000  294.74090  507.87680  329.30040
 5068.00000    3.22950    0.02480   -0.05340    2.79130    0.03770   41.94690   85.29540  190.42820   22.77390    8.64200  129.98920  387.93270  292.51510
 5068.50000    3.12330    0.02090   -0.05640    2.79150    0.03730   41.96580   85.17980  190.77510   20.73590    8.63380  259.25840  395.21630  294.88180
 5069.00000    3.03220    0.01690   -0.05940    2.79650    0.03670   41.98470   85.06410  191.01630   19.08770    8.62620 1346.72680  424.33620  308.78570
 5069.50000    3.04160    0.01600   -0.06240    2.80170    0.03610   42.00360   84.94850  190.60980   18.80650    8.61810 1677.14750  455.60170  325.18340
 5070.00000    3.04770    0.02010   -0.06240    2.80580    0.03560   42.02250   84.91870  190.39700   18.36950    8.60890 1557.32080  475.65010  335.66320
 5070.50000    3.06000    0.02410   -0.06240    2.79840    0.03510   42.04150   84.91870  190.13430   18.66740    8.60260  417.78180  408.66930  299.61470
 5071.00000    3.07390    0.02810   -0.06240    2.79500    0.03430   42.06040   85.02100  189.87240   18.69020    8.60750  320.52280  326.63910  254.67790
 5071.50000    3.13530    0.02810   -0.05800    2.79710    0.03610   42.07930   85.10770  190.53310   17.99440    8.64550  272.79650  288.39230  222.48860
 5072.00000    3.18300    0.02610   -0.05370    2.79960    0.03710   42.09820   85.19440  192.09590   16.75350    8.64370  283.09710  293.78660  218.40340
 5072.50000    3.08630    0.02400   -0.04950    2.79430    0.03770   42.11710   85.28120  193.84290   15.37950    8.64720  328.33840  350.77390  292.47380
 5073.00000    2.99970    0.02170   -0.05170    2.78810    0.03770   42.13420   85.03250  193.07690   14.40390    8.65140  506.88480  446.49440  387.93270
 5073.50000    2.88880    0.01960   -0.05390    2.78910    0.04470   41.87620   84.43790  191.51760   13.69030    8.65410 1089.53020  568.33550  454.51590
 5074.00000    2.83720    0.02120   -0.05400    2.79020    0.05810   41.64210   83.84270  190.20320   14.44270    8.65720 1701.77660  639.82350  493.61020
 5074.50000    2.81240    0.02620   -0.05350    2.79150    0.07110   41.40240   83.69590  189.79680   17.07130    8.66060 1877.50720  490.78260  385.82960
 5075.00000    2.79660    0.03210   -0.05960    2.79290    0.08310   41.40240   83.89720  189.92740   19.40610    8.66370  336.43540  277.89910  238.13220
 5075.50000    2.96930    0.03290   -0.06610    2.79570    0.09480   41.75420   84.24300  190.15040   21.21110    8.66690  164.69530  209.30540  165.39980
 5076.00000    3.11150    0.03090   -0.07290    2.80380    0.07810   42.25610   84.58960  190.37340   20.78870    8.67010  227.21690  181.45810  147.99440
 5076.50000    3.26560    0.02690   -0.06470    2.81520    0.05640   42.25610   84.93690  190.59640   20.41240    8.67320  326.72180  190.30510  147.99440
 5077.00000    3.42180    0.02570   -0.05460    2.81540    0.03500   42.08900   85.32010  190.81940   20.92240    8.67670  428.04590  209.67810  169.66330
 5077.50000    3.56550    0.02750   -0.04450    2.80340    0.01160   41.93290   85.32120  191.01630   21.42840    8.68000  226.14480  239.60770  191.83210
 5078.00000    3.47440    0.03050   -0.03740    2.79210    0.01700   41.96890   85.32520  191.01630   21.98550    8.68060  386.29700  238.29700  195.42030
 5078.50000    3.31720    0.03170   -0.04030    2.78150    0.02540   42.20300   85.32520  190.95210   22.55090    8.68260  381.58680  233.41920  192.11670
 5079.00000    3.16520    0.03250   -0.04650    2.77040    0.03410   42.06290   85.32520  190.83650   22.82640    8.68290  253.30610  230.88950  188.53840
 5079.50000    3.01780    0.03330   -0.05270    2.77500    0.04280   41.76830   85.32520  190.72090   22.66720    8.67340  201.84930  231.32170  185.02670
 5080.00000    2.86490    0.03390   -0.05830    2.78490    0.05190   41.81490   85.32520  190.60980   22.54990    8.75000  181.45810  232.41160  181.45810
 5080.50000    2.87550    0.03420   -0.05670    2.79430    0.05340   41.87160   85.32520  190.60980   22.42870    8.79390  147.95780  233.50650  181.45810
 5081.00000    2.95080    0.03460   -0.05510    2.80320    0.04190   41.92840   85.32520  190.73280   22.30040    8.84330  129.98920  234.60670  181.45810
 5081.50000    3.02470    0.03490   -0.05130    2.79860    0.03060   41.98510   85.41940  190.87470   22.18160    8.84170  178.12640  235.20820  181.45810
