~Version ---------------------------------------------------
VERS.   2.0 : CWLS log ASCII Standard -VERSION 2.0
WRAP.    NO : One line per depth step
DLM . SPACE : Column Data Section Delimiter
~Well ------------------------------------------------------
STRT .F                   38.0 : START DEPTH
STOP .F                 5502.0 : STOP DEPTH
STEP .F                    0.5 : STEP
NULL .                -9999.25 : NULL VALUE
COMP .                         : COMPANY
WELL .                         : WELL
FLD  .                         : FIELD
LOC  .                         : LOCATION
PROV .                         : PROVINCE
CNTY .                         : COUNTY
STAT .                         : STATE
CTRY .                         : COUNTRY
SRVC .                         : SERVICE COMPANY
DATE .                         : DATE
UWI  .                         : UNIQUE WELL ID
API  .                         : API NUMBER
SLAT .WGS84    1.2915234988875 : SURFACE LATITUDE
SLON .WGS84 7.3264640520940105 : SURFACE LONGITUDE
DATUM.F                2565.58 : DEPTH DATUM ELEV
~Curve Information -----------------------------------------
DEPT.F     : 
PEF .B/E   : PHOTOELECTRIC FACTOR
NPHI.DEC   : NEUTRON POROSITY LIMESTONE
DPHI.DEC   : DENSITY POROSITY SANDSTONE
RHOB.G/C3  : BULK DENSITY
DRHO.G/C3  : DENSITY CORRECTION
DTCO.US/F  : COMPRESSIONAL-WAVE INTERVAL TRANSIT TIME ACOUSTIC SLOWNESS
DTSM.US/F  : INTERVAL TRANSIT TIME FROM TRANSMITTER ARRAY
DTST.US/F  : DELTA T STONELEY WAVE SLOWNESS
GRS .GAPI  : GAMMA RAY FROM SONIC LOG
CALR.IN    : CALIPER FROM RESISTIVITY
MSFL.OHMM  : MICRO SPHERICALLY FOCUSED
LLD .OHMM  : LATEROLOG LOG DEEP
LLS .OHMM  : LATEROLOG LOG SHALLOW
~Params ----------------------------------------------------
~Other -----------------------------------------------------
~ASCII -----------------------------------------------------
# ...
 4458.00000    3.85520    0.11300    0.00710    2.72110    0.00500   45.04050  100.58070  225.98760   22.77290    9.38300   19.00020   18.72820   19.22620
 4458.50000    3.84440    0.08950    0.00020    2.72280    0.00230   44.59660   96.32040  222.17710   18.03340    9.36700   30.37770   26.14350   26.34800
 4459.00000    3.79410    0.07400   -0.00690    2.72310   -0.00010   44.17590   92.42920  220.30320   16.34260    9.34940   57.35760   36.49500   36.07730
 4459.50000    3.72310    0.06830   -0.00510    2.71460   -0.00020   43.75520   90.80970  218.41080   16.34380    9.32680   50.67810   43.96250   44.21780
 4460.00000    3.62940    0.06360   -0.00180    2.70360   -0.00030   43.33460   90.49930  216.67800   16.60310    9.30420   67.05800   50.51780   49.59020
 4460.50000    3.53910    0.07070    0.00160    2.69210   -0.00030   42.97570   90.15650  214.94930   16.91110    9.28600   38.00060   44.37170   46.26100
 4461.00000    3.42910    0.08450    0.00660    2.68210    0.00160   42.97570   89.81380  213.48160   17.13020    9.27530   23.56000   33.35510   35.33680
 4461.50000    3.31780    0.10560    0.01560    2.67260    0.00770   43.21220   90.28690  213.09200   17.84240    9.26590   14.61810   25.07370   25.83860
 4462.00000    3.02070    0.12590    0.02090    2.69440    0.01380   43.41780   92.19660  215.40080   22.11470    9.25710    8.06610   17.94270   19.27230
 4462.50000    3.02620    0.13070    0.02480    2.71570    0.01810   43.62350   94.10640  217.80030   28.45040    9.24680   36.95130   20.77120   19.27230
 4463.00000    3.28860    0.11230    0.01080    2.73820    0.01760   43.82920   95.89740  218.74490   36.32670    9.24330  120.70190   26.12690   25.44820
 4463.50000    3.62320    0.09190   -0.00460    2.75550    0.01710   43.94740   96.88260  219.14980   34.20290    9.23620   71.04490   35.85040   37.90500
 4464.00000    4.25300    0.06930   -0.02010    2.75340    0.01660   43.94740   95.70200  219.14980   29.72860    9.22980   46.04720   52.15360   57.51520
 4464.50000    4.11800    0.06490   -0.02660    2.74600    0.01610   43.65220   93.85100  219.14980   25.20190    9.22330   77.41170   61.56950   66.19350
 4465.00000    3.84710    0.06360   -0.02440    2.73820    0.01730   43.30520   92.00000  218.74490   20.48730    9.21660  120.14400   76.37690   74.55190
 4465.50000    3.56180    0.06360   -0.02180    2.72820    0.01840   42.95810   90.14900  218.34010   19.83960    9.21020  200.92870   71.79880   65.48180
 4466.00000    3.39120    0.06360   -0.01750    2.71500    0.01950   42.85430   90.71180  217.93520   25.02580    9.20580  278.59860   59.63410   54.40720
 4466.50000    3.32400    0.08170   -0.01170    2.70170    0.02010   43.02600   92.30870  203.55470   31.49250    9.19950   28.79030   50.38910   41.55900
 4467.00000    3.25130    0.11130   -0.00300    2.68840    0.01830   43.35660   93.90940  191.61940   37.68870    9.17290   35.08230   32.34070   30.57890
 4467.50000    3.17460    0.12350    0.00560    2.67510    0.01660   43.68710   95.51290  191.21460   43.94900    9.14680   21.65890   20.74940   22.49880
 4468.00000    3.09020    0.13780    0.01490    2.66160    0.01470   44.01760   97.11720  191.61940   45.37950    9.12030    9.03790   17.44620   17.50440
 4468.50000    3.15670    0.15220    0.02560    2.65560    0.01300   44.34820   98.72060  191.61940   40.68570    9.09350   10.09910   15.14100   15.65510
 4469.00000    3.33360    0.16550    0.03330    2.65500    0.01220   44.67610  100.32210  190.92080   32.64500    9.06730   11.52490   16.20400   16.24510
 4469.50000    3.50480    0.15750    0.03380    2.66950    0.01730   44.65910  100.71200  190.33310   25.43480    9.04100   14.58440   17.79170   17.99250
 4470.00000    3.65380    0.14610    0.02190    2.69130    0.02180   44.58200   99.67610  190.00000   18.95680    9.01320   30.34700   19.45170   20.37410
 4470.50000    3.60410    0.13460    0.00560    2.68460    0.02680   44.50490   98.64780  195.77170   21.18250    9.00980   63.30840   19.63280   19.63280
 4471.00000    3.41610    0.12750    0.00810    2.67160    0.02800   44.43320   97.69230  200.93120   24.25230    9.02460   18.06190   13.62430   13.42740
 4471.50000    3.23090    0.14420    0.01730    2.65700    0.02690   44.43320   98.42510  201.74090   27.72790    9.03830    5.17020    9.74700    9.31190
 4472.00000    3.22450    0.17350    0.02650    2.65690    0.02600   44.43320   99.58200  201.48580   28.69850    9.02200    4.29560    8.14120    8.52720
 4472.50000    3.26660    0.16580    0.03660    2.65730    0.01930   44.43320  100.73890  200.97170   24.12030    8.96130    8.19800    8.52720    8.84920
 4473.00000    3.31240    0.13860    0.03660    2.70310    0.01360   44.43320  101.74090  200.52630   18.64440    8.88640   18.06190   15.42960   14.32720
 4473.50000    3.35500    0.11140    0.01580    2.74220    0.00920   44.43320  100.06750  204.15750   12.99050    8.87810   42.75730   27.72560   27.09070
 4474.00000    3.42710    0.08870   -0.00400    2.75180    0.00860   44.43320   98.35360  207.97420   11.76220    8.83700   51.94180   48.76690   48.33420
 4474.50000    3.49830    0.06860   -0.02380    2.76050    0.00770   44.07370   96.63970  211.85330   11.22810    8.85510   93.11890   80.21780   78.63160
 4475.00000    3.53500    0.06040   -0.03070    2.76810    0.00660   43.76520   94.92580  211.86060   12.05710    8.89760   58.59100   87.74240   95.29690
 4475.50000    3.58560    0.05610   -0.03420    2.77250    0.00580   43.45670   93.23890  209.75100   13.46400    8.93910   76.39550   99.79180  113.62900
 4476.00000    3.69700    0.05210   -0.03810    2.76850    0.00630   43.14820   92.83400  207.12270   16.10800    8.96500  115.91890  128.18890  135.41190
 4476.50000    3.75790    0.04850   -0.04210    2.76390    0.00740   42.97570   92.83400  204.61200   19.62310    8.92210  175.88980  164.61720  163.23370
 4477.00000    3.74040    0.04430   -0.03690    2.75990    0.00830   43.05590   92.83400  201.96320   20.65530    8.94980  310.58240  194.16350  161.31640
 4477.50000    3.59920    0.04350   -0.03160    2.75710    0.00920   43.34010   92.42920  198.52050   22.88390    8.99880  208.19390  158.02720  163.58580
 4478.00000    3.48740    0.04440   -0.02830    2.73200    0.01250   42.91220   88.54660  195.07390   24.88620    9.03960  111.04440  119.24310   99.35900
 4478.50000    3.45200    0.04590   -0.02770    2.68460    0.02030   42.51560   86.24290  192.00840   25.12130    9.04080   41.20150   42.38060   36.95130
 4479.00000    3.41770    0.07190   -0.01800    2.63720    0.02810   42.47330   88.61540  189.97590   24.97630    8.93510    9.89000   11.96950   13.38600
 4479.50000    3.39890    0.10490    0.01230    2.61840    0.03030   43.17450   92.33320  190.37970   24.88650    8.90000    4.73450    6.02700    6.22280
 4480.00000    3.41980    0.14940    0.04040    2.63460    0.03020   43.87560   96.05110  191.99600   24.72150    8.92870   14.28300    8.76100    8.60660
 4480.50000    3.50960    0.19170    0.05640    2.65980    0.02160   44.57670   99.76890  193.41060   24.48480    8.95210   43.08870   13.22010   12.29600
 4481.00000    3.71250    0.18640    0.04570    2.68230    0.01080   45.28340  103.48680  194.83530   22.73730    8.98250  129.98920   19.94600   18.23010
 4481.50000    3.77260    0.15070    0.03000    2.71200    0.00010   45.16190  105.77330  193.69230   21.25410    9.01190  432.53340   30.00920   35.52440
 4482.00000    3.83930    0.11500    0.01430    2.70730   -0.01000   45.03680  105.37560  192.51710   19.51520    9.04000  814.93780   36.18890   35.19680
 4482.50000    3.89720    0.08120    0.00470    2.67020   -0.01000   44.88260   99.30300  191.61940   22.31640    9.06910  237.22840   25.92420   25.09700
 4483.00000    3.67580    0.05650    0.01460    2.62480   -0.01020   44.72830  100.70420  192.21940   26.30320    9.09810   15.76920   17.24420   16.78870
 4483.50000    3.24280    0.09790    0.03340    2.60980    0.00220   44.55470  103.78960  193.55630   35.64960    9.12650    4.97920   11.47050   11.23090
