~Version ---------------------------------------------------
VERS.   2.0 : CWLS log ASCII Standard -VERSION 2.0
WRAP.    NO : One line per depth step
DLM . SPACE : Column Data Section Delimiter
~Well ------------------------------------------------------
STRT .F                   38.0 : START DEPTH
STOP .F                 5502.0 : STOP DEPTH
STEP .F                    0.5 : STEP
NULL .                -9999.25 : NULL VALUE
COMP .                         : COMPANY
WELL .                         : WELL
FLD  .                         : FIELD
LOC  .                         : LOCATION
PROV .                         : PROVINCE
CNTY .                         : COUNTY
STAT .                         : STATE
CTRY .                         : COUNTRY
SRVC .                         : SERVICE COMPANY
DATE .                         : DATE
UWI  .                         : UNIQUE WELL ID
API  .                         : API NUMBER
SLAT .WGS84    1.2915234988875 : SURFACE LATITUDE
SLON .WGS84 7.3264640520940105 : SURFACE LONGITUDE
DATUM.F                2565.58 : DEPTH DATUM ELEV
~Curve Information -----------------------------------------
DEPT.F     : 
PEF .B/E   : PHOTOELECTRIC FACTOR
NPHI.DEC   : NEUTRON POROSITY LIMESTONE
DPHI.DEC   : DENSITY POROSITY SANDSTONE
RHOB.G/C3  : BULK DENSITY
DRHO.G/C3  : DENSITY CORRECTION
DTCO.US/F  : COMPRESSIONAL-WAVE INTERVAL TRANSIT TIME ACOUSTIC SLOWNESS
DTSM.US/F  : INTERVAL TRANSIT TIME FROM TRANSMITTER ARRAY
DTST.US/F  : DELTA T STONELEY WAVE SLOWNESS
GRS .GAPI  : GAMMA RAY FROM SONIC LOG
CALR.IN    : CALIPER FROM RESISTIVITY
MSFL.OHMM  : MICRO SPHERICALLY FOCUSED
LLD .OHMM  : LATEROLOG LOG DEEP
LLS .OHMM  : LATEROLOG LOG SHALLOW
~Params ----------------------------------------------------
~Other -----------------------------------------------------
~ASCII -----------------------------------------------------
# ...
 3028.00000    4.46580    0.03530   -0.00430    2.71310    0.06720   44.38300   98.82630  195.40000   58.99370    8.61930 1958.15340  559.60050  497.89760
 3028.50000    3.75350    0.05810    0.00370    2.71410    0.06120   44.15900   98.17610  194.98510   60.41380    8.61340  171.64520  321.28740  313.14320
 3029.00000    3.39870    0.08920    0.01520    2.70290    0.06100   44.02130   98.17120  194.54360   69.33800    8.60780  373.81760  171.28200  199.87510
 3029.50000    3.34780    0.12030    0.02160    2.69220    0.06570   44.37560   99.63730  194.28460   77.33880    8.60120   25.44820  110.02030  109.53800
 3030.00000    3.37430    0.15300    0.01700    2.67890    0.07170   44.73400  102.02670  194.69500   82.15560    8.60090  551.66300  115.23740  119.54550
 3030.50000    3.39130    0.14510    0.00020    2.68990    0.07830   45.09240  104.41600  194.99960   79.69060    8.60070  500.98270  180.11800  182.80450
 3031.00000    3.30350    0.10740   -0.02120    2.71460    0.08190   45.45080  106.60000  194.52140   71.90080    8.60080  433.55690  345.18520  279.56050
 3031.50000    3.17350    0.06940   -0.03080    2.73720    0.07980   45.82000  105.80000  193.97010   63.49090    8.60080  572.49330  553.71150  420.69730
 3032.00000    3.15480    0.06730   -0.03280    2.76030    0.06940   45.94000  102.94530  193.41890   55.08690    8.60090  235.20820  755.95300  574.83000
 3032.50000    3.22050    0.06540   -0.03090    2.76150    0.06100   45.38630   99.02000  192.86780   52.65300    8.60080  349.69220  919.27370  608.45590
 3033.00000    3.37540    0.05760   -0.03350    2.76370    0.06090   44.64020   95.80000  192.31630   55.48010    8.60070 1020.27230 2024.32170  891.30660
 3033.50000    3.53290    0.04850   -0.04000    2.76520    0.06080   43.90000   94.39000  192.28080   50.82180    8.60110 1708.51790 4980.22850 1823.97560
 3034.00000    3.57470    0.04310   -0.04140    2.77520    0.05890   43.71040   93.11000  192.38320   43.77220    8.60150 1586.45000 9786.79590 1868.42710
 3034.50000    3.38820    0.03790   -0.03810    2.77060    0.05530   43.40320   91.83000  192.48560   36.66640    8.61850 1874.39440 9239.92290 1844.13610
 3035.00000    3.27960    0.03560   -0.03500    2.76890    0.05290   43.09600   90.55000  192.60000   31.85110    8.63630 1874.39440 5438.74320 1822.47030
 3035.50000    3.29560    0.03390   -0.03800    2.77290    0.06060   42.78880   89.27000  192.60000   33.83480    8.65460 1874.39440 3201.25900 1802.68140
 3036.00000    3.31050    0.03390   -0.04110    2.77610    0.06890   42.58000   87.99000  192.16320   40.83300    8.67270  509.40850 1201.43980 1113.53540
 3036.50000    3.32770    0.04720   -0.03600    2.77790    0.07760   42.61570   87.40000  191.54880   48.53350    8.68950  184.85230 1115.60100  755.95300
 3037.00000    3.34630    0.05950   -0.02580    2.75920    0.08280   42.65410   87.72670  191.40000   56.69320    8.70520  365.59630 1115.60100  770.09280
 3037.50000    3.33120    0.06840   -0.01880    2.74850    0.08520   42.70000   88.01110  191.60000   52.84140    8.72030  122.95960 1336.53300  954.27440
 3038.00000    3.22170    0.07310   -0.01540    2.74220    0.08290   42.70850   88.29560  191.80480   45.99410    8.73630  551.66300 1572.54630 1270.12620
 3038.50000    3.08910    0.07970   -0.01200    2.73620    0.07610   42.72900   88.58000  192.00960   38.18080    8.75310 1201.43980 1806.19400 1246.80520
 3039.00000    3.02430    0.08980   -0.00910    2.73000    0.06940   42.74940   88.86440  192.20000   37.92800    8.75590  554.73850 1740.47510  937.24890
 3039.50000    3.10950    0.10200   -0.00520    2.72390    0.06260   42.76990   89.14890  192.23700   37.72530    8.73280   48.67970 1198.77100  649.37980
 3040.00000    3.21810    0.11420    0.00220    2.71570    0.05590   42.79040   89.40000  192.36500   40.45500    8.71110   65.48180  787.41020  512.07440
 3040.50000    3.33350    0.12630    0.02390    2.70330    0.05010   42.81090   89.97200  192.49300   43.38240    8.68970   46.04720  663.98270  512.35040
 3041.00000    3.41000    0.12910    0.02220    2.69080    0.04520   42.93360   90.48400  192.62100   45.71640    8.66770  266.46760  675.14990  555.22050
 3041.50000    3.28410    0.11600    0.01840    2.67420    0.04050   43.13840   90.99600  192.74900   47.53390    8.64580 1740.47510  709.79120  605.07530
 3042.00000    3.14510    0.10320    0.01040    2.67970    0.03650   43.34320   91.40000  192.87700   48.33630    8.62460  689.05410  746.20980  627.87050
 3042.50000    3.10000    0.09430    0.00170    2.69380    0.03820   43.54000   91.37410  193.00500   48.25650    8.60200 1646.35300  784.49710  798.98190
 3043.00000    3.17900    0.09040   -0.00220    2.70710    0.04000   43.54000   91.31390  193.13300   48.05390    8.60670  619.98060  799.17090  799.20300
 3043.50000    3.29820    0.08660   -0.00420    2.71990    0.03770   43.54000   91.25360  193.26100   51.36240    8.63310  149.23710  737.68510  634.44180
 3044.00000    3.25100    0.08300   -0.01150    2.73320    0.03160   43.54000   91.19340  193.40000   62.06960    8.66020  157.92960  676.23520  493.61020
 3044.50000    3.04500    0.05640   -0.02040    2.74560    0.02740   43.54000   91.13320  193.40000   67.40150    8.68750  560.34920  676.63830  499.49950
 3045.00000    2.87780    0.03700   -0.02920    2.75630    0.03310   43.54000   91.07040  193.21000   63.34690    8.71490  669.85930  676.12260  519.89940
 3045.50000    2.78910    0.03290   -0.03810    2.76660    0.04240   43.54000   91.00970  192.95400   58.05180    8.74170  486.24470  729.77280  531.59060
 3046.00000    2.83910    0.03630   -0.04690    2.77660    0.05860   43.42000   90.39140  192.69800   52.72480    8.76890 1519.19480  777.72330  560.94120
 3046.50000    3.10420    0.04560   -0.05580    2.78680    0.07990   43.15800   89.53700  192.60000   47.37380    8.79750  828.90590  828.78020  616.54330
 3047.00000    3.36410    0.05490   -0.05980    2.80080    0.09350   42.89810   88.40600  192.60000   42.01000    8.78380  292.71410  876.81760  638.83610
 3047.50000    3.62400    0.06420   -0.05530    2.79610    0.09750   42.63810   87.27430  193.02330   37.69970    8.73330  133.19590  907.31860  677.50650
 3048.00000    3.62880    0.07220   -0.04510    2.78240    0.09560   42.37820   86.14280  193.10870   35.27530    8.68510  100.28390  936.59780  675.27470
 3048.50000    3.47860    0.07680   -0.03490    2.76960    0.09460   42.10000   85.77400  193.20190   34.66190    8.64260  244.08950  961.88370  633.13380
 3049.00000    3.40990    0.08130   -0.02460    2.75750    0.08430   42.32440   87.41840  193.28420   36.57110    8.64160  926.88530 1016.87460  588.82350
 3049.50000    3.34630    0.08630   -0.01980    2.74400    0.07500   42.56580   89.15920  193.36720   43.99940    8.63690  276.61460  754.39440  547.64980
 3050.00000    3.29130    0.08590   -0.01720    2.74210    0.07050   42.80710   90.90000  193.40130   58.15070    8.63360   61.94060  484.54690  530.40410
 3050.50000    3.23000    0.06660   -0.02380    2.74210    0.06790   43.04850   92.60000  193.40070   66.12900    8.62990  212.18960  541.53380  620.01290
 3051.00000    3.17470    0.05500   -0.03180    2.76020    0.06980   43.28990   92.60000  193.40040   62.61840    8.62610  876.76070  561.98170  868.72440
 3051.50000    3.29650    0.05230   -0.03980    2.77690    0.07860   43.36340   93.00000  193.40010   55.06710    8.62240  213.27110 1646.65810 1217.35130
 3052.00000    3.40600    0.05230   -0.04710    2.78920    0.08270   43.24050   92.67440  193.40000   45.44940    8.61860  266.07300 4315.52880 1396.03910
 3052.50000    3.47970    0.05720   -0.03320    2.79220    0.06770   43.11760   91.54800  193.40000   44.59570    8.61490  510.44380 5805.05910 1303.98800
 3053.00000    3.33350    0.07890   -0.01300    2.76090    0.05960   42.99550   90.42160  193.40000   49.39010    8.61120 1164.16770 3820.82150 1219.21980
 3053.50000    3.19070    0.09840    0.00720    2.69070    0.05400   42.87180   89.29520  193.40000   53.62700    8.60730  402.58160 2094.83940  725.36530
