~Version ---------------------------------------------------
VERS.   2.0 : CWLS log ASCII Standard -VERSION 2.0
WRAP.    NO : One line per depth step
DLM . SPACE : Column Data Section Delimiter
~Well ------------------------------------------------------
STRT .F                   38.0 : START DEPTH
STOP .F                 5502.0 : STOP DEPTH
STEP .F                    0.5 : STEP
NULL .                -9999.25 : NULL VALUE
COMP .                         : COMPANY
WELL .                         : WELL
FLD  .                         : FIELD
LOC  .                         : LOCATION
PROV .                         : PROVINCE
CNTY .                         : COUNTY
STAT .                         : STATE
CTRY .                         : COUNTRY
SRVC .                         : SERVICE COMPANY
DATE .                         : DATE
UWI  .                         : UNIQUE WELL ID
API  .                         : API NUMBER
SLAT .WGS84    1.2915234988875 : SURFACE LATITUDE
SLON .WGS84 7.3264640520940105 : SURFACE LONGITUDE
DATUM.F                2565.58 : DEPTH DATUM ELEV
~Curve Information -----------------------------------------
DEPT.F     : 
PEF .B/E   : PHOTOELECTRIC FACTOR
NPHI.DEC   : NEUTRON POROSITY LIMESTONE
DPHI.DEC   : DENSITY POROSITY SANDSTONE
RHOB.G/C3  : BULK DENSITY
DRHO.G/C3  : DENSITY CORRECTION
DTCO.US/F  : COMPRESSIONAL-WAVE INTERVAL TRANSIT TIME ACOUSTIC SLOWNESS
DTSM.US/F  : INTERVAL TRANSIT TIME FROM TRANSMITTER ARRAY
DTST.US/F  : DELTA T STONELEY WAVE SLOWNESS
GRS .GAPI  : GAMMA RAY FROM SONIC LOG
CALR.IN    : CALIPER FROM RESISTIVITY
MSFL.OHMM  : MICRO SPHERICALLY FOCUSED
LLD .OHMM  : LATEROLOG LOG DEEP
LLS .OHMM  : LATEROLOG LOG SHALLOW
~Params ----------------------------------------------------
~Other -----------------------------------------------------
~ASCII -----------------------------------------------------
# ...
 5472.00000    3.78290    0.09920    0.03860    2.73550    0.04610   44.14800   97.52030  195.89430   -9999.25    8.10790   10.29010   21.06520   21.83020
 5472.50000    3.85340    0.17350    0.04450    2.69830    0.07050   45.42680  118.65850  200.12780   -9999.25    8.11510    4.13930   19.09450   18.59260
 5473.00000    3.91840    0.22340    0.04520    2.66030    0.07210   46.69460  128.76420  204.14170   -9999.25    8.07690    4.29560   16.31170   16.92760
 5473.50000    3.95120    0.26570    0.04590    2.63870    0.06480   48.13070  140.21140  207.73660   -9999.25    8.03590    1.93620   17.42730   17.94520
 5474.00000    3.98510    0.27520    0.06020    2.63880    0.05710   49.56680  147.45120  210.44230   -9999.25    7.99350    5.92460   20.59430   20.79370
 5474.50000    3.95090    0.28660    0.08470    2.63880    0.05010   51.03660  149.14630  213.24620   -9999.25    7.95140   26.90310   24.33670   24.09440
 5475.00000    3.92170    0.29250    0.07600    2.62160    0.05050   51.10980  147.56100  216.21950   -9999.25    7.90970   16.46350   28.75920   27.91900
 5475.50000    3.88860    0.29330    0.06080    2.59810    0.07900   51.23460  143.86180  219.19280   -9999.25    7.86780   10.07500   31.20250   30.62960
 5476.00000    3.85820    0.29390    0.04420    2.57420    0.10670   51.79950  149.55290  220.69110   -9999.25    7.82540   12.12620   30.95290   30.11180
 5476.50000    3.80380    0.29720    0.04080    2.59330    0.13540   51.42490  146.89430  215.32110   -9999.25    7.78350   18.23010   29.51510   29.51510
 5477.00000    3.72600    0.30520    0.04020    2.61380    0.13860   51.15850  143.77240  211.73740   -9999.25    7.75470   14.86820   33.38260   31.04100
 5477.50000    3.65330    0.29640    0.04110    2.63610    0.13440   51.15850  142.23580  213.66130   -9999.25    7.77590  113.31030   37.84650   33.74370
 5478.00000    3.57920    0.28590    0.04440    2.64960    0.12880   50.17030  141.82930  217.47160   -9999.25    7.79860   58.67790   42.90720   36.68180
 5478.50000    3.49650    0.26000    0.05050    2.64370    0.13820   49.28580  142.98370  221.29240   -9999.25    7.82210   12.58410   46.25240   40.44500
 5479.00000    3.55230    0.24950    0.04790    2.63870    0.17120   48.96340  145.08130  225.14700   -9999.25    7.84550   23.63010   48.10580   42.82070
 5479.50000    3.74940    0.24950    0.03250    2.63390    0.21710   49.08540  146.14520  219.03460   -9999.25    7.86820   18.57110   50.36980   45.86830
 5480.00000    3.93720    0.26400    0.00810    2.62810    0.26330   49.85370  147.33450  211.56810   -9999.25    7.89270   20.27990   56.02490   49.13290
 5480.50000    4.12100    0.26030   -0.01320    2.65020    0.28180   50.91460  148.52380  205.61390   -9999.25    7.91620   26.40910   62.31480   52.42530
 5481.00000    4.31350    0.25640   -0.02560    2.68390    0.26780   51.09610  149.55290  205.60060   -9999.25    7.93500   39.70240   69.31100   60.07530
 5481.50000    4.31760    0.25510   -0.02720    2.71670    0.23920   51.22100  149.14630  209.25590   -9999.25    7.95940   55.42250   77.09260   68.30500
 5482.00000    4.22970    0.25600   -0.02440    2.74660    0.21750   51.28050  145.15120  213.31970   -9999.25    7.97500   49.59020   83.31980   77.30390
 5482.50000    4.14360    0.26650   -0.04020    2.74960    0.24100   51.28050  140.60980  213.33060   -9999.25    8.08960   40.44500   83.31980   78.89370
 5483.00000    4.07520    0.26200   -0.05360    2.75160    0.26390   50.91460  139.72090  213.00770   -9999.25    8.07100   41.66220   81.68900   77.38530
 5483.50000    4.04660    0.25840   -0.06000    2.76360    0.24830   50.47270  138.79580  212.43180   -9999.25    8.06050   32.99650   79.92530   74.90120
 5484.00000    4.04500    0.25760   -0.04010    2.80730    0.21540   50.09800  137.87080  211.75380   -9999.25    8.05270   29.00540   78.19970   72.50140
 5484.50000    4.03940    0.26620   -0.02040    2.79970    0.18130   49.71720  136.36400  211.31300   -9999.25    8.03930   38.56390   77.36690   70.48340
 5485.00000    4.10410    0.27470   -0.02200    2.77340    0.16320   49.34010  134.13680  210.79270   -9999.25    8.02820   46.04720   80.42770   74.05120
 5485.50000    4.23950    0.27860   -0.02330    2.74900    0.15960   48.96370  131.91590  210.27240   -9999.25    8.01820   43.55700   86.65430   84.28690
 5486.00000    4.36980    0.27940   -0.02450    2.74160    0.15430   48.70870  130.41150  207.45850   -9999.25    8.00450   69.22540  108.65450   95.93750
 5486.50000    4.50020    0.27590   -0.02010    2.74050    0.15810   -9999.25   -9999.25   -9999.25   -9999.25    7.99170   66.70660  129.17970  109.19850
 5487.00000    4.63110    0.27430   -0.01470    2.73940    0.17390   -9999.25   -9999.25   -9999.25   -9999.25    7.91380   69.22540  139.67910  122.05150
 5487.50000    4.72930    0.27860   -0.02030    2.73830    0.19570   -9999.25   -9999.25   -9999.25   -9999.25    7.84530   54.40490  150.34940  129.79690
 5488.00000    4.70470    0.28280   -0.02590    2.73800    0.19030   -9999.25   -9999.25   -9999.25   -9999.25    7.77410   60.80330  152.30690  133.42140
 5488.50000    4.68280    0.28710   -0.01490    2.74000    0.17160   -9999.25   -9999.25   -9999.25   -9999.25    7.75530   50.51780   -9999.25   -9999.25
 5489.00000    4.65750    0.28910   -0.00460    2.74210    0.15280   -9999.25   -9999.25   -9999.25   -9999.25    7.81110   28.23110   -9999.25   -9999.25
 5489.50000    4.63040    0.28990   -0.00020    2.74540    0.13470   -9999.25   -9999.25   -9999.25   -9999.25    7.86770    7.77260   -9999.25   -9999.25
 5490.00000    4.62590    0.29070   -0.00410    2.73420    0.10250   -9999.25   -9999.25   -9999.25   -9999.25    7.92410    8.98140   -9999.25   -9999.25
 5490.50000    4.67370    0.29070   -0.00750    2.70620    0.08560   -9999.25   -9999.25   -9999.25   -9999.25    7.98210   19.32240   -9999.25   -9999.25
 5491.00000    4.66450    0.29070   -0.00340    2.71020    0.06780   -9999.25   -9999.25   -9999.25   -9999.25    8.04290   33.60330   -9999.25   -9999.25
 5491.50000    4.56530    0.29070   -0.00560    2.72230    0.05510   -9999.25   -9999.25   -9999.25   -9999.25    8.08030   34.87220   -9999.25   -9999.25
 5492.00000    4.46980    0.29070   -0.01500    2.71960    0.06990   -9999.25   -9999.25   -9999.25   -9999.25    8.06220   53.40590   -9999.25   -9999.25
 5492.50000    4.35720    0.29070   -0.02120    2.71650    0.08920   -9999.25   -9999.25   -9999.25   -9999.25    8.00020   48.00780   -9999.25   -9999.25
 5493.00000    4.20990    0.29070   -0.00250    2.73370    0.10790   -9999.25   -9999.25   -9999.25   -9999.25    7.94390   34.87220   -9999.25   -9999.25
 5493.50000    4.07100    0.29070    0.01700    2.74480    0.12770   -9999.25   -9999.25   -9999.25   -9999.25    7.88010   14.69010   -9999.25   -9999.25
 5494.00000    3.89510    0.29070    0.03780    2.73250    0.14720   -9999.25   -9999.25   -9999.25   -9999.25    7.87810    4.37590   -9999.25   -9999.25
 5494.50000    3.88950    0.29070    0.01890    2.69790    0.26300   -9999.25   -9999.25   -9999.25   -9999.25    7.92150   11.08050   -9999.25   -9999.25
 5495.00000    3.95270    0.29070   -0.00830    2.65250    0.29020   -9999.25   -9999.25   -9999.25   -9999.25    7.95450   46.90850   -9999.25   -9999.25
 5495.50000    4.00760    0.29080   -0.00380    2.66880    0.28970   -9999.25   -9999.25   -9999.25   -9999.25    7.98490   39.62890   -9999.25   -9999.25
 5496.00000    4.06870    0.29090    0.01110    2.71570    0.26510   -9999.25   -9999.25   -9999.25   -9999.25    7.84460   27.91900   -9999.25   -9999.25
 5496.50000    3.96270    0.29100    0.02480    2.70750    0.20750   -9999.25   -9999.25   -9999.25   -9999.25    7.68300   36.29630   -9999.25   -9999.25
 5497.00000    3.76690    0.29110    0.02040    2.68820    0.19260   -9999.25   -9999.25   -9999.25   -9999.25    7.67640   41.43120   -9999.25   -9999.25
 5497.50000    3.88560    0.29120    0.01340    2.67030    0.17750   -9999.25   -9999.25   -9999.25   -9999.25    7.68480   36.86580   -9999.25   -9999.25
