~Version ---------------------------------------------------
VERS.   2.0 : CWLS log ASCII Standard -VERSION 2.0
WRAP.    NO : One line per depth step
DLM . SPACE : Column Data Section Delimiter
~Well ------------------------------------------------------
STRT .F                   38.0 : START DEPTH
STOP .F                 5502.0 : STOP DEPTH
STEP .F                    0.5 : STEP
NULL .                -9999.25 : NULL VALUE
COMP .                         : COMPANY
WELL .                         : WELL
FLD  .                         : FIELD
LOC  .                         : LOCATION
PROV .                         : PROVINCE
CNTY .                         : COUNTY
STAT .                         : STATE
CTRY .                         : COUNTRY
SRVC .                         : SERVICE COMPANY
DATE .                         : DATE
UWI  .                         : UNIQUE WELL ID
API  .                         : API NUMBER
SLAT .WGS84    1.2915234988875 : SURFACE LATITUDE
SLON .WGS84 7.3264640520940105 : SURFACE LONGITUDE
DATUM.F                2565.58 : DEPTH DATUM ELEV
~Curve Information -----------------------------------------
DEPT.F     : 
PEF .B/E   : PHOTOELECTRIC FACTOR
NPHI.DEC   : NEUTRON POROSITY LIMESTONE
DPHI.DEC   : DENSITY POROSITY SANDSTONE
RHOB.G/C3  : BULK DENSITY
DRHO.G/C3  : DENSITY CORRECTION
DTCO.US/F  : COMPRESSIONAL-WAVE INTERVAL TRANSIT TIME ACOUSTIC SLOWNESS
DTSM.US/F  : INTERVAL TRANSIT TIME FROM TRANSMITTER ARRAY
DTST.US/F  : DELTA T STONELEY WAVE SLOWNESS
GRS .GAPI  : GAMMA RAY FROM SONIC LOG
CALR.IN    : CALIPER FROM RESISTIVITY
MSFL.OHMM  : MICRO SPHERICALLY FOCUSED
LLD .OHMM  : LATEROLOG LOG DEEP
LLS .OHMM  : LATEROLOG LOG SHALLOW
~Params ----------------------------------------------------
~Other -----------------------------------------------------
~ASCII -----------------------------------------------------
# ...
 4666.00000    3.10800    0.17610    0.07050    2.59580    0.04780   44.91900  101.60570  196.75200   23.25560    8.84270    8.11810   18.49720   14.06410
 4666.50000    3.16620    0.18080    0.08010    2.57420    0.04420   44.91900  101.36840  201.76520   21.98320    8.84300   12.51380   19.24200   15.47310
 4667.00000    3.22520    0.18090    0.08980    2.55610    0.03380   44.91900  101.13110  206.77830   21.40540    8.83990   19.28980   20.00000   16.31170
 4667.50000    3.28030    0.16070    0.09610    2.55420    0.02780   44.91900  100.93120  209.02830   22.73240    8.83370   26.80360   20.87860   19.16540
 4668.00000    3.33790    0.13980    0.09350    2.55900    0.02840   44.91900  100.93120  201.88660   24.56550    8.82770   30.06720   21.53890   20.37410
 4668.50000    3.39610    0.14060    0.08270    2.57450    0.03370   44.91900  100.93120  195.71660   32.82850    8.82170   25.73990   24.07200   19.63040
 4669.00000    3.44920    0.15910    0.07230    2.58970    0.03970   44.91900  102.62080  193.64370   45.92050    8.81550   21.40950   23.75740   18.84300
 4669.50000    3.51040    0.18100    0.06270    2.60490    0.04440   45.27090  105.82010  194.04860   58.88580    8.80960   17.89530   23.30250   17.89530
 4670.00000    3.43200    0.20090    0.05330    2.62020    0.04210   45.84380  109.01930  196.47770   68.21260    8.80440   46.04720   22.77030   18.23010
 4670.50000    3.34370    0.21480    0.04390    2.63550    0.03920   46.49800  112.67210  195.29550   64.37980    8.79260   37.03700   23.17040   18.80660
 4671.00000    3.23800    0.18190    0.03450    2.65080    0.04040   46.49800  111.89980  193.64370   54.48670    8.76900   13.80590   24.42250   18.34980
 4671.50000    3.23280    0.15250    0.02490    2.66620    0.04430   46.49800  110.94620  195.38460   44.41230    8.74600   14.10590   25.92420   18.35690
 4672.00000    3.22960    0.14830    0.01500    2.68110    0.04980   46.37650  110.05390  197.69230   42.37370    8.72330   36.37720   28.39900   17.77490
 4672.50000    3.24180    0.13930    0.00510    2.69620    0.05870   46.13360  108.58730  196.47770   40.16610    8.70030   93.81180   32.72540   27.92260
 4673.00000    3.27380    0.11760   -0.00480    2.71150    0.06760   45.71820  106.48390  195.37250   36.07480    8.68150  449.92760   38.03560   34.66210
 4673.50000    3.32100    0.08620   -0.01480    2.72550    0.07480   45.26730  104.19930  194.17270   30.04710    8.68640   52.42530   47.01730   43.06480
 4674.00000    3.40630    0.05530   -0.02040    2.73960    0.06900   44.81640  101.91370  192.97300   24.01550    8.69660   66.18120   65.33030   56.24130
 4674.50000    3.62430    0.02770   -0.01950    2.73340    0.06340   44.36560   99.62680  191.77330   22.65160    8.70710  148.32390  106.01710   83.08060
 4675.00000    3.85190    0.03400   -0.01620    2.72570    0.05740   43.91470   97.33890  190.60730   26.10850    8.71830  332.42010  100.28390   82.73120
 4675.50000    3.85100    0.07590   -0.00920    2.71680    0.05180   43.82590   96.48220  190.40490   34.57060    8.71530  672.10800   85.13980   70.59250
 4676.00000    3.70360    0.11780   -0.00230    2.70810    0.04720   44.12440   98.87740  191.67070   45.23920    8.70150   97.58050   65.09700   51.00450
 4676.50000    3.56420    0.15950    0.00470    2.69970    0.05380   44.60430  101.22310  195.44130   48.75980    8.68750   17.62920   49.77250   45.18620
 4677.00000    3.48880    0.15940    0.00840    2.69100    0.06030   45.08420  103.55870  199.71660   44.48840    8.68800   48.04000   37.55540   40.64190
 4677.50000    3.44280    0.14070    0.01450    2.68430    0.05950   45.52630  105.70470  201.24350   34.99580    8.70680   24.48250   39.68400   38.98070
 4678.00000    3.39590    0.11980    0.01600    2.68590    0.05720   45.40490  105.67670  203.00640   25.60180    8.72470   24.51410   43.51260   42.00820
 4678.50000    3.35380    0.10650    0.00950    2.69160    0.05450   45.26880  104.85280  204.57490   24.20570    8.74110   53.58010   47.71070   47.66530
 4679.00000    3.31800    0.11540    0.01260    2.68840    0.05190   44.99890  101.74090  208.01890   27.52650    8.76070  127.12720   44.00930   45.55510
 4679.50000    3.39390    0.14190    0.02080    2.68280    0.05110   44.72900  101.54980  212.78750   33.32420    8.75280   49.88630   38.72150   40.61340
 4680.00000    3.46150    0.13660    0.01590    2.67640    0.05320   44.55470  101.33600  214.81670   34.60160    8.74300   20.98670   35.50050   38.72630
 4680.50000    3.52580    0.10070   -0.00260    2.71060    0.05470   44.49640  100.93120  211.07090   28.85640    8.73250    8.14060   35.55090   39.26490
 4681.00000    3.58830    0.06470   -0.02120    2.74840    0.05970   44.39350  100.52630  204.43720   23.78940    8.72210   23.19790   44.50890   44.02730
 4681.50000    3.42680    0.02400   -0.03970    2.78210    0.06760   44.22050   97.59310  197.78910   20.64030    8.72330   73.06210  107.83330   98.07460
 4682.00000    3.31590    0.02570   -0.04790    2.78360    0.07010   43.77490   94.63660  191.28440   23.68990    8.72750  229.17140  166.12860  181.07680
 4682.50000    3.26250    0.03710   -0.04310    2.75390    0.06740   43.32930   91.21460  192.65030   30.84560    8.73220  519.48680  224.94680  220.28650
 4683.00000    3.22950    0.06590   -0.02890    2.72620    0.06500   42.88370   90.80970  193.98920   38.02660    8.73680  689.05410  128.53820  142.79470
 4683.50000    3.23460    0.09420   -0.01200    2.71090    0.06510   42.98060   93.76520  196.63000   48.40020    8.74130   31.58060   62.45440   37.55540
 4684.00000    3.23710    0.11080   -0.00180    2.71730    0.06840   43.90610   97.28750  199.92070   46.90710    8.74600   13.43240   33.92870   33.66880
 4684.50000    3.34110    0.09710   -0.01190    2.74070    0.07120   44.19030   96.88260  201.33600   40.59650    8.75050   11.90360   30.62960   31.78610
 4685.00000    3.48760    0.07450   -0.02180    2.74520    0.07430   43.99070   96.47770  200.52630   35.14790    8.75490  380.80980   40.64220   38.86010
 4685.50000    3.67550    0.06360   -0.02770    2.73390    0.07480   43.77040   96.07290  194.77730   29.68000    8.76030  251.84840   51.84320   49.80340
 4686.00000    3.69480    0.07630   -0.00890    2.72390    0.07420   43.58300   96.07290  192.42920   29.91540    8.76350   89.90680   60.80330   58.59100
 4686.50000    3.60950    0.09570    0.00060    2.71480    0.07370   43.70440   96.47770  192.42920   33.53980    8.78400   30.06720   54.19960   54.45730
 4687.00000    3.47080    0.11460   -0.00340    2.72220    0.07320   43.87520   96.47770  192.02430   38.59010    8.80230   23.63010   49.59020   51.46270
 4687.50000    3.39290    0.10850   -0.01300    2.73580    0.07230   44.05150   96.47770  191.61940   37.00700    8.82160   86.46590   62.83990   53.40590
 4688.00000    3.54080    0.10080   -0.02290    2.74740    0.07020   44.06880   96.47770  191.61940   30.43290    8.84080  316.39180   82.23580   76.06710
 4688.50000    3.71320    0.06440   -0.02430    2.74050    0.06800   44.06880   96.47770  191.61940   24.77190    8.86010  283.09710  107.61830  112.07810
 4689.00000    3.68810    0.06350   -0.01700    2.72990    0.06570   43.70520   95.97570  191.61940   17.70970    8.87850  155.59940  112.07810  108.60230
 4689.50000    3.55690    0.06870   -0.01000    2.71830    0.06610   43.35260   93.23890  191.61940   18.90630    8.89760   42.18430   78.36980   91.13290
 4690.00000    3.43650    0.08020   -0.00380    2.70920    0.06900   43.09720   94.30160  192.44940   23.48820    8.91950   24.52230   54.93670   62.49790
 4690.50000    3.45050    0.10070   -0.00000    2.71260    0.07200   43.68020   98.15790  193.99190   36.55070    8.90070   39.70240   40.29200   39.70240
 4691.00000    3.53250    0.11780    0.00050    2.72490    0.07030   44.34120  102.01420  197.91260   51.25360    8.85880   23.64540   41.38890   38.97340
 4691.50000    3.63900    0.11780   -0.01240    2.73740    0.06460   44.91900  105.38460  202.84860   63.50060    8.84270   16.61680   46.28740   43.26340
