~Version ---------------------------------------------------
VERS.   2.0 : CWLS log ASCII Standard -VERSION 2.0
WRAP.    NO : One line per depth step
DLM . SPACE : Column Data Section Delimiter
~Well ------------------------------------------------------
STRT .F                 3845.7 : START DEPTH
STOP .F                15974.7 : STOP DEPTH
STEP .F                    0.5 : STEP
NULL .                -9999.25 : NULL VALUE
COMP .                         : COMPANY
WELL .                         : WELL
FLD  .                         : FIELD
LOC  .                         : LOCATION
PROV .                         : PROVINCE
CNTY .                         : COUNTY
STAT .                         : STATE
CTRY .                         : COUNTRY
SRVC .                         : SERVICE COMPANY
DATE .                         : DATE
UWI  .                         : UNIQUE WELL ID
API  .                         : API NUMBER
SLAT .WGS84  4.028448679871097 : SURFACE LATITUDE
SLON .WGS84 1.5624701368317062 : SURFACE LONGITUDE
DATUM.F                 806.11 : DEPTH DATUM ELEV
~Curve Information -----------------------------------------
DEPT   .F     : 1 MEASURED DEPTH
DTCO   .US/F  : DELTA-T COMPRESSIONAL
DTSM   .US/F  : DELTA-T SHEAR
GRR    .GAPI  : GAMMA RAY FROM RESISTIVITY LOG
SPR    .MV    : SPONTANEOUS POTENTIAL FROM RESISTIVITY LOG
AHF20  .OHMM  : ARRAY INDUCTION FOUR FOOT RESISTIVITY A20
AHF60  .OHMM  : ARRAY INDUCTION FOUR FOOT RESISTIVITY A60
AHFCO60.MMHO  : ARRAY INDUCTION FOUR FOOT CONDUCTIVITY A60
~Params ----------------------------------------------------
~Other -----------------------------------------------------
~ASCII -----------------------------------------------------
# ...
 11924.20000   65.51820  115.71890   61.88410  -20.74840   14.41550   16.17520   58.80770
 11924.70000   65.70010  119.18740   62.13100  -20.60220   14.42390   15.95330   59.93500
 11925.20000   66.60680  122.93220   63.25170  -20.45610   14.43440   15.77860   61.06200
 11925.70000   66.94700  127.05490   64.50040  -20.30990   14.53680   15.74870   62.18900
 11926.20000   66.88510  125.95570   65.74900  -20.16380   14.69080   15.81390   62.54400
 11926.70000   66.84330  123.37480   66.21480  -19.95900   14.84480   15.96480   62.05490
 11927.20000   67.26290  120.07600   65.25040  -19.74480   14.94680   16.11580   61.56580
 11927.70000   67.86110  118.23370   64.09150  -19.58960   15.01940   16.19740   60.66530
 11928.20000   67.91600  115.74490   63.04510  -19.49150   14.90370   16.19740   60.13620
 11928.70000   67.70940  113.53030   64.50630  -19.47250   14.74550   15.97780   59.93790
 11929.20000   67.66150  112.96500   66.43160  -19.49800   14.57300   15.74160   59.63250
 11929.70000   67.75630  113.38490   66.40980  -19.52360   14.40040   15.50530   59.70080
 11930.20000   68.36430  114.36340   64.38320  -19.54920   14.18570   15.26910   61.58420
 11930.70000   68.79690  115.36230   62.30120  -19.57470   13.83200   15.02520   63.46770
 11931.20000   68.77110  115.01140   62.76850  -19.24510   13.58050   14.77080   65.43050
 11931.70000   68.57350  114.04410   64.29770  -19.03910   13.34200   14.51640   67.55820
 11932.20000   68.79780  114.94810   64.46770  -18.84010   13.10350   14.26200   69.19650
 11932.70000   69.49860  118.15180   63.95000  -18.77300   12.86500   14.00760   70.05310
 11933.20000   70.50090  123.86470   63.43460  -18.70600   12.77170   13.75320   70.99290
 11933.70000   71.10540  129.18420   63.12320  -18.63890   12.65000   13.67610   71.99530
 11934.20000   70.82100  129.61000   62.86500  -18.57190   12.60090   13.74170   72.97730
 11934.70000   70.27790  129.99640   64.15910  -18.63950   12.66700   13.92200   72.97600
 11935.20000   69.52880  129.42780   67.12480  -18.70710   12.82050   14.14900   71.44630
 11935.70000   68.61720  130.40150   68.60920  -18.77470   12.99370   14.37600   69.32320
 11936.20000   68.23180  133.11630   68.96410  -18.84230   13.16690   14.60310   67.97660
 11936.70000   68.16070  135.54210   68.23090  -19.03900   13.30770   14.83010   66.63000
 11937.20000   68.43980  135.50420   66.50150  -19.23960   13.38860   14.49730   65.59280
 11937.70000   68.83790  133.93060   64.77210  -19.02510   13.33280   13.91270   68.11020
 11938.20000   69.62740  129.99250   63.04270  -18.82000   12.75510   13.32810   70.69260
 11938.70000   71.07900  128.19350   62.14690  -18.69820   12.17750   12.72220   73.46230
 11939.20000   72.40510  129.07230   64.29980  -18.59180   11.71390   11.92810   76.76520
 11939.70000   72.95180  131.19920   68.42580  -18.52430   11.35820   11.37960   79.38060
 11940.20000   72.83650  132.75040   71.40970  -18.45680   11.00250   11.34540   81.86720
 11940.70000   72.55710  133.96180   71.17950  -18.38930   10.64680   11.43480   84.35370
 11941.20000   72.07060  135.31730   65.02390  -18.32190   10.51370   11.69670   85.50310
 11941.70000   71.37870  136.93190   59.94000  -18.25440   10.69410   11.96970   84.34800
 11942.20000   70.58050  137.16580   60.84490  -18.18690   10.88180   12.24280   82.57580
 11942.70000   70.28500  137.55390   64.29300  -18.11940   11.06940   12.51510   78.26250
 11943.20000   70.72090  138.17920   66.78870  -18.05190   11.15210   12.74330   78.26250
 11943.70000   71.15390  138.39420   68.47650  -17.98440   11.13530   12.74330   78.31320
 11944.20000   71.49760  136.33200   69.04040  -17.91690   11.03200   12.67530   78.41850
 11944.70000   71.43110  133.06270   69.07110  -17.84940   10.91550   12.59110   78.52370
 11945.20000   71.03770  127.53890   68.94300  -17.78190   10.80060   12.50680   79.39970
 11945.70000   70.27580  122.26040   67.99750  -17.71440   10.86540   12.48610   80.60730
 11946.20000   70.02550  116.97250   68.29650  -17.64700   10.96340   12.48610   80.90360
 11946.70000   69.77520  113.15960   69.66950  -17.57950   11.06140   12.48610   79.94120
 11947.20000   69.62070  113.53470   71.10670  -17.41190   11.26720   12.45940   78.97870
 11947.70000   69.46460  114.63640   72.01570  -17.24790   11.35920   12.42280   78.01630
 11948.20000   69.21280  115.68200   71.68640  -17.21570   11.37650   12.39810   78.60130
 11948.70000   69.02860  116.30040   70.59580  -17.20400   11.37450   12.37350   78.92540
 11949.20000   68.49490  116.40290   68.55460  -17.19230   11.35090   12.34880   78.91460
 11949.70000   67.72850  116.25370   66.50450  -17.18050   11.38560   12.32420   79.04030
 11950.20000   67.46910  116.30460   64.45440  -17.16880   11.36220   12.29620   79.87200
 11950.70000   67.57850  116.96640   62.97750  -17.15710   11.32990   12.25240   80.35660
 11951.20000   68.24900  118.33570   62.67660  -17.14540   11.29750   12.20860   80.60690
 11951.70000   68.89300  119.27920   62.94500  -17.13370   11.20650   12.16480   80.81090
 11952.20000   69.24140  119.42830   64.77210  -17.12200   11.11470   12.12100   81.29930
 11952.70000   69.58970  119.74940   68.72870  -17.11030   10.93800   12.07730   81.78770
 11953.20000   69.54710  120.17610   72.01090  -17.09850   10.83710   12.03350   82.27610
 11953.70000   69.46920  120.00140   75.29310  -17.08680   10.81340   11.99210   82.76450
 11954.20000   69.38000  119.57040   76.87030  -17.07510   10.79500   11.95740   83.25290
 11954.70000   69.22710  119.13940   75.71890  -17.06340   10.80790   11.92260   83.74130
 11955.20000   69.07020  118.57960   73.82080  -17.05170   10.82070   11.87700   84.20040
 11955.70000   68.91960  117.96830   73.58600  -17.11070   10.85580   11.83300   84.51410
 11956.20000   69.13790  117.96890   74.91620  -17.22500   10.88420   11.78910   84.82780
 11956.70000   69.22650  118.51330   76.66260  -17.33940   10.89140   11.73910   85.14150
 11957.20000   68.97810  119.14100   78.05880  -17.23710   10.89850   11.68790   85.45520
 11957.70000   69.96500  119.41450   78.12050  -16.93900   10.94900   11.63660   85.76890
 11958.20000   69.53950  119.58580   77.14100  -16.82140   10.91240   11.58540   86.12620
 11958.70000   69.25500  119.75710   75.98990  -16.70500   10.86080   11.53410   86.38650
 11959.20000   69.06140  119.69400   74.83890  -16.68430   10.80930   11.48290   86.82220
 11959.70000   68.77960  119.57870   74.20560  -16.66360   10.73530   11.43160   87.19860
 11960.20000   68.86440  119.47830   73.20950  -16.88120   10.61390   11.42140   87.46780
 11960.70000   69.01450  119.11520   70.43190  -17.11200   10.49240   11.42140   87.73700
 11961.20000   68.81670  118.75220   67.48680  -17.23740   10.37090   11.48250   88.00620
 11961.70000   68.62090  117.92000   67.47540  -17.31910   10.31380   11.62020   87.17770
 11962.20000   68.62360  118.38380   68.11840  -17.40080   10.39900   11.83460   86.13310
 11962.70000   68.84310  119.01030   68.76140  -17.48260   10.64930   12.09340   84.85730
 11963.20000   68.79410  119.60770   69.25310  -17.56430   10.89960   12.35230   83.13160
 11963.70000   68.48200  118.53670   69.03370  -17.60150   11.14990   12.61110   81.40600
 11964.20000   68.16980  117.37600   67.09540  -17.60150   11.55980   12.86990   79.68040
 11964.70000   67.87080  116.08400   64.04540  -17.60150   11.73200   13.10280   77.95470
 11965.20000   67.46990  115.36820   63.20110  -17.60150   11.91190   13.19550   76.22910
 11965.70000   67.04590  115.41150   62.84930  -17.60150   12.01430   13.28830   74.73980
 11966.20000   66.76290  115.50290   62.82730  -17.60150   12.04340   13.38110   74.52500
 11966.70000   66.70210  115.03730   63.31340  -17.60150   12.07460   13.39140   74.26440
 11967.20000   66.59600  114.54480   63.70430  -17.60150   12.10830   13.39140   73.44600
 11967.70000   66.55820  114.89810   63.44940  -17.60150   12.27530   13.39140   72.43770
 11968.20000   66.59210  117.03840   63.28570  -17.60150   12.35390   13.39140   71.42940
