~Version ---------------------------------------------------
VERS.   2.0 : CWLS log ASCII Standard -VERSION 2.0
WRAP.    NO : One line per depth step
DLM . SPACE : Column Data Section Delimiter
~Well ------------------------------------------------------
STRT .F                 3845.7 : START DEPTH
STOP .F                15974.7 : STOP DEPTH
STEP .F                    0.5 : STEP
NULL .                -9999.25 : NULL VALUE
COMP .                         : COMPANY
WELL .                         : WELL
FLD  .                         : FIELD
LOC  .                         : LOCATION
PROV .                         : PROVINCE
CNTY .                         : COUNTY
STAT .                         : STATE
CTRY .                         : COUNTRY
SRVC .                         : SERVICE COMPANY
DATE .                         : DATE
UWI  .                         : UNIQUE WELL ID
API  .                         : API NUMBER
SLAT .WGS84  4.028448679871097 : SURFACE LATITUDE
SLON .WGS84 1.5624701368317062 : SURFACE LONGITUDE
DATUM.F                 806.11 : DEPTH DATUM ELEV
~Curve Information -----------------------------------------
DEPT   .F     : 1 MEASURED DEPTH
DTCO   .US/F  : DELTA-T COMPRESSIONAL
DTSM   .US/F  : DELTA-T SHEAR
GRR    .GAPI  : GAMMA RAY FROM RESISTIVITY LOG
SPR    .MV    : SPONTANEOUS POTENTIAL FROM RESISTIVITY LOG
AHF20  .OHMM  : ARRAY INDUCTION FOUR FOOT RESISTIVITY A20
AHF60  .OHMM  : ARRAY INDUCTION FOUR FOOT RESISTIVITY A60
AHFCO60.MMHO  : ARRAY INDUCTION FOUR FOOT CONDUCTIVITY A60
~Params ----------------------------------------------------
~Other -----------------------------------------------------
~ASCII -----------------------------------------------------
# ...
 12725.20000   68.04620  112.02100   73.16300  -33.07520   19.94430   20.27720   49.81530
 12725.70000   68.09890  112.82810   73.13520  -33.14520   19.99720   20.56340   48.91470
 12726.20000   68.09980  113.10640   72.63430  -33.21520   19.96870   20.80830   48.01400
 12726.70000   68.02560  113.38460   70.14360  -33.31810   19.83240   20.84580   47.13270
 12727.20000   68.08010  112.35420   66.69100  -33.46070   19.54150   20.67830   47.77230
 12727.70000   68.08370  111.13750   63.28850  -33.64070   19.23560   20.42900   48.82270
 12728.20000   67.94110  111.52460   62.87520  -33.81380   18.91370   20.17960   49.13180
 12728.70000   67.55330  111.99790   65.32340  -33.92450   18.74690   19.93030   49.46460
 12729.20000   67.11230  112.17590   68.72010  -34.00310   18.68400   19.68090   50.01670
 12729.70000   66.94230  112.35390   69.35170  -34.08170   18.24980   19.03890   50.66680
 12730.20000   66.98110  112.90460   68.08270  -34.16040   17.30870   18.04780   53.40280
 12730.70000   67.16580  113.48410   65.93550  -34.23900   16.33930   17.05660   56.30560
 12731.20000   67.39220  114.00900   64.04950  -34.31760   15.51120   16.06550   59.20840
 12731.70000   67.61860  113.65780   63.81940  -34.39140   15.12970   15.52260   62.11120
 12732.20000   67.68640  113.76560   64.45680  -34.16270   14.74820   15.09390   65.01400
 12732.70000   67.68460  113.95680   66.41500  -33.89770   14.36680   14.66520   67.03620
 12733.20000   67.68460  114.14790   68.37330  -33.76100   14.08040   14.32770   68.16400
 12733.70000   67.68460  114.08200   70.33150  -33.65270   13.90430   14.12660   69.29170
 12734.20000   67.65570  114.04420   72.28970  -33.54440   13.72830   13.92550   70.41950
 12734.70000   67.65780  114.30150   73.75360  -33.43280   13.55230   13.72440   71.54730
 12735.20000   67.95210  114.45330   73.68380  -33.30600   13.37620   13.52690   72.17840
 12735.70000   67.92520  114.46820   72.15370  -33.17920   13.20020   13.41780   72.55590
 12736.20000   67.79610  114.45880   70.93140  -33.05240   13.08570   13.34900   72.97240
 12736.70000   67.75320  114.21920   70.86430  -32.95250   13.08730   13.52710   73.04170
 12737.20000   67.71020  114.00380   70.79710  -32.88060   13.22060   14.20070   71.88590
 12737.70000   67.68010  113.73470   71.00280  -32.86140   13.52250   14.87730   70.35740
 12738.20000   67.49530  113.13010   71.91550  -32.79190   13.84890   14.94640   69.16740
 12738.70000   66.71040  112.38790   76.40800  -32.68660   14.17520   14.80220   67.97740
 12739.20000   66.02990  111.64570   81.60550  -32.58130   14.38570   14.65800   67.16480
 12739.70000   65.77810  111.35420   83.68340  -32.47600   14.34930   14.51380   68.99380
 12740.20000   65.50400  111.21990   82.96470  -32.02690   13.66190   14.18720   70.82290
 12740.70000   65.13460  110.89790   79.23640  -31.35560   12.75250   13.52730   74.94390
 12741.20000   64.59600  111.03270   76.38070  -30.97360   11.85720   12.62670   81.27360
 12741.70000   64.72130  113.83460   75.97800  -30.42180   10.99750   11.72600   87.60330
 12742.20000   66.09020  119.21510   75.43120  -29.61770   10.13780   10.82540   97.68450
 12742.70000   69.72150  127.21880   73.02390  -28.81290    9.27800    9.92480  108.79240
 12743.20000   75.02190  138.87260   68.26570  -28.00750    8.41830    9.02410  119.90020
 12743.70000   80.52570  146.62630   63.99470  -27.49690    7.69400    8.12350  130.98740
 12744.20000   80.33680  143.97750   65.64670  -27.31340    7.29660    7.69900  131.47380
 12744.70000   78.43780  140.08580   74.35580  -27.12980    7.26740    8.05060  128.75260
 12745.20000   75.80850  137.88800   83.06480  -26.96870    7.41690    8.72080  120.96560
 12745.70000   74.40270  136.64660   85.50000  -26.94980    7.90380    9.39100  113.17860
 12746.20000   73.30180  135.26660   82.95870  -26.93090    8.43120   10.06130  105.39160
 12746.70000   72.21790  133.59100   80.39270  -26.91200    8.94900   10.61950   97.60460
 12747.20000   71.42140  132.32110   77.82670  -26.89300    9.21120   10.64100   94.34290
 12747.70000   71.29870  132.50770   77.49990  -26.87410    9.25880   10.58270   93.15700
 12748.20000   71.26510  132.69430   77.34040  -26.85520    9.18150   10.33870   94.75380
 12748.70000   71.16680  132.46420   77.25990  -26.83630    9.09420   10.09460   98.65220
 12749.20000   71.27450  130.91290   77.11300  -26.81740    9.17140    9.85060  102.55050
 12749.70000   72.28110  130.16980   76.42350  -26.77220    9.10760    9.60660  106.44890
 12750.20000   73.89890  131.37340   75.51940  -26.54300    8.95310    9.36260  110.34730
 12750.70000   75.38580  132.57700   74.55090  -26.31390    8.77390    9.12110  113.82990
 12751.20000   76.64270  133.57810   73.72240  -26.08480    8.59480    8.88130  116.21880
 12751.70000   77.52170  132.38210   72.49330  -25.93950    8.41560    8.64150  118.60770
 12752.20000   78.34330  131.23970   71.09500  -25.87690    8.17130    8.40170  120.99660
 12752.70000   78.56170  130.45560   69.69680  -25.81420    7.90990    8.16190  124.81750
 12753.20000   78.34280  131.65700   69.67100  -25.75160    7.64850    7.92210  129.23540
 12753.70000   77.60990  133.69720   74.45990  -25.68890    7.38710    7.68230  131.87120
 12754.20000   77.13660  135.73410   77.58570  -25.62620    7.12580    7.42620  137.56880
 12754.70000   77.24600  137.41490   77.52450  -25.57650    6.86440    7.16450  148.65420
 12755.20000   78.69980  140.34710   74.75820  -25.56170    6.61040    6.90280  155.61760
 12755.70000   80.00400  144.01600   71.66910  -25.54700    6.35950    6.64120  162.69470
 12756.20000   81.27100  145.97640   70.13010  -25.53230    6.10860    6.37950  169.77170
 12756.70000   82.03350  146.03870   70.76440  -25.48110    5.85770    6.11780  176.84870
 12757.20000   82.23710  144.62380   75.85900  -25.33220    5.63180    5.85620  183.92570
 12757.70000   81.83240  141.07380   80.95360  -25.25310    5.58710    5.77210  187.90600
 12758.20000   81.00640  139.38790   85.97850  -25.23710    5.61480    5.76650  187.43270
 12758.70000   79.90250  137.70860   86.40410  -25.22110    5.69770    6.09190  180.16560
 12759.20000   78.75540  131.35620   85.30440  -25.20500    5.88240    6.43820  170.16080
 12759.70000   77.94190  124.91860   78.95280  -25.28420    6.03640    6.78450  159.65640
 12760.20000   79.26840  121.08170   72.60110  -25.89300    6.19040    7.13080  151.54660
 12760.70000   81.91770  120.91700   66.52830  -26.50180    6.30850    7.47710  143.50540
 12761.20000   83.94640  124.01100   67.29760  -27.10640    6.37960    7.82340  135.73940
 12761.70000   84.75170  130.20580   73.33250  -27.67200    6.49280    8.16980  128.70040
 12762.20000   84.84490  138.26680   79.36750  -28.11880    6.84410    8.43560  121.66150
 12762.70000   84.91790  144.49530   80.44310  -28.52060    7.20940    8.23410  120.92330
 12763.20000   84.22260  146.37170   80.05480  -28.78620    7.23770    7.80240  129.39800
 12763.70000   81.68320  144.36700   79.60690  -29.05180    6.93850    7.37070  137.87270
 12764.20000   77.90190  138.83620   79.15890  -29.22620    6.63940    7.17630  145.19070
 12764.70000   76.44710  132.70900   79.45700  -29.39640    6.53630    7.18640  143.53390
 12765.20000   77.10140  131.72040   81.35550  -29.67220    6.51440    7.25960  139.01450
 12765.70000   77.26000  131.89150   82.46470  -29.94150    6.53670    7.43550  134.49520
 12766.20000   76.39570  130.37150   82.77680  -29.83700    6.55900    7.58920  131.75540
 12766.70000   75.88610  129.96960   83.08890  -29.73240    6.36010    7.25540  137.82500
 12767.20000   77.47240  133.06450   83.05430  -29.62790    6.03460    6.64740  150.40840
 12767.70000   79.67430  137.76680   82.88820  -29.52340    5.70920    6.13570  162.99170
 12768.20000   81.42270  139.94900   82.27500  -29.41890    5.38380    5.76240  175.57510
 12768.70000   82.71220  140.16970   81.66190  -29.31440    5.05840    5.38910  183.21770
 12769.20000   84.05150  140.75850   81.38390  -29.21520    4.83640    5.01580  188.89480
