~Version ---------------------------------------------------
VERS.   2.0 : CWLS log ASCII Standard -VERSION 2.0
WRAP.    NO : One line per depth step
DLM . SPACE : Column Data Section Delimiter
~Well ------------------------------------------------------
STRT .F                 3845.7 : START DEPTH
STOP .F                15974.7 : STOP DEPTH
STEP .F                    0.5 : STEP
NULL .                -9999.25 : NULL VALUE
COMP .                         : COMPANY
WELL .                         : WELL
FLD  .                         : FIELD
LOC  .                         : LOCATION
PROV .                         : PROVINCE
CNTY .                         : COUNTY
STAT .                         : STATE
CTRY .                         : COUNTRY
SRVC .                         : SERVICE COMPANY
DATE .                         : DATE
UWI  .                         : UNIQUE WELL ID
API  .                         : API NUMBER
SLAT .WGS84  4.028448679871097 : SURFACE LATITUDE
SLON .WGS84 1.5624701368317062 : SURFACE LONGITUDE
DATUM.F                 806.11 : DEPTH DATUM ELEV
~Curve Information -----------------------------------------
DEPT   .F     : 1 MEASURED DEPTH
DTCO   .US/F  : DELTA-T COMPRESSIONAL
DTSM   .US/F  : DELTA-T SHEAR
GRR    .GAPI  : GAMMA RAY FROM RESISTIVITY LOG
SPR    .MV    : SPONTANEOUS POTENTIAL FROM RESISTIVITY LOG
AHF20  .OHMM  : ARRAY INDUCTION FOUR FOOT RESISTIVITY A20
AHF60  .OHMM  : ARRAY INDUCTION FOUR FOOT RESISTIVITY A60
AHFCO60.MMHO  : ARRAY INDUCTION FOUR FOOT CONDUCTIVITY A60
~Params ----------------------------------------------------
~Other -----------------------------------------------------
~ASCII -----------------------------------------------------
# ...
 9515.70000   65.35320  107.66560   38.46400  -90.66740   11.50680    7.22130  141.68820
 9516.20000   65.06800  106.99530   38.84300  -92.30310   11.15990    7.05540  146.05380
 9516.70000   64.78280  106.23910   39.20870  -92.79850   11.01680    6.90140  147.82570
 9517.20000   64.35420  104.25610   39.09940  -92.89740   10.92630    7.14180  148.07530
 9517.70000   63.63800  102.91500   38.32280  -92.39380   11.28220    7.46600  143.14920
 9518.20000   62.77840  101.20310   36.37090  -90.70030   11.81360    8.14910  133.06520
 9518.70000   61.60930   99.24120   35.50610  -88.62920   12.54520    8.87570  122.98110
 9519.20000   59.58330   96.49860   34.64140  -85.14950   13.24350    9.69810  112.89710
 9519.70000   57.56560   92.59250   32.00080  -81.31640   14.67050   10.71330  102.82120
 9520.20000   57.15930   89.67100   28.47560  -78.09460   15.70830   11.72850   92.74580
 9520.70000   56.94930   87.41710   24.95030  -75.96090   16.99380   12.74370   82.67030
 9521.20000   56.73940   88.05360   21.54270  -72.84860   18.77770   14.10210   75.90990
 9521.70000   57.51900   90.39070   21.40810  -68.66560   20.56160   15.56550   70.65630
 9522.20000   59.62740   93.55600   21.82260  -64.48260   21.38650   16.94110   65.40270
 9522.70000   61.66690   96.66930   24.41150  -60.29960   20.23180   17.09230   60.14910
 9523.20000   63.15260  103.43730   27.15600  -56.11660   16.74160   16.19750   58.17260
 9523.70000   63.29460  109.46810   30.28640  -51.41980   13.25150   14.27080   58.00330
 9524.20000   62.57800  112.77340   39.06410  -45.88070   10.26260   12.34410   68.79760
 9524.70000   61.25200  112.38690   48.18370  -42.04330    8.42830   11.01200   85.57730
 9525.20000   60.07230  109.89050   57.60090  -37.95540    7.19000    9.73570  102.44230
 9525.70000   59.09430  105.51310   67.01800  -36.16420    6.19520    9.21540  108.92740
 9526.20000   58.37400  104.19660   68.90980  -34.37300    5.81260   10.18540  107.23310
 9526.70000   57.86310  103.67660   67.70090  -33.71160    5.95800   14.48840   95.74580
 9527.20000   56.79230  104.36750   60.65120  -33.08210    7.68660   19.06150   77.52670
 9527.70000   55.71960  103.70930   53.60160  -32.29780   10.16770   23.66960   61.00880
 9528.20000   57.02340  103.38610   48.06100  -31.22220   13.48210   23.78450   49.76140
 9528.70000   58.99300  105.54830   48.02240  -30.14660   16.18960   21.75140   43.10270
 9529.20000   65.18490  114.09830   52.92550  -29.07100   16.04620   18.09860   43.09130
 9529.70000   74.74850  126.44910   59.49820  -27.99540   13.46460   14.45150   54.98420
 9530.20000   79.48580  129.48890   66.07100  -26.84160   10.88300   11.77420   91.07380
 9530.70000   79.86890  123.94870   72.64380  -25.58650    8.30140    9.09700  116.37520
 9531.20000   78.88960  119.73760   75.79770  -25.12740    6.44320    8.88860  116.54360
 9531.70000   77.81160  119.75310   75.08670  -24.52170    6.31350    9.47730  107.66030
 9532.20000   79.58110  122.48970   73.22900  -23.76400    7.03670   23.97120   80.17770
 9532.70000   83.47120  129.01140   73.73860  -22.01000    8.10330   23.72400   52.69510
 9533.20000   86.51970  135.87810   76.62180  -21.05440    8.77850   20.69580   44.25700
 9533.70000   85.15200  135.11180   76.62330  -20.00090    8.32380   17.66770   44.46810
 9534.20000   83.28620  132.38450   75.81600  -19.11120    7.09250   13.00510   65.77200
 9534.70000   81.80640  130.22460   75.50510  -18.69160    5.95990   11.47710   90.41530
 9535.20000   80.21050  129.84630   78.50570  -18.27190    5.19310    9.37180  115.05860
 9535.70000   78.38460  130.01760   80.27590  -18.16830    4.92220    8.55640  118.03710
 9536.20000   76.95020  131.98310   79.62330  -18.17050    4.72350    8.98640  111.71760
 9536.70000   76.40000  133.32130   77.05360  -18.10780    4.95680   10.25280   99.22210
 9537.20000   75.46480  133.67350   74.70220  -18.04510    5.41990   12.60570   86.72660
 9537.70000   72.30420  124.75720   74.13740  -17.98240    6.18980   17.23740   74.23110
 9538.20000   66.61970  110.92580   73.21030  -17.91970    7.27000   19.44120   56.95260
 9538.70000   64.25500  110.12870   71.26780  -17.85710    8.87060   18.25470   51.94170
 9539.20000   70.86980  120.60630   69.32530  -17.79440    8.99740   17.28750   54.09220
 9539.70000   72.74400  134.15160   68.59920  -17.74890    9.04830   20.03610   56.81820
 9540.20000   68.23970  128.51970   68.69320  -18.03790    9.61790   25.60600   52.50070
 9540.70000   63.57360  119.80860   69.21900  -18.32690   10.52320   34.34850   41.60680
 9541.20000   58.35880  107.07200   70.02620  -18.61590   13.18170   36.13460   30.71300
 9541.70000   56.26180   98.57640   70.83340  -18.90490   16.30890   30.02520   27.07890
 9542.20000   59.08370  102.42590   71.64070  -18.81390   16.19610   25.49870   29.52670
 9542.70000   64.78080  110.10970   72.21300  -18.64190   14.44430   23.00080   36.59690
 9543.20000   64.11320  109.62330   71.45320  -18.46990   12.81780   21.00400   42.52220
 9543.70000   62.89400  106.48060   67.10920  -18.29790   12.77210   20.13990   46.79180
 9544.20000   70.85810  116.68350   62.76510  -18.12590   14.11310   19.39530   48.25290
 9544.70000   79.58080  131.20530   60.53000  -17.95390   15.78720   18.84660   49.67700
 9545.20000   86.08610  142.62390   61.86380  -17.77470   16.19420   17.81080   51.99940
 9545.70000   92.12600  149.26120   66.93780  -17.57130   14.60770   16.37450   56.93420
 9546.20000   92.19020  148.56680   72.01180  -17.41210   12.80230   15.05270   66.44580
 9546.70000   87.67410  142.31100   77.08580  -17.32430   10.99700   14.91840   70.56250
 9547.20000   78.52670  131.27380   78.70840  -17.26690   10.68790   16.25320   66.20400
 9547.70000   66.44160  117.13080   78.06080  -17.30080   10.82200   18.19100   60.42040
 9548.20000   66.51100  110.08480   76.64920  -17.41780   11.71060   19.62330   56.18490
 9548.70000   69.02460  116.08900   75.23760  -17.71100   12.54850   20.66850   51.81370
 9549.20000   62.91370  112.07470   73.88040  -18.15490   12.80140   21.71380   45.39310
 9549.70000   58.59420  102.46550   72.76920  -18.79990   13.52790   23.14610   43.42630
 9550.20000   57.26330   97.99010   70.97800  -19.82120   14.24870   24.60260   41.45940
 9550.70000   56.80130   97.58690   68.82670  -20.77990   16.02100   26.05900   39.49260
 9551.20000   56.39190   99.76000   66.03590  -21.14730   17.80370   26.69170   38.09160
 9551.70000   57.70690  103.79800   62.10270  -21.51460   19.58630   27.62430   36.89160
 9552.20000   59.63650  108.39250   58.16960  -21.89780   19.87020   28.70220   35.69160
 9552.70000   62.95710  114.60280   54.23640  -22.35200   18.91850   29.78000   34.07430
 9553.20000   68.33150  122.68060   50.30330  -22.41150   17.21000   30.32120   32.20830
 9553.70000   78.08740  137.76610   49.09920  -22.21570   15.13570   30.12820   31.43880
 9554.20000   86.18770  153.59660   54.58400  -22.05130   13.31010   23.10510   33.50380
 9554.70000   92.56280  162.70950   60.78440  -21.93140   11.03180   17.07310   46.87210
 9555.20000   93.36940  165.96660   66.98480  -21.85120    8.31890   13.30040   62.44280
 9555.70000   93.31130  167.83180   73.18520  -21.84420    6.92220   11.03220   86.23970
 9556.20000   93.87840  168.16680   79.38560  -21.68380    5.87020    9.54520  103.20420
 9556.70000   93.99330  167.89600   85.58600  -21.40880    5.16190    8.05820  120.16880
 9557.20000   94.10820  166.09470   91.78640  -21.17520    4.72430    7.71520  129.96380
 9557.70000   88.12850  158.08710   93.37900  -20.94320    4.70090    7.93670  126.65630
 9558.20000   76.20390  140.67510   93.14870  -20.71110    5.00330    9.98970  110.54090
 9558.70000   64.22300  121.53850   89.55890  -20.47900    5.56350   12.40030   94.42560
 9559.20000   57.12690  107.80700   84.59980  -20.05320    6.45530   15.51530   78.04430
 9559.70000   55.45630  103.37610   79.64070  -19.76520    7.48960   19.70040   61.16930
 9560.20000   55.00620  100.86690   74.68170  -19.79160   11.55450   29.51600   42.12260
