~Version ---------------------------------------------------
VERS.   2.0 : CWLS log ASCII Standard -VERSION 2.0
WRAP.    NO : One line per depth step
DLM . SPACE : Column Data Section Delimiter
~Well ------------------------------------------------------
STRT .F                 3845.7 : START DEPTH
STOP .F                15974.7 : STOP DEPTH
STEP .F                    0.5 : STEP
NULL .                -9999.25 : NULL VALUE
COMP .                         : COMPANY
WELL .                         : WELL
FLD  .                         : FIELD
LOC  .                         : LOCATION
PROV .                         : PROVINCE
CNTY .                         : COUNTY
STAT .                         : STATE
CTRY .                         : COUNTRY
SRVC .                         : SERVICE COMPANY
DATE .                         : DATE
UWI  .                         : UNIQUE WELL ID
API  .                         : API NUMBER
SLAT .WGS84  4.028448679871097 : SURFACE LATITUDE
SLON .WGS84 1.5624701368317062 : SURFACE LONGITUDE
DATUM.F                 806.11 : DEPTH DATUM ELEV
~Curve Information -----------------------------------------
DEPT   .F     : 1 MEASURED DEPTH
DTCO   .US/F  : DELTA-T COMPRESSIONAL
DTSM   .US/F  : DELTA-T SHEAR
GRR    .GAPI  : GAMMA RAY FROM RESISTIVITY LOG
SPR    .MV    : SPONTANEOUS POTENTIAL FROM RESISTIVITY LOG
AHF20  .OHMM  : ARRAY INDUCTION FOUR FOOT RESISTIVITY A20
AHF60  .OHMM  : ARRAY INDUCTION FOUR FOOT RESISTIVITY A60
AHFCO60.MMHO  : ARRAY INDUCTION FOUR FOOT CONDUCTIVITY A60
~Params ----------------------------------------------------
~Other -----------------------------------------------------
~ASCII -----------------------------------------------------
# ...
 7895.70000   70.04310  117.38670   32.85820 -122.19980    6.42400    3.36440  324.38570
 7896.20000   70.48740  117.69600   31.75080 -120.53620    6.61870    3.42890  314.44710
 7896.70000   70.98520  119.06330   32.17890 -117.83780    6.71160    3.49330  304.50850
 7897.20000   71.10490  120.55410   34.76010 -115.13950    6.80770    3.55780  297.30760
 7897.70000   70.86220  120.31630   34.79840 -112.53180    6.89480    3.62220  291.18840
 7898.20000   70.67970  119.85080   33.07380 -110.37670    6.93210    3.68670  285.06920
 7898.70000   70.73110  119.66160   32.10860 -108.22160    6.92430    3.79520  279.83340
 7899.20000   70.89160  119.73750   32.23360 -106.06640    6.93620    3.85550  277.13800
 7899.70000   71.23880  119.81350   33.72820 -103.91130    6.52120    3.91520  273.72980
 7900.20000   71.09690  120.48370   37.07500 -101.75610    6.29820    3.97490  270.32160
 7900.70000   70.54800  120.75510   40.42180 -100.77880    6.08090    4.03460  266.91350
 7901.20000   70.19150  118.92330   43.76860 -100.04090    5.87920    4.10100  263.50530
 7901.70000   76.21980  123.60700   46.44970  -98.07610    5.75250    4.20300  256.88780
 7902.20000   84.64850  138.13000   46.17920  -93.54270    5.64810    4.39610  248.21810
 7902.70000   89.26070  142.20030   44.24130  -89.00940    5.54360    4.74600  239.49610
 7903.20000   84.45820  133.10750   41.48380  -84.47600    5.39310    5.21250  226.05900
 7903.70000   83.13300  127.79210   41.29080  -79.94270    5.17900    5.67890  205.86840
 7904.20000   90.16590  134.95370   46.96720  -75.53090    4.97340    5.86750  185.67770
 7904.70000   94.81600  140.50960   53.36220  -71.30270    4.79220    5.84010  175.77740
 7905.20000   95.19440  140.96780   57.23950  -67.58370    4.30450    5.73350  176.29740
 7905.70000   92.37100  137.90300   57.29950  -66.74140    3.73040    5.62690  184.54860
 7906.20000   84.45030  131.44510   56.40840  -66.43620    3.58920    5.52020  192.79980
 7906.70000   74.78810  125.54070   55.74090  -66.16570    3.55550    5.45890  197.89180
 7907.20000   71.03080  122.08440   56.93390  -66.16570    3.67650    5.53650  194.33340
 7907.70000   71.14020  122.14360   59.25190  -67.24190    4.21030    6.56840  174.98980
 7908.20000   71.55160  121.79070   60.84170  -71.07680    5.43980    7.28970  155.64630
 7908.70000   71.80690  121.51330   58.81110  -75.38080    7.13620    7.26160  137.88130
 7909.20000   71.82940  121.63940   52.85080  -79.68490    8.40640    6.69720  136.32720
 7909.70000   71.71840  121.54070   46.89060  -83.98890    8.48710    6.02030  147.40510
 7910.20000   71.60740  119.48380   42.75340  -88.29300    7.96490    5.34330  196.38220
 7910.70000   71.76470  117.33540   40.47450  -91.27250    7.17910    4.38390  234.24750
 7911.20000   71.56530  115.42860   40.31350  -92.67240    6.39340    3.84520  260.82590
 7911.70000   71.56620  115.29210   43.48850  -94.07220    5.60760    3.78310  281.78650
 7912.20000   74.01750  119.39620   45.94840  -96.24300    5.07280    3.76680  282.80340
 7912.70000   76.94450  125.23090   46.08150  -98.44680    5.14260    3.88860  277.88830
 7913.20000   79.87300  130.02880   45.48530 -100.65070    5.66840    4.12870  257.45940
 7913.70000   82.82300  134.27100   44.13180 -102.70120    6.30940    4.36880  237.03050
 7914.20000   83.83720  136.94360   45.02910 -104.58430    6.96670    4.60890  221.41910
 7914.70000   83.57220  137.79920   46.72600 -106.37720    7.61810    4.84890  211.19830
 7915.20000   82.77110  135.58910   47.14740 -107.94260    7.85370    5.04320  205.78500
 7915.70000   80.24220  130.11890   46.16620 -109.20980    8.11240    5.04660  202.67010
 7916.20000   76.15620  121.96520   41.97520 -110.47690    8.23350    5.07890  202.33690
 7916.70000   74.28900  118.27790   37.80080 -111.74400    8.25340    5.11130  202.89890
 7917.20000   73.78200  118.65700   37.68500 -113.01120    8.30260    5.14360  203.46100
 7917.70000   71.95950  118.47950   39.52560 -114.10800    8.25240    5.17590  204.02310
 7918.20000   70.48380  117.22880   41.54430 -114.57620    8.21980    5.20310  204.58520
 7918.70000   69.21140  115.64250   43.56300 -114.56170    8.20020    5.21860  204.58190
 7919.20000   67.93900  112.66610   44.09880 -113.99360    8.19400    5.26610  203.82350
 7919.70000   65.97990  109.27590   44.22920 -111.58870    8.16600    5.49880  196.69330
 7920.20000   64.20460  107.07190   44.14780 -105.55050    8.48980    5.72480  187.17920
 7920.70000   62.92570  105.68790   40.20840  -99.51230    8.83870    5.83200  177.66510
 7921.20000   62.49040  105.74090   34.55880  -93.47420    9.20010    6.54280  168.15100
 7921.70000   63.27360  106.78620   28.90920  -87.43600    9.61060    7.21300  157.27510
 7922.20000   63.95170  107.71100   23.25960  -80.50870   10.02120    7.75680  146.34540
 7922.70000   63.15030  107.68050   22.51750  -77.49580   10.31770    8.18660  135.41560
 7923.20000   61.46700  104.66400   23.05750  -74.48290   10.30260    8.61630  124.48590
 7923.70000   63.84410  106.82300   26.27870  -71.47000    9.35120    9.04610  113.55610
 7924.20000   68.37350  116.30670   30.45490  -69.11490    8.10170    9.30300  105.47260
 7924.70000   73.26090  123.94790   35.69180  -66.03250    6.85210    9.31240  104.32310
 7925.20000   75.90660  127.25920   48.00370  -63.08070    5.87240    8.63230  111.62020
 7925.70000   78.29650  128.97720   60.31570  -61.67590    4.92090    7.95230  126.61420
 7926.20000   80.84360  130.64510   68.68050  -59.49540    4.28560    7.27220  142.70950
 7926.70000   81.92190  132.37750   70.71260  -58.39310    3.85620    6.59210  160.66350
 7927.20000   81.79650  130.90170   69.30460  -57.52370    3.56200    5.91210  178.61750
 7927.70000   79.15240  126.49700   68.65760  -56.74160    3.29240    5.73610  183.07820
 7928.20000   78.97210  127.79940   68.73080  -55.94140    3.19360    6.96510  177.28020
 7928.70000   80.16060  132.53940   68.81430  -55.39540    3.37450    9.61230  143.09490
 7929.20000   77.96360  131.22330   68.00380  -54.28230    3.90630   12.25950  110.24150
 7929.70000   71.35600  121.92530   64.40960  -53.70380    5.40220   14.90670   80.94470
 7930.20000   68.98060  116.00100   60.03830  -53.12540    6.55570   15.09080   68.99230
 7930.70000   72.68880  124.10820   59.24340  -52.54700    6.41820   11.53390   92.49330
 7931.20000   84.75600  139.48650   59.64400  -51.96850    5.55310    7.86980  118.31850
 7931.70000   98.84380  152.34870   65.12370  -51.49780    4.91390    7.08670  139.48260
 7932.20000  100.48010  157.98320   69.71750  -51.16390    4.90590    7.63560  138.72140
 7932.70000   97.43500  159.59010   69.46150  -50.83000    5.21060    8.50780  122.39340
 7933.20000   96.45000  161.65190   64.04830  -50.53180    5.53690    8.16010  121.80950
 7933.70000   96.90270  160.13470   57.68160  -50.23870    5.39240    6.97330  147.65260
 7934.20000   97.22280  151.88910   51.31490  -49.78300    4.67280    5.78660  175.98590
 7934.70000   95.56470  148.42050   51.33900  -49.33050    4.23470    5.57740  189.61200
 7935.20000   90.58520  148.75210   60.07070  -49.08550    4.13400    5.84150  182.35390
 7935.70000   84.93400  146.14610   68.80250  -48.91070    4.46740    7.23490  154.17970
 7936.20000   80.70010  137.32550   74.78270  -48.48530    5.03370    8.68990  126.14390
 7936.70000   83.16460  137.36580   74.84200  -48.03540    5.38650   10.22530   98.38770
 7937.20000   84.14520  136.44880   73.54780  -46.77270    6.05090   11.17060   88.43730
 7937.70000   83.16150  129.94380   72.10330  -45.51380    6.49460   11.36170   91.43600
 7938.20000   83.25210  126.42100   70.65870  -44.93970    6.86200   11.34020  102.81890
 7938.70000   85.35570  131.79320   69.23450  -44.52780    7.08350   11.07170  109.68070
 7939.20000   83.77630  135.67210   67.53620  -44.17700    7.22560   11.14840  105.56730
 7939.70000   81.39550  134.21850   61.90250  -43.63720    7.72090   11.30350   96.68520
 7940.20000   79.21260  132.00900   58.09450  -42.89630    8.46020   12.11220   87.80310
