~Version ---------------------------------------------------
VERS.   2.0 : CWLS log ASCII Standard -VERSION 2.0
WRAP.    NO : One line per depth step
DLM . SPACE : Column Data Section Delimiter
~Well ------------------------------------------------------
STRT .F                 3845.7 : START DEPTH
STOP .F                15974.7 : STOP DEPTH
STEP .F                    0.5 : STEP
NULL .                -9999.25 : NULL VALUE
COMP .                         : COMPANY
WELL .                         : WELL
FLD  .                         : FIELD
LOC  .                         : LOCATION
PROV .                         : PROVINCE
CNTY .                         : COUNTY
STAT .                         : STATE
CTRY .                         : COUNTRY
SRVC .                         : SERVICE COMPANY
DATE .                         : DATE
UWI  .                         : UNIQUE WELL ID
API  .                         : API NUMBER
SLAT .WGS84  4.028448679871097 : SURFACE LATITUDE
SLON .WGS84 1.5624701368317062 : SURFACE LONGITUDE
DATUM.F                 806.11 : DEPTH DATUM ELEV
~Curve Information -----------------------------------------
DEPT   .F     : 1 MEASURED DEPTH
DTCO   .US/F  : DELTA-T COMPRESSIONAL
DTSM   .US/F  : DELTA-T SHEAR
GRR    .GAPI  : GAMMA RAY FROM RESISTIVITY LOG
SPR    .MV    : SPONTANEOUS POTENTIAL FROM RESISTIVITY LOG
AHF20  .OHMM  : ARRAY INDUCTION FOUR FOOT RESISTIVITY A20
AHF60  .OHMM  : ARRAY INDUCTION FOUR FOOT RESISTIVITY A60
AHFCO60.MMHO  : ARRAY INDUCTION FOUR FOOT CONDUCTIVITY A60
~Params ----------------------------------------------------
~Other -----------------------------------------------------
~ASCII -----------------------------------------------------
# ...
 5465.70000   -9999.25   -9999.25   65.17540  -60.69340    7.77680    9.16010  108.34500
 5466.20000   -9999.25   -9999.25   63.96700  -60.80100    7.45990    9.05670  112.06440
 5466.70000   -9999.25   -9999.25   63.19950  -60.90860    7.43960    9.24790  109.79120
 5467.20000   -9999.25   -9999.25   63.94100  -61.01610    7.51790    9.53100  106.60680
 5467.70000   -9999.25   -9999.25   66.24250  -61.02010    7.60260    9.81410  105.13330
 5468.20000   -9999.25   -9999.25   68.54400  -60.95780    7.60660    9.91510  105.48820
 5468.70000   -9999.25   -9999.25   69.73720  -60.89540    7.32350    9.87250  106.16620
 5469.20000   -9999.25   -9999.25   69.20960  -60.83300    7.11140    9.50290  107.16320
 5469.70000   -9999.25   -9999.25   64.62720  -60.77060    6.89930    9.13330  109.44630
 5470.20000   -9999.25   -9999.25   60.85240  -60.70830    6.68710    8.76370  112.58350
 5470.70000   -9999.25   -9999.25   60.68000  -60.64590    6.48770    8.50570  115.72080
 5471.20000   -9999.25   -9999.25   62.54650  -60.58350    6.31360    8.46750  118.84040
 5471.70000   -9999.25   -9999.25   65.05680  -60.52110    6.21870    8.54860  119.71590
 5472.20000   -9999.25   -9999.25   67.56720  -60.45870    6.17870    8.89800  117.95260
 5472.70000   -9999.25   -9999.25   70.07750  -60.39640    6.27630    9.24730  113.94690
 5473.20000   -9999.25   -9999.25   71.72300  -60.33400    6.96570    9.54310  109.52260
 5473.70000   -9999.25   -9999.25   70.35410  -60.27160    7.30210    9.43870  107.39250
 5474.20000   -9999.25   -9999.25   65.63950  -60.22150    7.39210    9.16940  110.15100
 5474.70000   -9999.25   -9999.25   60.92480  -60.18870    7.32140    9.06560  115.04640
 5475.20000   -9999.25   -9999.25   60.76760  -60.15580    7.18340    9.04130  117.84780
 5475.70000   -9999.25   -9999.25   64.84950  -60.12300    7.05510    9.09210  115.51990
 5476.20000   -9999.25   -9999.25   68.10910  -60.09010    6.98370    9.55290  107.16680
 5476.70000   -9999.25   -9999.25   67.93280  -60.05730    7.42630   10.23580   98.81360
 5477.20000   -9999.25   -9999.25   65.63490  -60.02440    7.86890   10.74070   93.78430
 5477.70000   -9999.25   -9999.25   62.72540  -59.99150    8.26370   10.58340   94.99640
 5478.20000   -9999.25   -9999.25   61.68000  -59.59800    8.30820   10.01340   99.85130
 5478.70000   -9999.25   -9999.25   62.28910  -59.11240    8.00860    9.44350  105.79140
 5479.20000   -9999.25   -9999.25   66.71670  -58.62690    7.69830    8.97370  111.73150
 5479.70000   -9999.25   -9999.25   71.14430  -58.14130    7.39280    8.74740  116.18840
 5480.20000   -9999.25   -9999.25   71.16550  -57.74290    7.23110    8.55430  119.05400
 5480.70000   -9999.25   -9999.25   71.10640  -57.41020    6.99600    8.36110  121.91970
 5481.20000   -9999.25   -9999.25   70.60220  -57.18880    6.87700    8.16220  123.93700
 5481.70000   -9999.25   -9999.25   69.88110  -57.26210    6.75370    7.95690  125.48790
 5482.20000   -9999.25   -9999.25   68.48800  -57.50190    6.56850    7.76810  130.16650
 5482.70000   -9999.25   -9999.25   66.92020  -57.35980    6.27360    7.58150  135.37460
 5483.20000   -9999.25   -9999.25   65.35230  -57.24940    6.03240    7.39500  141.47830
 5483.70000   -9999.25   -9999.25   63.91430  -57.51560    5.82220    7.20840  147.59970
 5484.20000   -9999.25   -9999.25   64.09880  -57.78180    5.76810    7.02180  148.23280
 5484.70000   -9999.25   -9999.25   65.71460  -58.04800    5.82560    7.41370  141.14500
 5485.20000   -9999.25   -9999.25   67.33040  -58.31410    6.17560    7.98140  130.71420
 5485.70000   -9999.25   -9999.25   68.15320  -58.58490    6.58750    8.41580  120.28350
 5486.20000   -9999.25   -9999.25   67.56820  -58.94680    7.00700    8.74500  116.90280
 5486.70000   -9999.25   -9999.25   65.69970  -59.30880    7.29670    8.63620  117.07910
 5487.20000   -9999.25   -9999.25   63.83120  -59.67070    7.25420    8.40770  120.93330
 5487.70000   -9999.25   -9999.25   62.47960  -60.03260    7.08100    8.17020  125.61360
 5488.20000   -9999.25   -9999.25   61.58120  -60.19060    6.92470    7.88020  130.29390
 5488.70000   -9999.25   -9999.25   60.77020  -60.19060    6.74710    7.59020  134.97410
 5489.20000   -9999.25   -9999.25   60.39950  -59.81930    6.58400    7.46420  138.26620
 5489.70000   -9999.25   -9999.25   61.16930  -59.38020    6.64530    7.62650  137.85760
 5490.20000   -9999.25   -9999.25   63.59380  -58.94120    6.75850    7.86250  133.03930
 5490.70000   -9999.25   -9999.25   64.76680  -58.50210    6.86210    8.09850  127.78060
 5491.20000   -9999.25   -9999.25   65.07620  -58.06310    6.95590    8.32600  124.21740
 5491.70000   -9999.25   -9999.25   63.16730  -58.02080    7.04070    8.33120  122.53010
 5492.20000   -9999.25   -9999.25   58.60670  -58.21200    7.10700    8.36840  121.88760
 5492.70000   -9999.25   -9999.25   55.01070  -58.68900    7.17330    8.46450  121.24510
 5493.20000   -9999.25   -9999.25   56.43210  -59.16590    7.23970    8.58340  120.55820
 5493.70000   -9999.25   -9999.25   60.14100  -59.62710    7.29970    8.68360  120.22630
 5494.20000   -9999.25   -9999.25   61.77270  -59.83460    7.32760    8.78390  117.74080
 5494.70000   -9999.25   -9999.25   59.44140  -60.04210    7.30850    8.88410  115.09340
 5495.20000   -9999.25   -9999.25   56.78760  -60.24960    7.24160    8.98440  112.71310
 5495.70000   -9999.25   -9999.25   56.62620  -60.45520    7.11110    9.03680  112.63410
 5496.20000   -9999.25   -9999.25   59.68490  -60.65780    6.97540    9.04420  112.82080
 5496.70000   -9999.25   -9999.25   63.52700  -60.86030    6.85280    9.02260  113.11870
 5497.20000   -9999.25   -9999.25   65.92230  -61.06320    6.73030    8.99760  113.14630
 5497.70000   -9999.25   -9999.25   65.92610  -61.26860    6.63320    8.94910  113.14630
 5498.20000   -9999.25   -9999.25   64.18800  -61.47410    6.67530    8.94210  113.14630
 5498.70000   -9999.25   -9999.25   62.03940  -61.73520    6.74150    8.93500  113.14630
 5499.20000   -9999.25   -9999.25   62.16580  -62.43880    6.82960    8.92790  114.00380
 5499.70000   -9999.25   -9999.25   63.41120  -63.43120    6.92660    8.57190  116.68990
 5500.20000   -9999.25   -9999.25   66.31730  -63.99750    6.93560    7.85600  122.97600
 5500.70000   -9999.25   -9999.25   68.25410  -64.94000    6.94330    7.17680  127.13900
 5501.20000   -9999.25   -9999.25   68.34510  -65.92670    6.95090    6.99740  131.30200
 5501.70000   -9999.25   -9999.25   67.43710  -66.91340    7.12250    7.12550  135.46500
 5502.20000   -9999.25   -9999.25   64.74680  -67.90000    7.44320    7.36390  137.01060
 5502.70000   -9999.25   -9999.25   61.32330  -68.88670    8.26600    7.66330  134.90230
 5503.20000   -9999.25   -9999.25   57.89980  -69.97000    9.08890    7.96260  131.69970
 5503.70000   -9999.25   -9999.25   54.47620  -76.42450    9.91170    8.11110  128.49710
 5504.20000   -9999.25   -9999.25   51.05270  -82.41250   10.73450    8.06150  126.43230
 5504.70000   -9999.25   -9999.25   46.41930  -88.40060   11.62880    7.76740  127.57240
 5505.20000   -9999.25   -9999.25   41.69640  -94.38860   12.00070    7.49360  135.61320
 5505.70000   -9999.25   -9999.25   37.52640  -98.90180   11.98020    7.21970  143.65400
 5506.20000   -9999.25   -9999.25   36.14360 -101.66960   11.73600    6.94580  151.69480
 5506.70000   -9999.25   -9999.25   34.94360 -104.43750   11.34680    6.67190  159.73550
 5507.20000   -9999.25   -9999.25   34.76410 -106.51280   10.89320    6.39800  167.47100
 5507.70000   -9999.25   -9999.25   34.72560 -108.39540   10.56850    6.14030  172.22060
 5508.20000   -9999.25   -9999.25   34.87230 -109.58550   10.24380    5.82820  176.97010
 5508.70000   -9999.25   -9999.25   35.13390 -110.01000    9.99360    5.73380  181.71970
 5509.20000   -9999.25   -9999.25   35.63040 -110.16060    9.65750    5.62610  182.85640
 5509.70000   -9999.25   -9999.25   36.12690 -110.04090    9.35330    5.53750  181.53180
 5510.20000   -9999.25   -9999.25   35.61030 -109.75970    9.05370    5.46870  177.80550
