~Version ---------------------------------------------------
VERS.   2.0 : CWLS log ASCII Standard -VERSION 2.0
WRAP.    NO : One line per depth step
DLM . SPACE : Column Data Section Delimiter
~Well ------------------------------------------------------
STRT .F                 3845.7 : START DEPTH
STOP .F                15974.7 : STOP DEPTH
STEP .F                    0.5 : STEP
NULL .                -9999.25 : NULL VALUE
COMP .                         : COMPANY
WELL .                         : WELL
FLD  .                         : FIELD
LOC  .                         : LOCATION
PROV .                         : PROVINCE
CNTY .                         : COUNTY
STAT .                         : STATE
CTRY .                         : COUNTRY
SRVC .                         : SERVICE COMPANY
DATE .                         : DATE
UWI  .                         : UNIQUE WELL ID
API  .                         : API NUMBER
SLAT .WGS84  4.028448679871097 : SURFACE LATITUDE
SLON .WGS84 1.5624701368317062 : SURFACE LONGITUDE
DATUM.F                 806.11 : DEPTH DATUM ELEV
~Curve Information -----------------------------------------
DEPT   .F     : 1 MEASURED DEPTH
DTCO   .US/F  : DELTA-T COMPRESSIONAL
DTSM   .US/F  : DELTA-T SHEAR
GRR    .GAPI  : GAMMA RAY FROM RESISTIVITY LOG
SPR    .MV    : SPONTANEOUS POTENTIAL FROM RESISTIVITY LOG
AHF20  .OHMM  : ARRAY INDUCTION FOUR FOOT RESISTIVITY A20
AHF60  .OHMM  : ARRAY INDUCTION FOUR FOOT RESISTIVITY A60
AHFCO60.MMHO  : ARRAY INDUCTION FOUR FOOT CONDUCTIVITY A60
~Params ----------------------------------------------------
~Other -----------------------------------------------------
~ASCII -----------------------------------------------------
 3845.70000   -9999.25   -9999.25   28.50550   -9999.25   -9999.25   -9999.25   -9999.25
 3846.20000   -9999.25   -9999.25   29.14110   -9999.25   -9999.25   -9999.25   -9999.25
 3846.70000   -9999.25   -9999.25   30.81450   -9999.25   -9999.25   -9999.25   -9999.25
 3847.20000   -9999.25   -9999.25   32.48790   -9999.25   -9999.25   -9999.25   -9999.25
 3847.70000   -9999.25   -9999.25   34.16130   -9999.25   -9999.25   -9999.25   -9999.25
 3848.20000   -9999.25   -9999.25   36.73500   -9999.25   -9999.25   -9999.25   -9999.25
 3848.70000   -9999.25   -9999.25   40.87470   -9999.25   -9999.25   -9999.25   -9999.25
 3849.20000   -9999.25   -9999.25   45.01440   -9999.25   -9999.25   -9999.25   -9999.25
 3849.70000   -9999.25   -9999.25   49.43300   -9999.25   -9999.25   -9999.25   -9999.25
 3850.20000   -9999.25   -9999.25   54.34780  -96.40530    2.04930    2.25840  523.14750
 3850.70000   -9999.25   -9999.25   55.60670  -95.31280    2.15280    2.29130  504.18610
 3851.20000   -9999.25   -9999.25   53.89290  -94.65230    2.11510    2.35770  481.35670
 3851.70000   -9999.25   -9999.25   51.78880  -94.05580    2.00420    2.45730  475.04770
 3852.20000   -9999.25   -9999.25   49.68460  -93.45930    1.88940    2.55870  488.65910
 3852.70000   -9999.25   -9999.25   47.74720  -92.92240    1.77620    2.66000  496.90370
 3853.20000   -9999.25   -9999.25   47.71200  -93.04320    1.70070    2.76130  478.22290
 3853.70000   -9999.25   -9999.25   48.11860  -93.21890    1.75390    2.76530  444.88530
 3854.20000   -9999.25   -9999.25   47.31080  -93.48270    1.84920    2.76180  411.54770
 3854.70000   -9999.25   -9999.25   46.12160  -93.74660    1.92530    2.73390  409.87950
 3855.20000   -9999.25   -9999.25   44.98610  -94.01040    1.94100    2.65470  423.72290
 3855.70000   -9999.25   -9999.25   44.17810  -94.27430    1.87920    2.57750  444.94410
 3856.20000   -9999.25   -9999.25   43.36120  -94.53810    1.80390    2.52760  456.41120
 3856.70000   -9999.25   -9999.25   42.70910  -94.86550    1.77130    2.58100  449.59200
 3857.20000   -9999.25   -9999.25   42.47180  -95.02090    1.76980    2.62780  437.80360
 3857.70000   -9999.25   -9999.25   42.01170  -95.10320    1.81160    2.58320  434.03460
 3858.20000   -9999.25   -9999.25   41.20330  -95.18540    1.80140    2.52740  442.72650
 3858.70000   -9999.25   -9999.25   40.62960  -95.26770    1.74990    2.47640  459.48500
 3859.20000   -9999.25   -9999.25   43.74630  -95.34990    1.69840    2.50750  476.24350
 3859.70000   -9999.25   -9999.25   47.99040  -95.25260    1.67300    2.56670  477.68560
 3860.20000   -9999.25   -9999.25   50.31140  -95.07140    1.66380    2.64200  468.23180
 3860.70000   -9999.25   -9999.25   49.81720  -94.83190    1.66470    2.72890  436.17610
 3861.20000   -9999.25   -9999.25   47.52410  -94.51010    1.68580    2.81580  411.72790
 3861.70000   -9999.25   -9999.25   45.57900  -94.18840    1.79310    2.90260  399.21530
 3862.20000   -9999.25   -9999.25   46.18420  -93.86660    1.87410    2.96430  382.24960
 3862.70000   -9999.25   -9999.25   50.38280  -93.54480    1.95460    3.25350  365.28390
 3863.20000   -9999.25   -9999.25   54.58140  -93.35030    2.04210    3.68520  313.35600
 3863.70000   -9999.25   -9999.25   58.25570  -93.43850    2.14610    3.78870  287.08070
 3864.20000   -9999.25   -9999.25   58.03340  -93.52660    2.24270    3.55220  290.58460
 3864.70000   -9999.25   -9999.25   55.67600  -93.61480    2.14130    3.26150  331.58060
 3865.20000   -9999.25   -9999.25   53.31870  -93.70290    2.04000    2.94210  370.88570
 3865.70000   -9999.25   -9999.25   50.96140  -93.79110    1.94000    2.72530  406.41090
 3866.20000   -9999.25   -9999.25   48.60400  -93.87920    1.84800    2.71250  422.79220
 3866.70000   -9999.25   -9999.25   47.43400  -93.90930    1.79840    2.69970  439.17340
 3867.20000   -9999.25   -9999.25   48.73900  -93.81790    1.75290    2.68690  455.55470
 3867.70000   -9999.25   -9999.25   52.89050  -93.72640    1.79610    2.67410  459.32900
 3868.20000   -9999.25   -9999.25   57.04200  -93.63350    1.84480    2.69550  451.39870
 3868.70000   -9999.25   -9999.25   61.13710  -93.71040    1.99810    2.83050  381.65830
 3869.20000   -9999.25   -9999.25   65.21300  -94.06290    2.20570    3.26900  333.44540
 3869.70000   -9999.25   -9999.25   69.12060  -95.22730    2.46330    3.58060  315.60130
 3870.20000   -9999.25   -9999.25   69.52730  -96.21720    2.77480    3.72610  302.44800
 3870.70000   -9999.25   -9999.25   69.25010  -97.19990    3.08630    3.89860  290.33260
 3871.20000   -9999.25   -9999.25   66.38610  -98.18250    3.49560    4.04550  273.81520
 3871.70000   -9999.25   -9999.25   52.03340  -99.16520    3.99290    4.12610  257.77470
 3872.20000   -9999.25   -9999.25   40.60080  -99.74470    4.49020    4.17570  241.81130
 3872.70000   -9999.25   -9999.25   39.68910  -99.86910    4.98750    4.17510  232.72680
 3873.20000   -9999.25   -9999.25   39.78850  -99.99350    5.86640    4.06840  232.15530
 3873.70000   -9999.25   -9999.25   42.49420 -100.11790    6.29200    3.87320  242.81140
 3874.20000   -9999.25   -9999.25   48.41890 -100.24220    6.03330    3.61100  291.20560
 3874.70000   -9999.25   -9999.25   54.34370 -100.25920    5.21980    3.37190  311.30720
 3875.20000   -9999.25   -9999.25   59.59320 -100.17630    4.23540    3.36220  327.04680
 3875.70000   -9999.25   -9999.25   60.19580 -100.08930    3.85940    3.33440  339.37920
 3876.20000   -9999.25   -9999.25   59.78770  -99.90950    3.53890    3.19940  349.25530
 3876.70000   -9999.25   -9999.25   56.60320  -99.72960    3.22390    3.09010  354.75880
 3877.20000   -9999.25   -9999.25   51.50200  -99.20880    2.94990    2.94060  364.22360
 3877.70000   -9999.25   -9999.25   48.42760  -98.57970    2.69330    2.76120  381.99620
 3878.20000   -9999.25   -9999.25   48.15850  -97.51510    2.43680    2.58180  406.15280
 3878.70000   -9999.25   -9999.25   48.06790  -95.96850    2.18020    2.47400  430.30930
 3879.20000   -9999.25   -9999.25   48.48400  -94.42190    2.01690    2.47340  433.61420
 3879.70000   -9999.25   -9999.25   49.97610  -92.87530    1.96400    2.48360  432.19980
 3880.20000   -9999.25   -9999.25   52.89150  -91.32870    1.96220    2.56420  418.43550
 3880.70000   -9999.25   -9999.25   55.80680  -90.52260    2.00600    2.66960  402.73760
 3881.20000   -9999.25   -9999.25   58.66010  -89.82900    2.07560    2.85560  387.03970
 3881.70000   -9999.25   -9999.25   61.57220  -89.13540    2.19650    3.04150  371.34180
 3882.20000   -9999.25   -9999.25   64.50950  -88.44170    2.40760    3.26340  355.12190
 3882.70000   -9999.25   -9999.25   66.03770  -87.74810    2.62180    3.51750  333.10620
 3883.20000   -9999.25   -9999.25   65.34470  -87.83010    2.92050    3.63470  301.53590
 3883.70000   -9999.25   -9999.25   63.90510  -88.53570    3.21910    3.49590  296.00670
 3884.20000   -9999.25   -9999.25   62.46540  -89.13280    3.25680    3.37310  296.33760
 3884.70000   -9999.25   -9999.25   61.02580  -89.71100    3.21040    3.25870  311.40900
 3885.20000   -9999.25   -9999.25   60.11210  -90.28910    3.08260    3.14850  340.70670
 3885.70000   -9999.25   -9999.25   60.07110  -90.96820    2.95480    3.09000  362.24980
 3886.20000   -9999.25   -9999.25   60.36490  -91.57610    2.93140    3.03830  374.49470
 3886.70000   -9999.25   -9999.25   60.65880  -92.10120    3.00030    3.08840  374.53550
 3887.20000   -9999.25   -9999.25   60.95260  -92.43730    3.15640    3.17400  367.35550
 3887.70000   -9999.25   -9999.25   61.24650  -93.48600    3.31250    3.25960  352.68630
 3888.20000   -9999.25   -9999.25   61.54030  -94.58390    3.46860    3.34530  338.01720
 3888.70000   -9999.25   -9999.25   61.83410  -95.68170    3.62470    3.43090  323.34800
 3889.20000   -9999.25   -9999.25   61.84900  -96.77960    3.78080    3.51650  312.11720
 3889.70000   -9999.25   -9999.25   61.78840  -97.87750    3.90400    3.39480  311.92340
 3890.20000   -9999.25   -9999.25   61.47740  -98.97540    3.77570    3.21220  328.33210
