~Version ---------------------------------------------------
VERS.   2.0 : CWLS log ASCII Standard -VERSION 2.0
WRAP.    NO : One line per depth step
DLM . SPACE : Column Data Section Delimiter
~Well ------------------------------------------------------
STRT .F                 3845.7 : START DEPTH
STOP .F                15974.7 : STOP DEPTH
STEP .F                    0.5 : STEP
NULL .                -9999.25 : NULL VALUE
COMP .                         : COMPANY
WELL .                         : WELL
FLD  .                         : FIELD
LOC  .                         : LOCATION
PROV .                         : PROVINCE
CNTY .                         : COUNTY
STAT .                         : STATE
CTRY .                         : COUNTRY
SRVC .                         : SERVICE COMPANY
DATE .                         : DATE
UWI  .                         : UNIQUE WELL ID
API  .                         : API NUMBER
SLAT .WGS84  4.028448679871097 : SURFACE LATITUDE
SLON .WGS84 1.5624701368317062 : SURFACE LONGITUDE
DATUM.F                 806.11 : DEPTH DATUM ELEV
~Curve Information -----------------------------------------
DEPT   .F     : 1 MEASURED DEPTH
DTCO   .US/F  : DELTA-T COMPRESSIONAL
DTSM   .US/F  : DELTA-T SHEAR
GRR    .GAPI  : GAMMA RAY FROM RESISTIVITY LOG
SPR    .MV    : SPONTANEOUS POTENTIAL FROM RESISTIVITY LOG
AHF20  .OHMM  : ARRAY INDUCTION FOUR FOOT RESISTIVITY A20
AHF60  .OHMM  : ARRAY INDUCTION FOUR FOOT RESISTIVITY A60
AHFCO60.MMHO  : ARRAY INDUCTION FOUR FOOT CONDUCTIVITY A60
~Params ----------------------------------------------------
~Other -----------------------------------------------------
~ASCII -----------------------------------------------------
# ...
 6275.70000   -9999.25   -9999.25   73.51150  -47.98550    7.89150   10.43380   96.89550
 6276.20000   -9999.25   -9999.25   70.38020  -48.36620    7.73710   10.29670   98.49930
 6276.70000   -9999.25   -9999.25   69.78700  -48.74700    7.62380    9.63780  105.43910
 6277.20000   -9999.25   -9999.25   69.04180  -49.12770    7.24140    8.97900  113.48950
 6277.70000   -9999.25   -9999.25   67.38990  -49.50840    6.87460    8.49710  121.54550
 6278.20000   -9999.25   -9999.25   64.70980  -50.03720    6.56880    8.02200  128.60850
 6278.70000   -9999.25   -9999.25   62.02980  -49.90400    6.33580    7.80820  133.21780
 6279.20000   -9999.25   -9999.25   60.49830  -49.18910    6.26930    7.77230  133.13390
 6279.70000   -9999.25   -9999.25   62.59080  -48.37510    6.32220    8.31540  129.06690
 6280.20000   -9999.25   -9999.25   63.78400  -47.56120    6.69020    8.93010  121.48030
 6280.70000   -9999.25   -9999.25   62.61980  -46.74720    7.12190    9.54470  113.68240
 6281.20000   -9999.25   -9999.25   61.65300  -45.93330    7.56390   10.13420  105.88460
 6281.70000   -9999.25   -9999.25   62.32380  -45.11930    8.09360   10.71340   98.11130
 6282.20000   -9999.25   -9999.25   63.69780  -44.40320    8.70120   11.29260   90.36590
 6282.70000   -9999.25   -9999.25   65.31870  -44.05750    9.31360   11.68550   84.40970
 6283.20000   -9999.25   -9999.25   66.93960  -43.71130    9.92600   11.79620   83.38850
 6283.70000   -9999.25   -9999.25   67.92660  -43.36380   10.02060   11.40240   85.08940
 6284.20000   -9999.25   -9999.25   67.38690  -43.01630   10.03020   10.89930   89.71660
 6284.70000   -9999.25   -9999.25   66.16030  -42.85080    9.71800   10.39620   94.34380
 6285.20000   -9999.25   -9999.25   65.94840  -43.12840    9.30320    9.89310   98.97100
 6285.70000   -9999.25   -9999.25   68.98900  -43.82490    8.88830    9.39000  104.47040
 6286.20000   -9999.25   -9999.25   73.34140  -43.76360    8.47340    8.88690  112.00460
 6286.70000   -9999.25   -9999.25   74.71720  -43.47500    8.05850    8.38380  118.58500
 6287.20000   -9999.25   -9999.25   73.45350  -43.18640    7.62770    8.25410  122.39690
 6287.70000   -9999.25   -9999.25   71.56690  -42.89780    7.36110    8.35490  122.86490
 6288.20000   -9999.25   -9999.25   69.68040  -42.60920    7.31480    8.47710  122.81360
 6288.70000   -9999.25   -9999.25   67.79380  -42.32060    7.27550    8.50370  122.47340
 6289.20000   -9999.25   -9999.25   65.90730  -42.03200    7.19880    8.44680  122.48130
 6289.70000   -9999.25   -9999.25   64.72340  -41.74340    7.00150    8.22610  124.47780
 6290.20000   -9999.25   -9999.25   65.02370  -41.45480    6.80410    8.00550  127.10420
 6290.70000   -9999.25   -9999.25   65.58610  -41.18030    6.60670    7.78480  131.46180
 6291.20000   -9999.25   -9999.25   65.96910  -41.18030    6.40930    7.56410  134.93350
 6291.70000   -9999.25   -9999.25   65.52460  -41.18030    6.31000    7.52940  136.66440
 6292.20000   -9999.25   -9999.25   64.33600  -41.18030    6.33020    7.52030  138.39540
 6292.70000   -9999.25   -9999.25   63.14740  -41.18030    6.35140    7.47180  140.12630
 6293.20000   -9999.25   -9999.25   63.58740  -41.09530    6.37270    7.39930  141.85720
 6293.70000   -9999.25   -9999.25   64.39830  -40.92400    6.41420    7.37390  142.86130
 6294.20000   -9999.25   -9999.25   64.59930  -40.75270    6.49340    7.47460  142.62560
 6294.70000   -9999.25   -9999.25   64.13290  -40.58130    6.60050    7.61820  138.65790
 6295.20000   -9999.25   -9999.25   60.44990  -40.85350    6.77450    7.77690  133.47660
 6295.70000   -9999.25   -9999.25   55.91960  -41.18130    6.94850    7.92470  128.29540
 6296.20000   -9999.25   -9999.25   56.06870  -41.50900    7.08760    7.92420  124.25020
 6296.70000   -9999.25   -9999.25   59.16330  -41.78360    7.04440    7.91030  125.27360
 6297.20000   -9999.25   -9999.25   62.45540  -41.94650    6.87290    7.89630  128.06030
 6297.70000   -9999.25   -9999.25   65.74760  -41.87570    6.68750    7.88240  129.78940
 6298.20000   -9999.25   -9999.25   69.03980  -41.63940    6.64100    7.79090  130.84870
 6298.70000   -9999.25   -9999.25   68.84340  -41.49450    6.64620    7.74550  131.90810
 6299.20000   -9999.25   -9999.25   66.79510  -41.34970    6.68570    7.72100  132.96740
 6299.70000   -9999.25   -9999.25   66.29090  -41.96630    6.90940    7.69640  134.02680
 6300.20000   -9999.25   -9999.25   68.92680  -43.16340    6.99780    7.68300  135.08610
 6300.70000   -9999.25   -9999.25   73.43030  -44.36060    6.95900    7.68410  135.68360
 6301.20000   -9999.25   -9999.25   75.15190  -44.77530    6.92010    7.68520  134.79870
 6301.70000   -9999.25   -9999.25   74.00540  -44.90830    6.88580    7.68640  133.83450
 6302.20000   -9999.25   -9999.25   70.88420  -45.04140    6.77950    7.56720  133.15080
 6302.70000   -9999.25   -9999.25   67.76290  -45.10920    6.49220    7.41210  138.60830
 6303.20000   -9999.25   -9999.25   66.61660  -45.14400    6.24920    7.11620  144.57890
 6303.70000   -9999.25   -9999.25   67.56680  -45.17880    6.06640    7.00130  150.54950
 6304.20000   -9999.25   -9999.25   70.87580  -45.21360    5.77570    6.95710  151.08010
 6304.70000   -9999.25   -9999.25   71.76380  -45.24840    5.73060    6.91290  150.64790
 6305.20000   -9999.25   -9999.25   71.56590  -45.60910    5.68550    6.86880  149.91150
 6305.70000   -9999.25   -9999.25   69.29900  -46.43500    5.59680    6.82460  149.84440
 6306.20000   -9999.25   -9999.25   66.42580  -47.26090    5.45400    6.67690  150.44660
 6306.70000   -9999.25   -9999.25   63.76140  -48.08680    5.30580    6.52150  151.59910
 6307.20000   -9999.25   -9999.25   63.18850  -48.85160    5.25420    6.36610  152.89020
 6307.70000   -9999.25   -9999.25   63.99190  -50.57650    5.24340    6.21070  154.18120
 6308.20000   -9999.25   -9999.25   66.24760  -51.32240    5.23250    6.55970  155.47230
 6308.70000   -9999.25   -9999.25   68.51680  -52.18630    5.22160    7.49770  156.06530
 6309.20000   -9999.25   -9999.25   70.78610  -52.46530    5.44200    8.63300  154.33040
 6309.70000   -9999.25   -9999.25   73.05540  -53.07380    5.97300   10.54720  131.94620
 6310.20000   -9999.25   -9999.25   75.88010  -54.23670    6.55920   12.71290  105.03090
 6310.70000   -9999.25   -9999.25   79.69710  -55.32070    7.37760   15.76690   80.81000
 6311.20000   -9999.25   -9999.25   83.51400  -56.46660    7.83760   17.15800   58.73580
 6311.70000   -9999.25   -9999.25   85.00620  -58.14890    7.72260   16.08530   56.87550
 6312.20000   -9999.25   -9999.25   83.96540  -59.83120    6.70330   12.45300   59.01920
 6312.70000   -9999.25   -9999.25   80.96550  -61.51350    5.64470    8.82080   87.70410
 6313.20000   -9999.25   -9999.25   77.96560  -63.19580    4.58600    7.06330  119.08290
 6313.70000   -9999.25   -9999.25   77.26110  -64.87820    3.96020    6.05360  150.33000
 6314.20000   -9999.25   -9999.25   77.27470  -66.56050    3.51820    5.07930  181.54800
 6314.70000   -9999.25   -9999.25   77.54380  -67.07070    3.21630    4.99710  218.21170
 6315.20000   -9999.25   -9999.25   77.65240  -67.25970    2.93680    4.91490  243.02640
 6315.70000   -9999.25   -9999.25   75.55000  -67.25860    2.81840    4.91890  242.82480
 6316.20000   -9999.25   -9999.25   71.34710  -66.91910    2.89730    5.01930  228.39390
 6316.70000   -9999.25   -9999.25   70.55490  -66.47070    3.02620    5.21880  204.42650
 6317.20000   -9999.25   -9999.25   71.89010  -66.02240    3.40080    5.77970  185.39610
 6317.70000   -9999.25   -9999.25   74.29360  -65.57410    3.69620    6.53010  167.51970
 6318.20000   -9999.25   -9999.25   74.95110  -65.23340    4.00550    7.28050  149.79050
 6318.70000   -9999.25   -9999.25   74.56760  -65.50090    4.53700    8.03080  134.24160
 6319.20000   -9999.25   -9999.25   73.17750  -66.48760    4.84110    8.78120  123.35980
 6319.70000   -9999.25   -9999.25   70.95030  -67.92210    5.85410    9.53150  112.34290
 6320.20000   -9999.25   -9999.25   68.72320  -69.35670    6.90770    9.82310  103.68490
