~Version ---------------------------------------------------
VERS.   2.0 : CWLS log ASCII Standard -VERSION 2.0
WRAP.    NO : One line per depth step
DLM . SPACE : Column Data Section Delimiter
~Well ------------------------------------------------------
STRT .F                 3845.7 : START DEPTH
STOP .F                15974.7 : STOP DEPTH
STEP .F                    0.5 : STEP
NULL .                -9999.25 : NULL VALUE
COMP .                         : COMPANY
WELL .                         : WELL
FLD  .                         : FIELD
LOC  .                         : LOCATION
PROV .                         : PROVINCE
CNTY .                         : COUNTY
STAT .                         : STATE
CTRY .                         : COUNTRY
SRVC .                         : SERVICE COMPANY
DATE .                         : DATE
UWI  .                         : UNIQUE WELL ID
API  .                         : API NUMBER
SLAT .WGS84  4.028448679871097 : SURFACE LATITUDE
SLON .WGS84 1.5624701368317062 : SURFACE LONGITUDE
DATUM.F                 806.11 : DEPTH DATUM ELEV
~Curve Information -----------------------------------------
DEPT   .F     : 1 MEASURED DEPTH
DTCO   .US/F  : DELTA-T COMPRESSIONAL
DTSM   .US/F  : DELTA-T SHEAR
GRR    .GAPI  : GAMMA RAY FROM RESISTIVITY LOG
SPR    .MV    : SPONTANEOUS POTENTIAL FROM RESISTIVITY LOG
AHF20  .OHMM  : ARRAY INDUCTION FOUR FOOT RESISTIVITY A20
AHF60  .OHMM  : ARRAY INDUCTION FOUR FOOT RESISTIVITY A60
AHFCO60.MMHO  : ARRAY INDUCTION FOUR FOOT CONDUCTIVITY A60
~Params ----------------------------------------------------
~Other -----------------------------------------------------
~ASCII -----------------------------------------------------
# ...
 4655.70000   -9999.25   -9999.25   49.07680 -111.44950    5.90950    4.28270  251.69740
 4656.20000   -9999.25   -9999.25   45.61950 -108.97940    5.82010    4.30080  246.42870
 4656.70000   -9999.25   -9999.25   42.35840 -105.49890    5.72120    4.30110  241.16000
 4657.20000   -9999.25   -9999.25   39.32320 -102.01840    5.62110    4.27120  237.17200
 4657.70000   -9999.25   -9999.25   39.88130  -98.08060    5.52090    4.18550  235.61270
 4658.20000   -9999.25   -9999.25   45.67760  -94.03310    5.37980    4.09970  236.84980
 4658.70000   -9999.25   -9999.25   51.47390  -89.98560    5.16500    4.01400  248.39750
 4659.20000   -9999.25   -9999.25   57.27030  -85.93820    4.84360    3.92830  260.65120
 4659.70000   -9999.25   -9999.25   63.06660  -82.52230    4.08470    3.84250  272.95390
 4660.20000   -9999.25   -9999.25   68.65680  -81.09320    3.91500    3.82430  285.25660
 4660.70000   -9999.25   -9999.25   74.22350  -79.66400    3.75290    3.87340  287.39720
 4661.20000   -9999.25   -9999.25   78.42390  -78.23490    3.59080    3.92240  282.81990
 4661.70000   -9999.25   -9999.25   80.85720  -77.05310    3.55850    3.97140  273.42870
 4662.20000   -9999.25   -9999.25   81.19720  -76.02200    3.53010    4.02050  264.03750
 4662.70000   -9999.25   -9999.25   80.53050  -74.99100    3.50180    4.06950  257.86210
 4663.20000   -9999.25   -9999.25   79.50320  -72.90860    3.49410    4.11860  254.80340
 4663.70000   -9999.25   -9999.25   78.65860  -72.60190    3.50010    4.17140  251.74470
 4664.20000   -9999.25   -9999.25   79.01300  -72.29530    3.50760    4.23640  248.68600
 4664.70000   -9999.25   -9999.25   79.44830  -71.98870    3.51910    4.30140  244.24080
 4665.20000   -9999.25   -9999.25   81.48290  -71.68200    3.54990    4.36640  239.08470
 4665.70000   -9999.25   -9999.25   83.55980  -71.37540    3.59470    4.43140  233.92870
 4666.20000   -9999.25   -9999.25   84.80460  -72.17150    3.56760    4.49640  231.10970
 4666.70000   -9999.25   -9999.25   84.45250  -72.97470    3.53590    4.40560  233.59180
 4667.20000   -9999.25   -9999.25   81.81870  -73.77780    3.38610    4.25170  248.00090
 4667.70000   -9999.25   -9999.25   80.88920  -74.47800    3.21490    4.10050  264.83360
 4668.20000   -9999.25   -9999.25   87.16690  -75.00010    3.02370    3.94930  279.72330
 4668.70000   -9999.25   -9999.25   87.50250  -75.40890    2.87900    3.79810  296.21120
 4669.20000   -9999.25   -9999.25   85.75930  -75.47310    2.75520    3.64690  316.55670
 4669.70000   -9999.25   -9999.25   79.94880  -75.43410    2.65080    3.49570  324.53610
 4670.20000   -9999.25   -9999.25   79.01670  -75.14130    2.67770    3.40840  328.08740
 4670.70000   -9999.25   -9999.25   83.45900  -74.78530    2.74090    3.35750  329.83530
 4671.20000   -9999.25   -9999.25   88.94040  -74.09840    2.83870    3.30660  329.75470
 4671.70000   -9999.25   -9999.25   94.42180  -73.60590    2.93600    3.25570  329.50170
 4672.20000   -9999.25   -9999.25   98.47260  -73.88290    3.02350    3.22880  328.98720
 4672.70000   -9999.25   -9999.25   98.86640  -74.84030    3.09400    3.21620  330.15780
 4673.20000   -9999.25   -9999.25   98.78110  -76.97980    3.23490    3.20370  330.91300
 4673.70000   -9999.25   -9999.25   94.10880  -79.99880    3.41430    3.19120  332.11630
 4674.20000   -9999.25   -9999.25   86.20230  -84.63940    3.60950    3.19320  334.01600
 4674.70000   -9999.25   -9999.25   81.39830  -89.52860    3.80500    3.20450  336.79870
 4675.20000   -9999.25   -9999.25   76.41400  -94.41780    3.99500    3.21570  339.41560
 4675.70000   -9999.25   -9999.25   71.42890  -99.30900    4.16570    3.22690  340.45030
 4676.20000   -9999.25   -9999.25   65.77950 -104.19650    4.33640    3.23810  339.11380
 4676.70000   -9999.25   -9999.25   53.87760 -109.01740    4.50710    3.24940  336.73900
 4677.20000   -9999.25   -9999.25   47.50950 -113.76550    4.67780    3.26060  334.36410
 4677.70000   -9999.25   -9999.25   43.90270 -118.51370    4.84850    3.27180  331.98930
 4678.20000   -9999.25   -9999.25   43.67420 -120.52520    5.01920    3.28300  331.27110
 4678.70000   -9999.25   -9999.25   43.96580 -121.59820    5.06660    3.28790  331.75530
 4679.20000   -9999.25   -9999.25   45.10990 -122.87980    5.08270    3.27300  334.71950
 4679.70000   -9999.25   -9999.25   46.25390 -123.23150    5.09870    3.25810  339.13770
 4680.20000   -9999.25   -9999.25   48.31170 -123.24740    5.08790    3.24320  343.55600
 4680.70000   -9999.25   -9999.25   50.62900 -122.84420    5.05460    3.22830  347.97430
 4681.20000   -9999.25   -9999.25   52.94620 -121.82100    5.02130    3.21340  352.39250
 4681.70000   -9999.25   -9999.25   55.26350 -120.79790    4.88050    3.19840  356.51210
 4682.20000   -9999.25   -9999.25   57.58070 -119.77480    4.67060    3.18350  357.80850
 4682.70000   -9999.25   -9999.25   59.89800 -118.60010    4.52960    3.16860  357.74610
 4683.20000   -9999.25   -9999.25   60.63090 -117.09050    4.40710    3.15370  356.12790
 4683.70000   -9999.25   -9999.25   59.09920 -115.17950    4.34410    3.13880  352.60330
 4684.20000   -9999.25   -9999.25   57.13260 -113.08840    4.29740    3.12390  349.33270
 4684.70000   -9999.25   -9999.25   55.16610 -110.55890    4.23360    3.10900  346.66850
 4685.20000   -9999.25   -9999.25   54.19010 -106.29270    4.03170    3.09410  347.95310
 4685.70000   -9999.25   -9999.25   54.64330 -101.56210    3.81970    3.07920  353.53620
 4686.20000   -9999.25   -9999.25   57.69900  -95.28910    3.60650    3.06430  359.11930
 4686.70000   -9999.25   -9999.25   60.75480  -91.39390    3.39340    3.07600  362.44400
 4687.20000   -9999.25   -9999.25   63.81050  -88.14760    3.32770    3.10430  355.26680
 4687.70000   -9999.25   -9999.25   64.14630  -84.90130    3.35040    3.13250  343.24780
 4688.20000   -9999.25   -9999.25   63.94390  -81.65500    3.37320    3.16070  330.87640
 4688.70000   -9999.25   -9999.25   63.65050  -80.90650    3.39600    3.18890  321.88750
 4689.20000   -9999.25   -9999.25   63.78150  -80.72710    3.41230    3.21710  312.89870
 4689.70000   -9999.25   -9999.25   66.05800  -80.80360    3.40150    3.24540  309.52940
 4690.20000   -9999.25   -9999.25   69.51060  -81.38110    3.40750    3.27360  310.90570
 4690.70000   -9999.25   -9999.25   72.96320  -83.52390    3.42050    3.30180  314.22710
 4691.20000   -9999.25   -9999.25   74.38480  -87.24420    3.44640    3.32430  317.54860
 4691.70000   -9999.25   -9999.25   71.44460  -91.09390    3.50720    3.33950  320.87000
 4692.20000   -9999.25   -9999.25   64.78220  -94.49300    3.67720    3.35460  319.86940
 4692.70000   -9999.25   -9999.25   61.87500  -97.89200    4.07770    3.36980  317.52260
 4693.20000   -9999.25   -9999.25   59.62490 -100.53050    4.41850    3.32170  316.97360
 4693.70000   -9999.25   -9999.25   57.71120 -100.79350    4.58660    3.27310  326.14610
 4694.20000   -9999.25   -9999.25   57.32270  -98.61640    4.62780    3.11870  354.94030
 4694.70000   -9999.25   -9999.25   60.59440  -95.14830    4.37520    2.95150  401.64090
 4695.20000   -9999.25   -9999.25   67.62540  -94.21360    3.94600    2.78430  445.46880
 4695.70000   -9999.25   -9999.25   74.65630  -95.48010    3.61760    2.61700  481.24140
 4696.20000   -9999.25   -9999.25   76.42930  -99.53710    3.48690    2.44980  511.42430
 4696.70000   -9999.25   -9999.25   74.06040 -103.59410    3.42220    2.28260  532.97440
 4697.20000   -9999.25   -9999.25   66.99470 -109.24220    3.46830    2.14050  546.01650
 4697.70000   -9999.25   -9999.25   59.92900 -116.44500    3.83050    2.09190  559.47440
 4698.20000   -9999.25   -9999.25   52.61800 -121.03220    3.96560    2.04330  583.71880
 4698.70000   -9999.25   -9999.25   46.57870 -125.61940    3.98090    1.96410  618.65440
 4699.20000   -9999.25   -9999.25   41.46120 -130.20650    3.85860    1.86250  663.14720
 4699.70000   -9999.25   -9999.25   41.57300 -133.97880    3.68380    1.76080  707.63990
 4700.20000   -9999.25   -9999.25   43.25380 -135.93360    3.47790    1.65910  749.85150
