~Version ---------------------------------------------------
VERS.   2.0 : CWLS log ASCII Standard -VERSION 2.0
WRAP.    NO : One line per depth step
DLM . SPACE : Column Data Section Delimiter
~Well ------------------------------------------------------
STRT .F                 3845.7 : START DEPTH
STOP .F                15974.7 : STOP DEPTH
STEP .F                    0.5 : STEP
NULL .                -9999.25 : NULL VALUE
COMP .                         : COMPANY
WELL .                         : WELL
FLD  .                         : FIELD
LOC  .                         : LOCATION
PROV .                         : PROVINCE
CNTY .                         : COUNTY
STAT .                         : STATE
CTRY .                         : COUNTRY
SRVC .                         : SERVICE COMPANY
DATE .                         : DATE
UWI  .                         : UNIQUE WELL ID
API  .                         : API NUMBER
SLAT .WGS84  4.028448679871097 : SURFACE LATITUDE
SLON .WGS84 1.5624701368317062 : SURFACE LONGITUDE
DATUM.F                 806.11 : DEPTH DATUM ELEV
~Curve Information -----------------------------------------
DEPT   .F     : 1 MEASURED DEPTH
DTCO   .US/F  : DELTA-T COMPRESSIONAL
DTSM   .US/F  : DELTA-T SHEAR
GRR    .GAPI  : GAMMA RAY FROM RESISTIVITY LOG
SPR    .MV    : SPONTANEOUS POTENTIAL FROM RESISTIVITY LOG
AHF20  .OHMM  : ARRAY INDUCTION FOUR FOOT RESISTIVITY A20
AHF60  .OHMM  : ARRAY INDUCTION FOUR FOOT RESISTIVITY A60
AHFCO60.MMHO  : ARRAY INDUCTION FOUR FOOT CONDUCTIVITY A60
~Params ----------------------------------------------------
~Other -----------------------------------------------------
~ASCII -----------------------------------------------------
# ...
 14327.20000   92.48330  167.00300   84.40550  -45.20350    1.85760    2.31330  479.54260
 14327.70000   92.82300  162.18500   86.05270  -45.08350    1.86830    2.27390  481.75450
 14328.20000   93.16260  159.63430   87.69980  -44.96350    1.87900    2.23440  486.09840
 14328.70000   93.51320  158.03630   88.78190  -44.84350    1.88960    2.19500  493.93090
 14329.20000   95.16350  156.84210   89.18600  -44.72340    1.89220    2.15560  505.42700
 14329.70000   96.94790  156.46810   88.20800  -44.60340    1.88240    2.17640  516.92320
 14330.20000   98.03500  156.30800   85.82640  -44.48340    1.89650    2.28550  522.42100
 14330.70000   98.13290  154.47230   83.44470  -44.29920    1.91770    2.37280  519.00310
 14331.20000   96.21810  149.31710   81.06300  -44.52690    1.93890    2.45640  503.26690
 14331.70000   92.11430  141.46710   76.40640  -44.75450    1.99550    2.53990  441.48480
 14332.20000   87.31680  132.21930   70.19300  -44.98210    2.33050    3.14650  383.12010
 14332.70000   83.10320  125.78220   68.95040  -45.20970    2.67970    3.83720  328.04510
 14333.20000   76.03260  119.53990   68.59060  -45.48050    3.02900    4.80710  262.59550
 14333.70000   69.87090  114.72040   65.27930  -45.82530    4.15640    6.31930  205.28310
 14334.20000   64.97060  114.77270   56.16790  -46.15240    7.92180    8.19110  147.97070
 14334.70000   63.54940  115.35450   45.26570  -46.42160   12.04030   11.79580  112.94790
 14335.20000   64.33450  115.20060   40.14450  -46.67030   16.15880   15.40050   79.41100
 14335.70000   64.44910  114.47620   37.39500  -46.88340   18.66070   19.00520   61.15920
 14336.20000   63.95390  113.46110   34.64550  -46.99940   20.61340   19.56940   55.17860
 14336.70000   61.58980  109.58530   33.73660  -47.11540   21.69740   19.01570   52.14150
 14337.20000   56.41840  101.56150   34.89060  -47.25690   22.78130   18.09760   52.58830
 14337.70000   53.70740   97.65170   36.50610  -47.69150   23.86530   17.61170   53.42940
 14338.20000   52.59620   97.74120   36.82250  -48.06070   24.91230   18.34360   54.80990
 14338.70000   52.40180   98.32100   36.47810  -48.22460   27.10770   19.38170   54.43160
 14339.20000   51.77690   98.90080   34.20210  -48.38860   29.67350   20.41980   52.45800
 14339.70000   50.92760  100.52730   31.92620  -48.55250   32.29430   21.45790   49.16590
 14340.20000   51.71530  102.34720   32.21490  -48.71640   34.23420   22.36130   47.23750
 14340.70000   53.19460  104.29730   34.04750  -48.88030   33.78080   22.44840   45.68660
 14341.20000   55.08100  105.22020   36.08180  -49.04430   33.38680   22.45210   44.86270
 14341.70000   55.61540  105.84740   38.11610  -49.20820   33.70480   22.46840   44.51430
 14342.20000   55.35670  105.42500   40.27580  -49.37210   34.29020   22.57420   44.29820
 14342.70000   55.09770  104.61870   41.24840  -49.82230   34.84760   22.68510   44.08210
 14343.20000   54.77640  103.93050   41.59320  -50.53520   35.35730   23.14540   43.20480
 14343.70000   54.10170  102.90390   40.90920  -51.18660   35.45730   23.67760   42.23560
 14344.20000   52.86140  101.93560   39.78750  -51.57030   35.81590   24.24000   41.25250
 14344.70000   51.60870  101.02860   38.66590  -51.93390   36.26400   24.95620   40.07010
 14345.20000   50.47460  100.62650   37.16520  -52.31940   36.95500   25.88870   38.62950
 14345.70000   50.07070  100.72110   35.12210  -52.70500   38.19090   26.75250   37.37940
 14346.20000   49.92510  101.00180   33.07910  -53.04510   39.53730   27.18460   36.78570
 14346.70000   50.54910  101.52740   31.03610  -53.12870   40.88380   27.34000   36.57620
 14347.20000   51.33620  102.05290   29.45640  -53.15420   42.96780   27.66150   36.15120
 14347.70000   52.19980  102.27710   30.09880  -53.14540   45.18970   28.39010   35.22510
 14348.20000   52.74130  101.82740   34.11930  -53.22280   47.41150   29.20880   34.31570
 14348.70000   52.75170  101.41530   38.28040  -53.30500   49.45690   30.04560   33.43090
 14349.20000   52.37800  100.56350   40.89770  -53.42580   49.61700   30.88240   32.99190
 14349.70000   52.33740  100.86270   40.72150  -53.54830   48.58580   31.06210   33.11700
 14350.20000   52.27700  100.73460   38.54780  -53.54330   46.12520   31.04960   32.04610
 14350.70000   52.28340  100.56610   36.25810  -53.53820   43.66470   30.71580   30.70640
 14351.20000   51.69360  100.35440   34.19130  -53.51790   42.24310   29.67650   29.78440
 14351.70000   51.06220  100.19890   32.20770  -53.17080   41.50380   28.11030   31.19520
 14352.20000   50.92670  101.52470   32.08280  -52.43410   39.63260   25.35250   33.78370
 14352.70000   51.12030  103.04570   32.36340  -52.12180   36.61810   22.59480   36.78140
 14353.20000   51.37860  106.28040   32.64400  -52.03340   33.60350   19.83710   40.46120
 14353.70000   51.75320  106.37550   32.92470  -51.94500   31.39420   19.48110   44.14100
 14354.20000   52.13610  104.83490   33.20530  -51.85660   30.01340   19.99530   47.82090
 14354.70000   52.40410  103.29420   35.18810  -51.76820   29.09230   20.83370   49.66230
 14355.20000   52.68870  104.51980   37.85380  -51.67980   28.49280   21.82380   50.09590
 14355.70000   52.77480  106.25090   39.51470  -51.59140   27.35930   23.30420   48.42330
 14356.20000   51.71400  106.82680   39.55140  -51.54930   25.96910   24.78460   43.89220
 14356.70000   50.52380  106.12470   37.11310  -51.57310   25.34300   25.30980   40.78910
 14357.20000   49.28270  103.46430   33.95900  -51.56950   19.93770   22.57670   40.25180
 14357.70000   48.68440  100.66510   32.68340  -51.60940   16.51760   19.14080   43.27890
 14358.20000   48.98200   97.74260   33.19150  -51.67170   13.39410   15.76590   54.97870
 14358.70000   49.88270   97.35130   35.30150  -51.65190   11.02850   13.89270   66.94130
 14359.20000   51.42690   99.41300   37.41140  -51.47900    8.66300   12.01950   78.90380
 14359.70000   59.39590  105.09720   43.80700  -51.22850    7.09270   10.14640   99.63800
 14360.20000   69.51590  121.71230   52.82240  -51.20590    6.22430    8.33890  120.40660
 14360.70000   80.08250  137.09880   61.83790  -51.18330    5.35580    7.00490  142.74560
 14361.20000   85.48550  141.88310   72.49720  -51.16080    4.48740    5.35480  186.86740
 14361.70000   87.15490  144.12940   77.43310  -51.36330    3.72310    4.09400  244.31810
 14362.20000   87.64610  147.56790   80.24520  -51.66810    3.04990    3.40850  297.01860
 14362.70000   87.97560  151.16100   83.05730  -51.97290    2.56860    3.20000  336.41170
 14363.20000   87.80020  153.52280   85.16330  -52.27770    2.23390    3.07110  378.33630
 14363.70000   87.64900  154.88490   85.62390  -52.58250    2.19550    2.94210  389.35310
 14364.20000   88.74560  156.30030   85.38360  -52.67580    2.14390    2.85340  397.44350
 14364.70000   89.76240  157.87810   84.67660  -52.72600    2.13090    2.83340  396.46380
 14365.20000   90.80690  159.09950   83.93410  -52.70510    2.11980    2.81340  395.04690
 14365.70000   91.45780  159.93310   83.81880  -52.63250    2.11620    2.79330  393.62990
 14366.20000   90.71760  159.00480   84.09500  -52.55990    2.13620    2.77330  392.21300
 14366.70000   89.69450  156.84890   87.75180  -52.27230    2.15630    2.75330  392.91760
 14367.20000   88.72420  154.18040   89.43170  -52.20500    2.17670    2.73330  397.67100
 14367.70000   89.00010  154.84340   88.20750  -52.32040    2.20420    2.71320  403.50130
 14368.20000   90.24100  156.10430   85.56690  -52.32440    2.23170    2.68000  409.33170
 14368.70000   91.60550  156.62500   83.39690  -52.32830    2.24880    2.64090  415.16210
 14369.20000   91.52530  154.61400   83.51490  -52.33230    2.24910    2.60180  420.15720
 14369.70000   88.98170  146.20780   86.44070  -52.33620    2.24940    2.56280  425.13560
 14370.20000   83.39490  133.43740   87.80220  -52.34430    2.24970    2.52370  429.78710
 14370.70000   75.63890  119.20720   87.27770  -52.35650    2.25000    2.48460  428.87140
 14371.20000   70.35310  105.31700   86.41360  -52.40240    2.28050    2.44560  409.26980
