~Version ---------------------------------------------------
VERS.   2.0 : CWLS log ASCII Standard -VERSION 2.0
WRAP.    NO : One line per depth step
DLM . SPACE : Column Data Section Delimiter
~Well ------------------------------------------------------
STRT .F                 3845.7 : START DEPTH
STOP .F                15974.7 : STOP DEPTH
STEP .F                    0.5 : STEP
NULL .                -9999.25 : NULL VALUE
COMP .                         : COMPANY
WELL .                         : WELL
FLD  .                         : FIELD
LOC  .                         : LOCATION
PROV .                         : PROVINCE
CNTY .                         : COUNTY
STAT .                         : STATE
CTRY .                         : COUNTRY
SRVC .                         : SERVICE COMPANY
DATE .                         : DATE
UWI  .                         : UNIQUE WELL ID
API  .                         : API NUMBER
SLAT .WGS84  4.028448679871097 : SURFACE LATITUDE
SLON .WGS84 1.5624701368317062 : SURFACE LONGITUDE
DATUM.F                 806.11 : DEPTH DATUM ELEV
~Curve Information -----------------------------------------
DEPT   .F     : 1 MEASURED DEPTH
DTCO   .US/F  : DELTA-T COMPRESSIONAL
DTSM   .US/F  : DELTA-T SHEAR
GRR    .GAPI  : GAMMA RAY FROM RESISTIVITY LOG
SPR    .MV    : SPONTANEOUS POTENTIAL FROM RESISTIVITY LOG
AHF20  .OHMM  : ARRAY INDUCTION FOUR FOOT RESISTIVITY A20
AHF60  .OHMM  : ARRAY INDUCTION FOUR FOOT RESISTIVITY A60
AHFCO60.MMHO  : ARRAY INDUCTION FOUR FOOT CONDUCTIVITY A60
~Params ----------------------------------------------------
~Other -----------------------------------------------------
~ASCII -----------------------------------------------------
# ...
 15128.20000   -9999.25   -9999.25   52.18220  -55.94450   23.33300   26.30070   33.28410
 15128.70000   -9999.25   -9999.25   55.06730  -56.12760   21.24900   22.23860   37.92040
 15129.20000   -9999.25   -9999.25   57.95240  -56.09220   19.99010   21.27780   42.55680
 15129.70000   -9999.25   -9999.25   58.34030  -55.94590   18.79320   20.31710   47.19310
 15130.20000   -9999.25   -9999.25   57.09670  -55.81200   17.66070   19.32900   51.24900
 15130.70000   -9999.25   -9999.25   56.19900  -55.90950   16.69340   18.05330   54.24340
 15131.20000   -9999.25   -9999.25   56.29840  -56.00700   16.08280   16.99750   58.17600
 15131.70000   -9999.25   -9999.25   59.26060  -56.10450   15.63030   16.06200   59.38900
 15132.20000   -9999.25   -9999.25   61.44860  -56.20200   15.79720   15.16360   61.53700
 15132.70000   -9999.25   -9999.25   61.50020  -56.42240   16.30530   15.08060   62.21660
 15133.20000   -9999.25   -9999.25   60.82400  -56.50830   17.20570   16.61810   61.08770
 15133.70000   -9999.25   -9999.25   58.22510  -56.40330   18.10600   19.31590   57.97280
 15134.20000   -9999.25   -9999.25   54.50790  -56.20130   20.13300   22.01360   53.12210
 15134.70000   -9999.25   -9999.25   51.18810  -56.04810   22.77600   23.27000   48.27140
 15135.20000   -9999.25   -9999.25   47.86830  -56.23620   23.48120   23.16370   43.42060
 15135.70000   -9999.25   -9999.25   47.05070  -56.42430   23.50960   22.35010   41.27840
 15136.20000   -9999.25   -9999.25   47.93170  -56.61230   23.52340   21.28200   42.25420
 15136.70000   -9999.25   -9999.25   50.79460  -56.80040   23.36400   20.21400   43.45810
 15137.20000   -9999.25   -9999.25   53.77050  -56.96770   23.15420   19.14590   44.12710
 15137.70000   -9999.25   -9999.25   56.74630  -56.91590   22.08580   18.24720   47.70230
 15138.20000   -9999.25   -9999.25   59.54600  -56.28120   20.81190   17.51660   51.15720
 15138.70000   -9999.25   -9999.25   59.84860  -56.10050   19.72480   16.78590   54.17110
 15139.20000   -9999.25   -9999.25   59.76720  -55.95540   18.63770   16.05520   57.97100
 15139.70000   -9999.25   -9999.25   58.57240  -55.84860   17.28210   15.32460   62.74920
 15140.20000   -9999.25   -9999.25   57.50600  -55.80200   15.88040   14.59390   67.52740
 15140.70000   -9999.25   -9999.25   57.45050  -55.78660   14.47860   13.86330   72.30560
 15141.20000   -9999.25   -9999.25   57.39500  -55.78170   13.36380   13.26330   78.26740
 15141.70000   -9999.25   -9999.25   57.36930  -55.78440   13.09910   12.81040   79.96630
 15142.20000   -9999.25   -9999.25   57.54860  -55.66110   12.91510   12.35750   79.96680
 15142.70000   -9999.25   -9999.25   57.76460  -55.50120   12.54210   11.90450   80.81660
 15143.20000   -9999.25   -9999.25   60.48390  -55.24780   12.16910   11.45160   82.79260
 15143.70000   -9999.25   -9999.25   63.20320  -55.06790   12.01700   11.11820   84.13350
 15144.20000   -9999.25   -9999.25   63.86960  -55.06810   12.72900   11.73560   83.90410
 15144.70000   -9999.25   -9999.25   61.82450  -55.15080   14.28650   13.22770   79.76650
 15145.20000   -9999.25   -9999.25   59.10580  -55.23360   15.82140   14.71980   73.46070
 15145.70000   -9999.25   -9999.25   57.36120  -55.31630   16.76670   16.21180   67.03070
 15146.20000   -9999.25   -9999.25   57.08640  -55.39900   17.34930   17.26000   60.60060
 15146.70000   -9999.25   -9999.25   56.47430  -55.44780   18.06180   17.16200   57.14260
 15147.20000   -9999.25   -9999.25   54.82040  -55.48070   19.30390   16.98040   57.47580
 15147.70000   -9999.25   -9999.25   51.91060  -55.51350   20.23410   16.79870   58.00400
 15148.20000   -9999.25   -9999.25   49.00080  -55.54640   20.14930   16.61710   58.55390
 15148.70000   -9999.25   -9999.25   48.61910  -55.57610   19.40830   16.43540   59.10370
 15149.20000   -9999.25   -9999.25   52.30950  -55.57860   18.56620   16.40510   59.65360
 15149.70000   -9999.25   -9999.25   56.72020  -55.58110   17.53180   16.32650   60.20340
 15150.20000   -9999.25   -9999.25   61.13080  -55.67580   16.57870   16.07890   60.75320
 15150.70000   -9999.25   -9999.25   63.33120  -55.78130   16.05780   15.71300   62.70920
 15151.20000   -9999.25   -9999.25   63.77210  -55.83020   15.60000   14.98820   64.88560
 15151.70000   -9999.25   -9999.25   62.10980  -55.84210   15.29840   14.26340   65.92960
 15152.20000   -9999.25   -9999.25   59.78290  -55.85410   15.09450   13.41190   68.26130
 15152.70000   -9999.25   -9999.25   57.45590  -55.92570   14.73120   12.22720   70.44170
 15153.20000   -9999.25   -9999.25   55.12900  -56.04730   13.54790   11.04250   72.31320
 15153.70000   -9999.25   -9999.25   52.80210  -56.33000   12.36450    9.85780   86.95940
 15154.20000   -9999.25   -9999.25   52.30570  -56.61430   11.18110    8.92880   99.23380
 15154.70000   -9999.25   -9999.25   53.70230  -56.86280    9.99770    8.09700  112.67670
 15155.20000   -9999.25   -9999.25   55.70460  -56.94910    8.81430    7.26520  125.47010
 15155.70000   -9999.25   -9999.25   57.70700  -56.72700    7.63100    6.94550  137.94110
 15156.20000   -9999.25   -9999.25   59.54240  -56.50500    6.97400    6.65320  150.41220
 15156.70000   -9999.25   -9999.25   63.89920  -56.28290    6.73830    6.48290  157.89230
 15157.20000   -9999.25   -9999.25   68.72240  -56.06070    7.06880    6.50760  158.75080
 15157.70000   -9999.25   -9999.25   69.99780  -55.94980    7.51530    6.78050  153.43400
 15158.20000   -9999.25   -9999.25   70.08430  -55.84290    7.96180    7.24420  144.72810
 15158.70000   -9999.25   -9999.25   65.67870  -56.01740    8.40830    7.70790  135.74160
 15159.20000   -9999.25   -9999.25   59.85120  -56.26190    8.79850    8.17160  127.62980
 15159.70000   -9999.25   -9999.25   54.60540  -56.47040    8.86510    8.50590  119.51790
 15160.20000   -9999.25   -9999.25   54.19600  -56.23110    8.57740    8.27700  118.49790
 15160.70000   -9999.25   -9999.25   56.04410  -55.99180    8.14180    7.82440  123.93860
 15161.20000   -9999.25   -9999.25   59.11200  -55.75250    7.70620    7.37170  134.95100
 15161.70000   -9999.25   -9999.25   62.09210  -55.04220    7.59840    7.12250  140.95140
 15162.20000   -9999.25   -9999.25   62.72890  -54.37210    7.73400    7.33060  141.37870
 15162.70000   -9999.25   -9999.25   62.75570  -53.92320    7.90630    7.57000  137.47360
 15163.20000   -9999.25   -9999.25   61.98740  -54.04000    8.07860    7.80940  132.69750
 15163.70000   -9999.25   -9999.25   57.61410  -54.23590    8.25090    8.04880  129.32550
 15164.20000   -9999.25   -9999.25   53.81620  -54.37770    8.28040    8.09100  125.95360
 15164.70000   -9999.25   -9999.25   53.89470  -54.37690    7.96250    7.79060  122.96370
 15165.20000   -9999.25   -9999.25   55.87270  -54.30420    7.64180    7.49010  126.03130
 15165.70000   -9999.25   -9999.25   57.85080  -54.01220    7.32110    7.18970  135.13800
 15166.20000   -9999.25   -9999.25   59.82880  -53.66060    7.03680    6.88920  144.24470
 15166.70000   -9999.25   -9999.25   61.55020  -53.44650    7.14280    6.71500  153.21750
 15167.20000   -9999.25   -9999.25   61.64230  -53.63470    7.91080    6.97030  153.72170
 15167.70000   -9999.25   -9999.25   58.02050  -53.85970    8.86060    7.93780  141.37190
 15168.20000   -9999.25   -9999.25   53.50520  -53.94450    9.81050    8.90530  127.28930
 15168.70000   -9999.25   -9999.25   58.94230  -53.65340   10.75780    9.87400  113.20660
 15169.20000   -9999.25   -9999.25   64.79510  -53.48430   11.70150   10.90050   99.12400
 15169.70000   -9999.25   -9999.25   64.23390  -53.43070   12.64510   11.92690   86.53370
 15170.20000   -9999.25   -9999.25   58.98370  -53.40730   13.75420   12.95340   81.03610
 15170.70000   -9999.25   -9999.25   53.73350  -53.40730   15.36180   13.91350   75.53850
 15171.20000   -9999.25   -9999.25   50.33820  -53.78930   17.43940   14.04610   71.02890
 15171.70000   -9999.25   -9999.25   48.24590  -54.49300   18.77980   13.99180   70.46000
 15172.20000   -9999.25   -9999.25   46.15350  -55.09130   18.92430   13.91950   71.67140
