~Version ---------------------------------------------------
VERS.   2.0 : CWLS log ASCII Standard -VERSION 2.0
WRAP.    NO : One line per depth step
DLM . SPACE : Column Data Section Delimiter
~Well ------------------------------------------------------
STRT .F                 3845.7 : START DEPTH
STOP .F                15974.7 : STOP DEPTH
STEP .F                    0.5 : STEP
NULL .                -9999.25 : NULL VALUE
COMP .                         : COMPANY
WELL .                         : WELL
FLD  .                         : FIELD
LOC  .                         : LOCATION
PROV .                         : PROVINCE
CNTY .                         : COUNTY
STAT .                         : STATE
CTRY .                         : COUNTRY
SRVC .                         : SERVICE COMPANY
DATE .                         : DATE
UWI  .                         : UNIQUE WELL ID
API  .                         : API NUMBER
SLAT .WGS84  4.028448679871097 : SURFACE LATITUDE
SLON .WGS84 1.5624701368317062 : SURFACE LONGITUDE
DATUM.F                 806.11 : DEPTH DATUM ELEV
~Curve Information -----------------------------------------
DEPT   .F     : 1 MEASURED DEPTH
DTCO   .US/F  : DELTA-T COMPRESSIONAL
DTSM   .US/F  : DELTA-T SHEAR
GRR    .GAPI  : GAMMA RAY FROM RESISTIVITY LOG
SPR    .MV    : SPONTANEOUS POTENTIAL FROM RESISTIVITY LOG
AHF20  .OHMM  : ARRAY INDUCTION FOUR FOOT RESISTIVITY A20
AHF60  .OHMM  : ARRAY INDUCTION FOUR FOOT RESISTIVITY A60
AHFCO60.MMHO  : ARRAY INDUCTION FOUR FOOT CONDUCTIVITY A60
~Params ----------------------------------------------------
~Other -----------------------------------------------------
~ASCII -----------------------------------------------------
# ...
 11123.20000   75.06320  113.21810   80.88970   -9.79900    5.74020    8.61300  125.63300
 11123.70000   73.77920  111.59810   82.11530   -9.66960    5.81380    8.96220  120.28760
 11124.20000   72.26070  110.08900   82.13420   -9.54030    6.13610    9.69910  110.94790
 11124.70000   71.25790  108.61260   81.68940   -9.41100    6.45720   10.62980  101.60810
 11125.20000   70.81060  109.06480   78.98260  -10.18920    6.75290   11.47900   92.26840
 11125.70000   71.46720  110.61850   74.77930  -10.50380    7.04850   12.27620   82.61780
 11126.20000   72.66220  112.90020   74.87600  -10.81190    7.34410   12.09680   81.54650
 11126.70000   74.15430  114.93300   77.94560  -11.14480    7.37380   11.64050   82.18990
 11127.20000   75.70360  116.90890   80.23350  -11.19410    7.12910   11.18420   86.58310
 11127.70000   76.25540  118.86420   80.17920  -11.24340    6.91800   10.90840   92.20600
 11128.20000   76.11940  121.43320   77.39090  -11.48720    7.10200   11.87150   92.66200
 11128.70000   75.97770  121.75280   74.09360  -11.72800    7.51080   12.81700   86.12610
 11129.20000   77.91630  121.19640   70.44580  -11.70730    7.91970   12.37050   78.41670
 11129.70000   78.86950  120.35340   68.99950  -11.65710    8.08360   11.24280   78.10810
 11130.20000   77.36010  119.58350   69.81250  -11.60700    7.69530   10.11510   87.32740
 11130.70000   74.88550  118.08660   71.84190  -11.55680    7.12340    9.16700  101.32660
 11131.20000   72.84980  114.12130   73.87120  -11.50670    6.55150    9.00760  113.95560
 11131.70000   72.46700  112.43870   75.19100  -11.45650    6.03010    8.67190  117.30880
 11132.20000   73.50220  113.33970   75.29490  -11.40630    5.93240    8.54880  119.72160
 11132.70000   74.71540  114.24070   75.29490  -11.31230    5.83460    8.35420  121.11870
 11133.20000   76.30850  114.95310   75.58500  -11.45240    5.71670    8.30850  122.43760
 11133.70000   77.39500  114.99540   76.50900  -11.51290    5.65540    8.22760  123.73430
 11134.20000   77.92960  115.01890   80.03330  -11.17120    5.61340    8.14680  125.02130
 11134.70000   78.44450  115.21490   82.85590  -10.96950    5.55960    8.06590  126.39010
 11135.20000   78.89050  115.52440   82.89970  -10.76540    5.53420    7.98500  128.12590
 11135.70000   78.65490  114.93740   80.20230  -10.54690    5.52770    7.93250  129.86180
 11136.20000   77.67110  114.18310   77.31060  -10.43610    5.52310    7.95170  131.59770
 11136.70000   77.13530  113.15820   74.41890  -10.44660    5.53010    8.01710  129.13130
 11137.20000   77.48350  113.16660   72.50350  -10.51630    5.54830    8.08260  127.76150
 11137.70000   77.09280  113.15270   71.01290  -10.58590    5.59610    8.14800  126.92040
 11138.20000   75.53090  112.08570   69.70170  -10.60080    5.62440    8.21340  126.45030
 11138.70000   75.07710  110.53400   69.53300  -10.47730    5.63400    8.27880  126.24240
 11139.20000   75.07370  109.04960   71.24680  -10.35380    5.69740    8.38360  123.93370
 11139.70000   74.71980  105.16810   73.03310  -10.23030    5.85190    8.60650  119.66220
 11140.20000   72.59280   99.40110   74.49960  -10.10680    6.14030    8.86030  115.39070
 11140.70000   70.20310   95.33940   74.51460   -9.98330    6.42880    9.18590  111.11930
 11141.20000   69.20530   97.50090   74.06570   -9.85980    6.64840    9.89930  106.41200
 11141.70000   69.45210  101.78630   73.85070   -9.73620    6.82760   10.60440   96.97900
 11142.20000   69.75590  106.22660   77.48330   -9.61270    6.98890   11.28930   89.19860
 11142.70000   69.93620  109.10090   79.26260   -9.53920    7.44950   12.59380   81.35490
 11143.20000   69.97420  110.66450   78.31740   -9.44190    8.07820   13.38480   73.68160
 11143.70000   70.03330  110.42900   73.98950   -9.13190    8.64500   13.87340   69.75280
 11144.20000   70.41030  111.00130   69.77190   -8.81090    8.72570   13.71320   71.25930
 11144.70000   70.32970  108.45900   64.83550   -8.49000    8.61060   13.11340   75.51130
 11145.20000   68.72990  102.53180   64.35740   -7.94590    8.49560   12.63550   78.97580
 11145.70000   68.21600   98.01460   67.86470   -7.41220    8.38050   12.55870   79.57690
 11146.20000   68.31900   98.19410   71.35870   -7.15500    8.33070   12.45620   80.25670
 11146.70000   68.11880  102.01450   74.33900   -6.93990    8.31100   12.30750   81.33160
 11147.20000   68.63960  109.88510   74.14380   -6.91250    8.29130   12.13890   82.69830
 11147.70000   70.39180  117.20200   73.26910   -6.88510    8.27160   11.97020   85.26860
 11148.20000   72.50780  120.29310   72.33730   -6.85770    8.21050   11.78580   87.17590
 11148.70000   74.90050  123.03360   71.31300   -6.83030    8.11820   10.96290   90.74670
 11149.20000   77.07080  126.09940   70.32130   -6.80290    7.79060   10.32130   97.61220
 11149.70000   76.63640  128.64300   69.32960   -6.77550    7.37690    9.70460  107.39600
 11150.20000   74.09960  127.65590   68.43500   -6.96840    6.88780    9.08790  117.75250
 11150.70000   71.62000  125.21210   69.67350   -7.08410    6.39850    8.47120  123.24930
 11151.20000   70.56140  120.69370   72.28460   -6.92420    6.10910    8.49590  118.81250
 11151.70000   70.42260  116.60520   73.10170   -6.76430    6.19520    9.24660  109.35280
 11152.20000   70.23530  111.70260   72.79890   -6.60450    6.45930   10.03680   99.89310
 11152.70000   69.40220  108.70130   69.05920   -6.44460    6.81010   11.02550   89.89870
 11153.20000   67.88390  105.98740   64.85380   -6.28470    7.17020   12.33730   83.08200
 11153.70000   65.47960  103.96880   64.26020   -6.32130    7.54480   13.84600   72.73070
 11154.20000   62.09080  101.57720   64.21130   -6.90030    8.10380   15.06640   70.08400
 11154.70000   59.73480   97.25360   64.34350   -7.38610    8.52460   18.87130   58.61150
 11155.20000   57.55220   94.66140   64.05880   -7.87200    9.41450   24.69180   47.60960
 11155.70000   56.77840   94.07220   59.38970   -8.35070   11.47620   37.33360   36.21530
 11156.20000   57.27680   94.54910   54.68360   -8.75840   15.00370   46.03380   24.22360
 11156.70000   58.33330   95.88400   51.62760   -8.88230   19.20800   49.49490   19.11930
 11157.20000   59.45370   98.71320   49.98380   -9.01770   22.69030   45.46110   18.77080
 11157.70000   60.57420  100.52840   49.54070   -9.19140   24.58920   39.85260   20.94780
 11158.20000   61.82900  102.92140   49.09760   -9.38080   24.04000   33.72040   24.55360
 11158.70000   63.20800  106.17580   48.79370   -9.64720   20.90840   27.46900   30.77230
 11159.20000   64.19120  111.57550   50.20000   -9.88080   18.54220   22.90200   36.99100
 11159.70000   64.47310  115.37750   52.84300  -10.02360   16.49610   22.17040   42.57750
 11160.20000   64.51170  113.64040   54.96550  -10.18310   15.37580   22.37770   43.46970
 11160.70000   64.17510  108.86360   55.07610  -10.34260   15.52360   23.99160   41.50000
 11161.20000   62.95360  103.62160   54.46020  -10.50210   16.11950   25.60560   38.53050
 11161.70000   61.40560   98.95500   53.22140  -10.66160   16.71530   27.21960   34.37350
 11162.20000   59.87740   95.95910   52.74990  -10.82110   17.11660   31.94200   30.21650
 11162.70000   59.05080   95.83270   52.47990  -10.98120   17.55780   39.08200   26.05950
 11163.20000   58.83150   95.04080   50.43930  -11.37660   18.02450   46.22200   21.22090
 11163.70000   59.19300   94.92830   44.92900  -11.79360   22.70360   71.17260   16.31830
 11164.20000   60.32090   96.63940   41.62090  -12.19330   30.91630  105.73540   11.41560
 11164.70000   61.20120   98.74880   37.70210  -12.80290   44.08680  147.45920    6.51300
 11165.20000   61.55030   97.68990   37.22130  -13.31810   52.26280  186.69610    2.51480
 11165.70000   61.76070   93.27040   38.45880  -13.55140   54.59170  174.97270    2.19750
 11166.20000   61.55120   91.66360   40.06300  -13.78470   48.92090  152.36970    3.57780
 11166.70000   60.94790   90.43420   39.73350  -14.01800   44.02930  131.92990    5.48920
 11167.20000   60.46210   89.02200   36.70800  -14.25130   41.47290  133.86500    5.13080
