~Version ---------------------------------------------------
VERS.   2.0 : CWLS log ASCII Standard -VERSION 2.0
WRAP.    NO : One line per depth step
DLM . SPACE : Column Data Section Delimiter
~Well ------------------------------------------------------
STRT .F                 3845.7 : START DEPTH
STOP .F                15974.7 : STOP DEPTH
STEP .F                    0.5 : STEP
NULL .                -9999.25 : NULL VALUE
COMP .                         : COMPANY
WELL .                         : WELL
FLD  .                         : FIELD
LOC  .                         : LOCATION
PROV .                         : PROVINCE
CNTY .                         : COUNTY
STAT .                         : STATE
CTRY .                         : COUNTRY
SRVC .                         : SERVICE COMPANY
DATE .                         : DATE
UWI  .                         : UNIQUE WELL ID
API  .                         : API NUMBER
SLAT .WGS84  4.028448679871097 : SURFACE LATITUDE
SLON .WGS84 1.5624701368317062 : SURFACE LONGITUDE
DATUM.F                 806.11 : DEPTH DATUM ELEV
~Curve Information -----------------------------------------
DEPT   .F     : 1 MEASURED DEPTH
DTCO   .US/F  : DELTA-T COMPRESSIONAL
DTSM   .US/F  : DELTA-T SHEAR
GRR    .GAPI  : GAMMA RAY FROM RESISTIVITY LOG
SPR    .MV    : SPONTANEOUS POTENTIAL FROM RESISTIVITY LOG
AHF20  .OHMM  : ARRAY INDUCTION FOUR FOOT RESISTIVITY A20
AHF60  .OHMM  : ARRAY INDUCTION FOUR FOOT RESISTIVITY A60
AHFCO60.MMHO  : ARRAY INDUCTION FOUR FOOT CONDUCTIVITY A60
~Params ----------------------------------------------------
~Other -----------------------------------------------------
~ASCII -----------------------------------------------------
# ...
 13526.20000   64.34850  110.09630   59.49740  -33.11420   11.43080   12.13600   85.26740
 13526.70000   64.05350  109.40720   59.67570  -33.37590   12.39830   13.13960   78.45530
 13527.20000   63.72000  108.75750   59.68620  -33.60100   13.43060   14.16140   73.62500
 13527.70000   63.29730  108.05630   59.32800  -33.74860   14.46290   15.32990   69.41620
 13528.20000   62.75130  107.35510   58.65910  -33.74480   15.53530   16.49830   65.20750
 13528.70000   62.17680  106.65100   56.97040  -33.52950   16.72890   17.66680   60.99870
 13529.20000   61.13010  106.37910   55.28180  -33.12350   17.92250   18.83520   56.79400
 13529.70000   59.74470  104.86590   54.51770  -32.84800   19.11610   20.90300   52.59550
 13530.20000   58.68410  103.97440   53.79030  -32.89040   20.75510   23.51940   48.39700
 13530.70000   60.06450  107.03750   52.91030  -32.93290   22.52760   25.93750   44.19850
 13531.20000   60.79940  111.04680   51.05280  -32.97540   24.10580   26.13710   39.99990
 13531.70000   59.99570  111.37900   43.78840  -32.96140   24.21230   26.03900   38.30800
 13532.20000   60.45410  111.25790   38.18670  -32.83650   22.99930   24.40710   38.35130
 13532.70000   61.76170  111.97210   38.30350  -32.50920   20.34020   22.25160   42.41960
 13533.20000   62.79370  112.52910   40.42630  -32.25520   18.32000   20.09600   46.69820
 13533.70000   62.75970  113.08620   42.54920  -32.45970   17.19680   18.04300   50.97670
 13534.20000   62.72560  111.96180   44.67200  -32.82340   16.07360   17.58090   54.40200
 13534.70000   62.63330  109.78720   46.76130  -33.25690   15.62750   17.45630   55.51490
 13535.20000   62.67280  108.99350   47.85990  -33.33730   15.84880   17.45630   56.62780
 13535.70000   63.07180  108.63310   49.20110  -33.25060   16.29290   17.22390   57.50810
 13536.20000   64.25450  110.52570   50.70210  -33.16390   16.42540   16.66060   59.37680
 13536.70000   65.37960  112.70450   55.20160  -33.07720   14.75480   15.43630   64.78990
 13537.20000   66.57510  114.76280   62.14380  -32.99040   12.99210   13.74210   72.76100
 13537.70000   66.45370  115.26710   66.82760  -33.13550   11.99390   12.42550   80.73210
 13538.20000   65.35730  114.33540   70.34080  -33.60930   12.11790   12.29650   81.32690
 13538.70000   62.97990  112.70960   70.18930  -34.05460   15.63210   12.60670   79.32740
 13539.20000   60.99150  107.96670   66.28180  -33.89620   19.92570   15.73460   63.62160
 13539.70000   59.12920  103.29160   60.98610  -34.00660   24.60330   21.47050   46.57180
 13540.20000   58.14510   99.81200   55.69030  -34.08330   29.28090   26.40290   37.31960
 13540.70000   57.70770   97.93970   54.19950  -34.16000   34.79730   31.51330   28.16360
 13541.20000   57.18430   96.93240   53.27890  -34.23670   37.18640   36.62370   25.94220
 13541.70000   57.03620   97.48880   53.66320  -34.30480   37.05290   38.96860   26.24780
 13542.20000   57.95300   99.75790   57.86680  -34.36730   30.41910   35.10320   29.54620
 13542.70000   59.65720  103.40230   62.68530  -34.37530   24.25100   29.19690   34.27670
 13543.20000   62.49460  108.34220   67.50370  -34.36100   18.60310   21.30730   46.95790
 13543.70000   65.22190  112.81400   72.32220  -34.46580   13.90140   16.67120   60.33810
 13544.20000   68.20380  117.21670   77.14070  -34.33230   10.84440   12.52730   79.90410
 13544.70000   70.62680  123.33320   77.25540  -33.86280    8.61920    9.54120  104.84340
 13545.20000   72.66310  127.69080   75.91040  -33.52000    7.20470    7.72400  129.56760
 13545.70000   73.97660  131.38380   75.18990  -33.67790    6.91170    6.82960  147.23100
 13546.20000   74.24760  132.49110   76.17790  -34.02970    6.61870    6.55680  159.01880
 13546.70000   74.18360  131.78030   77.87150  -34.15310    6.55620    6.36820  161.36840
 13547.20000   73.70150  130.91810   78.64180  -34.19400    6.54630    6.26780  160.51900
 13547.70000   72.69420  129.27810   78.71560  -34.29950    6.72040    6.51570  155.42570
 13548.20000   71.70380  127.27410   77.32380  -34.44180    7.30000    7.04120  144.99590
 13548.70000   70.46080  124.66810   74.27000  -34.54580    7.94160    7.56670  132.72890
 13549.20000   69.19120  121.87940   71.21630  -34.64990    8.58320    8.15510  122.63180
 13549.70000   68.16810  119.98900   68.16250  -34.75390    9.22480    8.88800  112.53470
 13550.20000   67.61710  118.00500   65.10870  -34.85800    9.86640    9.76230  102.43760
 13550.70000   67.17300  116.02800   62.05490  -34.96210   10.50130   10.82990   92.34050
 13551.20000   66.86310  115.36090   61.85510  -35.06610   10.89420   11.32470   88.30370
 13551.70000   66.74090  115.70310   61.89970  -35.17020   11.21060   11.59960   86.21630
 13552.20000   66.52310  115.94670   62.71140  -35.27420   11.52700   11.92270   83.87750
 13552.70000   66.15570  116.19040   63.52300  -35.37830   11.84350   12.38150   80.76550
 13553.20000   65.79870  114.95540   63.65050  -35.59150   12.15990   13.00970   76.87420
 13553.70000   65.28130  113.80280   60.67110  -35.61650   12.47630   13.70200   72.98300
 13554.20000   64.36370  113.51500   56.59410  -35.33340   13.05170   14.47350   69.09170
 13554.70000   63.31560  113.09060   52.70880  -35.06460   14.10080   15.33910   65.20040
 13555.20000   62.80370  112.35110   52.80350  -35.02380   15.57840   17.85530   59.28200
 13555.70000   63.12760  111.91130   54.97270  -35.05080   17.34680   20.99530   53.11470
 13556.20000   62.95160  112.45980   57.14190  -35.13070   19.11530   23.88270   46.94740
 13556.70000   62.72960  113.27200   59.38170  -35.26060   20.88370   24.01640   41.44700
 13557.20000   62.44970  113.69840   63.07180  -35.03770   21.31260   23.81580   41.28980
 13557.70000   62.36110  112.85490   66.76190  -34.67730   20.66120   22.60830   42.49780
 13558.20000   62.35370  111.50520   70.45210  -34.39950   19.44140   21.20920   45.47430
 13558.70000   62.39140  110.12100   73.38790  -34.22460   17.63160   19.81000   49.86470
 13559.20000   63.72660  110.10820   72.53080  -34.06460   15.46490   18.41090   54.31690
 13559.70000   72.88160  119.27600   70.65550  -33.88100   13.29820   14.85670   67.29940
 13560.20000   83.73650  136.16090   71.48240  -33.54040    9.93340   12.21580   81.51410
 13560.70000   91.47470  151.75920   76.23040  -33.05620    6.81350    8.54020  117.07260
 13561.20000   95.21400  156.51280   80.97840  -32.57210    5.57530    6.54260  152.63100
 13561.70000   95.62340  158.34820   85.72630  -32.22590    4.33710    5.04260  198.29150
 13562.20000   93.40400  156.88110   87.10910  -31.89640    3.72280    4.09390  244.17380
 13562.70000   91.24250  154.62320   84.53660  -31.03380    3.47970    3.46690  288.42980
 13563.20000   88.40940  150.58390   82.36620  -30.92980    3.46540    3.21660  310.88020
 13563.70000   86.08870  145.57380   83.10510  -30.84250    3.46540    3.20120  312.38480
 13564.20000   84.16780  141.59500   86.00580  -30.75510    3.49130    3.21010  311.60430
 13564.70000   82.63370  139.01660   86.20950  -30.66780    3.74480    3.30430  302.62520
 13565.20000   81.97790  136.31320   83.91860  -30.59090    3.99290    3.46040  289.00250
 13565.70000   81.01650  134.97800   80.10840  -30.75750    4.24100    3.64790  274.16400
 13566.20000   79.57830  134.40140   76.29810  -30.91920    4.48910    3.83350  260.89420
 13566.70000   77.86150  136.04680   73.23560  -31.05990    4.87440    4.22310  235.85880
 13567.20000   74.91260  136.43840   70.18690  -31.34600    5.31830    4.70330  210.09430
 13567.70000   70.60410  133.46200   67.13810  -31.73870    5.76210    5.24530  194.29590
 13568.20000   68.31120  130.59230   64.08930  -32.17980    6.18780    5.62010  177.83090
 13568.70000   67.51560  132.13820   61.46780  -32.36800    6.53010    5.62010  170.85690
 13569.20000   69.97300  138.30010   61.71190  -32.19690    6.38320    5.55460  171.83500
 13569.70000   72.35740  144.60730   63.98130  -32.00010    5.99840    5.24990  188.31190
 13570.20000   75.94020  151.09640   66.60120  -31.69330    5.61380    4.94510  215.40730
