~Version ---------------------------------------------------
VERS.   2.0 : CWLS log ASCII Standard -VERSION 2.0
WRAP.    NO : One line per depth step
DLM . SPACE : Column Data Section Delimiter
~Well ------------------------------------------------------
STRT .F                 3845.7 : START DEPTH
STOP .F                15974.7 : STOP DEPTH
STEP .F                    0.5 : STEP
NULL .                -9999.25 : NULL VALUE
COMP .                         : COMPANY
WELL .                         : WELL
FLD  .                         : FIELD
LOC  .                         : LOCATION
PROV .                         : PROVINCE
CNTY .                         : COUNTY
STAT .                         : STATE
CTRY .                         : COUNTRY
SRVC .                         : SERVICE COMPANY
DATE .                         : DATE
UWI  .                         : UNIQUE WELL ID
API  .                         : API NUMBER
SLAT .WGS84  4.028448679871097 : SURFACE LATITUDE
SLON .WGS84 1.5624701368317062 : SURFACE LONGITUDE
DATUM.F                 806.11 : DEPTH DATUM ELEV
~Curve Information -----------------------------------------
DEPT   .F     : 1 MEASURED DEPTH
DTCO   .US/F  : DELTA-T COMPRESSIONAL
DTSM   .US/F  : DELTA-T SHEAR
GRR    .GAPI  : GAMMA RAY FROM RESISTIVITY LOG
SPR    .MV    : SPONTANEOUS POTENTIAL FROM RESISTIVITY LOG
AHF20  .OHMM  : ARRAY INDUCTION FOUR FOOT RESISTIVITY A20
AHF60  .OHMM  : ARRAY INDUCTION FOUR FOOT RESISTIVITY A60
AHFCO60.MMHO  : ARRAY INDUCTION FOUR FOOT CONDUCTIVITY A60
~Params ----------------------------------------------------
~Other -----------------------------------------------------
~ASCII -----------------------------------------------------
# ...
 10322.20000   92.65480  143.48480   68.46220   -5.72570   17.30350   30.89120   25.55270
 10322.70000   89.19350  136.82020   68.59780   -6.75600   15.27160   27.51340   31.14600
 10323.20000   85.73520  130.38060   66.94630   -7.70550   13.46200   24.13550   36.73940
 10323.70000   82.25580  126.94610   65.60560   -8.23880   11.74900   20.75760   42.78850
 10324.20000   80.27260  126.37020   65.73080   -8.61210    9.96130   17.52480   50.13080
 10324.70000   79.96330  127.38020   66.24190   -8.98060    8.65730   15.18600   57.47310
 10325.20000   79.46090  127.77920   67.11640   -9.08100    7.25980   15.27500   64.81550
 10325.70000   79.71090  127.54080   67.99080   -9.12180    6.56480   15.78230   64.51190
 10326.20000   80.07400  127.52600   70.25630   -9.16270    6.54410   16.12880   61.08510
 10326.70000   80.25240  127.43520   71.99590   -9.20360    6.74460   15.77220   61.53270
 10327.20000   79.18240  126.93990   71.74270   -9.24440    6.93740   15.19560   63.44160
 10327.70000   78.66560  126.32320   70.30850   -9.63100    7.04990   14.83570   65.17400
 10328.20000   77.73860  125.92140   68.75720  -10.25780    7.32310   15.40900   61.75250
 10328.70000   75.67650  125.13710   67.93360  -10.48900    7.88980   20.55430   53.37070
 10329.20000   75.05710  122.11700   67.76200  -11.17030    9.45710   29.81420   44.98880
 10329.70000   75.28330  120.21380   67.62870  -11.79470   12.11320   37.04370   36.60700
 10330.20000   76.04640  119.19050   67.49550  -12.39640   14.76940   39.34410   28.22520
 10330.70000   77.50960  118.36480   67.45900  -12.99810   14.61780   39.23700   25.49950
 10331.20000   78.99380  117.82810   67.96520  -13.14850   11.74200   29.37390   26.54150
 10331.70000   77.48790  116.86720   69.75500  -13.25530    8.86610   20.06200   36.34030
 10332.20000   74.55100  113.82490   71.01180  -13.41530    7.07650   14.42710   63.16660
 10332.70000   73.55110  111.85070   71.25370  -13.62100    6.05440   12.97400   75.06230
 10333.20000   73.66960  112.33320   70.02920  -13.93140    5.78720   14.88810   74.47020
 10333.70000   78.26560  117.71040   67.42160  -14.43800    5.85120   21.06090   60.21820
 10334.20000   83.52390  126.39560   64.81410  -15.74930    7.06440   27.23360   45.79090
 10334.70000   85.67190  128.92780   62.20650  -16.37630    8.70900   30.06130   36.99020
 10335.20000   84.98310  129.58700   60.33760  -16.57480    9.42840   29.19020   31.57040
 10335.70000   83.86830  127.40050   63.70490  -16.42160    8.78860   17.69000   32.23120
 10336.20000   83.02610  126.37580   71.60620  -16.21600    7.60070   14.15110   69.45470
 10336.70000   84.66090  128.04150   75.51710  -15.96820    6.41290   10.61230   85.39740
 10337.20000   85.28520  131.34940   79.33020  -15.85860    5.45640    9.04290  115.85070
 10337.70000   83.14300  129.74760   82.76100  -15.74910    5.15670    8.73020  120.90230
 10338.20000   80.38830  124.62140   83.06310  -15.57280    5.16080    8.88100  119.72610
 10338.70000   75.47990  118.70460   82.49070  -15.31800    5.71270   10.92600  103.58640
 10339.20000   64.55070  107.62590   78.62820  -15.09200    6.70340   13.48010   86.66000
 10339.70000   56.16250   94.16790   74.15870  -14.91570    9.17950   19.91120   69.73370
 10340.20000   55.73440   96.13840   69.68920  -14.73940   12.21580   37.92500   52.80740
 10340.70000   55.85810   99.16760   65.21970  -14.56310   15.92960   47.53420   37.50940
 10341.20000   54.97250  100.11810   61.34190  -14.38680   19.64350   49.65980   26.41340
 10341.70000   54.40230   99.97690   57.47020  -14.16440   20.00110   49.84930   16.68100
 10342.20000   54.59930   99.83570   56.07020  -13.68090   19.92370   47.13850   15.21760
 10342.70000   55.07430   99.40580   56.59360  -13.10250   18.57380   42.69490   16.55950
 10343.20000   55.52460   96.71310   58.90190  -12.55900   16.55730   36.32040   21.58830
 10343.70000   57.74750   95.31810   62.32330  -12.13040   14.44500   29.94580   28.46600
 10344.20000   62.97090  102.59800   65.40100  -11.95670   12.33270   22.49720   35.15340
 10344.70000   66.63950  109.25800   68.32490  -11.79220   10.53800   20.17080   40.76600
 10345.20000   66.28370  108.11460   70.30440  -11.57870    9.25090   18.63920   46.37860
 10345.70000   65.22540  105.03650   68.61530  -11.24110    8.33500   18.57650   51.99120
 10346.20000   65.55220  104.29170   65.57040  -11.22040    7.97610   18.71820   53.82060
 10346.70000   65.91630  104.09650   64.99580  -11.19970    7.91230   20.02390   54.03670
 10347.20000   65.63740  104.18600   64.69510  -11.17900    7.90170   22.61820   49.34030
 10347.70000   64.50870  105.78990   63.88920  -11.15830    7.90630   25.22770   43.64880
 10348.20000   65.12840  108.15920   62.37740  -11.13760    8.04610   30.07880   37.95640
 10348.70000   66.85430  111.05460   60.86560  -11.11710    8.11760   35.37360   32.26400
 10349.20000   68.13300  113.35050   59.97950  -11.11240    8.18910   38.46070   26.57160
 10349.70000   67.73610  111.01140   64.57350  -11.10770    8.22980   38.50590   22.91530
 10350.20000   67.05840  111.07420   74.95920  -10.89050    7.14150   20.32910   27.52890
 10350.70000   66.53110  111.80890   75.49300  -10.59250    5.89730   12.53570   47.32740
 10351.20000   66.21160  112.02720   73.56230   -9.67990    4.92710   10.73540   73.31610
 10351.70000   64.64320  107.39010   72.04260   -9.38590    4.50220    8.93500   99.30470
 10352.20000   62.18420  102.49670   72.64020   -8.67580    4.04020    7.26950  128.10600
 10352.70000   60.74080   97.49710   77.71550   -7.86630    3.57830    5.98830  155.60960
 10353.20000   60.77980   96.44580   82.79090   -7.44200    3.11640    5.27570  192.91680
 10353.70000   60.31440   96.68910   86.30710   -7.28190    2.80390    5.30080  206.46980
 10354.20000   59.57870   95.02960   89.35440   -7.12190    2.75460    5.35250  221.55460
 10354.70000   58.80500   92.93080   92.40160   -6.96180    2.84890    5.40410  220.69430
 10355.20000   58.47030   90.50950   95.69710   -6.80170    2.99530    5.41170  208.57290
 10355.70000   58.26450   88.94490   99.05830   -6.81590    3.19740    5.77470  186.35350
 10356.20000   58.02220   87.57710  101.69000   -7.01540    3.51880    6.24890  164.13400
 10356.70000   57.88550   86.73980  101.79770   -7.06740    3.86270    7.04960  145.30010
 10357.20000   57.92610   86.33080  100.15860   -7.08050    4.20660    9.29120  126.72990
 10357.70000   58.39530   86.28610   95.37750   -7.08550    4.55050   11.06040  108.15970
 10358.20000   58.86380   87.20570   87.02580   -7.17060    4.79530   12.82960   94.92210
 10358.70000   58.69310   88.25350   80.49510   -7.41830    5.02690   14.59880   79.95880
 10359.20000   57.00490   89.43710   79.42160   -7.38200    5.18300   16.23140   64.54750
 10359.70000   55.56740   89.84190   78.34800   -7.32430    5.32210   18.29420   56.28620
 10360.20000   57.07490   90.13730   77.11020   -7.26650    5.46110   20.35700   50.79590
 10360.70000   60.32040   92.59640   74.48480   -7.20870    5.60020   22.41970   45.30550
 10361.20000   65.77290   98.70880   71.54970   -7.15090    5.74660   23.49640   41.09620
 10361.70000   67.33670  103.27770   69.35010   -7.09320    5.88160   23.38510   40.50020
 10362.20000   67.68380  104.28920   69.31990   -7.05290    5.90790   21.67210   41.09640
 10362.70000   66.74690  104.93530   72.85960   -7.05140    5.78500   19.95920   45.14560
 10363.20000   67.14730  105.55120   77.20830   -7.04990    5.67250   18.24620   50.91450
 10363.70000   69.63890  106.94390   78.05020   -7.04850    5.36430   16.53330   56.68340
 10364.20000   71.98840  107.76610   77.68240   -7.04700    5.10720   14.82030   63.62950
 10364.70000   73.67000  107.98110   75.20110   -7.04170    4.87150   13.40000   72.89410
 10365.20000   74.87290  107.20840   72.35220   -7.03120    4.63590   12.08390   78.91550
 10365.70000   75.15470  104.87280   70.39780   -7.02080    4.40030   11.02660   88.20970
 10366.20000   74.70950   99.80240   70.39780   -7.01030    4.26630    9.96940   97.50400
