~Version ---------------------------------------------------
VERS.   2.0 : CWLS log ASCII Standard -VERSION 2.0
WRAP.    NO : One line per depth step
DLM . SPACE : Column Data Section Delimiter
~Well ------------------------------------------------------
STRT .F                 3845.7 : START DEPTH
STOP .F                15974.7 : STOP DEPTH
STEP .F                    0.5 : STEP
NULL .                -9999.25 : NULL VALUE
COMP .                         : COMPANY
WELL .                         : WELL
FLD  .                         : FIELD
LOC  .                         : LOCATION
PROV .                         : PROVINCE
CNTY .                         : COUNTY
STAT .                         : STATE
CTRY .                         : COUNTRY
SRVC .                         : SERVICE COMPANY
DATE .                         : DATE
UWI  .                         : UNIQUE WELL ID
API  .                         : API NUMBER
SLAT .WGS84  4.028448679871097 : SURFACE LATITUDE
SLON .WGS84 1.5624701368317062 : SURFACE LONGITUDE
DATUM.F                 806.11 : DEPTH DATUM ELEV
~Curve Information -----------------------------------------
DEPT   .F     : 1 MEASURED DEPTH
DTCO   .US/F  : DELTA-T COMPRESSIONAL
DTSM   .US/F  : DELTA-T SHEAR
GRR    .GAPI  : GAMMA RAY FROM RESISTIVITY LOG
SPR    .MV    : SPONTANEOUS POTENTIAL FROM RESISTIVITY LOG
AHF20  .OHMM  : ARRAY INDUCTION FOUR FOOT RESISTIVITY A20
AHF60  .OHMM  : ARRAY INDUCTION FOUR FOOT RESISTIVITY A60
AHFCO60.MMHO  : ARRAY INDUCTION FOUR FOOT CONDUCTIVITY A60
~Params ----------------------------------------------------
~Other -----------------------------------------------------
~ASCII -----------------------------------------------------
# ...
 15929.20000   -9999.25   -9999.25   70.96460  -74.26400   13.17330   16.03430   62.80390
 15929.70000   -9999.25   -9999.25   71.36770  -74.33930   13.41630   16.87100   61.80850
 15930.20000   -9999.25   -9999.25   71.77070  -74.41470   13.68790   17.73340   59.44850
 15930.70000   -9999.25   -9999.25   73.00610  -74.49000   14.18680   18.59570   57.08840
 15931.20000   -9999.25   -9999.25   75.87220  -74.49840   14.73990   19.04290   54.72840
 15931.70000   -9999.25   -9999.25   77.84260  -74.50590   15.55280   19.04340   52.86530
 15932.20000   -9999.25   -9999.25   77.92670  -74.48340   16.52050   18.54340   53.39650
 15932.70000   -9999.25   -9999.25   75.13210  -74.45950   17.00630   17.83490   54.09010
 15933.20000   -9999.25   -9999.25   71.36870  -74.43160   16.86500   17.12650   55.95760
 15933.70000   -9999.25   -9999.25   68.81460  -74.18030   16.60760   16.55960   57.82500
 15934.20000   -9999.25   -9999.25   67.52050  -73.98030   16.35030   16.53510   59.69250
 15934.70000   -9999.25   -9999.25   68.51310  -73.91330   16.09290   16.54550   61.48280
 15935.20000   -9999.25   -9999.25   69.52130  -73.90800   16.03280   16.94030   59.68110
 15935.70000   -9999.25   -9999.25   69.55200  -73.92240   16.39140   17.56100   58.30870
 15936.20000   -9999.25   -9999.25   67.96100  -73.95530   16.75040   18.18180   56.93630
 15936.70000   -9999.25   -9999.25   66.51530  -73.98810   16.97960   18.80260   55.45130
 15937.20000   -9999.25   -9999.25   66.51530  -74.02100   16.89720   19.02130   53.88720
 15937.70000   -9999.25   -9999.25   68.79880  -74.05380   16.71070   19.06780   52.32320
 15938.20000   -9999.25   -9999.25   70.04810  -74.08670   16.51220   19.03410   50.75920
 15938.70000   -9999.25   -9999.25   69.32850  -74.11960   16.33520   18.78010   51.14510
 15939.20000   -9999.25   -9999.25   67.13610  -74.15240   16.17230   18.02730   52.42790
 15939.70000   -9999.25   -9999.25   65.24990  -74.18530   16.00950   17.27440   54.77720
 15940.20000   -9999.25   -9999.25   66.26250  -74.21810   15.74160   16.52150   57.12650
 15940.70000   -9999.25   -9999.25   68.89860  -74.25100   15.35020   15.76860   59.47450
 15941.20000   -9999.25   -9999.25   71.53460  -74.28390   14.95870   15.55230   61.59590
 15941.70000   -9999.25   -9999.25   74.17070  -74.31670   14.57450   15.35330   63.71740
 15942.20000   -9999.25   -9999.25   76.80680  -74.34960   14.25900   15.15430   65.83880
 15942.70000   -9999.25   -9999.25   79.44280  -74.38250   14.00350   14.95840   66.41200
 15943.20000   -9999.25   -9999.25   79.89230  -74.39630   13.93370   14.58150   68.57380
 15943.70000   -9999.25   -9999.25   78.84880  -74.39630   13.83460   14.10990   70.87240
 15944.20000   -9999.25   -9999.25   76.43660  -74.39630   13.35680   13.68170   73.00360
 15944.70000   -9999.25   -9999.25   74.02440  -74.28490   12.70870   13.12250   77.41000
 15945.20000   -9999.25   -9999.25   74.13970  -73.98960   12.06050   12.56330   80.58430
 15945.70000   -9999.25   -9999.25   77.89520  -73.69430   11.71470   12.30860   83.75850
 15946.20000   -9999.25   -9999.25   79.78230  -73.39900   11.89420   12.22770   84.53940
 15946.70000   -9999.25   -9999.25   79.94580  -73.13480   12.07370   12.27280   83.38780
 15947.20000   -9999.25   -9999.25   77.83810  -73.12400   12.25310   12.36570   81.90260
 15947.70000   -9999.25   -9999.25   75.02280  -73.41710   12.36630   12.56760   80.41750
 15948.20000   -9999.25   -9999.25   72.20760  -73.95400   12.28310   12.76950   78.93230
 15948.70000   -9999.25   -9999.25   69.39230  -74.35360   12.08490   13.11560   76.91060
 15949.20000   -9999.25   -9999.25   69.11050  -74.35360   11.88680   13.51130   74.66140
 15949.70000   -9999.25   -9999.25   69.32720  -74.28330   11.45740   13.90700   72.12900
 15950.20000   -9999.25   -9999.25   71.02300  -74.20650   10.85780   14.36950   69.59650
 15950.70000   -9999.25   -9999.25   73.69140  -74.22510   10.25830   14.61150   68.43980
 15951.20000   -9999.25   -9999.25   74.79020  -74.55210    9.65870   14.41380   69.37810
 15951.70000   -9999.25   -9999.25   74.82750  -74.87910    9.04950   12.69960   78.72720
 15952.20000   -9999.25   -9999.25   73.16920  -75.20610    8.11600   11.31350   88.39060
 15952.70000   -9999.25   -9999.25   71.84990  -75.53300    7.22300   10.26750   98.05390
 15953.20000   -9999.25   -9999.25   70.94110  -75.51920    6.66770    9.59980  106.78080
 15953.70000   -9999.25   -9999.25   70.03220  -75.43650    6.19990    9.06230  109.40130
 15954.20000   -9999.25   -9999.25   69.12340  -75.35390    6.01130    9.22260  111.03330
 15954.70000   -9999.25   -9999.25   69.77350  -75.27120    5.97500    9.42960  109.42100
 15955.20000   -9999.25   -9999.25   72.08340  -75.18850    6.03900    9.61040  107.23170
 15955.70000   -9999.25   -9999.25   72.16920  -75.10590    6.08890    9.59800  105.32930
 15956.20000   -9999.25   -9999.25   71.93920  -75.02320    6.15080    9.56430  105.87010
 15956.70000   -9999.25   -9999.25   71.88790  -74.94060    6.21740    9.29150  108.11960
 15957.20000   -9999.25   -9999.25   73.47720  -74.85790    6.17020    8.97580  110.85070
 15957.70000   -9999.25   -9999.25   73.89370  -74.77520    6.14620    8.80310  113.58190
 15958.20000   -9999.25   -9999.25   72.20690  -74.90810    6.14210    9.03380  115.62480
 15958.70000   -9999.25   -9999.25   70.14060  -75.07110    6.26090    9.73030  113.53650
 15959.20000   -9999.25   -9999.25   71.29470  -75.23420    6.45220   10.42680  107.79810
 15959.70000   -9999.25   -9999.25   74.15550  -75.39730    6.64350   11.12340  102.05970
 15960.20000   -9999.25   -9999.25   76.31660  -75.37810    6.83490   11.69670   96.32130
 15960.70000   -9999.25   -9999.25   76.24820  -75.81630    7.02620   11.69080   90.58190
 15961.20000   -9999.25   -9999.25   74.31750  -76.07030    7.19660   11.25630   85.32310
 15961.70000   -9999.25   -9999.25   72.38670  -76.26310    7.19660   10.82170   85.20660
 15962.20000   -9999.25   -9999.25   70.45600  -76.45600    6.97150   10.27020   91.02190
 15962.70000   -9999.25   -9999.25   68.96810  -76.64890    6.57500    9.70580   99.90270
 15963.20000   -9999.25   -9999.25   69.01040  -76.84170    6.40110    9.14130  108.78340
 15963.70000   -9999.25   -9999.25   71.51950  -77.03460    6.16050    8.59180  117.06210
 15964.20000   -9999.25   -9999.25   72.90630  -77.22740    5.83990    8.13180  124.50730
 15964.70000   -9999.25   -9999.25   72.97960  -77.42030    5.65590    7.67180  130.87760
 15965.20000   -9999.25   -9999.25   72.59330  -77.36870    5.47190    7.28700  136.93550
 15965.70000   -9999.25   -9999.25   71.38620  -77.29010    5.28780    7.22010  142.08900
 15966.20000   -9999.25   -9999.25   70.27270  -77.21150    5.10380    7.58750  140.71840
 15966.70000   -9999.25   -9999.25   71.58500  -77.13280    5.04520    8.18140  132.78860
 15967.20000   -9999.25   -9999.25   72.49460  -77.05420    5.08180    8.77530  124.31700
 15967.70000   -9999.25   -9999.25   72.41000  -76.97560    5.36880    9.36920  115.84540
 15968.20000   -9999.25   -9999.25   71.00450  -76.89700    5.71670    9.96310  107.37380
 15968.70000   -9999.25   -9999.25   69.59620  -76.81990    6.06460   10.55700   98.90220
 15969.20000   -9999.25   -9999.25   68.80810  -76.77100    6.40090   10.66500   95.26730
 15969.70000   -9999.25   -9999.25   70.14760  -76.72210    6.47700   10.42470   94.85390
 15970.20000   -9999.25   -9999.25   71.88740  -76.67330    6.56600    9.77890   98.38240
 15970.70000   -9999.25   -9999.25   73.62720  -76.62440    6.49770    9.13320  107.44800
 15971.20000   -9999.25   -9999.25   75.36700  -76.64170    6.28150    8.48740  115.19690
 15971.70000   -9999.25   -9999.25   76.91520  -76.67150    6.06540    8.34440  119.88500
 15972.20000   -9999.25   -9999.25   77.04440  -76.70140    5.84920    8.32190  121.29570
 15972.70000   -9999.25   -9999.25   75.78150  -76.73120    5.64010    8.33160  121.28770
 15973.20000   -9999.25   -9999.25   74.17200  -76.76110    5.53730    8.39440  120.06760
