~Version ---------------------------------------------------
VERS.   2.0 : CWLS log ASCII Standard -VERSION 2.0
WRAP.    NO : One line per depth step
DLM . SPACE : Column Data Section Delimiter
~Well ------------------------------------------------------
STRT .F                 3845.7 : START DEPTH
STOP .F                15974.7 : STOP DEPTH
STEP .F                    0.5 : STEP
NULL .                -9999.25 : NULL VALUE
COMP .                         : COMPANY
WELL .                         : WELL
FLD  .                         : FIELD
LOC  .                         : LOCATION
PROV .                         : PROVINCE
CNTY .                         : COUNTY
STAT .                         : STATE
CTRY .                         : COUNTRY
SRVC .                         : SERVICE COMPANY
DATE .                         : DATE
UWI  .                         : UNIQUE WELL ID
API  .                         : API NUMBER
SLAT .WGS84  4.028448679871097 : SURFACE LATITUDE
SLON .WGS84 1.5624701368317062 : SURFACE LONGITUDE
DATUM.F                 806.11 : DEPTH DATUM ELEV
~Curve Information -----------------------------------------
DEPT   .F     : 1 MEASURED DEPTH
DTCO   .US/F  : DELTA-T COMPRESSIONAL
DTSM   .US/F  : DELTA-T SHEAR
GRR    .GAPI  : GAMMA RAY FROM RESISTIVITY LOG
SPR    .MV    : SPONTANEOUS POTENTIAL FROM RESISTIVITY LOG
AHF20  .OHMM  : ARRAY INDUCTION FOUR FOOT RESISTIVITY A20
AHF60  .OHMM  : ARRAY INDUCTION FOUR FOOT RESISTIVITY A60
AHFCO60.MMHO  : ARRAY INDUCTION FOUR FOOT CONDUCTIVITY A60
~Params ----------------------------------------------------
~Other -----------------------------------------------------
~ASCII -----------------------------------------------------
# ...
 7085.70000   -9999.25   -9999.25   78.74660  -40.25740    7.01300    8.07460  124.72750
 7086.20000   -9999.25   -9999.25   81.98450  -40.25450    6.77110    7.80700  128.65640
 7086.70000   -9999.25   -9999.25   82.34500  -40.26800    6.42860    7.53970  132.90780
 7087.20000   -9999.25   -9999.25   79.19360  -40.30330    5.96030    7.37550  137.08090
 7087.70000   -9999.25   -9999.25   75.11120  -40.33870    5.79050    7.26780  140.77610
 7088.20000   -9999.25   -9999.25   71.02880  -40.37400    5.61000    7.19050  143.73150
 7088.70000   -9999.25   -9999.25   69.76500  -40.40930    5.55240    7.17420  143.84900
 7089.20000   -9999.25   -9999.25   73.26900  -41.65490    5.73720    7.41250  137.98130
 7089.70000   -9999.25   -9999.25   76.76450  -43.22780    6.08010    7.88530  132.11360
 7090.20000   -9999.25   -9999.25   77.06100  -44.90580    6.42300    8.29470  126.24580
 7090.70000   -9999.25   -9999.25   75.32330  -45.83010    6.76600    8.69460  120.42660
 7091.20000   -9999.25   -9999.25   67.66770  -46.73200    7.10890    9.08650  115.08190
 7091.70000   -9999.25   -9999.25   61.69710  -47.67010    7.45180    9.47830  109.26600
 7092.20000   -9999.25   -9999.25   58.64880  -48.25930    7.91530    9.87010  103.29220
 7092.70000   -9999.25   -9999.25   56.22660  -48.47530    8.43650   10.23190   98.44810
 7093.20000   -9999.25   -9999.25   56.56250  -48.65370    8.58290   10.27700   98.40260
 7093.70000   -9999.25   -9999.25   59.41470  -48.83200    8.61600    9.96300  102.69930
 7094.20000   -9999.25   -9999.25   62.38600  -49.06950    8.48230    9.55030  107.25900
 7094.70000   -9999.25   -9999.25   65.35720  -50.29100    8.41930    9.13760  111.81870
 7095.20000   -9999.25   -9999.25   66.02780  -52.18900    8.35620    8.72490  116.37850
 7095.70000   -9999.25   -9999.25   63.79600  -53.61780    8.09220    8.31220  120.93820
 7096.20000   -9999.25   -9999.25   59.51600  -54.64090    7.77030    7.97730  126.24030
 7096.70000   -9999.25   -9999.25   55.23600  -56.49000    7.44830    7.64810  131.83710
 7097.20000   -9999.25   -9999.25   54.50790  -58.33900    7.20040    7.31890  137.43380
 7097.70000   -9999.25   -9999.25   56.80630  -58.10720    6.95920    7.08250  143.03050
 7098.20000   -9999.25   -9999.25   60.43580  -57.32100    6.71790    7.02240  147.72390
 7098.70000   -9999.25   -9999.25   64.06530  -56.57190    6.55370    7.08630  147.82590
 7099.20000   -9999.25   -9999.25   66.05710  -55.82280    6.58830    7.32080  143.55830
 7099.70000   -9999.25   -9999.25   65.81230  -55.59100    6.80680    7.56940  137.47240
 7100.20000   -9999.25   -9999.25   60.77470  -56.17480    7.02530    7.81800  131.38650
 7100.70000   -9999.25   -9999.25   54.79470  -56.80100    7.23700    8.06660  128.40280
 7101.20000   -9999.25   -9999.25   51.13300  -57.02720    7.39950    8.31530  126.21950
 7101.70000   -9999.25   -9999.25   50.02690  -56.88950    7.54070    8.38710  124.03620
 7102.20000   -9999.25   -9999.25   53.17930  -55.63070    7.66460    8.38400  121.61230
 7102.70000   -9999.25   -9999.25   61.27970  -54.37650    7.69440    8.38080  120.10810
 7103.20000   -9999.25   -9999.25   62.19270  -53.23310    7.70450    8.37760  119.76660
 7103.70000   -9999.25   -9999.25   61.29940  -52.42590    7.69060    8.39980  121.11780
 7104.20000   -9999.25   -9999.25   59.87570  -51.66690    7.78330    8.53430  120.87550
 7104.70000   -9999.25   -9999.25   59.29130  -51.07520    7.86560    8.66960  120.01570
 7105.20000   -9999.25   -9999.25   59.62420  -50.56210    7.93270    8.68850  119.15590
 7105.70000   -9999.25   -9999.25   60.18540  -49.48160    7.94210    8.61480  118.29620
 7106.20000   -9999.25   -9999.25   60.74670  -48.38760    7.84000    8.52750  118.61960
 7106.70000   -9999.25   -9999.25   61.40500  -47.57430    7.70950    8.48060  120.83890
 7107.20000   -9999.25   -9999.25   63.25770  -46.86360    7.56010    8.44140  123.12560
 7107.70000   -9999.25   -9999.25   66.27900  -45.91990    7.30320    8.22930  125.80400
 7108.20000   -9999.25   -9999.25   68.39730  -44.95280    7.06530    8.01720  128.48240
 7108.70000   -9999.25   -9999.25   69.74990  -43.98580    6.98650    7.80510  130.73490
 7109.20000   -9999.25   -9999.25   69.66580  -43.01870    6.94770    7.59300  134.13020
 7109.70000   -9999.25   -9999.25   68.61550  -42.05170    6.84090    7.55020  137.60590
 7110.20000   -9999.25   -9999.25   67.41680  -41.08460    6.64470    7.53860  138.98920
 7110.70000   -9999.25   -9999.25   67.01430  -40.11760    6.44860    7.52700  138.48070
 7111.20000   -9999.25   -9999.25   67.98510  -39.30750    6.26950    7.52330  137.95910
 7111.70000   -9999.25   -9999.25   71.71730  -38.92240    6.17720    7.72940  136.52770
 7112.20000   -9999.25   -9999.25   75.21410  -39.07560    6.16540    7.95740  129.89360
 7112.70000   -9999.25   -9999.25   75.17880  -39.74830    6.23930    8.36130  125.38510
 7113.20000   -9999.25   -9999.25   70.11020  -40.49130    6.37430    8.64160  118.06340
 7113.70000   -9999.25   -9999.25   66.86340  -41.54710    6.53450    8.92190  110.80900
 7114.20000   -9999.25   -9999.25   68.17780  -43.08690    6.74950    9.20220  108.90870
 7114.70000   -9999.25   -9999.25   71.03150  -44.62670    7.01420    9.36930  108.04440
 7115.20000   -9999.25   -9999.25   71.42610  -46.16660    7.27900    9.44490  108.62310
 7115.70000   -9999.25   -9999.25   71.02700  -47.12450    7.53420    9.32050  110.01480
 7116.20000   -9999.25   -9999.25   66.85340  -47.87940    7.56550    8.68220  114.90200
 7116.70000   -9999.25   -9999.25   62.98680  -48.30980    7.23300    7.93610  122.51330
 7117.20000   -9999.25   -9999.25   63.32450  -48.46870    6.79230    7.19000  133.06470
 7117.70000   -9999.25   -9999.25   64.49380  -48.58620    6.35160    7.06770  143.19130
 7118.20000   -9999.25   -9999.25   65.20040  -48.70370    6.07690    7.15910  149.24890
 7118.70000   -9999.25   -9999.25   65.31240  -49.73720    6.02870    7.28390  148.08910
 7119.20000   -9999.25   -9999.25   64.62350  -52.31450    6.74110    7.89630  134.84180
 7119.70000   -9999.25   -9999.25   59.74830  -55.06710    8.51170    8.92580  118.83320
 7120.20000   -9999.25   -9999.25   54.35340  -57.81970   10.86970    9.73900  102.82450
 7120.70000   -9999.25   -9999.25   50.42740  -60.57230   12.98160    9.79450   99.47960
 7121.20000   -9999.25   -9999.25   50.78730  -63.17810   13.03110    9.01390  109.25230
 7121.70000   -9999.25   -9999.25   53.74320  -65.26530   11.21790    7.71960  126.34770
 7122.20000   -9999.25   -9999.25   53.85040  -67.35250    9.34700    6.49990  143.44320
 7122.70000   -9999.25   -9999.25   50.74290  -69.43970    8.55790    6.01210  160.53870
 7123.20000   -9999.25   -9999.25   45.59730  -70.83070    7.95900    5.99500  169.36220
 7123.70000   -9999.25   -9999.25   42.71640  -70.26040    7.60070    6.03600  173.90770
 7124.20000   -9999.25   -9999.25   40.91160  -67.64370    7.52220    6.07710  173.97710
 7124.70000   -9999.25   -9999.25   40.52530  -64.78000    7.27920    6.11810  170.45340
 7125.20000   -9999.25   -9999.25   41.15860  -59.93500    7.08370    6.34220  166.80200
 7125.70000   -9999.25   -9999.25   47.93620  -56.81060    6.80720    6.58320  163.15050
 7126.20000   -9999.25   -9999.25   58.37130  -55.01230    6.51740    6.82410  159.49910
 7126.70000   -9999.25   -9999.25   67.05730  -53.08890    6.23340    7.04600  153.77440
 7127.20000   -9999.25   -9999.25   73.58800  -51.94680    6.07330    7.25650  147.29990
 7127.70000   -9999.25   -9999.25   77.10990  -50.80470    6.06370    7.46700  140.82540
 7128.20000   -9999.25   -9999.25   76.93570  -49.66270    6.20980    7.83760  134.35090
 7128.70000   -9999.25   -9999.25   76.32840  -49.06390    6.43320    8.21820  127.87640
 7129.20000   -9999.25   -9999.25   75.72120  -48.83420    6.65650    8.59880  121.40190
 7129.70000   -9999.25   -9999.25   73.58810  -49.23850    6.87980    8.99710  116.44750
 7130.20000   -9999.25   -9999.25   69.90820  -50.55100    7.20230    9.34790  111.53420
