~Version ---------------------------------------------------
VERS.   2.0 : CWLS log ASCII Standard -VERSION 2.0
WRAP.    NO : One line per depth step
DLM . SPACE : Column Data Section Delimiter
~Well ------------------------------------------------------
STRT .F                 3845.7 : START DEPTH
STOP .F                15974.7 : STOP DEPTH
STEP .F                    0.5 : STEP
NULL .                -9999.25 : NULL VALUE
COMP .                         : COMPANY
WELL .                         : WELL
FLD  .                         : FIELD
LOC  .                         : LOCATION
PROV .                         : PROVINCE
CNTY .                         : COUNTY
STAT .                         : STATE
CTRY .                         : COUNTRY
SRVC .                         : SERVICE COMPANY
DATE .                         : DATE
UWI  .                         : UNIQUE WELL ID
API  .                         : API NUMBER
SLAT .WGS84  4.028448679871097 : SURFACE LATITUDE
SLON .WGS84 1.5624701368317062 : SURFACE LONGITUDE
DATUM.F                 806.11 : DEPTH DATUM ELEV
~Curve Information -----------------------------------------
DEPT   .F     : 1 MEASURED DEPTH
DTCO   .US/F  : DELTA-T COMPRESSIONAL
DTSM   .US/F  : DELTA-T SHEAR
GRR    .GAPI  : GAMMA RAY FROM RESISTIVITY LOG
SPR    .MV    : SPONTANEOUS POTENTIAL FROM RESISTIVITY LOG
AHF20  .OHMM  : ARRAY INDUCTION FOUR FOOT RESISTIVITY A20
AHF60  .OHMM  : ARRAY INDUCTION FOUR FOOT RESISTIVITY A60
AHFCO60.MMHO  : ARRAY INDUCTION FOUR FOOT CONDUCTIVITY A60
~Params ----------------------------------------------------
~Other -----------------------------------------------------
~ASCII -----------------------------------------------------
# ...
 8705.70000   68.39710  114.61370   71.27120  -55.57700    8.57250    6.72560  155.96660
 8706.20000   68.06070  114.52880   66.85790  -59.97820    8.96920    6.53900  156.02620
 8706.70000   67.72420  114.47530   61.99240  -64.27480    8.87870    6.17150  169.71730
 8707.20000   67.38560  112.68630   57.12700  -68.22920    8.59050    5.79090  185.10770
 8707.70000   66.74520  109.53730   52.57280  -72.18360    8.30230    5.42660  200.49810
 8708.20000   66.98670  107.20430   53.78810  -76.13800    8.16480    5.06230  210.72420
 8708.70000   67.69840  106.25840   56.57050  -81.25910    8.18340    4.74640  218.12640
 8709.20000   67.18260  104.98740   56.05450  -90.31930    8.55950    4.58850  225.52850
 8709.70000   66.07670  105.00500   50.08240  -99.37940    8.94510    4.58850  232.89260
 8710.20000   66.78690  106.33700   44.11030 -108.43960    9.11730    4.55710  240.23150
 8710.70000   68.11780  108.37720   38.13810 -114.64370    9.08800    4.40720  247.57030
 8711.20000   69.43240  110.29450   32.16600 -118.48150    8.89930    4.25730  255.01610
 8711.70000   71.14430  115.12980   28.21880 -122.31930    8.70050    4.01790  265.09790
 8712.20000   77.22740  124.30610   25.51990 -126.13860    8.48880    3.92260  275.27910
 8712.70000   76.81980  127.26460   24.58200 -127.61840    8.19550    3.80490  285.07670
 8713.20000   71.48660  120.79120   23.83940 -128.49270    8.10010    3.64940  295.31630
 8713.70000   69.12260  113.41680   23.72910 -128.22230    7.97550    3.60950  306.43730
 8714.20000   69.07290  113.66260   24.25730 -127.90620    7.71820    3.54780  317.55820
 8714.70000   69.27500  114.52170   28.36520 -127.61250    7.48270    3.40940  328.80350
 8715.20000   69.28420  114.44120   32.47310 -127.84010    7.21840    3.27100  340.86800
 8715.70000   69.25580  114.00260   33.87660 -128.16290    6.95430    3.13250  352.17840
 8716.20000   69.18880  113.23630   32.81860 -129.01700    6.74090    2.99980  362.65940
 8716.70000   69.09610  111.86720   29.78190 -129.90890    6.57390    2.95560  372.52780
 8717.20000   68.80630  110.63100   26.74520 -130.63730    6.45780    2.90870  382.48390
 8717.70000   68.46440  110.11820   23.70850 -131.16360    6.34180    2.85490  392.99710
 8718.20000   68.18470  109.62740   22.33490 -131.68990    6.22580    2.78850  403.38560
 8718.70000   67.96220  108.90740   21.52880 -132.21620    6.04440    2.75840  413.77400
 8719.20000   67.85420  108.11020   20.76400 -132.74250    5.86730    2.73880  424.16250
 8719.70000   67.61840  107.53760   20.58490 -133.13630    5.69140    2.71910  434.55100
 8720.20000   67.14540  106.96500   20.50680 -133.18840    5.56060    2.67420  444.93950
 8720.70000   66.66350  106.43270   20.62360 -133.24050    5.45600    2.61190  451.18130
 8721.20000   66.25010  106.08690   21.67100 -133.29260    5.34780    2.54960  455.07710
 8721.70000   66.49040  105.90460   24.11740 -133.34480    5.22070    2.49820  462.06000
 8722.20000   66.73080  106.09360   26.56380 -133.29010    5.09360    2.45910  467.44540
 8722.70000   66.99980  106.61930   29.01020 -132.85380    4.98030    2.42000  472.79870
 8723.20000   67.45080  107.14510   31.45670 -132.15360    4.88700    2.38090  478.33890
 8723.70000   67.87820  107.64160   32.47580 -131.35180    4.79370    2.34180  485.90550
 8724.20000   67.75730  107.88990   32.38950 -130.87920    4.66560    2.30090  501.12270
 8724.70000   67.52830  108.08330   30.22200 -130.40650    4.52110    2.24540  523.80930
 8725.20000   67.34280  108.02790   26.90950 -129.93390    4.36690    2.18520  546.49590
 8725.70000   67.15720  107.85830   23.59690 -129.46130    3.98540    2.10600  568.93930
 8726.20000   67.08740  107.66190   21.67420 -128.53110    3.62350    2.03070  588.77830
 8726.70000   67.10040  107.63370   21.58810 -127.09430    3.42110    1.96240  607.40800
 8727.20000   67.27420  107.70170   22.45670 -125.89010    3.22000    1.93890  608.00560
 8727.70000   67.64850  106.82890   25.11400 -125.72010    3.11590    2.02180  596.28850
 8728.20000   68.02280  106.47840   27.77130 -125.55020    3.18890    2.18090  537.95210
 8728.70000   68.35230  106.50780   30.42860 -125.38020    3.50390    2.32200  490.74100
 8729.20000   68.56580  106.72280   31.08860 -125.28040    3.95090    2.39540  459.34660
 8729.70000   68.73370  106.93790   30.85810 -125.23730    4.46390    2.49660  427.78640
 8730.20000   69.06390  107.22030   30.25960 -125.31130    4.97680    2.60270  396.22630
 8730.70000   69.32930  107.54450   29.01380 -125.43480    5.54260    2.70880  383.87440
 8731.20000   69.08120  107.78330   28.02770 -125.55830    6.12740    2.81490  383.94130
 8731.70000   68.67920  107.36880   28.45320 -125.68170    6.22220    2.90590  391.62180
 8732.20000   68.36660  106.88450   29.53170 -125.80520    6.18130    2.87380  399.57410
 8732.70000   67.91260  106.74650   30.03360 -125.92860    6.12010    2.79900  407.52630
 8733.20000   67.73070  106.75870   29.71250 -126.05210    5.94270    2.73450  415.47850
 8733.70000   67.54880  106.96820   26.05680 -125.95810    5.77960    2.63380  422.24770
 8734.20000   67.36680  107.29530   23.21330 -125.52750    5.62180    2.65300  430.41950
 8734.70000   67.59840  108.13260   22.53320 -125.09700    5.45000    2.66900  434.36120
 8735.20000   67.98250  109.07640   21.85320 -124.56250    5.28240    2.68350  436.80110
 8735.70000   68.52630  108.36900   21.23100 -123.93420    5.11480    2.69500  435.80700
 8736.20000   69.68100  107.51340   20.64260 -123.30580    5.05460    2.69900  429.03780
 8736.70000   71.49310  108.18640   20.05410 -122.02800    5.07040    2.70580  420.42040
 8737.20000   73.11770  110.94970   21.15400 -119.15820    5.08620    2.81040  411.80310
 8737.70000   73.76350  115.02880   23.15450 -116.06160    5.10190    2.91510  401.42100
 8738.20000   73.49700  117.39610   25.15500 -112.58410    5.11770    3.01970  386.97530
 8738.70000   73.23050  119.11030   27.15550 -109.10670    5.13350    3.12430  370.34110
 8739.20000   72.19860  119.39420   32.86940 -105.62920    5.14970    3.22700  354.71740
 8739.70000   71.67270  119.70040   40.85810 -102.15180    5.17030    3.31320  340.33290
 8740.20000   71.87560  119.93300   48.84670  -98.67430    5.19090    3.37490  325.94840
 8740.70000   71.99850  120.43510   56.83540  -95.19680    5.25290    3.49260  311.56390
 8741.20000   71.85790  120.38630   64.75600  -92.67410    5.34200    3.64890  292.60910
 8741.70000   71.70550  120.28950   65.23610  -92.27110    5.54880    3.81710  277.64200
 8742.20000   71.53270  120.43310   60.48290  -92.62040    6.02400    4.01580  258.77070
 8742.70000   71.57360  121.45030   55.35840  -94.33900    6.53100    4.38810  239.89940
 8743.20000   72.05880  122.01230   50.23390  -96.05750    6.84140    4.61800  225.57080
 8743.70000   71.89840  121.16690   45.10940  -97.56930    7.06410    4.63900  221.51160
 8744.20000   71.54120  119.95670   41.76250  -97.33160    7.21410    4.65640  226.42420
 8744.70000   71.15570  118.44250   42.16560  -95.75170    7.12720    4.60680  231.59140
 8745.20000   70.52950  117.60790   44.34240  -94.16880    6.76940    4.55330  236.75870
 8745.70000   70.12900  116.71260   46.70800  -92.72710    6.45590    4.49980  241.76190
 8746.20000   69.72710  114.01690   48.13630  -92.46690    6.36300    4.44630  242.32340
 8746.70000   68.81350  111.40320   47.91860  -92.61290    6.34410    4.39270  230.76370
 8747.20000   67.13130  108.73680   45.89170  -92.65970    6.39270    4.87780  213.36030
 8747.70000   66.70700  106.13660   40.70560  -92.70640    6.92860    5.08290  199.47350
 8748.20000   67.01000  105.00390   38.52980  -92.75320    7.45050    5.37330  185.58670
 8748.70000   67.54570  103.64680   37.30500  -92.79450    8.23880    5.87570  171.70000
 8749.20000   67.77630  102.78590   36.63330  -92.48700    8.94210    6.47200  157.84450
 8749.70000   68.00690  104.47910   35.79210  -91.97100    9.64540    7.17600  145.96380
 8750.20000   67.68730  107.63930   34.61550  -89.93460   10.34870    7.87990  134.08310
