~Version ---------------------------------------------------
VERS.   2.0 : CWLS log ASCII Standard -VERSION 2.0
WRAP.    NO : One line per depth step
DLM . SPACE : Column Data Section Delimiter
~Well ------------------------------------------------------
STRT .F                 1480.0 : START DEPTH
STOP .F                12502.0 : STOP DEPTH
STEP .F                    0.5 : STEP
NULL .                -9999.25 : NULL VALUE
COMP .                         : COMPANY
WELL .                         : WELL
FLD  .                         : FIELD
LOC  .                         : LOCATION
PROV .                         : PROVINCE
CNTY .                         : COUNTY
STAT .                         : STATE
CTRY .                         : COUNTRY
SRVC .                         : SERVICE COMPANY
DATE .                         : DATE
UWI  .                         : UNIQUE WELL ID
API  .                         : API NUMBER
SLAT .WGS84  5.818274946736999 : SURFACE LATITUDE
SLON .WGS84 3.1476536495485874 : SURFACE LONGITUDE
DATUM.F                    nan : DEPTH DATUM ELEV
~Curve Information -----------------------------------------
DEPT   .F     : 
DTCO   .US/F  : DELTA-T COMPRESSIONAL
DTSM   .US/F  : DELTA-T SHEAR
NPHI_LS.DEC   : NEUTRON POROSITY LIMESTONE
DPHI_LS.DEC   : DENSITY POROSITY LIMESTONE
CALD   .IN    : CALIPER FROM DENSITY LOG
DRHO   .G/C3  : BULK DENSITY CORRECTION
RHOB   .G/C3  : BULK DENSITY
GRR    .GAPI  : GAMMA RAY FROM RESISTIVITY LOG
SPR    .MV    : SPONTANEOUS POTENTIAL FROM RESISTIVITY LOG
ILD    .OHMM  : INDUCTION DEEP RESISTIVITY
CILD   .MMHO  : INDUCTION DEEP CONDUCTIVITY
ILM    .OHMM  : INDUCTION MEDIUM RESISTIVITY
SFLU   .OHMM  : SHALLOW FOCUSED RESISTIVITY (UNAVERAGED)
~Params ----------------------------------------------------
~Other -----------------------------------------------------
~ASCII -----------------------------------------------------
# ...
 11828.00000   84.98350  180.73640    0.21570    0.06340    6.36200   -0.01900    2.60320   94.32500  -11.00260    2.59230   -9999.25    2.64920    3.72560
 11828.50000   85.86570  182.85710    0.21800    0.06390    6.35650   -0.01640    2.60100   94.25870  -11.04170    2.57130   -9999.25    2.63960    3.61920
 11829.00000   86.15910  182.95650    0.22000    0.06330    6.35650   -0.01410    2.60270   93.81570  -11.08090    2.55050   -9999.25    2.63010    3.52840
 11829.50000   85.56830  182.56260    0.22190    0.06300    6.35830   -0.01350    2.60500   92.40160  -11.20800    2.52980   -9999.25    2.62070    3.48010
 11830.00000   85.86140  183.74080    0.22430    0.05880    6.36090   -0.01350    2.61090   90.97210  -11.10070    2.50940   -9999.25    2.61120    3.43590
 11830.50000   87.03820  184.91900    0.22630    0.05360    6.36030   -0.01420    2.61820   90.81650  -10.84890    2.48900   -9999.25    2.57920    3.41500
 11831.00000   87.62590  185.80270    0.22760    0.05280    6.37510   -0.01540    2.61960   91.47660  -10.64830    2.46890   -9999.25    2.54700    3.44690
 11831.50000   87.32990  184.91900    0.22730    0.05570    6.36450   -0.01850    2.61620   92.00040  -10.44760    2.44840   -9999.25    2.51520    3.46140
 11832.00000   86.15020  182.56260    0.22650    0.06040    6.35880   -0.02210    2.60910   91.58200  -10.24700    2.42110   -9999.25    2.48380    3.43730
 11832.50000   85.25560  181.06860    0.22600    0.06330    6.36020   -0.02440    2.60450   92.63370  -10.25910    2.40680   -9999.25    2.45280    3.33330
 11833.00000   84.94550  179.59460    0.22470    0.06380    6.36470   -0.02360    2.60270   95.31470  -10.27240    2.41890   -9999.25    2.43290    3.26980
 11833.50000   84.67310  181.64830    0.22050    0.06520    6.36310   -0.02340    2.60100   97.31170  -10.39870    2.42480   -9999.25    2.42440    3.25700
 11834.00000   86.29920  184.08840    0.21790    0.06490    6.35100   -0.02370    2.60010   97.43950  -10.46940    2.40060   -9999.25    2.41470    3.24560
 11834.50000   87.32120  183.89810    0.21820    0.06440    6.37050   -0.02380    2.59960   96.77640  -10.40020    2.37220   -9999.25    2.40390    3.23830
 11835.00000   87.02500  183.36340    0.22360    0.06290    6.39650   -0.02460    2.60190   96.49930  -10.39440    2.32110   -9999.25    2.38200    3.23360
 11835.50000   86.34260  183.15170    0.23470    0.06360    6.40450   -0.02490    2.60230   96.62540  -10.68160    2.32700   -9999.25    2.36970    3.21060
 11836.00000   86.13840  183.96940    0.23840    0.06400    6.41880   -0.02510    2.60210   96.44180  -11.02030    2.34240   -9999.25    2.37230    3.16360
 11836.50000   86.96550  185.04790    0.24170    0.06310    6.42450   -0.02450    2.60240   96.03840  -11.30590    2.35040   -9999.25    2.38030    3.14100
 11837.00000   88.33100  185.94700    0.23980    0.06020    6.42230   -0.02270    2.60680   95.31190  -11.39680    2.37250   -9999.25    2.38940    3.16360
 11837.50000   88.78500  183.50660    0.22760    0.05630    6.42200   -0.02120    2.61230   94.43910  -11.33750    2.39010   -9999.25    2.40070    3.24230
 11838.00000   88.00630  179.32250    0.21830    0.05620    6.42140   -0.02030    2.61470   93.58130  -11.25380    2.39170   -9999.25    2.43220    3.32030
 11838.50000   87.01440  178.14430    0.20890    0.05720    6.41760   -0.02010    2.61530   91.58710  -11.31630    2.45520   -9999.25    2.46820    3.37130
 11839.00000   86.42390  178.43890    0.20770    0.06160    6.41170   -0.02620    2.60560   89.48160  -11.42930    2.52570   -9999.25    2.54380    3.38830
 11839.50000   86.42250  178.51310    0.20720    0.06560    6.40590   -0.02890    2.59810   88.99670  -11.03510    2.60920   -9999.25    2.65600    3.44300
 11840.00000   86.12650  174.31520    0.20420    0.06650    6.39810   -0.03140    2.59860   91.73990  -11.77180    2.78770   -9999.25    2.77300    3.53640
 11840.50000   85.83050  161.06040    0.19990    0.06230    6.39030   -0.03480    2.60280   94.50620  -11.71410    3.02300   -9999.25    3.00770    3.66000
 11841.00000   84.35630  148.10010    0.19250    0.05460    6.38220   -0.03280    2.61640   94.62960  -11.65630    3.35020   -9999.25    3.39610    3.82210
 11841.50000   82.29300  137.49630    0.18190    0.04460    6.37240   -0.03210    2.62840   90.33480  -11.59860    3.87440   -9999.25    3.83470    4.48730
 11842.00000   79.05150  129.81670    0.16310    0.03850    6.35380   -0.03510    2.64350   82.03410  -11.54080    4.43270   -9999.25    4.29690    6.25110
 11842.50000   75.51540  125.64800    0.12880    0.03350    6.33270   -0.03970    2.65270   74.75280  -11.50730    5.07140   -9999.25    4.81190    9.81390
 11843.00000   72.85240  123.26210    0.10900    0.03180    6.34270   -0.04250    2.65590   69.55150  -11.52190    5.73050   -9999.25    5.38860   12.40310
 11843.50000   70.76440  121.29600    0.10040    0.03410    6.33030   -0.04370    2.65460   65.44600  -11.52120    6.29710   -9999.25    6.03450   13.47980
 11844.00000   69.58830  123.79500    0.09520    0.03820    6.31810   -0.04300    2.64840   62.69430  -11.51100    6.92880   -9999.25    6.75770   13.17740
 11844.50000   68.98370  126.30340    0.09350    0.04230    6.32680   -0.04180    2.63790   61.99210  -11.51630    7.31750   -9999.25    7.26710   12.86010
 11845.00000   68.73360  124.55030    0.09340    0.04330    6.32740   -0.03920    2.63690   62.05640  -11.54480    7.57000   -9999.25    7.69060   12.49490
 11845.50000   69.02670  123.14260    0.09320    0.04350    6.32740   -0.03880    2.63690   61.30560  -11.71350    7.66990   -9999.25    7.81670   12.13070
 11846.00000   68.93900  122.17970    0.09370    0.04630    6.32780   -0.04040    2.63420   59.54440  -12.00780    7.62340   -9999.25    7.75480   12.31990
 11846.50000   68.72930  122.73580    0.09420    0.04920    6.32830   -0.04230    2.62780   57.80270  -12.06400    7.47910   -9999.25    7.61880   12.75460
 11847.00000   69.43090  124.69040    0.09540    0.05000    6.32880   -0.04420    2.62590   59.20190  -12.00660    7.60250   -9999.25    7.59610   12.85970
 11847.50000   69.90430  122.46830    0.09890    0.04950    6.32710   -0.04200    2.62680   61.94220  -12.22150    8.12280   -9999.25    8.13020   12.56680
 11848.00000   69.33730  118.64510    0.10270    0.04390    6.33100   -0.03750    2.62990   64.24390  -12.30750    8.80590   -9999.25    9.08220   12.10480
 11848.50000   66.77040  115.40500    0.10240    0.03870    6.32550   -0.03770    2.64330   63.70370  -12.20550    9.35710   -9999.25   10.14560   12.68100
 11849.00000   63.70960  111.28130    0.08690    0.03350    6.32420   -0.03810    2.66440   58.11270  -11.84120    9.77650   -9999.25   11.63630   17.82210
 11849.50000   60.17790  108.04120    0.05090    0.01860    6.32720   -0.03820    2.68010   47.93890  -11.45290   10.03370   -9999.25   12.41780   33.94910
 11850.00000   57.82010  105.09570    0.01560    0.01510    6.31940   -0.03710    2.68280   38.85520  -11.01640    9.79060   -9999.25   12.31290   49.18510
 11850.50000   59.58590  105.97940    0.03030    0.02340    6.32530   -0.03610    2.67180   36.82110  -10.63700    9.82730   -9999.25    9.55560   55.66900
 11851.00000   61.64640  112.75410    0.06900    0.03180    6.35160   -0.02960    2.65500   44.63900  -10.48150    9.91160   -9999.25    8.99850   33.18630
 11851.50000   63.70680  120.11780    0.11590    0.03310    6.35990   -0.02370    2.65890   55.45920  -10.41870   10.18900   -9999.25    8.87390   15.92690
 11852.00000   64.58900  124.00590    0.13470    0.02100    6.35580   -0.01640    2.67880   58.46910  -10.37650    9.75940   -9999.25    9.48930   12.10520
 11852.50000   64.88220  127.00130    0.12110    0.00910    6.34340   -0.01810    2.69700   54.25940  -10.29960    8.43860   -9999.25   10.04190   16.96690
 11853.00000   64.88070  128.65980    0.07810    0.01240    6.33780   -0.02950    2.68980   48.45060  -10.22260    7.24790   -9999.25    9.52170   27.34750
 11853.50000   64.87920  128.65980    0.06790    0.02680    6.33220   -0.03650    2.66460   50.35020  -10.25550    6.36810   -9999.25    7.03940   32.41310
