~Version ---------------------------------------------------
VERS.   2.0 : CWLS log ASCII Standard -VERSION 2.0
WRAP.    NO : One line per depth step
DLM . SPACE : Column Data Section Delimiter
~Well ------------------------------------------------------
STRT .F                 1480.0 : START DEPTH
STOP .F                12502.0 : STOP DEPTH
STEP .F                    0.5 : STEP
NULL .                -9999.25 : NULL VALUE
COMP .                         : COMPANY
WELL .                         : WELL
FLD  .                         : FIELD
LOC  .                         : LOCATION
PROV .                         : PROVINCE
CNTY .                         : COUNTY
STAT .                         : STATE
CTRY .                         : COUNTRY
SRVC .                         : SERVICE COMPANY
DATE .                         : DATE
UWI  .                         : UNIQUE WELL ID
API  .                         : API NUMBER
SLAT .WGS84  5.818274946736999 : SURFACE LATITUDE
SLON .WGS84 3.1476536495485874 : SURFACE LONGITUDE
DATUM.F                    nan : DEPTH DATUM ELEV
~Curve Information -----------------------------------------
DEPT   .F     : 
DTCO   .US/F  : DELTA-T COMPRESSIONAL
DTSM   .US/F  : DELTA-T SHEAR
NPHI_LS.DEC   : NEUTRON POROSITY LIMESTONE
DPHI_LS.DEC   : DENSITY POROSITY LIMESTONE
CALD   .IN    : CALIPER FROM DENSITY LOG
DRHO   .G/C3  : BULK DENSITY CORRECTION
RHOB   .G/C3  : BULK DENSITY
GRR    .GAPI  : GAMMA RAY FROM RESISTIVITY LOG
SPR    .MV    : SPONTANEOUS POTENTIAL FROM RESISTIVITY LOG
ILD    .OHMM  : INDUCTION DEEP RESISTIVITY
CILD   .MMHO  : INDUCTION DEEP CONDUCTIVITY
ILM    .OHMM  : INDUCTION MEDIUM RESISTIVITY
SFLU   .OHMM  : SHALLOW FOCUSED RESISTIVITY (UNAVERAGED)
~Params ----------------------------------------------------
~Other -----------------------------------------------------
~ASCII -----------------------------------------------------
# ...
 11152.00000   70.35000  172.26460    0.17700    0.04370    8.85900   -0.01060    2.63580  110.96380    2.00460   12.45730   -9999.25   12.54490   15.77540
 11152.50000   70.48360  172.26800    0.18270    0.04390    8.86270   -0.01050    2.63430  110.24740    1.78990   12.40660   -9999.25   12.49260   15.31290
 11153.00000   70.65100  172.70630    0.18400    0.04660    8.86400   -0.01040    2.63130  110.63210    1.45100   12.36800   -9999.25   12.45400   14.94170
 11153.50000   70.65390  171.35730    0.17550    0.04800    8.84550   -0.01070    2.62800  111.33870    1.07110   12.43700   -9999.25   12.52350   14.81680
 11154.00000   70.65740  169.74960    0.16830    0.04850    8.82620   -0.01100    2.62670  111.47190    0.94370   12.51320   -9999.25   12.67750   15.04170
 11154.50000   70.36570  169.33430    0.16260    0.04840    8.80700   -0.01130    2.62680  111.68680    0.86600   12.66640   -9999.25   12.83780   15.49910
 11155.00000   70.07360  169.92680    0.15930    0.04820    8.78780   -0.01160    2.62790  108.85680    0.56970   12.72790   -9999.25   13.00010   16.14170
 11155.50000   69.78200  170.22420    0.16140    0.04720    8.78280   -0.01230    2.62940  105.70000    0.40820   12.78970   -9999.25   13.16450   16.66020
 11156.00000   69.78520  169.34350    0.16680    0.04560    8.79160   -0.01260    2.63190  104.15980    0.26260   12.85180   -9999.25   13.33100   16.69480
 11156.50000   69.78810  167.57900    0.16980    0.04520    8.78300   -0.01290    2.63320  103.77410    0.40700   12.91420   -9999.25   13.49960   16.51800
 11157.00000   70.08550  167.54880    0.16700    0.04480    8.82900   -0.01490    2.63400  104.68740    0.70690   12.97680   -9999.25   13.67030   16.38710
 11157.50000   70.08840  168.46840    0.16200    0.04090    8.88090   -0.01560    2.63860  106.81930    1.10560   13.03980   -9999.25   13.75130   16.46370
 11158.00000   70.09130  169.35490    0.15800    0.03540    8.93270   -0.01620    2.64560  110.49120    1.40070   13.10310   -9999.25   13.49270   16.42550
 11158.50000   70.09430  169.65240    0.16350    0.03310    8.96710   -0.01700    2.65250  113.71890    1.55500   13.13340   -9999.25   13.33360   16.15450
 11159.00000   70.09720  169.65540    0.16720    0.03270    8.96710   -0.01810    2.65470  111.61590    1.85990   13.13650   -9999.25   13.20410   15.82390
 11159.50000   69.80530  169.70190    0.16810    0.03280    8.96140   -0.01890    2.65460  105.58400    2.16470   13.11480   -9999.25   13.07650   15.79460
 11160.00000   69.80850  170.30930    0.16300    0.03250    8.93800   -0.01930    2.65560   96.48630    2.22340   13.08080   -9999.25   13.02450   15.95290
 11160.50000   69.90610  170.99150    0.15920    0.03190    8.91020   -0.01960    2.65640   89.78900    2.21310   13.04700   -9999.25   12.99750   16.16040
 11161.00000   70.69810  171.72900    0.16120    0.03220    8.86920   -0.02040    2.65540   90.20350    2.13840   12.99890   -9999.25   13.05570   16.32250
 11161.50000   70.99560  172.02650    0.16600    0.03250    8.84600   -0.02170    2.65330   97.06050    1.91530   12.95100   -9999.25   13.08560   16.33210
 11162.00000   70.99850  172.32400    0.17150    0.03260    8.85040   -0.02310    2.65330  104.84650    1.69550   12.90320   -9999.25   13.09950   16.21320
 11162.50000   70.70690  172.32700    0.17610    0.03240    8.85590   -0.02540    2.65530  109.84310    1.35120   12.87940   -9999.25   13.11330   16.12520
 11163.00000   70.41590  172.32990    0.17770    0.03330    8.85900   -0.02840    2.65240  111.53900    1.03970   12.89640   -9999.25   13.12720   16.02150
 11163.50000   70.41880  173.08760    0.17540    0.03610    8.85620   -0.03090    2.64770  110.61410    0.82280   12.91350   -9999.25   13.14110   15.89570
 11164.00000   71.01070  175.28180    0.17040    0.03800    8.85680   -0.03290    2.64490  109.72790    0.63380   12.93050   -9999.25   13.15500   15.82980
 11164.50000   71.89720  176.46290    0.16460    0.03890    8.85730   -0.03300    2.64300  109.18800    0.34560   12.94760   -9999.25   13.16890   16.01300
 11165.00000   71.90010  176.46580    0.16180    0.03860    8.84700   -0.03130    2.64430  109.12290    0.05730   12.96470   -9999.25   13.18290   16.52880
 11165.50000   71.90300  176.76320    0.16240    0.03630    8.84470   -0.02920    2.64980  109.09100    0.36450   12.98180   -9999.25   13.13050   17.01760
 11166.00000   72.20040  179.41710    0.16760    0.03200    8.85030   -0.02660    2.65520  108.60310    0.63750   13.06170   -9999.25   13.05060   17.09820
 11166.50000   73.08690  182.95450    0.17350    0.02980    8.85590   -0.02380    2.65860  106.94060    0.69190   12.80490   -9999.25   12.97110   16.55510
 11167.00000   74.28930  186.19750    0.17690    0.03060    8.84740   -0.02150    2.65790  105.60550    0.83510   12.81680   -9999.25   12.89220   15.87630
 11167.50000   74.86010  186.78940    0.17770    0.03450    8.83610   -0.01980    2.65230  105.35630    1.22150   12.74790   -9999.25   12.81370   15.43870
 11168.00000   74.48300  187.09510    0.17680    0.03700    8.81800   -0.01820    2.64650  105.53000    1.60790   12.63420   -9999.25   12.76850   15.31340
 11168.50000   73.62860  187.38440    0.17400    0.03840    8.79320   -0.01650    2.64460  104.00660    1.92360   12.53050   -9999.25   12.83080   15.36980
 11169.00000   73.76640  187.38730    0.17030    0.03800    8.76740   -0.01470    2.64500   99.65250    2.15540   12.36090   -9999.25   12.90170   15.72700
 11169.50000   74.37470  187.39030    0.16710    0.03750    8.73960   -0.01340    2.64660   95.77820    2.10150   12.19340   -9999.25   12.90730   16.28270
 11170.00000   74.87480  187.25650    0.16380    0.03850    8.73830   -0.01290    2.64170   96.56730    2.01300   12.11550   -9999.25   12.82550   16.34810
 11170.50000   75.46690  187.85870    0.16910    0.04250    8.73700   -0.01250    2.63770   99.72570    1.93220   12.10210   -9999.25   12.61930   15.83740
 11171.00000   74.90920  188.97130    0.18070    0.04570    8.73680   -0.01210    2.63250  101.87820    1.81970   12.01140   -9999.25   12.41630   15.06570
 11171.50000   70.84120  184.72520    0.19080    0.04690    8.73720   -0.01370    2.63020  101.73570    1.49230   11.92140   -9999.25   12.25590   14.61510
 11172.00000   67.88840  171.74670    0.19210    0.04760    8.73760   -0.01630    2.62960  101.60300    1.46260   11.83210   -9999.25   12.25880   14.57900
 11172.50000   67.42050  163.72250    0.18750    0.04800    8.73740   -0.01730    2.62910  102.46180    1.03510   11.74350   -9999.25   12.30140   14.55070
 11173.00000   68.41280  161.11340    0.18010    0.04740    8.73230   -0.01570    2.63000  103.17160    0.75070   11.65550   -9999.25   12.34610   14.59350
 11173.50000   68.41570  161.79620    0.17340    0.04640    8.72740   -0.01310    2.63130  103.89260    0.59200   11.58360   -9999.25   12.45990   14.69540
 11174.00000   67.82940  157.96220    0.17280    0.04460    8.72870   -0.01000    2.63470  107.25410    0.43330   11.60620   -9999.25   12.48330   14.95610
 11174.50000   66.65410  155.31410    0.17450    0.04200    8.73000   -0.00770    2.63900  110.90830    0.39690   11.61780   -9999.25   12.40930   15.26450
 11175.00000   65.18420  151.78240    0.17730    0.03940    8.72840   -0.00760    2.64320  109.96450    0.42900   11.64840   -9999.25   12.37330   15.14130
 11175.50000   64.30340  142.94870    0.17810    0.03800    8.73030   -0.00740    2.64450  106.57410    0.64850   11.67900   -9999.25   12.33740   14.86350
 11176.00000   65.03560  136.47150    0.17950    0.03790    8.73630   -0.00780    2.64370  107.69040    0.98940   11.70970   -9999.25   12.30160   14.66830
 11176.50000  142.20440  157.09290    0.18170    0.03900    8.74120   -0.00820    2.64300  112.00790    1.35590   11.74050   -9999.25   12.26600   14.52980
 11177.00000  159.86730  184.19450    0.18370    0.04040    8.71180   -0.00880    2.64160  112.37260    1.49870   11.77130   -9999.25   12.23040   14.24210
 11177.50000  160.68980  200.10310    0.18240    0.04180    8.71630   -0.00870    2.63950  108.39770    1.68560   11.80700   -9999.25   12.19490   14.12980
