~Version ---------------------------------------------------
VERS.   2.0 : CWLS log ASCII Standard -VERSION 2.0
WRAP.    NO : One line per depth step
DLM . SPACE : Column Data Section Delimiter
~Well ------------------------------------------------------
STRT .F                 1480.0 : START DEPTH
STOP .F                12502.0 : STOP DEPTH
STEP .F                    0.5 : STEP
NULL .                -9999.25 : NULL VALUE
COMP .                         : COMPANY
WELL .                         : WELL
FLD  .                         : FIELD
LOC  .                         : LOCATION
PROV .                         : PROVINCE
CNTY .                         : COUNTY
STAT .                         : STATE
CTRY .                         : COUNTRY
SRVC .                         : SERVICE COMPANY
DATE .                         : DATE
UWI  .                         : UNIQUE WELL ID
API  .                         : API NUMBER
SLAT .WGS84  5.818274946736999 : SURFACE LATITUDE
SLON .WGS84 3.1476536495485874 : SURFACE LONGITUDE
DATUM.F                    nan : DEPTH DATUM ELEV
~Curve Information -----------------------------------------
DEPT   .F     : 
DTCO   .US/F  : DELTA-T COMPRESSIONAL
DTSM   .US/F  : DELTA-T SHEAR
NPHI_LS.DEC   : NEUTRON POROSITY LIMESTONE
DPHI_LS.DEC   : DENSITY POROSITY LIMESTONE
CALD   .IN    : CALIPER FROM DENSITY LOG
DRHO   .G/C3  : BULK DENSITY CORRECTION
RHOB   .G/C3  : BULK DENSITY
GRR    .GAPI  : GAMMA RAY FROM RESISTIVITY LOG
SPR    .MV    : SPONTANEOUS POTENTIAL FROM RESISTIVITY LOG
ILD    .OHMM  : INDUCTION DEEP RESISTIVITY
CILD   .MMHO  : INDUCTION DEEP CONDUCTIVITY
ILM    .OHMM  : INDUCTION MEDIUM RESISTIVITY
SFLU   .OHMM  : SHALLOW FOCUSED RESISTIVITY (UNAVERAGED)
~Params ----------------------------------------------------
~Other -----------------------------------------------------
~ASCII -----------------------------------------------------
# ...
 9826.00000   65.24450  120.69810    0.08290    0.01840    9.06410    0.00040    2.67700   70.79380   -5.16890   14.21390   -9999.25   14.32590   21.61530
 9826.50000   65.01910  119.22410    0.09230    0.01380    9.07970    0.00040    2.68530   71.60920   -5.31960   14.17700   -9999.25   14.22190   21.89200
 9827.00000   65.01330  117.42860    0.09610    0.01610    9.06500    0.00060    2.68410   72.55770   -5.71430   14.28420   -9999.25   14.14740   20.49810
 9827.50000   65.41500  118.57810    0.09660    0.02070    9.05040    0.00110    2.67730   72.15990   -6.17890   14.41060   -9999.25   14.24900   19.34220
 9828.00000   66.01070  119.87090    0.09450    0.02460    9.03420    0.00140    2.66890   72.66340   -6.58860   14.58290   -9999.25   14.67420   19.59560
 9828.50000   66.17380  119.78300    0.09180    0.02810    9.01800    0.00160    2.66210   73.71760   -6.96470   14.82320   -9999.25   14.86190   20.84660
 9829.00000   65.41920  119.08470    0.08980    0.02990    9.00180   -0.00040    2.66050   70.53410   -7.29860   15.06740   -9999.25   15.05200   22.68900
 9829.50000   64.36170  117.87780    0.08870    0.02580    8.98560   -0.00270    2.66310   63.18630   -7.53120   15.13000   -9999.25   14.99250   24.16780
 9830.00000   64.27100  117.49630    0.09060    0.02100    8.96940   -0.00790    2.67070   59.18860   -7.63840   14.98610   -9999.25   14.70770   25.03880
 9830.50000   64.48780  118.59740    0.09280    0.01680    8.95850   -0.01060    2.68020   62.91450   -7.59850   14.92560   -9999.25   14.58700   24.76370
 9831.00000   63.78700  120.40960    0.09770    0.02180    8.96310   -0.01270    2.67290   74.74610   -7.21410   15.18660   -9999.25   14.67660   23.25950
 9831.50000   62.89760  121.76050    0.10130    0.02950    8.96770   -0.01560    2.65930   81.44110   -6.80170   15.75200   -9999.25   14.99570   20.67570
 9832.00000   64.36460  121.73200    0.09380    0.03600    8.97230   -0.01540    2.64920   75.94070   -6.32700   16.33860   -9999.25   16.26040   20.72760
 9832.50000   65.83160  119.53520    0.08390    0.03020    8.97690   -0.01350    2.65690   66.69400   -5.88700   16.94690   -9999.25   17.65000   22.03100
 9833.00000   66.70950  117.17450    0.07380    0.02190    8.98150   -0.01290    2.67230   63.46980   -5.44690   17.41850   -9999.25   19.15830   28.58060
 9833.50000   67.58730  114.81370    0.06370    0.01930    8.98610   -0.01360    2.67810   64.81620   -5.28570   17.89590   -9999.25   19.95410   35.38090
 9834.00000   66.40340  112.74760    0.05570    0.02300    8.99070   -0.01440    2.67000   67.41270   -5.29420   18.92380   -9999.25   20.07010   38.63560
 9834.50000   63.15760  111.27050    0.05750    0.02730    8.99530   -0.01510    2.66190   70.48850   -5.29490   19.98170   -9999.25   20.16950   37.52160
 9835.00000   60.46300  110.08790    0.05990    0.03290    8.98890   -0.01590    2.65440   73.80840   -5.26330   20.86680   -9999.25   21.06920   33.04240
 9835.50000   58.38820  108.90540    0.06160    0.03380    8.96190   -0.01720    2.65380   73.74160   -5.36080   21.71080   -9999.25   21.89630   31.06730
 9836.00000   59.15700  108.90110    0.06080    0.03060    8.93500   -0.01900    2.65860   70.62550   -5.49160   22.12410   -9999.25   22.28150   32.73480
 9836.50000   61.95000  109.19130    0.05990    0.02880    8.90760   -0.02060    2.66110   65.79110   -5.62090   22.23680   -9999.25   22.39250   33.91630
 9837.00000   65.37380  109.77610    0.05850    0.02910    8.87530   -0.02050    2.66050   63.29550   -5.89780   22.21050   -9999.25   22.36660   34.72850
 9837.50000   67.53810  109.77170    0.05590    0.03160    8.84290   -0.02030    2.65670   62.93150   -6.18910   22.25790   -9999.25   22.41160   36.16650
 9838.00000   69.47390  109.76730    0.05330    0.03190    8.83620   -0.01890    2.65540   62.89490   -6.42090   22.25650   -9999.25   22.41020   38.19530
 9838.50000   70.67370  110.05760    0.05200    0.03200    8.83040   -0.01690    2.65510   62.53780   -6.64430   22.32790   -9999.25   22.48350   37.90810
 9839.00000   72.27550  110.38280    0.05350    0.03170    8.82670   -0.01540    2.65580   60.92720   -6.88890   22.51370   -9999.25   22.67220   36.26430
 9839.50000   73.65770  111.02650    0.05230    0.03070    8.83530   -0.01410    2.65810   59.52220   -7.09590   22.43680   -9999.25   22.59210   35.75180
 9840.00000   75.44510  112.16470    0.05140    0.02610    8.83950   -0.01280    2.66450   58.73370   -7.07240   21.58610   -9999.25   21.77000   36.80690
 9840.50000   76.78590  113.12610    0.05460    0.02050    8.84370   -0.01150    2.67670   59.32510   -6.69750   20.86570   -9999.25   21.04670   37.34950
 9841.00000   76.46720  114.03050    0.05970    0.01570    8.84580   -0.01020    2.68230   61.26820   -6.39030   20.14960   -9999.25   20.32500   35.54170
 9841.50000   75.44510  114.83800    0.06550    0.01730    8.84590   -0.00950    2.68290   64.79210   -5.73520   19.49160   -9999.25   19.62900   32.58850
 9842.00000   74.55570  115.24590    0.07140    0.02080    8.84610   -0.00970    2.67720   70.47690   -5.24330   19.12750   -9999.25   19.30140   30.41630
 9842.50000   73.66620  115.73590    0.07490    0.02460    8.83760   -0.01020    2.66960   75.84120   -4.95460   18.21430   -9999.25   18.40390   29.51400
 9843.00000   73.07140  116.03840    0.07820    0.02940    8.83170   -0.01020    2.66020   76.86410   -4.76290   17.21050   -9999.25   17.40470   28.52020
 9843.50000   72.77110  116.63480    0.08190    0.03350    8.83770   -0.00980    2.65320   74.01240   -4.42380   16.00530   -9999.25   16.22000   27.23220
 9844.00000   72.71160  117.23180    0.08550    0.03740    8.84370   -0.00630    2.64570   71.98220   -4.14250   15.16220   -9999.25   15.03840   25.16790
 9844.50000   73.34860  117.99260    0.09430    0.04140    8.84800    0.00010    2.63820   75.14840   -3.87710   14.39480   -9999.25   13.94280   22.61810
 9845.00000   73.37260  120.60300    0.10310    0.04750    8.85030    0.00670    2.62910   81.61220   -3.76120   13.66630   -9999.25   13.30340   20.31390
 9845.50000   72.74800  124.72230    0.10980    0.04840    8.85270    0.01380    2.62830   88.57860   -3.78450   13.32620   -9999.25   12.97290   18.64870
 9846.00000   73.92040  126.28610    0.11230    0.04120    8.85170    0.02090    2.64160   92.70710   -3.86830   13.12460   -9999.25   12.96130   17.90100
 9846.50000   75.09290  125.30280    0.11120    0.03330    8.85030    0.02090    2.65910   91.63220   -4.10270   12.80180   -9999.25   12.94980   17.89920
 9847.00000   75.06570  124.41480    0.10630    0.02750    8.86120    0.01520    2.66370   85.72070   -4.29380   12.52280   -9999.25   12.93830   18.68370
 9847.50000   74.45770  124.11590    0.09990    0.02660    8.90700    0.00950    2.66450   80.77550   -4.48050   12.26550   -9999.25   12.88640   20.10800
 9848.00000   73.89690  124.99520    0.10110    0.02670    8.86870    0.00430    2.66480   82.60620   -4.72510   12.06270   -9999.25   12.67900   20.74440
 9848.50000   74.18620  126.16910    0.10990    0.02760    8.85980    0.00190    2.66420   85.65980   -4.93010   11.86690   -9999.25   12.17730   20.35060
 9849.00000   74.47490  128.22660    0.11870    0.03080    8.85270    0.00070    2.65890   84.35630   -4.97440   11.67420   -9999.25   11.76010   18.42510
 9849.50000   74.76370  129.69510    0.12650    0.03480    8.84600    0.00070    2.65080   82.05600   -5.01870   11.48470   -9999.25   11.56890   16.78110
 9850.00000   74.26690  129.98530    0.12310    0.03910    8.83930    0.00180    2.64200   82.35060   -4.84830   11.27280   -9999.25   11.35660   15.85050
 9850.50000   72.94610  129.66280    0.11980    0.04400    8.83730    0.00380    2.63540   85.13850   -4.64120   11.01450   -9999.25   11.09990   15.81970
 9851.00000   71.42800  128.79820    0.12080    0.04240    8.84150    0.00610    2.63800   86.36500   -4.27820   10.80350   -9999.25   10.88430   15.99240
 9851.50000   70.47950  128.89940    0.12580    0.04130    8.84560    0.00830    2.63950   88.33750   -3.86230   10.68510   -9999.25   10.75890   16.02960
