~Version ---------------------------------------------------
VERS.   2.0 : CWLS log ASCII Standard -VERSION 2.0
WRAP.    NO : One line per depth step
DLM . SPACE : Column Data Section Delimiter
~Well ------------------------------------------------------
STRT .F                 1480.0 : START DEPTH
STOP .F                12502.0 : STOP DEPTH
STEP .F                    0.5 : STEP
NULL .                -9999.25 : NULL VALUE
COMP .                         : COMPANY
WELL .                         : WELL
FLD  .                         : FIELD
LOC  .                         : LOCATION
PROV .                         : PROVINCE
CNTY .                         : COUNTY
STAT .                         : STATE
CTRY .                         : COUNTRY
SRVC .                         : SERVICE COMPANY
DATE .                         : DATE
UWI  .                         : UNIQUE WELL ID
API  .                         : API NUMBER
SLAT .WGS84  5.818274946736999 : SURFACE LATITUDE
SLON .WGS84 3.1476536495485874 : SURFACE LONGITUDE
DATUM.F                    nan : DEPTH DATUM ELEV
~Curve Information -----------------------------------------
DEPT   .F     : 
DTCO   .US/F  : DELTA-T COMPRESSIONAL
DTSM   .US/F  : DELTA-T SHEAR
NPHI_LS.DEC   : NEUTRON POROSITY LIMESTONE
DPHI_LS.DEC   : DENSITY POROSITY LIMESTONE
CALD   .IN    : CALIPER FROM DENSITY LOG
DRHO   .G/C3  : BULK DENSITY CORRECTION
RHOB   .G/C3  : BULK DENSITY
GRR    .GAPI  : GAMMA RAY FROM RESISTIVITY LOG
SPR    .MV    : SPONTANEOUS POTENTIAL FROM RESISTIVITY LOG
ILD    .OHMM  : INDUCTION DEEP RESISTIVITY
CILD   .MMHO  : INDUCTION DEEP CONDUCTIVITY
ILM    .OHMM  : INDUCTION MEDIUM RESISTIVITY
SFLU   .OHMM  : SHALLOW FOCUSED RESISTIVITY (UNAVERAGED)
~Params ----------------------------------------------------
~Other -----------------------------------------------------
~ASCII -----------------------------------------------------
# ...
 10060.00000   76.46480  136.43610    0.20470    0.05430    8.83810   -0.00250    2.61900  103.72800   -5.15830    6.82710   -9999.25    7.09560    8.70860
 10060.50000   76.46190  137.98350    0.20490    0.05810    8.84300   -0.00280    2.61080   98.49240   -5.22640    6.81720   -9999.25    7.08010    8.79480
 10061.00000   76.75410  139.96790    0.20650    0.05970    8.84590   -0.00320    2.60880   96.92640   -5.54200    6.80730   -9999.25    7.06470    8.78790
 10061.50000   76.45620  139.43120    0.20670    0.05870    8.84440   -0.00520    2.60910   99.75460   -5.85770    6.79740   -9999.25    7.04930    8.76370
 10062.00000   76.45330  138.94790    0.20540    0.05690    8.84290   -0.00590    2.61190  106.56130   -5.83000    6.78750   -9999.25    7.03390    8.74490
 10062.50000   76.45040  139.37410    0.20410    0.05560    8.84130   -0.00500    2.61460  113.80740   -5.73300    6.72350   -9999.25    7.01370    8.72660
 10063.00000   76.15300  141.48840    0.20650    0.05450    8.84390   -0.00420    2.61600  119.99990   -5.63600    6.63680   -9999.25    6.98850    8.62270
 10063.50000   76.15010  143.49460    0.21050    0.05370    8.84650   -0.00340    2.61720  121.46540   -5.53900    6.63650   -9999.25    6.96800    8.44930
 10064.00000   76.14720  144.08220    0.21370    0.05270    8.84910   -0.00270    2.62050  116.10270   -5.44210    6.61440   -9999.25    6.94980    8.27520
 10064.50000   76.14430  144.37550    0.21680    0.05150    8.85170   -0.00240    2.62140  109.59650   -5.34510    6.59840   -9999.25    6.92550    8.13620
 10065.00000   76.16140  144.37390    0.22010    0.05070    8.85430   -0.00250    2.62300  106.11960   -5.24810    6.58380   -9999.25    6.89200    8.28190
 10065.50000   76.43320  143.48880    0.22290    0.04920    8.85440   -0.00280    2.62450  108.42390   -5.15110    6.57550   -9999.25    6.85870    8.36600
 10066.00000   76.43000  142.30910    0.21810    0.04870    8.83500   -0.00310    2.62640  112.32420   -5.03030    6.60020   -9999.25    6.84910    8.39180
 10066.50000   76.42710  141.12950    0.21110    0.04870    8.84430   -0.00340    2.62750  116.08160   -4.88900    6.65450   -9999.25    6.85220    8.43500
 10067.00000   76.34900  140.24440    0.20570    0.04990    8.85360   -0.00370    2.62520  118.20680   -4.74770    6.65890   -9999.25    6.87120    8.56560
 10067.50000   76.12670  139.65390    0.20830    0.05200    8.85980   -0.00470    2.62250  117.39110   -4.60640    6.65950   -9999.25    6.89020    8.63890
 10068.00000   75.72740  139.06330    0.21260    0.05460    8.86000   -0.00570    2.61670  112.94860   -4.46510    6.66010   -9999.25    6.90180    8.63840
 10068.50000   75.41620  141.47130    0.21670    0.05720    8.85880   -0.00680    2.61140  106.63610   -4.50380    6.66070   -9999.25    6.90060    8.59220
 10069.00000   75.36380  143.24770    0.21710    0.05930    8.81640   -0.00550    2.60860  106.49790   -4.60870    6.66130   -9999.25    6.89930    8.54630
 10069.50000   76.25860  144.11100    0.21720    0.06130    8.83720   -0.00360    2.60520  109.25280   -4.79730    6.66200   -9999.25    6.89800    8.49640
 10070.00000   76.70100  144.65410    0.21720    0.06470    8.85800   -0.00180    2.60150  111.95750   -5.01530    6.66260   -9999.25    6.89670    8.43620
 10070.50000   77.16350  144.35790    0.21830    0.06670    8.86710    0.00000    2.59750  105.79180   -5.23340    6.66320   -9999.25    6.89540    8.41210
 10071.00000   77.28420  143.59360    0.21840    0.06630    8.84880    0.00180    2.59840   98.79360   -5.45470    6.66380   -9999.25    6.89420    8.43090
 10071.50000   76.98630  142.38730    0.21820    0.06340    8.83280    0.00550    2.60180   92.75650   -5.78700    6.66440   -9999.25    6.89290    8.53910
 10072.00000   76.39430  141.17940    0.21540    0.06000    8.82330    0.00940    2.60810   91.23670   -5.96870    6.66500   -9999.25    6.89160    8.67090
 10072.50000   76.09690  139.97380    0.21010    0.05850    8.81380    0.01330    2.60990   94.78300   -6.09650    6.66560   -9999.25    6.89030    8.80410
 10073.00000   76.09400  139.06040    0.20330    0.05970    8.78590    0.01900    2.60820  103.26280   -6.18330    6.64460   -9999.25    6.88900    8.81950
 10073.50000   75.79660  138.75260    0.20250    0.05980    8.78110    0.02660    2.60700  109.08050   -6.19260    6.61140   -9999.25    6.88780    8.73360
 10074.00000   75.49910  139.80390    0.20210    0.05650    8.80660    0.03240    2.61240  111.43120   -6.00100    6.57830   -9999.25    6.88650    8.53230
 10074.50000   75.20170  140.51670    0.20160    0.05300    8.83210    0.03820    2.61850  111.30310   -5.60170    6.54540   -9999.25    6.88520    8.30810
 10075.00000   76.08250  140.22070    0.20110    0.04770    8.85760    0.03660    2.62780  109.60130   -5.20060    6.51270   -9999.25    6.88390    8.18680
 10075.50000   76.69690  139.33560    0.20290    0.04430    8.85810    0.02760    2.63360  105.31800   -4.96360    6.48020   -9999.25    6.88270    8.28770
 10076.00000   77.57640  139.62870    0.20630    0.04570    8.84670    0.01870    2.63190  100.69790   -4.69580    6.44780   -9999.25    6.88140    8.37150
 10076.50000   78.17670  140.51090    0.20910    0.04890    8.83960    0.00980    2.62870   98.72640   -4.49230    6.42240   -9999.25    6.88010    8.35630
 10077.00000   78.48230  141.68770    0.21030    0.05590    8.83480    0.00930    2.61690   99.68280   -4.33740    6.39710   -9999.25    6.87880    8.16220
 10077.50000   78.71900  142.56990    0.21010    0.05870    8.84250    0.00890    2.61090  101.89490   -4.13770    6.37190   -9999.25    6.87750    8.12910
 10078.00000   78.42120  143.45210    0.20870    0.05840    8.85010    0.00840    2.60930  104.18000   -4.21490    6.35440   -9999.25    6.87630    8.18790
 10078.50000   78.02790  143.74520    0.20720    0.05700    8.85780    0.00800    2.61130  105.98470   -4.14390    6.34040   -9999.25    6.87500    8.26530
 10079.00000   77.71590  143.73200    0.20680    0.05670    8.84920    0.00760    2.61220  106.91540   -4.36340    6.31850   -9999.25    6.87370    8.30930
 10079.50000   77.40550  143.10130    0.21040    0.05710    8.83580    0.00780    2.61240  107.24110   -4.59350    6.34230   -9999.25    6.87240    8.34380
 10080.00000   77.23120  142.52370    0.21440    0.06140    8.80350    0.00800    2.60940  106.38260   -4.82360    6.36610   -9999.25    6.87120    8.40440
 10080.50000   77.22830  142.66910    0.21470    0.06070    8.77120    0.00880    2.60690  105.10550   -5.05370    6.37700   -9999.25    6.86990    8.43120
 10081.00000   77.51990  143.44350    0.21120    0.05820    8.75180    0.01060    2.60950  107.46520   -5.28380    6.37810   -9999.25    6.86860    8.38730
 10081.50000   78.10550  144.19180    0.20370    0.05680    8.77020    0.01230    2.61190  111.78750   -5.51390    6.38070   -9999.25    6.86730    8.26830
 10082.00000   78.39760  145.59650    0.20030    0.05720    8.79000    0.01060    2.61160  115.40970   -5.74400    6.38970   -9999.25    6.86610    8.12980
 10082.50000   78.39430  146.49210    0.19820    0.05660    8.80990    0.00720    2.61080  114.97420   -5.97410    6.39860   -9999.25    6.86480    7.99350
 10083.00000   78.39140  146.13880    0.19910    0.05580    8.82970    0.00390    2.61410  114.32930   -6.06890    6.40750   -9999.25    6.86560    7.92650
 10083.50000   78.38850  144.93330    0.20150    0.05360    8.84580    0.00140    2.61760  114.85800   -5.93640    6.41550   -9999.25    6.86720    7.98740
 10084.00000   77.79650  143.42970    0.20190    0.05380    8.84670    0.00050    2.61860  118.50320   -5.80400    6.44950   -9999.25    6.90260    8.15740
 10084.50000   76.91000  141.92960    0.20130    0.05530    8.84750    0.00000    2.61620  118.52660   -5.67150    6.55020   -9999.25    6.96310    8.33090
 10085.00000   75.72890  140.19120    0.19790    0.05610    8.85020    0.00000    2.61340  117.44910   -5.53900    6.60320   -9999.25    7.03510    8.50810
 10085.50000   74.54780  139.01150    0.19550    0.05420    8.85740    0.00000    2.61560  116.02400   -5.40650    6.71180   -9999.25    7.10810    8.73380
