~Version ---------------------------------------------------
VERS.   2.0 : CWLS log ASCII Standard -VERSION 2.0
WRAP.    NO : One line per depth step
DLM . SPACE : Column Data Section Delimiter
~Well ------------------------------------------------------
STRT .F                 1480.0 : START DEPTH
STOP .F                12502.0 : STOP DEPTH
STEP .F                    0.5 : STEP
NULL .                -9999.25 : NULL VALUE
COMP .                         : COMPANY
WELL .                         : WELL
FLD  .                         : FIELD
LOC  .                         : LOCATION
PROV .                         : PROVINCE
CNTY .                         : COUNTY
STAT .                         : STATE
CTRY .                         : COUNTRY
SRVC .                         : SERVICE COMPANY
DATE .                         : DATE
UWI  .                         : UNIQUE WELL ID
API  .                         : API NUMBER
SLAT .WGS84  5.818274946736999 : SURFACE LATITUDE
SLON .WGS84 3.1476536495485874 : SURFACE LONGITUDE
DATUM.F                    nan : DEPTH DATUM ELEV
~Curve Information -----------------------------------------
DEPT   .F     : 
DTCO   .US/F  : DELTA-T COMPRESSIONAL
DTSM   .US/F  : DELTA-T SHEAR
NPHI_LS.DEC   : NEUTRON POROSITY LIMESTONE
DPHI_LS.DEC   : DENSITY POROSITY LIMESTONE
CALD   .IN    : CALIPER FROM DENSITY LOG
DRHO   .G/C3  : BULK DENSITY CORRECTION
RHOB   .G/C3  : BULK DENSITY
GRR    .GAPI  : GAMMA RAY FROM RESISTIVITY LOG
SPR    .MV    : SPONTANEOUS POTENTIAL FROM RESISTIVITY LOG
ILD    .OHMM  : INDUCTION DEEP RESISTIVITY
CILD   .MMHO  : INDUCTION DEEP CONDUCTIVITY
ILM    .OHMM  : INDUCTION MEDIUM RESISTIVITY
SFLU   .OHMM  : SHALLOW FOCUSED RESISTIVITY (UNAVERAGED)
~Params ----------------------------------------------------
~Other -----------------------------------------------------
~ASCII -----------------------------------------------------
# ...
 10502.00000   72.11490  136.31810    0.21230    0.03930    8.82990    0.00190    2.64210  109.40240   -3.65930   13.20010   -9999.25   13.69990   17.42550
 10502.50000   72.04610  135.49930    0.21010    0.03800    8.82680    0.00160    2.64400  106.08000   -3.75220   13.14310   -9999.25   13.92350   17.63780
 10503.00000   71.52990  133.68840    0.20080    0.03890    8.82380    0.00130    2.64450  104.37560   -3.82180   13.22730   -9999.25   14.16510   17.92410
 10503.50000   71.43270  132.78350    0.18910    0.03990    8.82070    0.00130    2.64240  104.51860   -4.23570   13.30490   -9999.25   14.31230   18.27640
 10504.00000   71.23960  132.48900    0.18810    0.04010    8.81760    0.00130    2.64270  105.29230   -4.77420   13.36050   -9999.25   14.47290   18.62770
 10504.50000   71.24230  132.48900    0.18870    0.03820    8.81450    0.00280    2.64460  105.28860   -5.33690   13.37240   -9999.25   14.48810   18.88180
 10505.00000   71.38700  132.93610    0.19140    0.03530    8.81150    0.00440    2.65010  103.62530   -5.92820   13.27870   -9999.25   14.42040   18.94230
 10505.50000   72.28700  133.53990    0.19380    0.03250    8.81510    0.00590    2.65530  101.73740   -6.50240   13.11140   -9999.25   14.28490   18.84600
 10506.00000   73.06330  134.25630    0.19640    0.03040    8.83290    0.00680    2.65740  101.33560   -7.09090   12.86420   -9999.25   13.87320   18.46030
 10506.50000   73.31340  135.72900    0.19900    0.03400    8.84360    0.00630    2.65200  101.75510   -7.42780   12.56430   -9999.25   13.39050   17.60230
 10507.00000   72.72640  137.49630    0.20510    0.04200    8.83520    0.00540    2.63900  104.70170   -7.60200   12.26640   -9999.25   12.95950   16.73870
 10507.50000   72.72860  139.26360    0.21160    0.04690    8.82680    0.00410    2.62920  110.77560   -7.77630   11.97460   -9999.25   12.65460   16.22470
 10508.00000   73.61440  140.73640    0.21880    0.04450    8.82630    0.00260    2.63270  117.16210   -7.95050   11.68970   -9999.25   12.35680   15.90780
 10508.50000   74.79470  141.32550    0.22930    0.03810    8.86060    0.00110    2.64500  118.60440   -8.12470   11.41160   -9999.25   12.06610   15.59960
 10509.00000   75.09140  141.03090    0.24160    0.02940    8.89930    0.00050    2.66240  115.09260   -8.29890   11.31860   -9999.25   11.78220   15.19770
 10509.50000   74.50450  141.03090    0.25000    0.02160    8.93880    0.00050    2.67720  112.11930   -8.47320   11.37150   -9999.25   11.68040   14.90030
 10510.00000   73.62300  139.79990    0.24690    0.01490    8.93050    0.00080    2.68080  109.72090   -8.58550   11.42170   -9999.25   11.89930   14.98410
 10510.50000   72.73680  137.12720    0.23810    0.02240    8.94380    0.00220    2.67190  106.37350   -8.58060   11.43160   -9999.25   12.21900   15.59220
 10511.00000   72.11910  135.72900    0.22370    0.03130    8.93120    0.00300    2.65410  102.83790   -8.57570   11.60650   -9999.25   12.51580   16.93870
 10511.50000   71.27310  136.02360    0.21440    0.04020    8.87960    0.00310    2.63820  102.00050   -8.32410   11.81620   -9999.25   12.80930   19.03610
 10512.00000   70.98070  134.85710    0.21280    0.04460    8.86960    0.00250    2.63430  103.70260   -8.07880   12.08990   -9999.25   13.01390   20.67900
 10512.50000   70.98310  132.43950    0.21150    0.04390    8.86390    0.00160    2.63590  105.01780   -7.91520   12.38360   -9999.25   13.18090   21.64160
 10513.00000   71.27980  130.81360    0.21060    0.04030    8.85830    0.00080    2.64610  103.69580   -7.75170   12.57680   -9999.25   13.10940   21.69650
 10513.50000   71.19250  130.31120    0.21330    0.03470    8.85520    0.00090    2.65290  100.54280   -7.58580   12.54690   -9999.25   12.98570   21.31300
 10514.00000   70.98930  130.26450    0.21850    0.03350    8.85460    0.00200    2.65120  102.49260   -7.39560   12.51720   -9999.25   12.82170   20.77580
 10514.50000   72.64330  131.75080    0.22490    0.03580    8.85410    0.00630    2.64480  111.46720   -7.20540   12.46120   -9999.25   12.39980   20.13630
 10515.00000   74.92620  136.65760    0.23260    0.04030    8.85350    0.01210    2.63490  121.90250   -7.06410   12.38450   -9999.25   11.99180   18.94110
 10515.50000   76.88500  141.18190    0.25320    0.04720    8.85860    0.01790    2.61820  127.49080   -6.96660   12.30620   -9999.25   11.59720   17.08660
 10516.00000   79.00790  145.34980    0.27910    0.06660    8.86590    0.02370    2.56940  124.54050   -6.86910   12.22850   -9999.25   11.54810   15.62080
 10516.50000   82.19410  148.58400    0.33230    0.10480    8.87660    0.02910    2.50010  119.15110   -6.49140   12.13850   -9999.25   12.36930   15.55810
 10517.00000   84.55270  149.49040    0.38560    0.21750    8.94560    0.02650    2.32580  107.13790   -5.90930   12.03040   -9999.25   12.18520   19.79660
 10517.50000   85.73300  150.57440    0.52510    0.32490    8.96990    0.02040    2.03040   91.07210   -5.32720   11.85800   -9999.25   12.00380   30.67820
 10518.00000   82.78970  149.92030    0.55760    0.43220    9.06180    0.00030    1.78280   80.59380   -4.94550   11.78710   -9999.25   12.69620   40.22910
 10518.50000   78.96270  139.95790    0.52050    0.60860    9.41960   -0.01950    1.58440   81.47540   -3.77020   11.79250   -9999.25   13.22360   35.29840
 10519.00000   75.72480  130.19220    0.40960    0.64150    9.28180   -0.02050    1.68230   91.15120   -2.72170   12.04210   -9999.25   13.14970   22.56570
 10519.50000   73.07600  124.13550    0.34580    0.52830    9.12490   -0.01520    1.90780  101.64030   -1.87990   12.13380   -9999.25   12.69810   17.10860
 10520.00000   71.31080  120.70690    0.27990    0.24190    8.96790   -0.00650    2.34820  107.45140   -1.13850   11.82630   -9999.25   12.21950   18.07160
 10520.50000   69.84020  119.52870    0.12280    0.14230    8.84940   -0.00640    2.62410  110.91490   -0.53250   11.71710   -9999.25   11.88100   20.08330
 10521.00000   68.06680  118.64510    0.14820    0.04370    8.82690   -0.00880    2.67080  113.96170   -0.32390   11.78880   -9999.25   11.82400   21.30280
 10521.50000   67.48810  118.64510    0.16430    0.02520    8.77440   -0.00970    2.66020  116.17860    0.02340   12.45610   -9999.25   11.94220   21.87700
 10522.00000   68.11710  118.64510    0.16230    0.03390    8.76150   -0.00880    2.64480  114.46480    0.19860   13.38530   -9999.25   12.44500   22.46550
 10522.50000   68.72270  118.64510    0.16030    0.04260    8.75670   -0.00610    2.62940  107.81920    0.06700   14.38380   -9999.25   13.87140   23.64520
 10523.00000   68.96740  117.46690    0.14830    0.05070    8.75660   -0.00170    2.61830   97.66040    0.17060   15.18570   -9999.25   15.11850   25.13760
 10523.50000   67.25930  115.99410    0.13010    0.05660    8.76760   -0.00090    2.61080   86.47070    0.11610   15.54000   -9999.25   16.29660   26.06410
 10524.00000   65.63770  114.22680    0.11670    0.06010    8.77250   -0.00080    2.60430   78.71380    0.16320   15.61710   -9999.25   17.20160   26.84220
 10524.50000   64.63370  113.63770    0.11000    0.06390    8.77120   -0.00060    2.59790   79.33730    0.24780   15.63360   -9999.25   16.57570   26.96100
 10525.00000   63.96910  114.22680    0.11050    0.06780    8.76650   -0.00040    2.59180   85.30780    0.33230   15.44640   -9999.25   15.89630   25.16960
 10525.50000   63.83460  115.42850    0.11720    0.07020    8.72200   -0.00060    2.58990   89.75630    0.41680   15.08810   -9999.25   15.21630   21.64340
 10526.00000   64.42760  116.63230    0.11860    0.06910    8.72910   -0.00280    2.59050   90.60880    0.50130   14.46010   -9999.25   14.56530   19.46470
 10526.50000   66.99400  117.53730    0.11860    0.06750    8.74100   -0.00590    2.59370   90.48430    0.58580   13.88950   -9999.25   13.94220   18.86370
 10527.00000   68.69110  118.78650    0.11960    0.06690    8.74000   -0.00970    2.59650   92.58380    0.67030   13.28230   -9999.25   13.34580   19.61280
 10527.50000   68.98790  120.29380    0.12650    0.06620    8.76440   -0.01160    2.59950   98.24220    0.75480   12.65830   -9999.25   12.57160   20.33120
