~Version ---------------------------------------------------
VERS.   2.0 : CWLS log ASCII Standard -VERSION 2.0
WRAP.    NO : One line per depth step
DLM . SPACE : Column Data Section Delimiter
~Well ------------------------------------------------------
STRT .F                 1480.0 : START DEPTH
STOP .F                12502.0 : STOP DEPTH
STEP .F                    0.5 : STEP
NULL .                -9999.25 : NULL VALUE
COMP .                         : COMPANY
WELL .                         : WELL
FLD  .                         : FIELD
LOC  .                         : LOCATION
PROV .                         : PROVINCE
CNTY .                         : COUNTY
STAT .                         : STATE
CTRY .                         : COUNTRY
SRVC .                         : SERVICE COMPANY
DATE .                         : DATE
UWI  .                         : UNIQUE WELL ID
API  .                         : API NUMBER
SLAT .WGS84  5.818274946736999 : SURFACE LATITUDE
SLON .WGS84 3.1476536495485874 : SURFACE LONGITUDE
DATUM.F                    nan : DEPTH DATUM ELEV
~Curve Information -----------------------------------------
DEPT   .F     : 
DTCO   .US/F  : DELTA-T COMPRESSIONAL
DTSM   .US/F  : DELTA-T SHEAR
NPHI_LS.DEC   : NEUTRON POROSITY LIMESTONE
DPHI_LS.DEC   : DENSITY POROSITY LIMESTONE
CALD   .IN    : CALIPER FROM DENSITY LOG
DRHO   .G/C3  : BULK DENSITY CORRECTION
RHOB   .G/C3  : BULK DENSITY
GRR    .GAPI  : GAMMA RAY FROM RESISTIVITY LOG
SPR    .MV    : SPONTANEOUS POTENTIAL FROM RESISTIVITY LOG
ILD    .OHMM  : INDUCTION DEEP RESISTIVITY
CILD   .MMHO  : INDUCTION DEEP CONDUCTIVITY
ILM    .OHMM  : INDUCTION MEDIUM RESISTIVITY
SFLU   .OHMM  : SHALLOW FOCUSED RESISTIVITY (UNAVERAGED)
~Params ----------------------------------------------------
~Other -----------------------------------------------------
~ASCII -----------------------------------------------------
# ...
 10710.00000   73.84380  133.51110    0.20930    0.04330    8.84430   -0.01280    2.63640  117.13050    1.13000    8.60670   -9999.25    8.70290   11.19850
 10710.50000   74.13700  134.71580    0.20160    0.04320    8.84450   -0.01190    2.63590  121.99320    1.27180    8.39230   -9999.25    8.50480   10.67600
 10711.00000   74.43000  136.01530    0.20320    0.04310    8.83520   -0.01100    2.63580  125.22480    1.41360    8.18330   -9999.25    8.37060   10.28070
 10711.50000   75.01770  137.71310    0.20700    0.04300    8.82370   -0.00720    2.63650  124.31250    1.55550    8.09070   -9999.25    8.28920   10.20880
 10712.00000   75.01620  139.75180    0.21000    0.04220    8.80230   -0.00220    2.63790  118.31940    1.69730    8.00590   -9999.25    8.24570   10.42160
 10712.50000   74.72020  141.59540    0.21150    0.04050    8.77570    0.00290    2.64260  112.91920    1.83910    7.92190   -9999.25    8.20250   10.76960
 10713.00000   74.76820  142.80060    0.21130    0.03850    8.74900    0.00560    2.64620  110.49900    1.98090    7.83880   -9999.25    8.08380   11.08820
 10713.50000   75.07420  143.84330    0.21510    0.03910    8.74760    0.00420    2.64150  111.77940    2.12280    7.75530   -9999.25    7.94580   11.30600
 10714.00000   75.97020  144.86010    0.22260    0.04770    8.75580    0.00280    2.62770  114.24130    2.04110    7.65550   -9999.25    7.80910   11.13750
 10714.50000   76.48180  145.15460    0.23020    0.05640    8.76420    0.00140    2.61390  117.84870    2.08620    7.60100   -9999.25    7.76400   10.40780
 10715.00000   76.48010  145.15460    0.23460    0.06190    8.80130    0.00010    2.60750  121.47920    1.85000    7.61110   -9999.25    7.76380    9.35630
 10715.50000   76.36200  143.68190    0.23340    0.05720    8.83840   -0.00130    2.61400  121.48900    1.54490    7.70850   -9999.25    7.83620    8.83220
 10716.00000   75.92210  141.32550    0.22840    0.05160    8.84770   -0.00270    2.62490  118.09040    1.23970    7.88010   -9999.25    8.10400    9.03140
 10716.50000   74.43030  138.67450    0.22360    0.04600    8.85560   -0.00430    2.63370  114.02700    0.93460    8.05870   -9999.25    8.52250    9.85360
 10717.00000   72.46950  136.61270    0.21840    0.04380    8.85950   -0.00620    2.63600  111.78020    0.62950    8.24140   -9999.25    8.96260   11.33920
 10717.50000   71.59030  134.84540    0.21360    0.04360    8.85950   -0.00730    2.63560  111.68080    0.74360    8.42820   -9999.25    9.42550   12.85740
 10718.00000   72.05270  133.37260    0.20750    0.04660    8.81660   -0.00700    2.63040  111.39380    0.86730    8.61920   -9999.25    9.79800   14.22580
 10718.50000   73.22950  133.96170    0.20280    0.04990    8.80400   -0.00670    2.62460  111.19140    1.38340    8.81460   -9999.25   10.15870   14.83630
 10719.00000   74.11170  136.94610    0.20610    0.04940    8.81470   -0.00700    2.62680  113.39920    1.67500    8.97330   -9999.25   10.08930   14.19530
 10719.50000   74.99390  138.67450    0.20890    0.04630    8.83330   -0.00820    2.63300  117.16480    2.24620    8.93320   -9999.25    9.82400   12.75290
 10720.00000   75.28700  138.96910    0.21890    0.04180    8.84530   -0.00960    2.63750  118.45850    2.75850    8.75160   -9999.25    9.57430   11.48350
 10720.50000   75.28560  139.26360    0.22630    0.04150    8.85120   -0.01130    2.63860  118.16940    2.96660    8.51120   -9999.25    9.33100   10.88660
 10721.00000   75.57880  139.19760    0.22990    0.04320    8.85720   -0.01410    2.63640  117.10570    3.08710    8.27740   -9999.25    9.08030   10.72290
 10721.50000   75.57730  138.89010    0.23090    0.04390    8.85780   -0.01610    2.63450  117.80090    3.16340    8.05000   -9999.25    8.79140   10.79090
 10722.00000   75.28130  138.67450    0.23290    0.04300    8.85760   -0.01580    2.63660  120.70110    3.48210    7.83280   -9999.25    8.50240   10.80780
 10722.50000   74.98530  138.67450    0.23030    0.04000    8.85750   -0.01370    2.64230  124.67360    3.77460    7.66220   -9999.25    8.21980   10.50650
 10723.00000   75.00380  138.79350    0.22730    0.03610    8.84930   -0.01160    2.64750  129.40800    3.03330    7.49530   -9999.25    8.07510   10.09760
 10723.50000   75.30990  139.39560    0.22520    0.03410    8.83900   -0.00930    2.65190  130.45460    2.75450    7.28190   -9999.25    7.95800   10.18080
 10724.00000   75.66380  139.99770    0.22650    0.03300    8.82870   -0.00730    2.65370  129.24310    2.66210    7.08090   -9999.25    7.82660   10.27570
 10724.50000   76.21740  140.44180    0.23030    0.03280    8.82980   -0.00540    2.65240  128.31690    2.48370    6.89490   -9999.25    7.58040   10.23100
 10725.00000   76.52400  141.20300    0.23300    0.03520    8.84440   -0.00250    2.64830  127.60720    2.27550    6.71850   -9999.25    7.30070    9.94100
 10725.50000   76.91810  142.20910    0.23670    0.04100    8.85910   -0.00100    2.64000  126.69260    1.99930    6.47040   -9999.25    7.03130    9.25460
 10726.00000   77.43230  143.38730    0.24260    0.04460    8.86480   -0.00010    2.63370  126.89800    1.62540    6.23150   -9999.25    6.77190    8.45080
 10726.50000   78.32740  144.56550    0.25120    0.04790    8.86900    0.00090    2.62800  129.07710    1.14160    6.00130   -9999.25    6.52200    7.74220
 10727.00000   78.92840  146.92200    0.25620    0.05060    8.87330    0.00400    2.62330  133.13310    0.65770    5.77970   -9999.25    6.28140    7.45570
 10727.50000   79.68340  151.92930    0.26050    0.05220    8.87120    0.00490    2.62160  136.36550    0.17390    5.56620   -9999.25    6.04960    7.39390
 10728.00000   79.97640  160.47130    0.26380    0.04910    8.86730    0.00340    2.62680  131.99280    0.70670    5.36000   -9999.25    5.82640    7.45440
 10728.50000   80.43610  166.06770    0.26720    0.04490    8.86330    0.00180    2.63220  125.39460    1.41940    5.15930   -9999.25    5.61140    7.41360
 10729.00000   81.15140  168.71870    0.27140    0.04490    8.85940    0.00010    2.63180  116.58990    2.13220    4.96610   -9999.25    5.36960    7.04250
 10729.50000   81.44450  168.71870    0.27660    0.04900    8.85540    0.00090    2.62770  113.30690    2.65210    4.81230   -9999.25    5.12380    6.61030
 10730.00000   82.03220  168.71870    0.28180    0.05390    8.85150    0.00760    2.61830  117.05180    2.81330    4.66490   -9999.25    4.88920    6.30180
 10730.50000   82.32530  168.42410    0.28690    0.05830    8.84750    0.01600    2.61120  122.34580    2.97450    4.52200   -9999.25    4.66540    6.09830
 10731.00000   82.61840  168.42410    0.29210    0.06090    8.84820    0.02490    2.60830  124.10130    3.13560    4.38350   -9999.25    4.51260    5.95090
 10731.50000   83.20620  168.43620    0.29810    0.06590    8.85340    0.02840    2.59900  122.84750    3.29680    4.24920   -9999.25    4.40510    5.79270
 10732.00000   83.20460  168.45740    0.29500    0.07060    8.85830    0.03070    2.59270  122.22330    2.91830    4.11900   -9999.25    4.34240    5.66830
 10732.50000   82.90860  168.47850    0.28830    0.06890    8.85090    0.03300    2.59470  121.55180    2.47760    3.98970   -9999.25    4.24440    5.51910
 10733.00000   82.90720  168.49960    0.28060    0.06490    8.88250    0.03540    2.59950  121.59870    2.03680    3.92340   -9999.25    4.05840    5.34140
 10733.50000   83.20380  168.52080    0.27440    0.06550    8.90010    0.03560    2.59910  123.56100    1.59600    3.86260   -9999.25    4.00760    5.16450
 10734.00000   84.10010  168.54190    0.27010    0.06610    8.88550    0.03520    2.59630  127.15700    1.25680    3.82010   -9999.25    3.98470    5.05500
 10734.50000   84.67020  168.56300    0.26840    0.06610    8.85490    0.04200    2.59570  132.53630    0.98270    3.78550   -9999.25    3.96200    5.03090
 10735.00000   83.94820  168.58420    0.26850    0.06400    8.80680    0.05390    2.60130  132.42800    0.70860    3.74900   -9999.25    3.93940    5.11460
 10735.50000   82.25300  168.60530    0.26990    0.06100    8.77810    0.06120    2.60610  123.78980    0.43450    3.67620   -9999.25    3.91690    5.18550
