~Version ---------------------------------------------------
VERS.   2.0 : CWLS log ASCII Standard -VERSION 2.0
WRAP.    NO : One line per depth step
DLM . SPACE : Column Data Section Delimiter
~Well ------------------------------------------------------
STRT .F                 1480.0 : START DEPTH
STOP .F                12502.0 : STOP DEPTH
STEP .F                    0.5 : STEP
NULL .                -9999.25 : NULL VALUE
COMP .                         : COMPANY
WELL .                         : WELL
FLD  .                         : FIELD
LOC  .                         : LOCATION
PROV .                         : PROVINCE
CNTY .                         : COUNTY
STAT .                         : STATE
CTRY .                         : COUNTRY
SRVC .                         : SERVICE COMPANY
DATE .                         : DATE
UWI  .                         : UNIQUE WELL ID
API  .                         : API NUMBER
SLAT .WGS84  5.818274946736999 : SURFACE LATITUDE
SLON .WGS84 3.1476536495485874 : SURFACE LONGITUDE
DATUM.F                    nan : DEPTH DATUM ELEV
~Curve Information -----------------------------------------
DEPT   .F     : 
DTCO   .US/F  : DELTA-T COMPRESSIONAL
DTSM   .US/F  : DELTA-T SHEAR
NPHI_LS.DEC   : NEUTRON POROSITY LIMESTONE
DPHI_LS.DEC   : DENSITY POROSITY LIMESTONE
CALD   .IN    : CALIPER FROM DENSITY LOG
DRHO   .G/C3  : BULK DENSITY CORRECTION
RHOB   .G/C3  : BULK DENSITY
GRR    .GAPI  : GAMMA RAY FROM RESISTIVITY LOG
SPR    .MV    : SPONTANEOUS POTENTIAL FROM RESISTIVITY LOG
ILD    .OHMM  : INDUCTION DEEP RESISTIVITY
CILD   .MMHO  : INDUCTION DEEP CONDUCTIVITY
ILM    .OHMM  : INDUCTION MEDIUM RESISTIVITY
SFLU   .OHMM  : SHALLOW FOCUSED RESISTIVITY (UNAVERAGED)
~Params ----------------------------------------------------
~Other -----------------------------------------------------
~ASCII -----------------------------------------------------
# ...
 9618.00000   -9999.25   -9999.25    0.21940    0.06150    9.88010    0.08950    2.60610  135.76360   -7.18480    6.64440   -9999.25    6.69020    8.09130
 9618.50000   -9999.25   -9999.25    0.22470    0.06380    9.86810    0.09160    2.60180  130.52300   -7.17600    6.71300   -9999.25    6.76480    8.02250
 9619.00000   -9999.25   -9999.25    0.22900    0.06210    9.85610    0.10650    2.60490  128.18860   -7.16200    6.85410   -9999.25    6.92850    7.96790
 9619.50000   -9999.25   -9999.25    0.22930    0.06170    9.80470    0.11660    2.60640  125.04950   -7.23400    7.18160   -9999.25    7.24990    7.95360
 9620.00000   -9999.25   -9999.25    0.21300    0.06940    9.76310    0.11910    2.59850  117.64300   -7.59950    7.78220   -9999.25    7.98640    8.04820
 9620.50000   -9999.25   -9999.25    0.18090    0.07690    9.73600    0.09410    2.57940  108.00940   -7.96500    8.48160   -9999.25    8.87020    8.99040
 9621.00000   -9999.25   -9999.25    0.13730    0.07450    9.70900    0.07330    2.58030   96.79520   -8.33050    9.24390   -9999.25    9.85180   11.30090
 9621.50000   -9999.25   -9999.25    0.09670    0.06500    9.68810    0.05360    2.59490   83.00860   -8.69600   10.18780   -9999.25   10.94200   14.36380
 9622.00000   -9999.25   -9999.25    0.07440    0.05380    9.63950    0.02660    2.61350   72.07260   -9.06160   11.39420   -9999.25   12.15290   17.28840
 9622.50000   -9999.25   -9999.25    0.05610    0.05300    9.61740   -0.00050    2.62010   64.88160   -9.42710   12.90820   -9999.25   13.49770   19.67060
 9623.00000   -9999.25   -9999.25    0.05180    0.05530    9.61720   -0.00780    2.61710   62.80980   -9.79260   13.95610   -9999.25   14.94010   21.36500
 9623.50000   -9999.25   -9999.25    0.05270    0.05640    9.61540   -0.01270    2.61330   63.01340  -10.41770   14.98490   -9999.25   15.04510   22.32530
 9624.00000   -9999.25   -9999.25    0.05790    0.05600    9.59800   -0.01420    2.61480   65.07390  -11.25950   15.05900   -9999.25   15.16830   21.07160
 9624.50000   -9999.25   -9999.25    0.06350    0.05460    9.58510   -0.01460    2.61730   68.10170  -11.88110   15.09870   -9999.25   15.20640   19.07100
 9625.00000   -9999.25   -9999.25    0.06780    0.05370    9.60060   -0.01340    2.61810   71.32950  -12.27910   14.82250   -9999.25   14.94010   17.25740
 9625.50000   -9999.25   -9999.25    0.07110    0.05550    9.61430   -0.01200    2.61610   74.78220  -12.41100   14.43850   -9999.25   14.55330   16.41370
 9626.00000   -9999.25   -9999.25    0.07400    0.05990    9.61830   -0.01190    2.60910   77.18700  -12.43540   14.13820   -9999.25   14.24280   16.16360
 9626.50000   -9999.25   -9999.25    0.07360    0.06420    9.62260   -0.01200    2.60160   78.90360  -12.43430   13.96650   -9999.25   14.06370   16.10380
 9627.00000   -9999.25   -9999.25    0.07200    0.06700    9.62180   -0.01220    2.59630   77.12620  -12.35530   14.05890   -9999.25   14.15600   16.13270
 9627.50000   -9999.25   -9999.25    0.06810    0.06680    9.60280   -0.01220    2.59640   71.52060  -12.03500   14.28350   -9999.25   14.40670   16.48710
 9628.00000   -9999.25   -9999.25    0.06120    0.06280    9.59780   -0.01220    2.60360   64.90330  -11.81400   14.57270   -9999.25   14.88040   17.31460
 9628.50000   -9999.25   -9999.25    0.05430    0.05780    9.61190   -0.01160    2.61280   62.10440  -11.73390   14.84050   -9999.25   15.35040   18.29330
 9629.00000   -9999.25   -9999.25    0.04770    0.05330    9.61770   -0.01040    2.62010   66.73370  -11.55340   15.16880   -9999.25   15.83520   19.35540
 9629.50000   -9999.25   -9999.25    0.04230    0.05070    9.61960   -0.00860    2.62580   70.83540  -11.37290   15.50450   -9999.25   16.33540   20.65810
 9630.00000   -9999.25   -9999.25    0.04010    0.04870    9.62140   -0.00730    2.62760   72.00100  -11.19250   15.84750   -9999.25   16.45080   21.77440
 9630.50000   -9999.25   -9999.25    0.04340    0.04990    9.61650   -0.00780    2.62370   70.48120  -11.01200   15.87270   -9999.25   16.15730   21.61220
 9631.00000   -9999.25   -9999.25    0.05180    0.05380    9.62240   -0.00810    2.61430   68.95610  -10.81410   15.64340   -9999.25   15.79750   20.07450
 9631.50000   -9999.25   -9999.25    0.05590    0.05780    9.66910   -0.00810    2.60880   67.08840  -11.29490   15.39560   -9999.25   15.51120   18.43440
 9632.00000   -9999.25   -9999.25    0.05880    0.05980    9.69710   -0.00500    2.61040   65.32620  -11.56330   15.12760   -9999.25   15.23880   17.51350
 9632.50000   -9999.25   -9999.25    0.06010    0.05810    9.72520   -0.00280    2.61210   65.92620  -11.72580   14.87660   -9999.25   14.98600   17.10460
 9633.00000   -9999.25   -9999.25    0.06140    0.05720    9.73400   -0.00280    2.61180   69.77940  -11.73530   14.53460   -9999.25   14.64790   16.86660
 9633.50000   -9999.25   -9999.25    0.06530    0.05730    9.72890   -0.00320    2.61150   75.95920  -11.74470   14.19060   -9999.25   14.30130   16.49130
 9634.00000   -9999.25   -9999.25    0.06720    0.05710    9.73450   -0.00610    2.61240   80.65970  -11.79520   13.98700   -9999.25   14.08530   16.08600
 9634.50000   -9999.25   -9999.25    0.07020    0.05660    9.73580   -0.00890    2.61430   80.78970  -11.94270   14.01360   -9999.25   14.11070   15.91560
 9635.00000   -9999.25   -9999.25    0.07080    0.05530    9.74580   -0.01100    2.61650   79.04820  -11.85190   13.90270   -9999.25   14.00020   16.10730
 9635.50000   -9999.25   -9999.25    0.07190    0.05390    9.76750   -0.01290    2.61790   79.18950  -11.75970   13.83420   -9999.25   13.92990   16.44470
 9636.00000   -9999.25   -9999.25    0.07350    0.05370    9.78910   -0.01420    2.61790   82.93120  -11.52260   13.67680   -9999.25   13.77140   16.57510
 9636.50000   -9999.25   -9999.25    0.08110    0.05420    9.81080   -0.01520    2.61650   87.86950  -11.26850   13.63860   -9999.25   13.73290   16.34560
 9637.00000   -9999.25   -9999.25    0.08060    0.05640    9.83270   -0.01610    2.61390   88.01790  -10.78530   13.57380   -9999.25   13.66820   15.90720
 9637.50000   -9999.25   -9999.25    0.08020    0.05660    9.85490   -0.01550    2.61350   83.38300  -10.36100   13.51150   -9999.25   13.60500   15.56860
 9638.00000   -9999.25   -9999.25    0.07980    0.05600    9.87700   -0.01540    2.61480   78.71090  -10.00810   13.42110   -9999.25   13.51640   15.48740
 9638.50000   -9999.25   -9999.25    0.08000    0.05500    9.89910   -0.01540    2.61680   77.50940   -9.82650   13.31460   -9999.25   13.40730   15.45630
 9639.00000   -9999.25   -9999.25    0.08100    0.05460    9.92130   -0.01550    2.61600   76.87360   -9.64500   13.20480   -9999.25   13.29900   15.32910
 9639.50000   -9999.25   -9999.25    0.08220    0.05450    9.94340   -0.01750    2.61270   76.77400   -9.46350   13.12690   -9999.25   13.21810   15.13330
 9640.00000   -9999.25   -9999.25    0.08320    0.05940    9.96390   -0.01830    2.60670   77.22610   -9.28200   13.25830   -9999.25   13.35360   14.83360
 9640.50000   -9999.25   -9999.25    0.08140    0.06330    9.96400   -0.01830    2.60280   77.62140   -9.10050   13.39450   -9999.25   13.48790   14.96690
 9641.00000   -9999.25   -9999.25    0.07530    0.06260    9.96410   -0.01830    2.60350   77.18130   -8.91900   13.46100   -9999.25   13.55400   15.49200
 9641.50000   -9999.25   -9999.25    0.06890    0.05990    9.96420   -0.01800    2.60750   76.07220   -8.73750   13.43720   -9999.25   13.53030   16.24650
 9642.00000   -9999.25   -9999.25    0.06930    0.05770    9.96430   -0.01740    2.61110   75.50150   -8.55590   13.42170   -9999.25   13.51440   16.56900
 9642.50000   -9999.25   -9999.25    0.07530    0.05670    9.96440   -0.01740    2.61340   75.00370   -8.37440   13.47960   -9999.25   13.57360   16.14350
 9643.00000   -9999.25   -9999.25    0.08120    0.05630    9.96450   -0.01750    2.61360   74.40480   -8.25050   13.63260   -9999.25   13.72810   15.65380
 9643.50000   -9999.25   -9999.25    0.08300    0.05600    9.96460   -0.01780    2.61420   73.50720   -8.39620   13.65880   -9999.25   13.75320   15.58620
