~Version ---------------------------------------------------
VERS.   2.0 : CWLS log ASCII Standard -VERSION 2.0
WRAP.    NO : One line per depth step
DLM . SPACE : Column Data Section Delimiter
~Well ------------------------------------------------------
STRT .F                 1480.0 : START DEPTH
STOP .F                12502.0 : STOP DEPTH
STEP .F                    0.5 : STEP
NULL .                -9999.25 : NULL VALUE
COMP .                         : COMPANY
WELL .                         : WELL
FLD  .                         : FIELD
LOC  .                         : LOCATION
PROV .                         : PROVINCE
CNTY .                         : COUNTY
STAT .                         : STATE
CTRY .                         : COUNTRY
SRVC .                         : SERVICE COMPANY
DATE .                         : DATE
UWI  .                         : UNIQUE WELL ID
API  .                         : API NUMBER
SLAT .WGS84  5.818274946736999 : SURFACE LATITUDE
SLON .WGS84 3.1476536495485874 : SURFACE LONGITUDE
DATUM.F                    nan : DEPTH DATUM ELEV
~Curve Information -----------------------------------------
DEPT   .F     : 
DTCO   .US/F  : DELTA-T COMPRESSIONAL
DTSM   .US/F  : DELTA-T SHEAR
NPHI_LS.DEC   : NEUTRON POROSITY LIMESTONE
DPHI_LS.DEC   : DENSITY POROSITY LIMESTONE
CALD   .IN    : CALIPER FROM DENSITY LOG
DRHO   .G/C3  : BULK DENSITY CORRECTION
RHOB   .G/C3  : BULK DENSITY
GRR    .GAPI  : GAMMA RAY FROM RESISTIVITY LOG
SPR    .MV    : SPONTANEOUS POTENTIAL FROM RESISTIVITY LOG
ILD    .OHMM  : INDUCTION DEEP RESISTIVITY
CILD   .MMHO  : INDUCTION DEEP CONDUCTIVITY
ILM    .OHMM  : INDUCTION MEDIUM RESISTIVITY
SFLU   .OHMM  : SHALLOW FOCUSED RESISTIVITY (UNAVERAGED)
~Params ----------------------------------------------------
~Other -----------------------------------------------------
~ASCII -----------------------------------------------------
# ...
 9384.00000   -9999.25   -9999.25    0.10550    0.07260    8.97170   -0.01210    2.58320   67.86160  -10.15650   17.17410   -9999.25   14.81360   34.37000
 9384.50000   -9999.25   -9999.25    0.14750    0.07900    9.03050   -0.01030    2.57500   88.75880   -9.24140   15.18060   -9999.25   12.47110   19.99230
 9385.00000   -9999.25   -9999.25    0.15840    0.07340    9.10840   -0.01000    2.58120  102.53230   -8.32630   13.53440   -9999.25   12.10740   13.10590
 9385.50000   -9999.25   -9999.25    0.15720    0.06000    9.18910   -0.00860    2.60300  111.46250   -8.45260   12.13460   -9999.25   11.62880   12.55040
 9386.00000   -9999.25   -9999.25    0.15230    0.04830    9.23210   -0.00730    2.62890  116.40620   -9.05220   11.00000   -9999.25   10.87870   12.78320
 9386.50000   -9999.25   -9999.25    0.14750    0.03720    9.27180   -0.00600    2.64450  120.35650   -9.59630   10.11330   -9999.25    9.96570   13.17990
 9387.00000   -9999.25   -9999.25    0.15020    0.03790    9.31520   -0.00460    2.64510  119.99350   -9.88650    9.71730   -9999.25    9.73070   13.13890
 9387.50000   -9999.25   -9999.25    0.15050    0.04000    9.33840   -0.00240    2.64100  117.74080  -10.17670    9.71850   -9999.25    9.74990   12.83850
 9388.00000   -9999.25   -9999.25    0.14900    0.03960    9.30500    0.00020    2.64410  115.93470  -10.47250    9.90160   -9999.25    9.97130   12.90170
 9388.50000   -9999.25   -9999.25    0.14740    0.03110    9.25790   -0.00020    2.65470  111.73800  -10.99870   10.09140   -9999.25   10.16440   13.21530
 9389.00000   -9999.25   -9999.25    0.14160    0.02660    9.21430   -0.00390    2.66320  105.47150  -11.52480   10.26410   -9999.25   10.26610   13.50380
 9389.50000   -9999.25   -9999.25    0.13860    0.02690    9.18190   -0.00680    2.66490  101.06640  -11.62290   10.45490   -9999.25   10.35040   13.60010
 9390.00000   -9999.25   -9999.25    0.12930    0.02900    9.17830   -0.00930    2.66240   99.27430  -11.75030   11.04820   -9999.25   10.62190   13.81190
 9390.50000   -9999.25   -9999.25    0.12010    0.02920    9.19260   -0.01070    2.66080   95.90440  -11.90790   11.72860   -9999.25   11.18160   14.43390
 9391.00000   -9999.25   -9999.25    0.11030    0.02910    9.20240   -0.00850    2.66070   86.87340  -12.09360   12.38030   -9999.25   11.77090   15.90700
 9391.50000   -9999.25   -9999.25    0.09780    0.03010    9.24940   -0.00570    2.65950   76.46800  -10.91750   13.12590   -9999.25   12.39120   18.15550
 9392.00000   -9999.25   -9999.25    0.09210    0.03230    9.27790   -0.00200    2.65610   73.78870  -10.17590   13.95710   -9999.25   13.04420   20.74070
 9392.50000   -9999.25   -9999.25    0.08910    0.03530    9.28530    0.00160    2.65190   77.71800   -9.79850   14.57560   -9999.25   13.73170   22.46680
 9393.00000   -9999.25   -9999.25    0.09290    0.03810    9.28440    0.00530    2.64620   82.82800   -9.59160   14.95890   -9999.25   14.45530   22.30120
 9393.50000   -9999.25   -9999.25    0.09570    0.03750    9.28050    0.00750    2.64360   84.86590   -8.79010   15.03980   -9999.25   15.21710   21.56640
 9394.00000   -9999.25   -9999.25    0.09000    0.03540    9.28550    0.00710    2.64660   81.08000   -8.30280   15.04610   -9999.25   16.01910   21.62680
 9394.50000   -9999.25   -9999.25    0.08430    0.03150    9.29050    0.00670    2.65410   76.40340   -7.96700   15.05250   -9999.25   16.57920   22.62890
 9395.00000   -9999.25   -9999.25    0.08690    0.03040    9.30210    0.00080    2.65770   75.33220   -7.61490   15.05880   -9999.25   16.06560   23.07300
 9395.50000   -9999.25   -9999.25    0.09500    0.03260    9.31900   -0.00310    2.65650   75.93340   -7.32700   15.05510   -9999.25   15.58230   22.20620
 9396.00000   -9999.25   -9999.25    0.10980    0.03650    9.31790   -0.00530    2.65010   76.02010   -7.17820   15.08500   -9999.25   15.43120   20.34880
 9396.50000   -9999.25   -9999.25    0.11300    0.03900    9.34380   -0.00760    2.64270   74.55150   -6.96360   15.29830   -9999.25   15.52800   19.00060
 9397.00000   -9999.25   -9999.25    0.10250    0.03680    9.37710   -0.00990    2.64470   72.51520   -6.87880   15.40740   -9999.25   16.12630   19.16300
 9397.50000   -9999.25   -9999.25    0.07800    0.02690    9.40460   -0.01060    2.65680   70.77770   -6.85450   15.34890   -9999.25   16.96100   21.27860
 9398.00000   -9999.25   -9999.25    0.06640    0.01920    9.42620   -0.00990    2.67140   69.92820   -6.88940   14.69730   -9999.25   17.20290   25.16470
 9398.50000   -9999.25   -9999.25    0.07430    0.01150    9.44780   -0.00930    2.68370   71.38090   -7.09340   13.66560   -9999.25   16.36330   28.24150
 9399.00000   -9999.25   -9999.25    0.09130    0.01380    9.46940   -0.00860    2.68940   78.04840   -6.91460   12.88130   -9999.25   14.54880   26.55640
 9399.50000   -9999.25   -9999.25    0.12120    0.02120    9.49100   -0.00790    2.67870   87.43080   -6.89680   12.19180   -9999.25   12.93550   20.47890
 9400.00000   -9999.25   -9999.25    0.14820    0.03410    9.49810   -0.00690    2.65480   96.91420   -6.75570   11.09060   -9999.25   11.50110   14.83080
 9400.50000   -9999.25   -9999.25    0.16700    0.05030    9.50360   -0.00340    2.62400  103.00820   -6.50560   10.22310   -9999.25   10.34990   11.80900
 9401.00000   -9999.25   -9999.25    0.17140    0.05440    9.50910    0.00090    2.61750  108.40890   -6.25560    9.33850   -9999.25    9.48740   10.86460
 9401.50000   -9999.25   -9999.25    0.17500    0.05390    9.53530    0.00750    2.61770  113.78860   -6.00550    8.75680   -9999.25    8.85950   10.59940
 9402.00000   -9999.25   -9999.25    0.17850    0.05160    9.56860    0.01270    2.62130  119.10140   -5.75550    8.21530   -9999.25    8.28770   10.50500
 9402.50000   -9999.25   -9999.25    0.18200    0.05120    9.59120    0.01550    2.62200  122.31160   -5.50540    7.92030   -9999.25    7.99020   10.44440
 9403.00000   -9999.25   -9999.25    0.18500    0.05360    9.59080    0.01430    2.61970  116.29800   -5.25540    7.72400   -9999.25    7.78160   10.35160
 9403.50000   -9999.25   -9999.25    0.18820    0.05320    9.59030    0.01020    2.61950  108.16680   -5.24190    7.66140   -9999.25    7.71450   10.25530
 9404.00000   -9999.25   -9999.25    0.18670    0.04860    9.61650    0.00600    2.62630  103.71550   -5.29160    7.63100   -9999.25    7.68370   10.16150
 9404.50000   -9999.25   -9999.25    0.18500    0.04420    9.65970    0.00190    2.63490  107.22350   -5.34130    7.64030   -9999.25    7.69320   10.06280
 9405.00000   -9999.25   -9999.25    0.18220    0.04230    9.69870   -0.00220    2.63820  112.11220   -5.39110    7.66380   -9999.25    7.71690    9.96510
 9405.50000   -9999.25   -9999.25    0.18290    0.04430    9.70670   -0.00540    2.63480  112.53110   -5.63100    7.67070   -9999.25    7.72900    9.86830
 9406.00000   -9999.25   -9999.25    0.18360    0.04870    9.71460   -0.00640    2.62770  110.00240   -5.76400    7.59860   -9999.25    7.65110    9.78040
 9406.50000   -9999.25   -9999.25    0.18300    0.04960    9.72170   -0.00690    2.62510  106.06480   -5.88770    7.65160   -9999.25    7.70800    9.71150
 9407.00000   -9999.25   -9999.25    0.17960    0.04530    9.72230   -0.00750    2.63210  104.29840   -6.15720    7.78470   -9999.25    7.84200    9.69590
 9407.50000   -9999.25   -9999.25    0.17590    0.04140    9.72280   -0.00810    2.64150  102.79690   -6.43030    7.91830   -9999.25    7.96860    9.69000
 9408.00000   -9999.25   -9999.25    0.17240    0.04130    9.72340   -0.00880    2.64390  100.09340   -6.70340    7.96690   -9999.25    8.08630    9.86120
 9408.50000   -9999.25   -9999.25    0.16930    0.04120    9.72490   -0.00940    2.64100   94.67340   -6.97650    8.01590   -9999.25    8.20580   10.07940
 9409.00000   -9999.25   -9999.25    0.16900    0.04410    9.72970   -0.01000    2.63490   92.20110   -7.24960    8.06520   -9999.25    8.32700   10.53920
 9409.50000   -9999.25   -9999.25    0.16980    0.04710    9.73210   -0.00480    2.63090   96.48190   -7.52270    8.11470   -9999.25    8.45000   10.85800
