~Version ---------------------------------------------------
VERS.   2.0 : CWLS log ASCII Standard -VERSION 2.0
WRAP.    NO : One line per depth step
DLM . SPACE : Column Data Section Delimiter
~Well ------------------------------------------------------
STRT .F                 1480.0 : START DEPTH
STOP .F                12502.0 : STOP DEPTH
STEP .F                    0.5 : STEP
NULL .                -9999.25 : NULL VALUE
COMP .                         : COMPANY
WELL .                         : WELL
FLD  .                         : FIELD
LOC  .                         : LOCATION
PROV .                         : PROVINCE
CNTY .                         : COUNTY
STAT .                         : STATE
CTRY .                         : COUNTRY
SRVC .                         : SERVICE COMPANY
DATE .                         : DATE
UWI  .                         : UNIQUE WELL ID
API  .                         : API NUMBER
SLAT .WGS84  5.818274946736999 : SURFACE LATITUDE
SLON .WGS84 3.1476536495485874 : SURFACE LONGITUDE
DATUM.F                    nan : DEPTH DATUM ELEV
~Curve Information -----------------------------------------
DEPT   .F     : 
DTCO   .US/F  : DELTA-T COMPRESSIONAL
DTSM   .US/F  : DELTA-T SHEAR
NPHI_LS.DEC   : NEUTRON POROSITY LIMESTONE
DPHI_LS.DEC   : DENSITY POROSITY LIMESTONE
CALD   .IN    : CALIPER FROM DENSITY LOG
DRHO   .G/C3  : BULK DENSITY CORRECTION
RHOB   .G/C3  : BULK DENSITY
GRR    .GAPI  : GAMMA RAY FROM RESISTIVITY LOG
SPR    .MV    : SPONTANEOUS POTENTIAL FROM RESISTIVITY LOG
ILD    .OHMM  : INDUCTION DEEP RESISTIVITY
CILD   .MMHO  : INDUCTION DEEP CONDUCTIVITY
ILM    .OHMM  : INDUCTION MEDIUM RESISTIVITY
SFLU   .OHMM  : SHALLOW FOCUSED RESISTIVITY (UNAVERAGED)
~Params ----------------------------------------------------
~Other -----------------------------------------------------
~ASCII -----------------------------------------------------
# ...
 9176.00000   -9999.25   -9999.25   -9999.25   -9999.25   -9999.25   -9999.25   -9999.25  119.88900   -6.63680    6.86670   -9999.25    7.27150    9.92940
 9176.50000   -9999.25   -9999.25   -9999.25   -9999.25   -9999.25   -9999.25   -9999.25  116.74730   -6.99280    6.80030   -9999.25    6.96630    9.25590
 9177.00000   -9999.25   -9999.25   -9999.25   -9999.25   -9999.25   -9999.25   -9999.25  114.44960   -7.36070    6.73460   -9999.25    6.81240    8.58380
 9177.50000   -9999.25   -9999.25   -9999.25   -9999.25   -9999.25   -9999.25   -9999.25  113.27650   -7.66600    6.66950   -9999.25    6.73560    8.44260
 9178.00000   -9999.25   -9999.25   -9999.25   -9999.25   -9999.25   -9999.25   -9999.25  112.97890   -7.97130    6.61250   -9999.25    6.70050    8.30370
 9178.50000   -9999.25   -9999.25   -9999.25   -9999.25   -9999.25   -9999.25   -9999.25  113.40230   -8.27660    6.57140   -9999.25    6.73460    8.16710
 9179.00000   -9999.25   -9999.25   -9999.25   -9999.25   -9999.25   -9999.25   -9999.25  116.66360   -8.58180    6.53470   -9999.25    6.84510    8.17800
 9179.50000   -9999.25   -9999.25    0.28080    0.08500    9.71600    0.18860    2.56100  121.60340   -8.86300    6.49820   -9999.25    7.02110    8.39820
 9180.00000   -9999.25   -9999.25    0.28080    0.08500    9.71600    0.18860    2.56100  123.40990   -8.83470    6.53630   -9999.25    7.22980    8.67700
 9180.50000   -9999.25   -9999.25    0.25810    0.07480    9.57850    0.17910    2.58020  123.34140   -8.82230    6.58250   -9999.25    7.24420    8.89030
 9181.00000   -9999.25   -9999.25    0.25560    0.06870    9.44270    0.16970    2.59270  123.11100   -8.82030    6.63160   -9999.25    7.14440    9.19610
 9181.50000   -9999.25   -9999.25    0.28130    0.09640    9.41610    0.16030    2.55200  122.75680   -8.81830    6.67870   -9999.25    7.05510    9.38530
 9182.00000   -9999.25   -9999.25    0.30650    0.12380    9.51460    0.14920    2.49980  120.54490   -8.73190    6.72580   -9999.25    7.03610    9.36750
 9182.50000   -9999.25   -9999.25    0.31750    0.14670    9.56180    0.13940    2.45640  117.44340   -8.32610    6.84440   -9999.25    7.14110    9.07660
 9183.00000   -9999.25   -9999.25    0.29450    0.14390    9.51900    0.13000    2.47430  115.38340   -7.82580    6.98150   -9999.25    7.16370    8.81790
 9183.50000   -9999.25   -9999.25    0.27150    0.11600    9.37650    0.12440    2.52270  118.57610   -7.65730    7.06950   -9999.25    7.82180    8.78400
 9184.00000   -9999.25   -9999.25    0.26900    0.08210    9.23390    0.11020    2.57760  118.43080   -7.48880    7.11900   -9999.25    8.48210    9.09360
 9184.50000   -9999.25   -9999.25    0.27080    0.05700    9.11210    0.09540    2.61350  114.70720   -7.32040    7.24880   -9999.25    8.28320    9.85460
 9185.00000   -9999.25   -9999.25    0.27120    0.05910    9.06930    0.08170    2.60740  110.90490   -7.15190    7.43250   -9999.25    8.12440   10.41720
 9185.50000   -9999.25   -9999.25    0.26550    0.07050    9.02060    0.06320    2.58780  110.88600   -6.98340    7.60410   -9999.25    8.18440   10.75790
 9186.00000   -9999.25   -9999.25    0.25540    0.07410    9.07470    0.04770    2.58340  115.87180   -6.85940    7.75770   -9999.25    8.39840   10.92110
 9186.50000   -9999.25   -9999.25    0.24970    0.05490    9.16680    0.05350    2.61000  119.88880   -6.75380    7.87930   -9999.25    8.39970   11.04380
 9187.00000   -9999.25   -9999.25    0.25770    0.04020    9.20700    0.05830    2.64170  121.45530   -6.71400    7.97280   -9999.25    8.23210   11.05280
 9187.50000   -9999.25   -9999.25    0.26810    0.03880    9.22880    0.05900    2.64640  122.32700   -6.84230    7.87750   -9999.25    8.06770   10.91260
 9188.00000   -9999.25   -9999.25    0.27610    0.04150    9.21180    0.05980    2.64190  122.41760   -7.11710    7.78400   -9999.25    7.94550   10.50690
 9188.50000   -9999.25   -9999.25    0.28230    0.03940    9.28960    0.07170    2.64470  120.87000   -7.39350    7.69230   -9999.25    7.91580   10.22200
 9189.00000   -9999.25   -9999.25    0.27970    0.03630    9.28950    0.08880    2.64920  118.32120   -7.72020    7.60170   -9999.25    7.87870   10.02620
 9189.50000   -9999.25   -9999.25    0.27420    0.03650    9.24900    0.10570    2.64910  118.18840   -7.96330    7.51210   -9999.25    7.89770    9.92090
 9190.00000   -9999.25   -9999.25    0.26780    0.04250    9.23150    0.11320    2.63780  125.66470   -8.29200    7.42360   -9999.25    7.97140    9.93990
 9190.50000   -9999.25   -9999.25    0.26630    0.04290    9.20770    0.11330    2.63350  136.71000   -8.64640    7.33610   -9999.25    8.02670    9.98780
 9191.00000   -9999.25   -9999.25    0.27160    0.04610    9.19270    0.10990    2.63420  139.63380   -8.90730    7.24970   -9999.25    7.83640   10.03590
 9191.50000   -9999.25   -9999.25    0.27830    0.06120    9.16980    0.10830    2.61800  132.60840   -8.86160    7.15280   -9999.25    7.56740   10.08430
 9192.00000   -9999.25   -9999.25    0.28510    0.08730    9.19630    0.11250    2.58040  125.69890   -8.60510    7.04670   -9999.25    7.30190   10.01320
 9192.50000   -9999.25   -9999.25    0.29020    0.11330    9.29770    0.12880    2.53420  122.78560   -8.14830    6.94220   -9999.25    7.06750    9.62330
 9193.00000   -9999.25   -9999.25    0.29500    0.12150    9.39910    0.15540    2.51700  124.34400   -7.84520    6.83930   -9999.25    6.92650    9.20630
 9193.50000   -9999.25   -9999.25    0.29940    0.12480    9.41260    0.18210    2.49980  125.22400   -7.54290    6.73790   -9999.25    6.84670    8.73710
 9194.00000   -9999.25   -9999.25    0.30380    0.12650    9.34300    0.20510    2.49280  125.52200   -7.24110    6.63800   -9999.25    6.77330    8.34750
 9194.50000   -9999.25   -9999.25    0.30490    0.11530    9.27340    0.21030    2.50620  127.00930   -7.02000    6.53960   -9999.25    6.69390    8.21500
 9195.00000   -9999.25   -9999.25    0.29850    0.09150    9.20820    0.21200    2.53740  128.82930   -6.79880    6.44260   -9999.25    6.60770    8.33420
 9195.50000   -9999.25   -9999.25    0.29210    0.08270    9.24800    0.20980    2.56980  130.04450   -6.59950    6.39610   -9999.25    6.54960    8.37090
 9196.00000   -9999.25   -9999.25    0.28630    0.08120    9.33720    0.20610    2.57190  130.23070   -6.64680    6.43560   -9999.25    6.58260    8.41800
 9196.50000   -9999.25   -9999.25    0.29430    0.07740    9.28710    0.20160    2.57340  129.67640   -6.75350    6.47540   -9999.25    6.68260    8.42250
 9197.00000   -9999.25   -9999.25    0.30230    0.07380    9.22490    0.19500    2.58410  129.41740   -6.75180    6.51540   -9999.25    6.84140    8.47950
 9197.50000   -9999.25   -9999.25    0.30490    0.08210    9.14160    0.18810    2.57440  128.41860   -6.85270    6.55560   -9999.25    7.00410    8.58470
 9198.00000   -9999.25   -9999.25    0.30570    0.08930    9.05870    0.18080    2.56030  126.68510   -7.21690    6.59610   -9999.25    7.01150    8.72550
 9198.50000   -9999.25   -9999.25    0.29280    0.08860    9.05850    0.17330    2.56080  126.16920   -7.49150    6.63960   -9999.25    6.98480    8.93160
 9199.00000   -9999.25   -9999.25    0.28040    0.07960    9.07650    0.16870    2.57500  127.07560   -7.81760    6.65290   -9999.25    6.96320    9.14060
 9199.50000   -9999.25   -9999.25    0.27980    0.07230    9.09440    0.16530    2.58910  129.76940   -8.19680    6.65430   -9999.25    6.96320    9.31390
 9200.00000   -9999.25   -9999.25    0.28150    0.07120    9.10000    0.16360    2.59440  132.06500   -8.39400    6.65570   -9999.25    6.90330    9.14550
 9200.50000   -9999.25   -9999.25    0.28770    0.08050    9.09740    0.16370    2.57480  130.90270   -8.53060    6.65700   -9999.25    6.80880    8.96530
 9201.00000   -9999.25   -9999.25    0.29410    0.09230    9.10610    0.17490    2.54500  125.04800   -8.64530    6.65840   -9999.25    6.83470    8.77090
 9201.50000   -9999.25   -9999.25    0.29980    0.10060    9.11860    0.18800    2.54020  119.20550   -8.48740    6.68400   -9999.25    6.96670    8.58260
