~Version ---------------------------------------------------
VERS.   2.0 : CWLS log ASCII Standard -VERSION 2.0
WRAP.    NO : One line per depth step
DLM . SPACE : Column Data Section Delimiter
~Well ------------------------------------------------------
STRT .F                 1480.0 : START DEPTH
STOP .F                12502.0 : STOP DEPTH
STEP .F                    0.5 : STEP
NULL .                -9999.25 : NULL VALUE
COMP .                         : COMPANY
WELL .                         : WELL
FLD  .                         : FIELD
LOC  .                         : LOCATION
PROV .                         : PROVINCE
CNTY .                         : COUNTY
STAT .                         : STATE
CTRY .                         : COUNTRY
SRVC .                         : SERVICE COMPANY
DATE .                         : DATE
UWI  .                         : UNIQUE WELL ID
API  .                         : API NUMBER
SLAT .WGS84  5.818274946736999 : SURFACE LATITUDE
SLON .WGS84 3.1476536495485874 : SURFACE LONGITUDE
DATUM.F                    nan : DEPTH DATUM ELEV
~Curve Information -----------------------------------------
DEPT   .F     : 
DTCO   .US/F  : DELTA-T COMPRESSIONAL
DTSM   .US/F  : DELTA-T SHEAR
NPHI_LS.DEC   : NEUTRON POROSITY LIMESTONE
DPHI_LS.DEC   : DENSITY POROSITY LIMESTONE
CALD   .IN    : CALIPER FROM DENSITY LOG
DRHO   .G/C3  : BULK DENSITY CORRECTION
RHOB   .G/C3  : BULK DENSITY
GRR    .GAPI  : GAMMA RAY FROM RESISTIVITY LOG
SPR    .MV    : SPONTANEOUS POTENTIAL FROM RESISTIVITY LOG
ILD    .OHMM  : INDUCTION DEEP RESISTIVITY
CILD   .MMHO  : INDUCTION DEEP CONDUCTIVITY
ILM    .OHMM  : INDUCTION MEDIUM RESISTIVITY
SFLU   .OHMM  : SHALLOW FOCUSED RESISTIVITY (UNAVERAGED)
~Params ----------------------------------------------------
~Other -----------------------------------------------------
~ASCII -----------------------------------------------------
# ...
 11386.00000   83.84690  182.93960    0.29290    0.07830    8.75560    0.00770    2.57540  102.28380   -0.87710    3.28540   -9999.25    3.40930    4.43860
 11386.50000   84.14290  182.93670    0.29500    0.07750    8.76660    0.01100    2.57890  108.77800   -0.87090    3.28280   -9999.25    3.40310    4.39380
 11387.00000   85.32250  182.93370    0.29640    0.07690    8.76800    0.01250    2.57940  116.45300   -0.86470    3.28020   -9999.25    3.39690    4.34910
 11387.50000   86.50220  182.93080    0.29730    0.07510    8.75910    0.01320    2.58270  119.36750   -0.85860    3.27750   -9999.25    3.39070    4.31610
 11388.00000   86.50370  182.92780    0.29770    0.06930    8.74950    0.01680    2.59120  120.34760   -0.85240    3.27490   -9999.25    3.38450    4.30210
 11388.50000   86.08280  182.92490    0.29810    0.06440    8.73990    0.02050    2.60040  121.19880   -0.84620    3.27230   -9999.25    3.37830    4.28300
 11389.00000   83.62380  182.92190    0.29830    0.06090    8.73030    0.02690    2.60690  122.88150   -0.84000    3.27210   -9999.25    3.37220    4.28000
 11389.50000   82.38420  182.91900    0.29760    0.06160    8.70870    0.03760    2.60620  122.83020   -0.83390    3.27290   -9999.25    3.37240    4.33200
 11390.00000   83.44620  182.91550    0.29640    0.06600    8.67950    0.04420    2.59780  118.54810   -0.82770    3.27970   -9999.25    3.37690    4.41120
 11390.50000   84.36200  183.20770    0.29920    0.07230    8.65090    0.04980    2.58300  117.40730   -0.82150    3.28740   -9999.25    3.38450    4.43250
 11391.00000   84.74520  183.20430    0.29730    0.07530    8.65770    0.05530    2.58330  119.03350   -0.81460    3.29510   -9999.25    3.39210    4.37700
 11391.50000   84.02390  183.20150    0.29800    0.07350    8.69470    0.05470    2.58650  122.07130   -0.80460    3.30270   -9999.25    3.40420    4.32110
 11392.00000   82.68160  183.19860    0.29980    0.07100    8.69230    0.05080    2.59060  122.56280   -0.79460    3.31040   -9999.25    3.43220    4.32520
 11392.50000   81.47550  180.54480    0.29970    0.06890    8.67160    0.04680    2.59280  116.43190   -0.78460    3.31820   -9999.25    3.45260    4.37590
 11393.00000   81.80590  178.18550    0.29480    0.06880    8.70960    0.04820    2.59350  108.63640   -0.77460    3.34310   -9999.25    3.46510    4.43920
 11393.50000   82.69100  179.36080    0.29150    0.07180    8.69980    0.05240    2.58490  106.73960   -0.76460    3.38350   -9999.25    3.48930    4.50350
 11394.00000   82.98700  180.55020    0.29160    0.08010    8.68610    0.05600    2.57220  108.39270   -0.75460    3.41650   -9999.25    3.52960    4.57190
 11394.50000   82.69380  180.09130    0.29290    0.08500    8.66940    0.05950    2.56500  115.94180   -0.74460    3.44230   -9999.25    3.55430    4.61130
 11395.00000   82.10620  176.68920    0.29270    0.08210    8.62510    0.07190    2.57170  123.19080   -0.73460    3.44300   -9999.25    3.56770    4.60500
 11395.50000   81.51850  172.27750    0.29070    0.08130    8.57370    0.07990    2.57330  129.03270   -0.80880    3.44380   -9999.25    3.58030    4.54570
 11396.00000   80.93080  167.11340    0.28450    0.08160    8.56330    0.08460    2.57350  125.87290   -1.16430    3.44460   -9999.25    3.59240    4.55750
 11396.50000   81.22680  166.67790    0.27510    0.08200    8.60440    0.08890    2.57350  119.18600   -1.51980    3.44540   -9999.25    3.59960    4.67140
 11397.00000   82.72220  170.94610    0.27140    0.07200    8.62440    0.09390    2.59220  111.75720   -1.87530    3.46250   -9999.25    3.60040    4.86930
 11397.50000   84.49220  175.70600    0.27930    0.05720    8.63190    0.09880    2.61130  108.68920   -2.04720    3.48940   -9999.25    3.62340    4.91440
 11398.00000   83.75760  175.78200    0.29110    0.05810    8.64610    0.10310    2.60880  108.38420   -2.04260    3.51410   -9999.25    3.65180    4.91410
 11398.50000   81.30360  169.71250    0.29580    0.06690    8.66360    0.09660    2.59550  108.19940   -2.03810    3.58960   -9999.25    3.70310    4.91380
 11399.00000   80.13430  163.60410    0.30060    0.07300    8.68120    0.08990    2.57970  109.41400   -2.03760    3.77240   -9999.25    3.79030    4.75810
 11399.50000   77.06530  159.59000    0.30990    0.07900    8.69190    0.08130    2.57660  114.35240   -2.03780    4.00820   -9999.25    4.06680    4.54340
 11400.00000   78.00060  185.21310    0.25480    0.08150    8.72330    0.07270    2.57240  107.07820   -2.03800    4.37410   -9999.25    4.52370    4.54130
 11400.50000   90.58650  189.03940    0.14360    0.08210    8.74950    0.06270    2.56870   98.98100   -2.03810    4.78350   -9999.25    5.57870    5.15940
 11401.00000  101.48570  188.15280    0.10970    0.08180    8.73420    0.03390    2.57230   80.04160   -1.85700    5.70900   -9999.25    6.87970    7.64680
 11401.50000  103.75790  186.97180    0.07570    0.06250    8.73230    0.01320    2.60260   57.86800   -1.26230    7.75000   -9999.25    8.48410   20.44140
 11402.00000  102.44950  186.67430    0.04440    0.03780    8.73040   -0.00310    2.63920   44.66890   -0.66760   10.52070   -9999.25   10.46270  113.99920
 11402.50000   98.70130  186.67150    0.00530    0.01320    8.74480   -0.01590    2.67530   38.91890   -0.07290   14.28200   -9999.25   15.14100  425.15960
 11403.00000   95.98920  186.96320    0.00220    0.00210    8.79200   -0.02330    2.69740   38.20600    0.37060   18.63870   -9999.25   22.31080  828.44500
 11403.50000   94.49190  187.25480    0.00440    0.00060    8.81670   -0.02500    2.70300   39.46510    0.80110   23.81020   -9999.25   32.87570 1080.73230
 11404.00000   95.67010  187.25180    0.00740    0.00040    8.83010   -0.02610    2.70600   42.82590    1.23150   30.35420   -9999.25   44.27870 1223.20940
 11404.50000   96.55380  187.24890    0.00980    0.00130    8.77720   -0.02640    2.70580   44.71980    1.68700   35.21290   -9999.25   54.12850 1362.20520
 11405.00000   96.62770  187.24590    0.01070    0.00350    8.70010   -0.02600    2.70500   44.50310    2.33680   36.19260   -9999.25   61.16170 1525.61840
 11405.50000   95.37550  188.10660    0.01030    0.00770    8.67020   -0.02440    2.70160   45.99450    2.42510   35.33770   -9999.25   58.70690 1509.49960
 11406.00000   94.49190  191.28360    0.00860    0.01360    8.64020   -0.02110    2.69520   48.50840    1.93200   34.13830   -9999.25   54.41190 1090.54100
 11406.50000   94.49190  193.03310    0.00760    0.01950    8.61220   -0.01730    2.67910   54.29720    1.44860   33.04260   -9999.25   49.02060  522.40410
 11407.00000   95.08100  193.71480    0.00860    0.02540    8.61360   -0.01350    2.66180   56.87900    0.98460   31.85450   -9999.25   44.14530  171.91170
 11407.50000   95.96470  194.00590    0.01110    0.03130    8.61500   -0.01020    2.64870   56.80010    0.52060   30.50430   -9999.25   39.85920  105.57630
 11408.00000   98.02650  194.14850    0.01530    0.03720    8.63870   -0.00730    2.64820   57.04520    0.30970   26.67960   -9999.25   31.63080   78.01060
 11408.50000  104.80120  194.58910    0.01840    0.03540    8.68290   -0.00450    2.65240   57.98690    0.24270   22.87920   -9999.25   27.00570   64.44620
 11409.00000  103.79430  194.58560    0.01940    0.03330    8.72070   -0.00160    2.65660   57.10640    0.21320   18.69370   -9999.25   23.05700   59.41200
 11409.50000  103.75730  194.58270    0.01940    0.03130    8.71950    0.00130    2.65640   54.28430    0.68600   14.88490   -9999.25   18.65670   59.29950
 11410.00000  104.35940  194.57980    0.02090    0.03330    8.71720    0.00450    2.65670   53.75300    0.88600   12.01900   -9999.25   14.00050   55.19350
 11410.50000  114.83000  194.57700    0.03460    0.04150    8.71730    0.00700    2.63900   58.48810    0.85740    9.92850   -9999.25   10.50640   36.01620
 11411.00000  123.35790  194.57410    0.05680    0.04970    8.71750    0.00740    2.61680   63.36980    0.82490    8.36090   -9999.25   10.19200   19.27090
 11411.50000  121.00150  194.57120    0.08500    0.05800    8.71760    0.00720    2.60860   65.07530    0.99280    8.66900   -9999.25   10.79170   13.13810
