~Version ---------------------------------------------------
VERS.   2.0 : CWLS log ASCII Standard -VERSION 2.0
WRAP.    NO : One line per depth step
DLM . SPACE : Column Data Section Delimiter
~Well ------------------------------------------------------
STRT .F                 1480.0 : START DEPTH
STOP .F                12502.0 : STOP DEPTH
STEP .F                    0.5 : STEP
NULL .                -9999.25 : NULL VALUE
COMP .                         : COMPANY
WELL .                         : WELL
FLD  .                         : FIELD
LOC  .                         : LOCATION
PROV .                         : PROVINCE
CNTY .                         : COUNTY
STAT .                         : STATE
CTRY .                         : COUNTRY
SRVC .                         : SERVICE COMPANY
DATE .                         : DATE
UWI  .                         : UNIQUE WELL ID
API  .                         : API NUMBER
SLAT .WGS84  5.818274946736999 : SURFACE LATITUDE
SLON .WGS84 3.1476536495485874 : SURFACE LONGITUDE
DATUM.F                    nan : DEPTH DATUM ELEV
~Curve Information -----------------------------------------
DEPT   .F     : 
DTCO   .US/F  : DELTA-T COMPRESSIONAL
DTSM   .US/F  : DELTA-T SHEAR
NPHI_LS.DEC   : NEUTRON POROSITY LIMESTONE
DPHI_LS.DEC   : DENSITY POROSITY LIMESTONE
CALD   .IN    : CALIPER FROM DENSITY LOG
DRHO   .G/C3  : BULK DENSITY CORRECTION
RHOB   .G/C3  : BULK DENSITY
GRR    .GAPI  : GAMMA RAY FROM RESISTIVITY LOG
SPR    .MV    : SPONTANEOUS POTENTIAL FROM RESISTIVITY LOG
ILD    .OHMM  : INDUCTION DEEP RESISTIVITY
CILD   .MMHO  : INDUCTION DEEP CONDUCTIVITY
ILM    .OHMM  : INDUCTION MEDIUM RESISTIVITY
SFLU   .OHMM  : SHALLOW FOCUSED RESISTIVITY (UNAVERAGED)
~Params ----------------------------------------------------
~Other -----------------------------------------------------
~ASCII -----------------------------------------------------
# ...
 11594.00000   54.10350   98.34110    0.04280    0.00380    6.57420   -0.03290    2.70110   47.12470  -15.84650   14.30620   -9999.25   15.49960   68.94340
 11594.50000   52.33910   99.23870    0.09600    0.00300    6.57490   -0.03280    2.70470   41.13330  -15.71130   21.28230   -9999.25   23.49880   87.40160
 11595.00000   49.69100   99.15080    0.15690    0.00160    6.57960   -0.03700    2.70720   39.35200  -15.35350   29.60830   -9999.25   29.97750   82.64590
 11595.50000   47.04290   97.88780    0.20710    0.00410    6.58440   -0.04340    2.70310   39.07190  -14.98600   28.79620   -9999.25   27.34320   76.14920
 11596.00000   46.40210   95.90990    0.25040    0.03590    6.58910   -0.04980    2.65280   41.17940  -14.51620   17.28180   -9999.25   17.38580   69.69000
 11596.50000   53.82330  100.65940    0.26580    0.07750    6.59880   -0.05380    2.57270   48.14750  -14.07850   10.37150   -9999.25   11.05450   54.34730
 11597.00000   63.30370  111.80830    0.27220    0.12180    6.61570   -0.05080    2.51500   57.54850  -13.92820    6.39450   -9999.25    7.02890   28.13900
 11597.50000   69.28600  119.47250    0.27450    0.12650    6.67950   -0.03400    2.49430   65.11160  -12.58570    4.77760   -9999.25    4.46920    9.80220
 11598.00000   71.21040  115.30160    0.27470    0.12290    6.77750   -0.01730    2.49940   69.93940  -12.51620    4.04920   -9999.25    4.02450    4.50170
 11598.50000   68.55190  108.62770    0.27770    0.11920    6.87560   -0.00060    2.50440   72.28390  -12.50560    3.74470   -9999.25    3.73700    3.78810
 11599.00000   64.92800  100.48090    0.28320    0.12450    6.97040   -0.00120    2.49880   74.71670  -12.49500    3.45430   -9999.25    3.53550    3.62430
 11599.50000   61.67600   94.49310    0.28860    0.12700    7.05050   -0.00370    2.49420   77.21730  -12.48440    3.19440   -9999.25    3.42430    3.71250
 11600.00000   59.21760   90.36800    0.27790    0.12670    7.11980   -0.00430    2.49280   78.53440  -12.47380    3.05360   -9999.25    3.42040    4.10090
 11600.50000   57.84670   87.12650    0.25490    0.12680    7.12470   -0.00130    2.49300   78.43700  -12.46320    3.02350   -9999.25    3.38500    4.66640
 11601.00000   56.47580   83.59040    0.24580    0.12980    7.13290   -0.00070    2.48850   78.54740  -12.45260    3.05340   -9999.25    3.30790    5.10680
 11601.50000   55.10490   81.23260    0.26120    0.13810    7.19610   -0.00510    2.47720   78.90650  -12.44200    3.21170   -9999.25    3.21620    5.41580
 11602.00000   53.73400   80.34750    0.28320    0.14620    7.25940   -0.01240    2.45680   79.34670  -12.43140    3.37570   -9999.25    3.27750    5.13520
 11602.50000   52.35620   80.93520    0.30830    0.15380    7.32270   -0.01690    2.44870   80.64470  -12.42080    3.46650   -9999.25    3.39430    4.61740
 11603.00000   52.94240   83.29010    0.31080    0.13900    7.33960    0.00220    2.46500   83.66660  -12.41020    3.55550   -9999.25    3.51540    4.36030
 11603.50000   56.47420   90.20170    0.30760    0.08440    7.33950    0.03600    2.51820   88.13710  -12.24540    3.56270   -9999.25    3.58980    4.35910
 11604.00000   58.53310   92.71290    0.30750    0.06910    7.21300    0.05090    2.59590   93.86050  -12.08070    3.50680   -9999.25    3.58400    4.52870
 11604.50000   59.70840   89.28200    0.30790    0.05650    7.13300    0.02910    2.61050   98.60320  -11.91590    3.45940   -9999.25    3.56210    4.69620
 11605.00000   60.01890   87.28020    0.30740    0.06290    7.14070    0.01460    2.60330   99.26940  -11.75120    3.41260   -9999.25    3.51160    4.73880
 11605.50000   60.58630   86.52300    0.30010    0.05870    7.15790    0.01020    2.60170   98.25270  -11.58640    3.36640   -9999.25    3.44830    4.63070
 11606.00000   60.87800   87.11070    0.29780    0.04970    7.18690    0.02050    2.62160   96.70490  -11.42160    3.30380   -9999.25    3.34760    4.35640
 11606.50000   60.87480   87.10900    0.29550    0.04220    7.20670    0.04160    2.63670   94.60580  -11.25690    3.21320   -9999.25    3.23080    4.08890
 11607.00000   60.87190   85.12170    0.29320    0.04010    7.20520    0.04310    2.64210   93.03740  -11.09210    3.12500   -9999.25    3.11810    3.95100
 11607.50000   60.57440   83.13200    0.30150    0.03830    7.20710    0.04460    2.64520   93.06700  -10.92730    3.04520   -9999.25    3.05210    3.84150
 11608.00000   60.48110   82.98090    0.30900    0.03650    7.20900    0.04590    2.64680   94.70770  -10.61120    3.00500   -9999.25    3.04130    3.66700
 11608.50000   59.97940   82.97910    0.30230    0.03560    7.21100    0.04710    2.64800   96.54010  -10.44730    2.98800   -9999.25    3.09530    3.51400
 11609.00000   59.68190   82.68310    0.28750    0.03600    7.21290    0.04820    2.64800   94.14420  -10.94450    2.99230   -9999.25    3.16240    3.54630
 11609.50000   59.38440   82.68170    0.27870    0.03940    7.21480    0.04900    2.64560   91.33940  -11.44160    3.00470   -9999.25    3.19260    3.85360
 11610.00000   59.24350   82.68020    0.27450    0.05280    7.21460    0.04700    2.62450   89.66190  -11.72300    3.00040   -9999.25    3.12000    4.20850
 11610.50000   59.08390   82.67880    0.27280    0.05890    7.21410    0.04450    2.61000   91.58910  -11.83100    2.98810   -9999.25    3.09320    4.38010
 11611.00000   59.08100   82.67740    0.27420    0.05490    7.21540    0.04080    2.61500   92.99160  -11.93910    2.96870   -9999.25    3.06660    4.20700
 11611.50000   59.37260   82.97050    0.28140    0.05680    7.22300    0.03220    2.61480   91.66370  -12.04710    2.95540   -9999.25    3.04020    3.97400
 11612.00000   59.66370   83.26360    0.29410    0.07620    7.24310    0.01160    2.59110   88.40190  -11.73980    2.95640   -9999.25    3.00140    3.88580
 11612.50000   59.66080   83.27400    0.30760    0.07860    7.26310   -0.01280    2.57560   87.28680  -11.35370    2.95730   -9999.25    2.96710    3.86620
 11613.00000   59.95240   83.90660    0.30810    0.07200    7.23520   -0.02510    2.58480   88.81920  -11.93000    3.04630   -9999.25    2.95590    3.83720
 11613.50000   59.94960   85.11640    0.30090    0.06510    7.16730   -0.03030    2.60120   92.01300  -12.34720    3.11030   -9999.25    3.00670    3.83360
 11614.00000   59.94670   85.67470    0.29360    0.06050    6.91960   -0.03210    2.60750   94.18490  -11.70380    3.00300   -9999.25    3.06400    3.85280
 11614.50000   59.94380   85.61270    0.29000    0.05580    6.63500   -0.03310    2.61440   95.53880  -11.68880    2.93200   -9999.25    3.04410    3.93140
 11615.00000   59.64630   85.90600    0.29400    0.05080    6.54260   -0.02930    2.62430   96.99830  -11.67380    2.96290   -9999.25    3.01250    4.04270
 11615.50000   59.64350   85.60970    0.29390    0.04890    6.49910   -0.02650    2.62820   99.03300  -11.65880    3.03620   -9999.25    3.04130    4.16980
 11616.00000   59.64060   85.60830    0.29040    0.05400    6.50350   -0.02510    2.61530  101.27740  -11.64380    3.11610   -9999.25    3.08530    4.34320
 11616.50000   59.63770   85.60680    0.28690    0.05970    6.50890   -0.02390    2.60370  102.06210  -11.62880    3.04790   -9999.25    3.02800    4.45560
 11617.00000   59.03860   85.60530    0.28420    0.06300    6.53680   -0.01200    2.60390  100.07480  -11.62020    3.03170   -9999.25    2.98690    4.44130
 11617.50000   61.07390   85.60350    0.28680    0.04810    6.56060    0.01390    2.63090   97.02080  -11.69000    3.02300   -9999.25    2.96250    4.30720
 11618.00000   69.33970   85.60210    0.29150    0.02590    6.58430    0.04290    2.67150   96.34940  -12.20640    2.99120   -9999.25    2.95740    4.16260
 11618.50000   73.47000   85.66770    0.29580    0.01030    6.60810    0.06450    2.69040   98.13780  -13.02930    2.95980   -9999.25    2.95230    4.05050
 11619.00000   72.87780   85.74700    0.29580    0.02820    6.63000    0.04350    2.67250  100.77830  -13.03210    2.92870   -9999.25    2.94730    3.93790
 11619.50000   72.51340   85.82640    0.29580    0.03960    6.62950    0.02150    2.64590  103.01600  -12.85280    2.90020   -9999.25    2.94220    3.80330
