~Version ---------------------------------------------------
VERS.   2.0 : CWLS log ASCII Standard -VERSION 2.0
WRAP.    NO : One line per depth step
DLM . SPACE : Column Data Section Delimiter
~Well ------------------------------------------------------
STRT .F                 1480.0 : START DEPTH
STOP .F                12502.0 : STOP DEPTH
STEP .F                    0.5 : STEP
NULL .                -9999.25 : NULL VALUE
COMP .                         : COMPANY
WELL .                         : WELL
FLD  .                         : FIELD
LOC  .                         : LOCATION
PROV .                         : PROVINCE
CNTY .                         : COUNTY
STAT .                         : STATE
CTRY .                         : COUNTRY
SRVC .                         : SERVICE COMPANY
DATE .                         : DATE
UWI  .                         : UNIQUE WELL ID
API  .                         : API NUMBER
SLAT .WGS84  5.818274946736999 : SURFACE LATITUDE
SLON .WGS84 3.1476536495485874 : SURFACE LONGITUDE
DATUM.F                    nan : DEPTH DATUM ELEV
~Curve Information -----------------------------------------
DEPT   .F     : 
DTCO   .US/F  : DELTA-T COMPRESSIONAL
DTSM   .US/F  : DELTA-T SHEAR
NPHI_LS.DEC   : NEUTRON POROSITY LIMESTONE
DPHI_LS.DEC   : DENSITY POROSITY LIMESTONE
CALD   .IN    : CALIPER FROM DENSITY LOG
DRHO   .G/C3  : BULK DENSITY CORRECTION
RHOB   .G/C3  : BULK DENSITY
GRR    .GAPI  : GAMMA RAY FROM RESISTIVITY LOG
SPR    .MV    : SPONTANEOUS POTENTIAL FROM RESISTIVITY LOG
ILD    .OHMM  : INDUCTION DEEP RESISTIVITY
CILD   .MMHO  : INDUCTION DEEP CONDUCTIVITY
ILM    .OHMM  : INDUCTION MEDIUM RESISTIVITY
SFLU   .OHMM  : SHALLOW FOCUSED RESISTIVITY (UNAVERAGED)
~Params ----------------------------------------------------
~Other -----------------------------------------------------
~ASCII -----------------------------------------------------
# ...
 12036.00000   88.41260  161.16640    0.25090    0.05580    6.32920   -0.01970    2.61180   96.11980  -15.59050    2.11430   -9999.25    2.20070    3.19700
 12036.50000   89.00310  160.86620    0.25460    0.05120    6.32890   -0.01080    2.62120   97.33940  -15.50900    2.09250   -9999.25    2.19110    3.14430
 12037.00000   89.00450  160.28570    0.26020    0.05300    6.33020   -0.00410    2.62300   98.80550  -15.42750    2.07380   -9999.25    2.16380    3.05920
 12037.50000   89.00600  160.65510    0.26550    0.05900    6.33130   -0.01030    2.61130   99.78760  -15.34600    2.05910   -9999.25    2.13680    2.93860
 12038.00000   89.00740  161.57330    0.26510    0.06460    6.33250   -0.01650    2.59880  100.40870  -15.26450    2.04450   -9999.25    2.11020    2.80140
 12038.50000   89.00890  162.42090    0.26490    0.06590    6.33390   -0.02160    2.59740  100.42990  -15.18300    2.02990   -9999.25    2.08390    2.71330
 12039.00000   88.71570  163.02770    0.26470    0.06310    6.33930   -0.02210    2.60150   99.46150  -15.10150    2.01550   -9999.25    2.05790    2.79020
 12039.50000   88.71720  163.34030    0.26440    0.06320    6.34480   -0.02140    2.60400   97.02210  -15.09700    1.99040   -9999.25    2.03230    2.94440
 12040.00000   88.75760  163.53460    0.26280    0.06580    6.34190   -0.01900    2.60120   95.37370  -15.13350    1.94490   -9999.25    2.00690    3.05320
 12040.50000   89.01470  163.40190    0.26310    0.06670    6.33790   -0.01480    2.59740   96.52820  -15.30090    1.91810   -9999.25    1.98190    3.06820
 12041.00000   89.31080  163.39320    0.26470    0.06690    6.33120   -0.01290    2.59660   99.96710  -15.39990    1.90510   -9999.25    1.95720    2.92990
 12041.50000   89.77640  164.33400    0.26370    0.06530    6.30630   -0.01130    2.59910  102.98030  -15.37380    1.88300   -9999.25    1.93280    2.69670
 12042.00000   90.98670  166.48630    0.25970    0.06240    6.30920   -0.00970    2.60370  104.19570  -15.34770    1.85170   -9999.25    1.90870    2.58160
 12042.50000   91.78750  167.37140    0.25570    0.05950    6.32230   -0.00940    2.60970  103.46960  -15.32160    1.82090   -9999.25    1.88280    2.50810
 12043.00000   92.55670  167.96190    0.25560    0.05780    6.31580   -0.01060    2.61080  101.99550  -15.30390    1.79060   -9999.25    1.85730    2.48290
 12043.50000   92.85270  168.25790    0.25880    0.05960    6.32220   -0.01150    2.60930  101.40150  -15.30280    1.76080   -9999.25    1.83210    2.46990
 12044.00000   92.55970  168.55390    0.26200    0.06420    6.32870   -0.01200    2.60240  101.51130  -15.21440    1.73200   -9999.25    1.80720    2.46590
 12044.50000   92.26690  168.84990    0.26500    0.06870    6.31460   -0.01260    2.59470  100.84010  -15.02900    1.70810   -9999.25    1.78270    2.45100
 12045.00000   92.56280  169.14580    0.26790    0.07450    6.31640   -0.01230    2.58470   99.56180  -14.86230    1.69000   -9999.25    1.75850    2.41640
 12045.50000   92.56430  169.14730    0.27030    0.07770    6.31820   -0.01540    2.57780   98.68300  -14.64180    1.67560   -9999.25    1.73510    2.37880
 12046.00000   92.56570  169.14880    0.27300    0.07800    6.33060   -0.01790    2.57720   99.52090  -14.18790    1.66720   -9999.25    1.72680    2.34920
 12046.50000   92.56720  169.15020    0.27400    0.07770    6.32850   -0.01830    2.57770  102.26410  -13.98770    1.65880   -9999.25    1.72530    2.34000
 12047.00000   92.56860  169.15170    0.27370    0.07820    6.32010   -0.01870    2.57730  104.97200  -14.11650    1.65480   -9999.25    1.73530    2.38230
 12047.50000   92.57000  169.15320    0.27080    0.07920    6.31280   -0.01900    2.57550  106.03260  -14.24530    1.66190   -9999.25    1.74530    2.43030
 12048.00000   92.86600  169.07180    0.26810    0.07990    6.31440   -0.01870    2.57170  105.67060  -14.37420    1.67140   -9999.25    1.75910    2.44570
 12048.50000   93.46010  168.46840    0.26570    0.07980    6.32390   -0.01810    2.57330  104.83060  -14.50300    1.68200   -9999.25    1.77330    2.44650
 12049.00000   94.06490  167.74990    0.26400    0.07900    6.32710   -0.01560    2.57530  104.87980  -14.63180    1.70180   -9999.25    1.78760    2.43930
 12049.50000   94.34320  165.16310    0.26610    0.07740    6.31790   -0.01260    2.57740  104.98600  -14.76060    1.71290   -9999.25    1.79480    2.42600
 12050.00000   93.95110  157.52580    0.26670    0.07760    6.30410   -0.01400    2.57740  104.79980  -14.88940    1.71570   -9999.25    1.79680    2.47180
 12050.50000   93.10400  150.96730    0.26650    0.07860    6.28450   -0.01530    2.57420  104.50800  -14.86990    1.71860   -9999.25    1.81310    2.52470
 12051.00000   92.42180  149.13430    0.26120    0.08100    6.27510   -0.01530    2.57170  102.32300  -14.76150    1.72140   -9999.25    1.82450    2.58390
 12051.50000   91.69790  148.93680    0.25470    0.08100    6.27540   -0.01530    2.57250   99.55480  -14.65300    1.72300   -9999.25    1.83190    2.62030
 12052.00000   91.40470  149.43170    0.24950    0.07730    6.27580   -0.01490    2.57740   98.52190  -14.54460    1.73500   -9999.25    1.82110    2.63260
 12052.50000   92.71010  147.66580    0.24700    0.07390    6.27620   -0.01430    2.58300   98.03660  -14.43620    1.75770   -9999.25    1.83200    2.61730
 12053.00000   93.02150  145.01630    0.25250    0.07190    6.27650   -0.01370    2.58760   96.66300  -14.32770    1.78060   -9999.25    1.85750    2.55580
 12053.50000   93.17670  143.25050    0.25790    0.07130    6.27690   -0.01520    2.58840   95.52710  -14.17260    1.80390   -9999.25    1.88340    2.45380
 12054.00000   92.71280  142.66270    0.26230    0.07270    6.27760   -0.01750    2.58510   94.64060  -14.37740    1.82750   -9999.25    1.90960    2.39580
 12054.50000   91.70720  144.43150    0.25140    0.07550    6.27840   -0.01980    2.58030   93.94040  -13.78530    1.85140   -9999.25    1.93620    2.48440
 12055.00000   90.53040  146.23090    0.23050    0.07450    6.27920   -0.02220    2.58430   93.50940  -13.51410    1.85410   -9999.25    1.96320    2.72480
 12055.50000   89.64820  146.14030    0.22360    0.06960    6.28150   -0.01910    2.59170   95.10990  -13.45600    1.85340   -9999.25    1.99000    3.01510
 12056.00000   89.35490  145.02490    0.22900    0.07070    6.28410   -0.01560    2.58750   99.61880  -13.32130    1.85300   -9999.25    1.95940    3.11050
 12056.50000   88.47290  145.02650    0.23030    0.07530    6.28830   -0.01220    2.57800  102.56200  -13.07070    1.85680   -9999.25    1.92920    3.07550
 12057.00000   88.47430  145.69640    0.22970    0.08610    6.28940   -0.00780    2.56610  102.41270  -13.28510    1.86070   -9999.25    1.89950    3.01010
 12057.50000   89.06480  146.20760    0.23340    0.09310    6.28440   -0.00110    2.55550  101.80970  -13.42980    1.84820   -9999.25    1.87670    2.96840
 12058.00000   89.36080  146.20910    0.24490    0.09200    6.28380   -0.00110    2.54500  103.05000  -13.49530    1.81750   -9999.25    1.86650    2.94070
 12058.50000   89.36230  146.21060    0.25670    0.08880    6.28630   -0.00100    2.55770  105.55070  -13.67150    1.80340   -9999.25    1.87740    2.83350
 12059.00000   89.68670  145.91750    0.26680    0.07450    6.28880   -0.00090    2.58420  108.05140  -13.85660    1.80880   -9999.25    1.91320    2.60300
 12059.50000   90.29250  145.91900    0.27540    0.05920    6.30250   -0.00470    2.60890  109.63370  -14.04170    1.90500   -9999.25    1.96370    2.35700
 12060.00000   90.54490  145.92080    0.25580    0.04130    6.31290   -0.00880    2.62770  100.41210  -14.22680    2.10560   -9999.25    2.04340    2.35320
 12060.50000   90.32280  145.62760    0.20090    0.04340    6.31970   -0.01290    2.63700   89.62500  -14.41190    2.28800   -9999.25    2.28470    2.86900
 12061.00000   87.74790  145.62910    0.14870    0.04990    6.32650   -0.01870    2.62970   76.68060  -14.25300    2.58190   -9999.25    2.59930    3.75110
 12061.50000   84.72690  144.15780    0.12530    0.05380    6.31470   -0.02020    2.62000   66.50740  -14.11350    2.92870   -9999.25    3.00900    5.16350
