~Version ---------------------------------------------------
VERS.   2.0 : CWLS log ASCII Standard -VERSION 2.0
WRAP.    NO : One line per depth step
DLM . SPACE : Column Data Section Delimiter
~Well ------------------------------------------------------
STRT .F                 1480.0 : START DEPTH
STOP .F                12502.0 : STOP DEPTH
STEP .F                    0.5 : STEP
NULL .                -9999.25 : NULL VALUE
COMP .                         : COMPANY
WELL .                         : WELL
FLD  .                         : FIELD
LOC  .                         : LOCATION
PROV .                         : PROVINCE
CNTY .                         : COUNTY
STAT .                         : STATE
CTRY .                         : COUNTRY
SRVC .                         : SERVICE COMPANY
DATE .                         : DATE
UWI  .                         : UNIQUE WELL ID
API  .                         : API NUMBER
SLAT .WGS84  5.818274946736999 : SURFACE LATITUDE
SLON .WGS84 3.1476536495485874 : SURFACE LONGITUDE
DATUM.F                    nan : DEPTH DATUM ELEV
~Curve Information -----------------------------------------
DEPT   .F     : 
DTCO   .US/F  : DELTA-T COMPRESSIONAL
DTSM   .US/F  : DELTA-T SHEAR
NPHI_LS.DEC   : NEUTRON POROSITY LIMESTONE
DPHI_LS.DEC   : DENSITY POROSITY LIMESTONE
CALD   .IN    : CALIPER FROM DENSITY LOG
DRHO   .G/C3  : BULK DENSITY CORRECTION
RHOB   .G/C3  : BULK DENSITY
GRR    .GAPI  : GAMMA RAY FROM RESISTIVITY LOG
SPR    .MV    : SPONTANEOUS POTENTIAL FROM RESISTIVITY LOG
ILD    .OHMM  : INDUCTION DEEP RESISTIVITY
CILD   .MMHO  : INDUCTION DEEP CONDUCTIVITY
ILM    .OHMM  : INDUCTION MEDIUM RESISTIVITY
SFLU   .OHMM  : SHALLOW FOCUSED RESISTIVITY (UNAVERAGED)
~Params ----------------------------------------------------
~Other -----------------------------------------------------
~ASCII -----------------------------------------------------
# ...
 12270.00000   60.73760   95.40480    0.04530    0.05570    6.27040   -0.02380    2.61330   25.14950  -20.97440   82.60580   -9999.25   87.44630  126.40260
 12270.50000   59.22200   95.45300    0.04600    0.05600    6.27120   -0.02860    2.61400   25.74110  -21.97670   89.19500   -9999.25   95.49220  139.16070
 12271.00000   58.00310   96.11890    0.04590    0.06530    6.25200   -0.03300    2.60250   26.29500  -23.09690   90.55480   -9999.25  100.24950  146.97370
 12271.50000   56.95290   97.32930    0.04340    0.07650    6.22050   -0.03840    2.58140   25.93330  -24.16980   89.03240   -9999.25   95.64110  145.32500
 12272.00000   56.78140   98.07360    0.04000    0.08190    6.19140   -0.03740    2.57360   25.33440  -25.22760   86.59800   -9999.25   88.11330  137.18980
 12272.50000   59.65410   98.37190    0.03790    0.07930    6.17280   -0.03560    2.57310   25.53730  -26.49040   84.04470   -9999.25   81.17800  121.65100
 12273.00000   57.29920   97.21290    0.04170    0.07580    6.15420   -0.02840    2.57950   26.47370  -27.83180   81.56670   -9999.25   79.04350  105.18480
 12273.50000   54.35510   92.63180    0.04570    0.07520    6.13560   -0.02880    2.58150   28.01660  -29.43430   82.15250   -9999.25   78.81120   92.90940
 12274.00000   54.94560   88.40430    0.04840    0.07740    6.11690   -0.02930    2.57590   29.87350  -31.45790   84.99360   -9999.25   83.17520   89.18480
 12274.50000   59.36530   89.51710    0.05130    0.08420    6.12080   -0.03900    2.56750   31.20850  -33.68760   87.21530   -9999.25   96.68400  100.23210
 12275.00000   59.39140   92.84770    0.05240    0.08920    6.13100   -0.05590    2.55810   30.28900  -36.22480   89.35140   -9999.25  112.38670  146.02340
 12275.50000   58.19000   91.33070    0.05010    0.09000    6.14110   -0.06410    2.55640   26.69820  -38.92050   93.47410   -9999.25  122.47560  200.91130
 12276.00000   57.30310   89.56770    0.04310    0.08890    6.15130   -0.05350    2.55760   22.52650  -41.73460  108.23000   -9999.25  126.35830  222.56580
 12276.50000   57.01470   88.68840    0.03670    0.08840    6.16140   -0.04370    2.55870   20.19490  -44.30950  141.40140   -9999.25  139.27610  214.47560
 12277.00000   58.94850   88.98720    0.03380    0.09160    6.17160   -0.03920    2.55210   20.39250  -46.51700  178.38290   -9999.25  195.32450  196.02420
 12277.50000   60.84680   90.16970    0.03240    0.09680    6.17950   -0.03440    2.54670   21.48080  -48.55510  220.36890   -9999.25  273.92840  181.10720
 12278.00000   60.78800   91.35230    0.03100    0.09570    6.17870   -0.02960    2.54490   21.84780  -50.47490  238.60820   -9999.25  379.21210  179.68620
 12278.50000   59.15080   91.65110    0.02950    0.09340    6.17790   -0.02670    2.55260   21.82700  -52.07460  243.00880   -9999.25  386.39790  185.94710
 12279.00000   57.31640   91.36080    0.02740    0.08250    6.17560   -0.02560    2.57110   21.46630  -53.05800  244.44910   -9999.25  271.54150  195.90860
 12279.50000   60.00210   91.06600    0.02510    0.07500    6.17450   -0.02540    2.58260   20.96740  -53.60820  230.93790   -9999.25  190.82610  213.79390
 12280.00000   62.56260   90.74270    0.02340    0.07110    6.18240   -0.02150    2.58830   20.39600  -53.91630  227.33290   -9999.25  150.38750  231.12830
 12280.50000   62.65230   89.86730    0.02260    0.07040    6.19020   -0.01840    2.58730   19.89400  -54.26190  226.77920   -9999.25  141.08760  230.49160
 12281.00000   61.74080   89.02170    0.02400    0.07670    6.18020   -0.01680    2.57550   20.26840  -54.48570  223.66940   -9999.25  171.04580  232.73670
 12281.50000   61.15320   89.08900    0.02450    0.08750    6.16820   -0.01510    2.55990   21.19080  -54.68700  208.07480   -9999.25  204.54950  260.73310
 12282.00000   61.74400   89.99120    0.02510    0.09190    6.16140   -0.01430    2.55350   21.73160  -54.89280  188.53460   -9999.25  241.43860  285.24250
 12282.50000   61.74550   90.89340    0.02560    0.09310    6.15900   -0.01540    2.55130   19.91880  -54.88260  170.82950   -9999.25  284.98030  287.12550
 12283.00000   62.04150   91.39620    0.02630    0.09220    6.12830   -0.01740    2.55270   17.84240  -54.66520  153.00600   -9999.25  298.34240  283.11360
 12283.50000   61.74820   91.28110    0.02830    0.09220    6.10570   -0.02100    2.55320   16.74100  -54.53420  135.99140   -9999.25  256.25880  274.22770
 12284.00000   61.16070   91.11050    0.03290    0.09440    6.09220   -0.02340    2.54900   16.70700  -54.41220  122.61410   -9999.25  210.42250  260.88010
 12284.50000   60.27850   90.82030    0.03800    0.09700    6.07870   -0.02330    2.54670   17.20870  -54.24450  114.29310   -9999.25  174.11940  252.82820
 12285.00000   59.39630   90.07370    0.03990    0.09690    6.06720   -0.02330    2.54630   18.46180  -54.07670  106.35540   -9999.25  158.62150  249.47640
 12285.50000   58.21950   89.65100    0.03850    0.09380    6.07160   -0.02200    2.54950   19.59210  -53.84860   95.33230   -9999.25  140.22870  239.84100
 12286.00000   57.04270   93.48530    0.03740    0.08560    6.08210   -0.01690    2.56060   20.52470  -53.56310   85.85990   -9999.25  124.42090  226.96600
 12286.50000   59.43360   95.55150    0.03730    0.07750    6.08830   -0.01050    2.57610   21.41040  -53.58350   76.92980   -9999.25  111.43990  206.28320
 12287.00000   62.12040   95.26120    0.03920    0.07290    6.08760   -0.00700    2.58520   22.55770  -54.28490   69.23930   -9999.25  100.25430  167.24440
 12287.50000   63.23260   93.49820    0.04490    0.07360    6.06710   -0.00910    2.58600   24.63960  -55.08820   64.46030   -9999.25   94.43780  137.50160
 12288.00000   62.24920   91.44070    0.05010    0.07620    6.04660   -0.01210    2.58470   28.19920  -55.26450   60.33340   -9999.25  101.03830  127.12990
 12288.50000   60.74780   90.26680    0.05390    0.07800    6.02610   -0.01510    2.57700   31.72870  -54.95440   59.59880   -9999.25  106.91430  143.03830
 12289.00000   59.24840   89.97640    0.05130    0.08120    6.00560   -0.01820    2.56960   32.22550  -53.68820   60.81490   -9999.25  103.61750  172.11160
 12289.50000   58.52550   90.86450    0.04730    0.08640    5.98510   -0.02180    2.56430   30.03590  -51.40910   62.41490   -9999.25   94.15790  190.55970
 12290.00000   60.43060   92.05650    0.04800    0.09160    5.96460   -0.02370    2.55540   28.85050  -48.15970   64.60980   -9999.25   88.09150  191.24680
 12290.50000   62.42890   92.68990    0.05020    0.09510    5.94410   -0.02360    2.54780   28.67170  -45.14830   65.55880   -9999.25   88.83560  183.20200
 12291.00000   63.24300   93.86220    0.05720    0.10060    5.92360   -0.02360    2.53900   28.98660  -42.27770   63.55240   -9999.25   93.15330  176.40340
 12291.50000   62.21000   94.41680    0.06250    0.10650    5.89180   -0.02540    2.53140   27.86690  -39.43560   61.06560   -9999.25  100.69190  171.59290
 12292.00000   61.31370   94.09000    0.06180    0.11160    5.85520   -0.02800    2.52090   25.90460  -36.59350   58.72070   -9999.25  107.82080  170.29960
 12292.50000   60.00760   90.77910    0.06120    0.11730    5.81310   -0.03060    2.50910   23.92530  -33.75140   59.91310   -9999.25  121.66380  169.54140
 12293.00000   58.83090   87.95930    0.05940    0.12400    5.76410   -0.03350    2.50010   21.65740  -31.09360   67.76710   -9999.25  162.23360  166.90390
 12293.50000   59.71600   86.77530    0.05720    0.12620    5.75200   -0.03740    2.49600   19.40180  -28.52120   77.76070   -9999.25  211.28670  165.56280
 12294.00000   60.89560   88.15910    0.05520    0.12290    5.75040   -0.04130    2.49830   17.47290  -26.01370   65.14560   -9999.25  216.53820  163.25560
 12294.50000   60.95490   90.71430    0.05220    0.11840    5.74880   -0.04460    2.50740   16.63000  -23.77400   44.32880   -9999.25  132.37930  159.33240
 12295.00000   59.13120   93.29060    0.04820    0.11890    5.74720   -0.04610    2.50820   16.05900  -21.88470   23.52980   -9999.25   75.24460  163.84040
 12295.50000   57.07080   95.90960    0.04250    0.11810    5.75610   -0.04100    2.51140   15.98580  -20.43020   11.84040   -9999.25   29.51410  152.61800
