~Version ---------------------------------------------------
VERS.   2.0 : CWLS log ASCII Standard -VERSION 2.0
WRAP.    NO : One line per depth step
DLM . SPACE : Column Data Section Delimiter
~Well ------------------------------------------------------
STRT .F                 1480.0 : START DEPTH
STOP .F                12502.0 : STOP DEPTH
STEP .F                    0.5 : STEP
NULL .                -9999.25 : NULL VALUE
COMP .                         : COMPANY
WELL .                         : WELL
FLD  .                         : FIELD
LOC  .                         : LOCATION
PROV .                         : PROVINCE
CNTY .                         : COUNTY
STAT .                         : STATE
CTRY .                         : COUNTRY
SRVC .                         : SERVICE COMPANY
DATE .                         : DATE
UWI  .                         : UNIQUE WELL ID
API  .                         : API NUMBER
SLAT .WGS84  5.818274946736999 : SURFACE LATITUDE
SLON .WGS84 3.1476536495485874 : SURFACE LONGITUDE
DATUM.F                    nan : DEPTH DATUM ELEV
~Curve Information -----------------------------------------
DEPT   .F     : 
DTCO   .US/F  : DELTA-T COMPRESSIONAL
DTSM   .US/F  : DELTA-T SHEAR
NPHI_LS.DEC   : NEUTRON POROSITY LIMESTONE
DPHI_LS.DEC   : DENSITY POROSITY LIMESTONE
CALD   .IN    : CALIPER FROM DENSITY LOG
DRHO   .G/C3  : BULK DENSITY CORRECTION
RHOB   .G/C3  : BULK DENSITY
GRR    .GAPI  : GAMMA RAY FROM RESISTIVITY LOG
SPR    .MV    : SPONTANEOUS POTENTIAL FROM RESISTIVITY LOG
ILD    .OHMM  : INDUCTION DEEP RESISTIVITY
CILD   .MMHO  : INDUCTION DEEP CONDUCTIVITY
ILM    .OHMM  : INDUCTION MEDIUM RESISTIVITY
SFLU   .OHMM  : SHALLOW FOCUSED RESISTIVITY (UNAVERAGED)
~Params ----------------------------------------------------
~Other -----------------------------------------------------
~ASCII -----------------------------------------------------
# ...
 10268.00000   86.23860  173.88120    0.27180    0.08990    8.98520    0.10760    2.56200  129.98460   -6.01250    4.43190   -9999.25    4.73650    5.77740
 10268.50000   86.54510  173.88470    0.25840    0.07280    8.94910    0.09730    2.58900  124.47760   -5.87930    4.51010   -9999.25    4.82680    5.90760
 10269.00000   87.14600  173.88820    0.24030    0.05770    8.94040    0.08690    2.61350  123.96410   -5.55160    4.58230   -9999.25    4.91880    6.13090
 10269.50000   87.41030  173.89170    0.23300    0.05670    8.94900    0.07360    2.61310  126.58940   -5.18240    4.68000   -9999.25    5.01260    6.42380
 10270.00000   86.36170  173.89520    0.23230    0.06380    8.95750    0.04220    2.60170  124.27820   -4.81330    4.78080   -9999.25    5.10810    6.64240
 10270.50000   83.96420  173.89930    0.23170    0.06790    8.95350    0.02650    2.59330  119.61090   -4.61940    4.86140   -9999.25    5.20550    6.84170
 10271.00000   82.23660  173.89640    0.22970    0.06930    8.93980    0.01980    2.59180  116.84700   -4.68600    4.95170   -9999.25    5.30480    7.02140
 10271.50000   81.51030  173.89360    0.23130    0.07100    8.92870    0.01200    2.58950  121.35910   -4.75250    5.01200   -9999.25    5.40590    7.17120
 10272.00000   82.01470  173.89070    0.23570    0.07320    8.91910    0.01220    2.58300  130.07390   -4.81910    5.12680   -9999.25    5.40930    7.20610
 10272.50000   83.33560  173.88780    0.23770    0.07800    8.90950    0.01740    2.57850  135.67240   -4.88560    5.21700   -9999.25    5.29060    7.05650
 10273.00000   85.00770  172.11760    0.23780    0.07660    8.90850    0.02250    2.58070  133.11980   -4.95210    5.27340   -9999.25    5.35320    6.82870
 10273.50000   86.65080  168.87470    0.23940    0.06830    8.90860    0.02280    2.59570  126.67330   -5.01870    5.42130   -9999.25    5.50830    6.71870
 10274.00000   86.46460  162.39170    0.24100    0.06080    8.93410    0.01980    2.60630  118.57670   -5.08520    5.56830   -9999.25    5.88710    7.13840
 10274.50000   84.22460  155.83300    0.24250    0.05590    8.96060    0.01380    2.61490  111.46480   -5.15460    5.71940   -9999.25    6.29190    7.76260
 10275.00000   82.37810  151.32190    0.24150    0.05310    8.98710    0.01610    2.62050  108.77690   -5.26060    5.85340   -9999.25    6.46200    8.82160
 10275.50000   80.90320  147.78970    0.23690    0.05230    9.01370    0.03130    2.62000  107.96280   -5.36670    5.85390   -9999.25    6.42390    9.54420
 10276.00000   80.60650  145.77440    0.23410    0.05920    9.04020    0.05090    2.61070  108.37760   -5.47270    5.82140   -9999.25    6.31430    9.07130
 10276.50000   79.42610  144.19740    0.23030    0.06690    9.04050    0.06790    2.59950  116.92790   -5.57870    5.76850   -9999.25    6.05700    8.58020
 10277.00000   76.77300  143.52330    0.22100    0.06800    9.04050    0.08320    2.59300  125.86140   -5.57240    5.66540   -9999.25    5.76300    7.98540
 10277.50000   80.60000  149.92780    0.21950    0.08810    9.04050    0.09850    2.56170  130.63620   -5.56200    5.33610   -9999.25    5.48340    7.35240
 10278.00000   82.95420  156.22840    0.23470    0.13810    9.03600    0.09220    2.44130  127.95590   -5.52610    5.04720   -9999.25    5.21730    6.53280
 10278.50000   85.01390  161.31670    0.26690    0.23510    9.02460    0.08290    2.30670  121.95610   -5.35020    4.84140   -9999.25    4.99710    5.79350
 10279.00000   86.48450  166.18790    0.27720    0.24810    9.01320    0.07990    2.27820  116.61980   -5.17430    4.62670   -9999.25    4.92410    5.50450
 10279.50000   87.07150  169.96940    0.26980    0.22400    9.00180    0.09950    2.36330  114.09640   -4.99850    4.42150   -9999.25    4.76920    5.37580
 10280.00000   87.06920  172.78400    0.24820    0.13570    8.99050    0.12020    2.53180  118.71150   -4.82260    4.24330   -9999.25    4.48990    5.27120
 10280.50000   86.74060  171.48400    0.24210    0.08010    8.97990    0.12140    2.57260  126.25580   -4.64670    4.18280   -9999.25    4.24250    5.16170
 10281.00000   86.47590  172.95390    0.24310    0.08470    8.98360    0.10970    2.56290  133.02880   -4.46570    4.18020   -9999.25    4.15780    5.06840
 10281.50000   86.76830  174.42380    0.24770    0.08940    8.98730    0.10470    2.55690  131.37190   -4.24280    4.26760   -9999.25    4.15840    5.13690
 10282.00000   86.39940  170.59180    0.24570    0.08160    8.99110    0.09420    2.57220  125.51460   -4.01980    4.37900   -9999.25    4.40610    5.43630
 10282.50000   85.71030  166.46520    0.23900    0.07320    8.99480    0.08600    2.58900  118.07250   -3.79690    4.45100   -9999.25    4.69730    5.98560
 10283.00000   84.89630  163.51680    0.23160    0.06440    8.99850    0.06040    2.60050  116.68900   -3.57390    4.51120   -9999.25    4.86530    6.63840
 10283.50000   83.99720  161.15750    0.22870    0.05810    8.99960    0.05300    2.61070  118.13900   -3.78530    4.59260   -9999.25    4.83970    7.08840
 10284.00000   83.39370  159.97650    0.23190    0.05350    8.99960    0.04650    2.62200  121.24580   -4.26620    4.73670   -9999.25    4.81710    6.94770
 10284.50000   82.78890  161.20850    0.23650    0.05190    8.98080    0.03910    2.61920  123.11380   -4.74700    4.90830   -9999.25    4.83880    6.55310
 10285.00000   82.33430  162.69010    0.24280    0.05710    8.96080    0.02750    2.61020  124.31660   -5.22780    5.10650   -9999.25    5.01310    6.18210
 10285.50000   83.27700  163.89570    0.24670    0.06050    8.94080    0.01970    2.60750  130.39850   -5.70860    5.35580   -9999.25    5.32610    6.21050
 10286.00000   86.15860  164.80710    0.24870    0.06310    8.95860    0.01470    2.60130  141.28950   -6.03240    5.62140   -9999.25    5.65880    6.79730
 10286.50000   87.04050  165.26400    0.24860    0.06580    8.97770    0.00760    2.59570  142.60090   -6.16520    5.95310   -9999.25    6.01220    7.89950
 10287.00000   86.44890  163.89990    0.24430    0.07010    8.99670    0.00170    2.59130  130.55820   -6.28440    6.45260   -9999.25    6.38770    9.57950
 10287.50000   85.85760  159.95940    0.23960    0.07090    8.96920    0.00290    2.59140  105.93900   -6.31090    6.99440   -9999.25    6.78660   11.03250
 10288.00000   83.79360  154.98910    0.25520    0.06180    8.93340   -0.00060    2.60630   89.44180   -6.21820    7.58180   -9999.25    7.56590   12.66550
 10288.50000   80.84590  149.11610    0.27510    0.05270    8.89770   -0.00410    2.63180   80.71850   -6.01720    8.21840   -9999.25    8.55440   13.49460
 10289.00000   78.19280  143.22500    0.29500    0.03050    8.86370   -0.00710    2.66230   82.71590   -5.67870    8.90850   -9999.25    9.67200   13.89630
 10289.50000   75.83420  139.98910    0.30690    0.01560    8.86000   -0.00800    2.68670   87.47430   -5.19620    9.55070   -9999.25   10.47370   14.73960
 10290.00000   75.21250  142.85660    0.31190    0.00650    8.85370   -0.00900    2.70500   94.55630   -4.90810    9.87840   -9999.25   10.77440   16.75800
 10290.50000   77.30270  149.33390    0.31100    0.00120    8.84720   -0.00970    2.70220  101.83130   -4.79370   10.21440   -9999.25   10.92080   18.56690
 10291.00000   80.33080  156.40020    0.30770    0.02600    8.84790   -0.00810    2.65410  108.87860   -4.83690   10.38200   -9999.25   11.02030   18.11970
 10291.50000   84.49070  162.28830    0.29910    0.05940    8.94780   -0.00690    2.60000  115.72090   -4.75350   10.43370   -9999.25   11.02310   17.05330
 10292.00000   87.90690  169.35470    0.29260    0.08650    8.96770   -0.00760    2.54160  121.79350   -4.66990   10.44070   -9999.25   10.94520   16.63100
 10292.50000   92.37600  172.29730    0.27990    0.11980    8.97630   -0.01050    2.50460  128.86000   -4.58660   10.41670   -9999.25   10.82320   16.50460
 10293.00000   95.74110  174.35630    0.28220    0.12980    8.98490   -0.01110    2.48900  134.02530   -4.68350   10.39290   -9999.25   10.59560   16.17460
 10293.50000   97.76600  175.82620    0.29410    0.12410    8.99350   -0.00980    2.49910  136.34810   -4.79770   10.34570   -9999.25   10.38760   15.71250
