~Version ---------------------------------------------------
VERS.   2.0 : CWLS log ASCII Standard -VERSION 2.0
WRAP.    NO : One line per depth step
DLM . SPACE : Column Data Section Delimiter
~Well ------------------------------------------------------
STRT .F                 1480.0 : START DEPTH
STOP .F                12502.0 : STOP DEPTH
STEP .F                    0.5 : STEP
NULL .                -9999.25 : NULL VALUE
COMP .                         : COMPANY
WELL .                         : WELL
FLD  .                         : FIELD
LOC  .                         : LOCATION
PROV .                         : PROVINCE
CNTY .                         : COUNTY
STAT .                         : STATE
CTRY .                         : COUNTRY
SRVC .                         : SERVICE COMPANY
DATE .                         : DATE
UWI  .                         : UNIQUE WELL ID
API  .                         : API NUMBER
SLAT .WGS84  5.818274946736999 : SURFACE LATITUDE
SLON .WGS84 3.1476536495485874 : SURFACE LONGITUDE
DATUM.F                    nan : DEPTH DATUM ELEV
~Curve Information -----------------------------------------
DEPT   .F     : 
DTCO   .US/F  : DELTA-T COMPRESSIONAL
DTSM   .US/F  : DELTA-T SHEAR
NPHI_LS.DEC   : NEUTRON POROSITY LIMESTONE
DPHI_LS.DEC   : DENSITY POROSITY LIMESTONE
CALD   .IN    : CALIPER FROM DENSITY LOG
DRHO   .G/C3  : BULK DENSITY CORRECTION
RHOB   .G/C3  : BULK DENSITY
GRR    .GAPI  : GAMMA RAY FROM RESISTIVITY LOG
SPR    .MV    : SPONTANEOUS POTENTIAL FROM RESISTIVITY LOG
ILD    .OHMM  : INDUCTION DEEP RESISTIVITY
CILD   .MMHO  : INDUCTION DEEP CONDUCTIVITY
ILM    .OHMM  : INDUCTION MEDIUM RESISTIVITY
SFLU   .OHMM  : SHALLOW FOCUSED RESISTIVITY (UNAVERAGED)
~Params ----------------------------------------------------
~Other -----------------------------------------------------
~ASCII -----------------------------------------------------
# ...
 10944.00000   62.84510  196.02000    0.21290    0.03750    8.84580   -0.00620    2.64700  112.12960   -0.08410    7.97360   -9999.25    8.58940   10.86870
 10944.50000   63.43280  195.85010    0.21710    0.03470    8.84120   -0.00810    2.64940  111.63360   -0.44810    7.85720   -9999.25    8.46010   10.72220
 10945.00000   64.60950  197.45750    0.22510    0.03510    8.86100   -0.00900    2.65010  111.06640   -0.97740    7.74250   -9999.25    8.33280   10.48030
 10945.50000   65.49170  198.87070    0.23010    0.03500    8.91200   -0.00910    2.64990  110.49930   -1.50670    7.62950   -9999.25    8.20740   10.19270
 10946.00000   64.90120  199.67060    0.22630    0.03200    8.92840   -0.00940    2.65350  110.68600   -1.93320    7.51110   -9999.25    8.08390    9.90580
 10946.50000   64.60520  198.86450    0.22240    0.03040    8.90740   -0.01020    2.65840  114.66860   -1.91410    7.35160   -9999.25    7.96230    9.67770
 10947.00000   64.60380  197.65750    0.21860    0.03130    8.89400   -0.01250    2.65750  119.26960   -1.89510    7.17480   -9999.25    7.74980    9.63000
 10947.50000   65.78050  196.58260    0.21740    0.03430    8.92280   -0.01390    2.65150  121.03130   -1.63240    6.94930   -9999.25    7.49070    9.45800
 10948.00000   66.36820  196.85300    0.21880    0.03650    8.96790   -0.01750    2.64850  122.16840   -1.31360    6.73150   -9999.25    7.25350    9.25130
 10948.50000   65.74950  198.51960    0.22230    0.03860    9.01140   -0.01830    2.64470  123.88460   -0.99480    6.52410   -9999.25    7.02380    8.99040
 10949.00000   63.91930  199.65240    0.22560    0.03800    9.00390   -0.01740    2.64490  127.75070   -0.78070    6.32310   -9999.25    6.80140    8.73690
 10949.50000   60.92050  197.29250    0.23100    0.03660    8.99050   -0.01610    2.64660  135.78710   -0.88420    6.12830   -9999.25    6.57850    8.39320
 10950.00000   62.03590  186.09670    0.24160    0.03470    8.95740   -0.01100    2.64900  141.44960   -0.98770    5.93960   -9999.25    6.33360    7.81370
 10950.50000   65.95830  196.69770    0.24840    0.03420    8.91340   -0.00550    2.65090  146.74150   -1.09120    5.78630   -9999.25    6.09810    7.25230
 10951.00000   66.65410  199.34570    0.24890    0.03440    8.87150    0.00000    2.65200  146.09430   -1.19470    5.59920   -9999.25    5.88330    6.95890
 10951.50000   65.97500  200.52110    0.24770    0.03440    8.83790    0.00140    2.65330  139.66060   -1.29820    5.50140   -9999.25    5.76460    6.88870
 10952.00000   66.06210  199.92910    0.24870    0.03330    8.82260    0.00210    2.65500  127.73780   -1.40170    5.38780   -9999.25    5.68700    7.13030
 10952.50000   66.06040  199.63160    0.24930    0.03070    8.82610    0.00280    2.65690  116.66480   -1.50520    5.27650   -9999.25    5.59240    7.43720
 10953.00000   64.82440  199.92330    0.24950    0.02830    8.84800    0.00140    2.66060  119.02800   -1.60870    5.16750   -9999.25    5.49940    7.53000
 10953.50000   61.81940  197.56400    0.24990    0.02990    8.86990    0.00000    2.66040  126.36270   -1.71220    5.06070   -9999.25    5.28720    7.40740
 10954.00000   57.46450  191.64540    0.25260    0.03850    8.87810   -0.00100    2.64580  136.47600   -1.83510    4.95620   -9999.25    5.13280    7.02190
 10954.50000   55.99740  186.79660    0.25620    0.04930    8.88200    0.00090    2.63090  140.65620   -1.99550    4.85380   -9999.25    4.98290    6.54730
 10955.00000   55.70030  182.32780    0.26030    0.05480    8.88580    0.01090    2.61200  138.64180   -2.15590    4.70900   -9999.25    4.83730    6.13820
 10955.50000   69.29140  179.58490    0.26610    0.06040    8.88960    0.02300    2.60480  135.07260   -2.31630    4.51300   -9999.25    4.69610    5.81350
 10956.00000   85.49020  184.03640    0.26990    0.06620    8.92610    0.03750    2.60110  132.21590   -2.47670    4.39030   -9999.25    4.55890    5.58810
 10956.50000   90.79070  186.71520    0.27210    0.07220    8.96550    0.05200    2.58770  127.96710   -2.49850    4.27100   -9999.25    4.42580    5.46120
 10957.00000   90.84950  186.48310    0.27120    0.06690    8.97470    0.05890    2.58840  124.17560   -2.28810    4.15490   -9999.25    4.34830    5.47620
 10957.50000   90.19870  187.10570    0.27240    0.05800    8.92640    0.05950    2.60440  124.29980   -2.06540    4.04200   -9999.25    4.28800    5.55610
 10958.00000   89.01910  188.70160    0.27420    0.06090    8.85500    0.05610    2.61270  129.65240   -2.02000    3.91750   -9999.25    4.19060    5.57170
 10958.50000   87.25030  187.45740    0.27680    0.06820    8.79590    0.05500    2.59630  140.23900   -2.15730    3.74520   -9999.25    4.01280    5.55000
 10959.00000   85.77610  186.89610    0.27310    0.07480    8.81140    0.05400    2.58570  145.93400   -2.22170    3.58050   -9999.25    3.84260    5.48110
 10959.50000   84.88510  189.11940    0.26510    0.07710    8.83230    0.06000    2.58240  146.01460   -2.35960    3.42300   -9999.25    3.68970    5.32850
 10960.00000   85.51630  192.73550    0.27320    0.10780    8.84660    0.07840    2.56650  140.03760   -2.56490    3.28060   -9999.25    3.56710    4.71520
 10960.50000   86.72110  196.77350    0.31680    0.14560    8.85920    0.10190    2.48870  133.56000   -2.77840    3.23790   -9999.25    3.53590    4.11710
 10961.00000   87.83220  198.69750    0.32370    0.18660    8.87170    0.10300    2.41090  125.79060   -2.82850    3.38800   -9999.25    3.53360    3.71890
 10961.50000   83.82470  196.92740    0.26190    0.23210    8.86850    0.09850    2.33860  114.77540   -2.74550    3.80920   -9999.25    4.04450    3.76290
 10962.00000   71.12700  191.91710    0.20010    0.24490    8.85100    0.07140    2.36540   96.32690   -2.62710    4.32550   -9999.25    4.85670    5.27780
 10962.50000   63.91960  139.48420    0.12570    0.12440    8.84130    0.04420    2.45530   75.78460   -2.37680    4.91170   -9999.25    5.83210    9.89610
 10963.00000   61.70620  123.28100    0.08150    0.05460    8.84780    0.02830    2.54520   66.72970   -2.36770    5.41640   -9999.25    7.00320   18.46300
 10963.50000   60.90750  119.74350    0.07380    0.03200    8.85430    0.01520    2.63510   65.73170   -2.35870    6.07320   -9999.25    7.50360   26.20200
 10964.00000   60.13550  124.15890    0.09290    0.03150    8.85560    0.00350    2.66570   74.10950   -2.34970    7.19390   -9999.25    7.85600   21.20920
 10964.50000   59.99500  127.10150    0.11710    0.04640    8.85510    0.00140    2.64470   86.68500   -2.32100    8.01480   -9999.25    8.60780   15.18100
 10965.00000   59.83800  130.04410    0.13580    0.06130    8.85460   -0.00030    2.61970   96.74470   -2.27380    8.85290   -9999.25    9.43560   10.60500
 10965.50000   59.83650  130.33580    0.14210    0.06820    8.85500   -0.00120    2.59690  100.07430   -2.06570    9.20230   -9999.25    9.77240    9.53800
 10966.00000   59.83480  127.59000    0.13500    0.05840    8.85490   -0.00210    2.60440   97.29820   -1.62120    9.06960   -9999.25    9.73270   10.52180
 10966.50000   59.83330  124.03120    0.12750    0.04340    8.85390   -0.00290    2.62380   94.31050   -1.15730    8.88090   -9999.25    9.83640   12.76200
 10967.00000   59.83190  122.33300    0.12370    0.03230    8.85300   -0.00370    2.64310   90.26530   -0.71960    8.70560   -9999.25    9.95450   15.07910
 10967.50000   60.12500  123.17620    0.11920    0.02640    8.85180   -0.00450    2.66250   84.21950   -0.49890    8.65710   -9999.25   10.06820   17.16260
 10968.00000   60.12360  126.01120    0.12710    0.02630    8.85060   -0.00400    2.66870   80.77460   -0.36740    8.60890   -9999.25    9.76230   17.46560
 10968.50000   60.12210  130.06600    0.13510    0.02640    8.84860   -0.00320    2.66690   85.04700   -0.23590    8.56070   -9999.25    9.40930   16.20680
 10969.00000   60.12070  134.60380    0.14940    0.02900    8.84620   -0.00250    2.65520   92.78550   -0.10440    8.44300   -9999.25    8.93300   13.73350
 10969.50000   60.11920  135.90920    0.16180    0.03780    8.85270   -0.00170    2.63960  102.04100    0.02700    8.33960   -9999.25    8.36490   11.60400
