~Version ---------------------------------------------------
VERS.   2.0 : CWLS log ASCII Standard -VERSION 2.0
WRAP.    NO : One line per depth step
DLM . SPACE : Column Data Section Delimiter
~Well ------------------------------------------------------
STRT .F                 1480.0 : START DEPTH
STOP .F                12502.0 : STOP DEPTH
STEP .F                    0.5 : STEP
NULL .                -9999.25 : NULL VALUE
COMP .                         : COMPANY
WELL .                         : WELL
FLD  .                         : FIELD
LOC  .                         : LOCATION
PROV .                         : PROVINCE
CNTY .                         : COUNTY
STAT .                         : STATE
CTRY .                         : COUNTRY
SRVC .                         : SERVICE COMPANY
DATE .                         : DATE
UWI  .                         : UNIQUE WELL ID
API  .                         : API NUMBER
SLAT .WGS84  5.818274946736999 : SURFACE LATITUDE
SLON .WGS84 3.1476536495485874 : SURFACE LONGITUDE
DATUM.F                    nan : DEPTH DATUM ELEV
~Curve Information -----------------------------------------
DEPT   .F     : 
DTCO   .US/F  : DELTA-T COMPRESSIONAL
DTSM   .US/F  : DELTA-T SHEAR
NPHI_LS.DEC   : NEUTRON POROSITY LIMESTONE
DPHI_LS.DEC   : DENSITY POROSITY LIMESTONE
CALD   .IN    : CALIPER FROM DENSITY LOG
DRHO   .G/C3  : BULK DENSITY CORRECTION
RHOB   .G/C3  : BULK DENSITY
GRR    .GAPI  : GAMMA RAY FROM RESISTIVITY LOG
SPR    .MV    : SPONTANEOUS POTENTIAL FROM RESISTIVITY LOG
ILD    .OHMM  : INDUCTION DEEP RESISTIVITY
CILD   .MMHO  : INDUCTION DEEP CONDUCTIVITY
ILM    .OHMM  : INDUCTION MEDIUM RESISTIVITY
SFLU   .OHMM  : SHALLOW FOCUSED RESISTIVITY (UNAVERAGED)
~Params ----------------------------------------------------
~Other -----------------------------------------------------
~ASCII -----------------------------------------------------
# ...
 12478.00000  102.44480  153.92650    0.34680    0.09320    6.27180   -0.00860    2.54930   -9999.25  -14.42480    1.14220   -9999.25    1.19360    1.54190
 12478.50000  103.03390  154.22240    0.35050    0.09200    6.27130   -0.01280    2.55290   -9999.25  -14.44930    1.16220   -9999.25    1.22930    1.62110
 12479.00000  101.56110  154.22390    0.34900    0.09380    6.28720   -0.01800    2.54960   -9999.25  -14.47380    1.22290   -9999.25    1.30670    1.71340
 12479.50000   99.79380  153.93080    0.33870    0.09490    6.25960   -0.02400    2.55000   -9999.25  -14.49840    1.32910   -9999.25    1.38890    1.73980
 12480.00000   97.43740  153.91330    0.33540    0.08920    6.22580   -0.02140    2.55200   -9999.25  -14.52290    1.39670   -9999.25    1.47640    1.81860
 12480.50000   95.08100  153.60510    0.34200    0.07850    6.20370   -0.01920    2.57470   -9999.25  -14.54740    1.45920   -9999.25    1.59240    2.10960
 12481.00000   93.01910  153.00320    0.35380    0.06640    6.19250   -0.02100    2.59350   -9999.25  -14.57200    1.51690   -9999.25    1.67040    2.82560
 12481.50000   91.54640  149.31460   -9999.25    0.07070    6.17880   -0.02430    2.59070   -9999.25  -14.58090    1.56980   -9999.25    1.70470    3.48760
 12482.00000   90.95730   97.67300   -9999.25    0.08510    6.16960   -0.02970    2.56740   -9999.25  -14.52030    1.60810   -9999.25    1.69220    3.20870
 12482.50000   91.87260   49.34580   -9999.25    0.09730    6.17130   -0.02800    2.54180   -9999.25  -14.45960    1.64970   -9999.25    1.68050    2.74670
 12483.00000   93.65520   53.54880   -9999.25    0.10050    6.17010   -0.02390    2.53910   -9999.25  -14.39900    1.68030   -9999.25    1.66890    2.38630
 12483.50000   95.15640   58.38320   -9999.25    0.10040    6.16910   -0.02280    2.53880   -9999.25  -14.33840    1.65080   -9999.25    1.65740    2.24680
 12484.00000   96.25920   62.84540   -9999.25    0.09830    6.17330   -0.02250    2.54210   -9999.25  -14.27780    1.63390   -9999.25    1.64600    2.18300
 12484.50000   96.55380   65.38470   -9999.25    0.09350    6.19150   -0.02160    2.54710   -9999.25  -14.21720    1.62290   -9999.25    1.64450    2.14500
 12485.00000   96.47510   65.58160   -9999.25    0.08990    6.19340   -0.02000    2.55730   -9999.25  -14.15650    1.62670   -9999.25    1.66610    2.18190
 12485.50000   -9999.25   -9999.25   -9999.25    0.08240    6.19540   -0.02020    2.56790   -9999.25  -14.09590    1.62380   -9999.25    1.69590    2.31110
 12486.00000   -9999.25   -9999.25   -9999.25    0.07590    6.19980   -0.02270    2.57680   -9999.25  -14.06220    1.63430   -9999.25    1.72610    2.49460
 12486.50000   -9999.25   -9999.25   -9999.25    0.07820    6.20450   -0.02590    2.57750   -9999.25  -14.06810    1.68260   -9999.25    1.75640    2.63200
 12487.00000   -9999.25   -9999.25   -9999.25    0.08080    6.20930   -0.03200    2.57140   -9999.25  -14.07390    1.74040   -9999.25    1.78720    2.67360
 12487.50000   -9999.25   -9999.25   -9999.25    0.08100    6.18300   -0.03190    2.56860   -9999.25  -14.07980    1.80020   -9999.25    1.81860    2.67870
 12488.00000   -9999.25   -9999.25   -9999.25    0.07470    6.18590   -0.02700    2.57630   -9999.25  -14.08570    1.83710   -9999.25    1.85050    2.69240
 12488.50000   -9999.25   -9999.25   -9999.25    0.06870    6.18870   -0.02150    2.58810   -9999.25  -14.06720    1.85900   -9999.25    1.88290    2.73600
 12489.00000   -9999.25   -9999.25   -9999.25    0.06730    6.19120   -0.01930    2.59540   -9999.25  -14.01470    1.87560   -9999.25    1.91090    2.75020
 12489.50000   -9999.25   -9999.25   -9999.25    0.06670    6.18150   -0.01920    2.59670   -9999.25  -14.13140    1.85940   -9999.25    1.92740    2.72480
 12490.00000   -9999.25   -9999.25   -9999.25    0.06830    6.17470   -0.01920    2.59580   -9999.25  -13.94710    1.88160   -9999.25    1.95130    2.70040
 12490.50000   -9999.25   -9999.25   -9999.25    0.06990    6.16790   -0.01910    2.59200   -9999.25  -13.74030    1.94220   -9999.25    1.97910    2.67630
 12491.00000   -9999.25   -9999.25   -9999.25    0.07070    6.14870   -0.01910    2.58570   -9999.25  -13.83720    1.97100   -9999.25    2.00920    2.60390
 12491.50000   -9999.25   -9999.25   -9999.25    0.06750    6.14000   -0.01910    2.59100   -9999.25  -13.76170    1.99460   -9999.25    2.03970    2.56650
 12492.00000   -9999.25   -9999.25   -9999.25    0.05850    6.14350   -0.02170    2.60200   -9999.25  -13.64010    2.01850   -9999.25    2.07070    2.82040
 12492.50000   -9999.25   -9999.25   -9999.25    0.04960    6.16300   -0.02580    2.61990   -9999.25  -13.51850    2.03250   -9999.25    2.10210    3.28510
 12493.00000   -9999.25   -9999.25   -9999.25    0.04780    6.19670   -0.02850    2.62850   -9999.25  -13.39690    2.02890   -9999.25    2.12130    3.50140
 12493.50000   -9999.25   -9999.25   -9999.25    0.05840    6.18950   -0.02830    2.61380   -9999.25  -13.34310    2.01640   -9999.25    2.08920    3.36930
 12494.00000   -9999.25   -9999.25   -9999.25    0.06810    6.19320   -0.02880    2.59260   -9999.25  -13.57570    2.00390   -9999.25    2.04810    3.08270
 12494.50000   -9999.25   -9999.25   -9999.25    0.07600    6.20690   -0.02970    2.58010   -9999.25  -13.82830    1.99020   -9999.25    2.00600    2.94870
 12495.00000   -9999.25   -9999.25   -9999.25    0.07330    6.19470   -0.03060    2.58420   -9999.25  -14.03550    1.95890   -9999.25    1.96480    2.89900
 12495.50000   -9999.25   -9999.25   -9999.25    0.07230    6.17810   -0.03160    2.58580   -9999.25  -14.29840    1.91370   -9999.25    1.92440    2.77090
 12496.00000   -9999.25   -9999.25   -9999.25    0.07550    6.16360   -0.03120    2.58020   -9999.25  -14.47880    1.86500   -9999.25    1.88480    2.62430
 12496.50000   -9999.25   -9999.25   -9999.25    0.07840    6.14910   -0.03030    2.57840   -9999.25  -14.20210    1.84450   -9999.25    1.85300    2.55240
 12497.00000   -9999.25   -9999.25   -9999.25    0.07560    6.14960   -0.02750    2.58000   -9999.25  -14.10070    1.81760   -9999.25    1.82890    2.52470
 12497.50000   -9999.25   -9999.25   -9999.25    0.07500    6.15110   -0.02140    2.58280   -9999.25   -9999.25   -9999.25   -9999.25    1.82550    2.51540
 12498.00000   -9999.25   -9999.25   -9999.25    0.07300    6.15270   -0.01940    2.58520   -9999.25   -9999.25   -9999.25   -9999.25    1.82430    2.52020
 12498.50000   -9999.25   -9999.25   -9999.25    0.07170    6.15420   -0.01730    2.58770   -9999.25   -9999.25   -9999.25   -9999.25    1.82310    2.54830
 12499.00000   -9999.25   -9999.25   -9999.25    0.07090    6.15570   -0.01940    2.58910   -9999.25   -9999.25   -9999.25   -9999.25    1.82190    2.51750
 12499.50000   -9999.25   -9999.25   -9999.25    0.07060    6.15230   -0.02170    2.59000   -9999.25   -9999.25   -9999.25   -9999.25   -9999.25   -9999.25
 12500.00000   -9999.25   -9999.25   -9999.25    0.07170    6.15230   -0.02550    2.58810   -9999.25   -9999.25   -9999.25   -9999.25   -9999.25   -9999.25
 12500.50000   -9999.25   -9999.25   -9999.25    0.07220    6.15360   -0.02930    2.58770   -9999.25   -9999.25   -9999.25   -9999.25   -9999.25   -9999.25
 12501.00000   -9999.25   -9999.25   -9999.25    0.07210    6.15430   -0.02910    2.58720   -9999.25   -9999.25   -9999.25   -9999.25   -9999.25   -9999.25
 12501.50000   -9999.25   -9999.25   -9999.25    0.07310    6.13210   -0.02800    2.58630   -9999.25   -9999.25   -9999.25   -9999.25   -9999.25   -9999.25
 12502.00000   -9999.25   -9999.25   -9999.25    0.07890    6.09270   -0.02720    2.57750   -9999.25   -9999.25   -9999.25   -9999.25   -9999.25   -9999.25
