~Version ---------------------------------------------------
VERS.   2.0 : CWLS log ASCII Standard -VERSION 2.0
WRAP.    NO : One line per depth step
DLM . SPACE : Column Data Section Delimiter
~Well ------------------------------------------------------
STRT .F                 1479.0 : START DEPTH
STOP .F                 6502.0 : STOP DEPTH
STEP .F                    0.5 : STEP
NULL .                -9999.25 : NULL VALUE
COMP .                         : COMPANY
WELL .                         : WELL
FLD  .                         : FIELD
LOC  .                         : LOCATION
PROV .                         : PROVINCE
CNTY .                         : COUNTY
STAT .                         : STATE
CTRY .                         : COUNTRY
SRVC .                         : SERVICE COMPANY
DATE .                         : DATE
UWI  .                         : UNIQUE WELL ID
API  .                         : API NUMBER
SLAT .WGS84  7.421619116200297 : SURFACE LATITUDE
SLON .WGS84 5.6041795297520025 : SURFACE LONGITUDE
DATUM.F                    nan : DEPTH DATUM ELEV
~Curve Information -----------------------------------------
DEPT   .F     : 1 MEASURED DEPTH
GRR    .GAPI  : GAMMA RAY FROM RESISTIVITY LOG
HCALR  .IN    : HRCC CALIPER CALIBRATED FROM RESISTIVITY LOG
AHT10  .OHMM  : ARRAY INDUCTION TWO FOOT RESISTIVITY A10
AHT30  .OHMM  : ARRAY INDUCTION TWO FOOT RESISTIVITY A30
AHT90  .OHMM  : ARRAY INDUCTION TWO FOOT RESISTIVITY A90
SPR    .MV    : SPONTANEOUS POTENTIAL FROM RESISTIVITY LOG
DTCO   .US/F  : DELTA-T COMPRESSIONAL
DTSM   .US/F  : DELTA-T SHEAR
NPHI_LS.DEC   : NEUTRON POROSITY LIMESTONE
DPHZ_LS.DEC   : HGRD STANDARD RESOLUTION DENSITY POROSITY
HDRA   .G/C3  : HRDD SPINE AND RIBS DENSITY CORRECTION
PEFZ   .B/E   : HRDD STANDARD RESOLUTION FORMATION PHOTOELECTRIC FACTOR
RHOZ   .G/C3  : HRDD STANDARD RESOLUTION FORMATION DENSITY
~Params ----------------------------------------------------
~Other -----------------------------------------------------
~ASCII -----------------------------------------------------
# ...
 6471.00000   -9999.25    7.80070  848.08970  256.84580  270.64430 -100.70830   51.28480   93.60460    0.00630    0.01810    0.00210    4.52380    2.68090
 6471.50000   -9999.25    7.77350 1025.67030  258.78240  334.42270 -102.05370   51.36510   93.54530    0.00620    0.02130    0.00250    4.43150    2.67480
 6472.00000   -9999.25    7.75100 1052.79980  260.73360  458.76350 -102.92270   51.39820   93.48610    0.00590    0.02150    0.00730    4.41910    2.67330
 6472.50000   -9999.25    7.73170 1031.55090  283.85080  589.64690 -103.39840   51.42220   93.46110   -9999.25    0.02030    0.01350    4.48800    2.67530
 6473.00000   -9999.25    7.70910  854.91030  359.59080  579.74270 -103.56560   51.48070   93.46240   -9999.25    0.02140    0.01840    4.60160    2.67350
 6473.50000   -9999.25    7.68660  610.43280  345.10270  527.47690 -103.38260   51.56700   93.46380   -9999.25    0.01990    0.01740    4.71520    2.67600
 6474.00000   -9999.25    7.69030  569.98280  300.41010  420.19030 -102.56570   51.72750   93.38840   -9999.25    0.02960    0.01340    4.82890    2.65930
 6474.50000   -9999.25    7.69490  468.77610  255.14770  316.56910 -101.64180   -9999.25   -9999.25   -9999.25    0.02880    0.01590    4.91180    2.66080
 6475.00000   -9999.25    7.67040  331.47010  182.66670  238.50130 -100.71790   -9999.25   -9999.25   -9999.25    0.02600    0.01990    4.91320    2.66560
 6475.50000   -9999.25    7.63610  224.44030  129.29360  165.11520  -99.62370   -9999.25   -9999.25   -9999.25    0.02540    0.02510    4.86190    2.66660
 6476.00000   -9999.25    7.60170  142.99980   98.82710  113.27990  -98.66840   -9999.25   -9999.25   -9999.25    0.02470    0.03450    4.81060    2.66770
 6476.50000   -9999.25    7.54790  114.69000   90.49150   97.71430  -97.91370   -9999.25   -9999.25   -9999.25    0.02040    0.05490    4.75940    2.67520
 6477.00000   -9999.25    7.50920  131.76700  118.66360  108.62270  -97.49220   -9999.25   -9999.25   -9999.25    0.01520    0.07100    4.71990    2.68610
 6477.50000   -9999.25    7.50120  176.34580  159.41270  138.80350  -97.07440   -9999.25   -9999.25   -9999.25    0.01120    0.07510    4.71370    2.69060
 6478.00000   -9999.25    7.55160  236.03660  198.72510  177.37020  -96.81610   -9999.25   -9999.25   -9999.25    0.00460    0.06210    4.79610    2.70200
 6478.50000   -9999.25    7.65400  293.85390  214.07280  183.55910  -96.55780   -9999.25   -9999.25   -9999.25   -0.00160    0.04790    4.89040    2.71260
 6479.00000   -9999.25    7.75600  293.12310  214.03930  181.45960  -96.29940   -9999.25   -9999.25   -9999.25    0.00310    0.03390    4.95470    2.70480
 6479.50000   -9999.25    7.79070  232.86810  202.11910  162.09410  -96.17660   -9999.25   -9999.25   -9999.25    0.00950    0.02430    4.98560    2.69310
 6480.00000   -9999.25    7.75080  243.96190  191.47730  140.10650  -96.17530   -9999.25   -9999.25   -9999.25    0.01580    0.02130    5.00450    2.68290
 6480.50000   -9999.25    7.75940  276.08370  198.16050  156.06070  -95.54070   -9999.25   -9999.25   -9999.25    0.01210    0.01980    5.02920    2.68950
 6481.00000   -9999.25    8.49070  265.88560  211.76680  194.95340  -94.87290   -9999.25   -9999.25   -9999.25    0.00770    0.01720    5.05490    2.69860
 6481.50000   -9999.25    7.56360  243.71970  226.30750  210.66990  -94.67010   -9999.25   -9999.25   -9999.25    0.00410    0.01470    5.08050    2.70060
 6482.00000   -9999.25    7.73340  231.53820  230.76810  173.05050  -94.67010   -9999.25   -9999.25   -9999.25    0.00690    0.01290    5.10610    2.69820
 6482.50000   -9999.25    7.88680  229.09350  204.47010  141.87680  -94.39350   -9999.25   -9999.25   -9999.25    0.00790    0.01520    5.13170    2.69640
 6483.00000   -9999.25    7.84510  242.50390  197.25380  132.78420  -93.55810   -9999.25   -9999.25   -9999.25    0.00680    0.01910    5.15950    2.69830
 6483.50000   -9999.25    7.44450  262.38510  197.97750  118.07240  -92.34940   -9999.25   -9999.25   -9999.25    0.00570    0.02040    5.19100    2.70020
 6484.00000   -9999.25    7.47520  263.21460  188.42720  107.96460  -90.80880   -9999.25   -9999.25   -9999.25    0.00500    0.02490    5.22250    2.70210
 6484.50000   -9999.25   -9999.25  241.45970  148.59540   78.76820  -89.26820   -9999.25   -9999.25   -9999.25   -9999.25   -9999.25   -9999.25   -9999.25
 6485.00000   -9999.25   -9999.25  177.87740  137.25150   61.11500  -87.74290   -9999.25   -9999.25   -9999.25   -9999.25   -9999.25   -9999.25   -9999.25
 6485.50000   -9999.25   -9999.25  153.87700  117.09130   55.56120  -87.10070   -9999.25   -9999.25   -9999.25   -9999.25   -9999.25   -9999.25   -9999.25
 6486.00000   -9999.25   -9999.25  141.02550   94.54760   50.44050  -86.39980   -9999.25   -9999.25   -9999.25   -9999.25   -9999.25   -9999.25   -9999.25
 6486.50000   -9999.25   -9999.25   98.59050   75.21240   45.38430  -84.95850   -9999.25   -9999.25   -9999.25   -9999.25   -9999.25   -9999.25   -9999.25
 6487.00000   -9999.25   -9999.25   73.84380   53.94120   33.83430  -83.51730   -9999.25   -9999.25   -9999.25   -9999.25   -9999.25   -9999.25   -9999.25
 6487.50000   -9999.25   -9999.25   57.72510   25.98400   17.48730  -81.01490   -9999.25   -9999.25   -9999.25   -9999.25   -9999.25   -9999.25   -9999.25
 6488.00000   -9999.25   -9999.25   19.03160   11.21570    9.78140  -78.04860   -9999.25   -9999.25   -9999.25   -9999.25   -9999.25   -9999.25   -9999.25
 6488.50000   -9999.25   -9999.25    8.80060    7.68290    5.65000  -75.08230   -9999.25   -9999.25   -9999.25   -9999.25   -9999.25   -9999.25   -9999.25
 6489.00000   -9999.25   -9999.25    8.54520    8.10290    5.73050  -72.65910   -9999.25   -9999.25   -9999.25   -9999.25   -9999.25   -9999.25   -9999.25
 6489.50000   -9999.25   -9999.25    9.68020    8.78320    6.16750  -72.50630   -9999.25   -9999.25   -9999.25   -9999.25   -9999.25   -9999.25   -9999.25
 6490.00000   -9999.25   -9999.25    9.95650    7.42820    4.43880  -73.07280   -9999.25   -9999.25   -9999.25   -9999.25   -9999.25   -9999.25   -9999.25
 6490.50000   -9999.25   -9999.25    5.44240    3.82440    2.44040  -74.20010   -9999.25   -9999.25   -9999.25   -9999.25   -9999.25   -9999.25   -9999.25
 6491.00000   -9999.25   -9999.25    2.49290    2.00620    1.89720  -75.33080   -9999.25   -9999.25   -9999.25   -9999.25   -9999.25   -9999.25   -9999.25
 6491.50000   -9999.25   -9999.25    2.15170    1.89010    1.65630  -75.00070   -9999.25   -9999.25   -9999.25   -9999.25   -9999.25   -9999.25   -9999.25
 6492.00000   -9999.25   -9999.25    2.38470    2.00940    1.52760  -71.82500   -9999.25   -9999.25   -9999.25   -9999.25   -9999.25   -9999.25   -9999.25
 6492.50000   -9999.25   -9999.25    3.05570    2.22160    1.42190  -68.65000   -9999.25   -9999.25   -9999.25   -9999.25   -9999.25   -9999.25   -9999.25
 6493.00000   -9999.25   -9999.25    3.57520    2.45610    1.36050  -68.90460   -9999.25   -9999.25   -9999.25   -9999.25   -9999.25   -9999.25   -9999.25
 6493.50000   -9999.25   -9999.25    3.56600    2.69040    1.36070  -72.17290   -9999.25   -9999.25   -9999.25   -9999.25   -9999.25   -9999.25   -9999.25
 6494.00000   -9999.25   -9999.25    3.46420    2.86030    1.39680  -75.73530   -9999.25   -9999.25   -9999.25   -9999.25   -9999.25   -9999.25   -9999.25
 6494.50000   -9999.25   -9999.25    3.47750    3.00870    1.77350  -77.49390   -9999.25   -9999.25   -9999.25   -9999.25   -9999.25   -9999.25   -9999.25
 6495.00000   -9999.25   -9999.25    3.63890    3.21540    2.23910  -76.28750   -9999.25   -9999.25   -9999.25   -9999.25   -9999.25   -9999.25   -9999.25
 6495.50000   -9999.25   -9999.25   -9999.25   -9999.25   -9999.25  -71.86080   -9999.25   -9999.25   -9999.25   -9999.25   -9999.25   -9999.25   -9999.25
 6496.00000   -9999.25   -9999.25   -9999.25   -9999.25   -9999.25  -65.93520   -9999.25   -9999.25   -9999.25   -9999.25   -9999.25   -9999.25   -9999.25
 6496.50000   -9999.25   -9999.25   -9999.25   -9999.25   -9999.25  -64.00860   -9999.25   -9999.25   -9999.25   -9999.25   -9999.25   -9999.25   -9999.25
