~Version ---------------------------------------------------
VERS.   2.0 : CWLS log ASCII Standard -VERSION 2.0
WRAP.    NO : One line per depth step
DLM . SPACE : Column Data Section Delimiter
~Well ------------------------------------------------------
STRT .F                 1479.0 : START DEPTH
STOP .F                 6502.0 : STOP DEPTH
STEP .F                    0.5 : STEP
NULL .                -9999.25 : NULL VALUE
COMP .                         : COMPANY
WELL .                         : WELL
FLD  .                         : FIELD
LOC  .                         : LOCATION
PROV .                         : PROVINCE
CNTY .                         : COUNTY
STAT .                         : STATE
CTRY .                         : COUNTRY
SRVC .                         : SERVICE COMPANY
DATE .                         : DATE
UWI  .                         : UNIQUE WELL ID
API  .                         : API NUMBER
SLAT .WGS84  7.421619116200297 : SURFACE LATITUDE
SLON .WGS84 5.6041795297520025 : SURFACE LONGITUDE
DATUM.F                    nan : DEPTH DATUM ELEV
~Curve Information -----------------------------------------
DEPT   .F     : 1 MEASURED DEPTH
GRR    .GAPI  : GAMMA RAY FROM RESISTIVITY LOG
HCALR  .IN    : HRCC CALIPER CALIBRATED FROM RESISTIVITY LOG
AHT10  .OHMM  : ARRAY INDUCTION TWO FOOT RESISTIVITY A10
AHT30  .OHMM  : ARRAY INDUCTION TWO FOOT RESISTIVITY A30
AHT90  .OHMM  : ARRAY INDUCTION TWO FOOT RESISTIVITY A90
SPR    .MV    : SPONTANEOUS POTENTIAL FROM RESISTIVITY LOG
DTCO   .US/F  : DELTA-T COMPRESSIONAL
DTSM   .US/F  : DELTA-T SHEAR
NPHI_LS.DEC   : NEUTRON POROSITY LIMESTONE
DPHZ_LS.DEC   : HGRD STANDARD RESOLUTION DENSITY POROSITY
HDRA   .G/C3  : HRDD SPINE AND RIBS DENSITY CORRECTION
PEFZ   .B/E   : HRDD STANDARD RESOLUTION FORMATION PHOTOELECTRIC FACTOR
RHOZ   .G/C3  : HRDD STANDARD RESOLUTION FORMATION DENSITY
~Params ----------------------------------------------------
~Other -----------------------------------------------------
~ASCII -----------------------------------------------------
# ...
 5379.00000   55.49050    7.81570   49.86050   45.25080   43.36890  -43.38430   58.54350  107.15150    0.05380    0.01420    0.01510    4.65410    2.68660
 5379.50000   59.34040    7.79540   49.85920   44.26240   41.41820  -43.55270   59.00610  107.36290    0.05950    0.01590    0.01030    4.62480    2.68260
 5380.00000   59.73340    7.78660   49.59820   43.27320   39.93400  -43.79720   59.02840  106.60570    0.06250    0.02180    0.00550    4.58350    2.67220
 5380.50000   58.54550    7.78980   48.26440   42.29900   40.14900  -44.05220   58.29030  105.76590    0.06350    0.01630    0.00060    4.54220    2.68210
 5381.00000   55.57820    7.79300   45.02860   41.64190   40.47080  -44.14910   57.71330  104.92610    0.06320    0.01850   -0.00120    4.48260    2.67830
 5381.50000   51.86410    7.79620   33.63400   41.01090   40.78930  -44.14910   57.48570  104.20280    0.06140    0.01620    0.00010    4.38250    2.68230
 5382.00000   47.36820    7.79940   29.31380   39.32280   40.98180  -43.82470   57.49470  104.01080    0.05600    0.00930    0.00240    4.28300    2.69410
 5382.50000   40.29390    7.80440   29.53360   37.23990   40.58460  -42.93420   57.84450  104.47780    0.04750    0.00920    0.00410    4.29090    2.69420
 5383.00000   40.11680    7.82700   29.79020   33.01590   35.73140  -41.55150   58.62030  105.42870    0.04780    0.01800    0.00290    4.34320    2.67930
 5383.50000   44.85330    7.85630   29.74780   28.78480   25.29380  -40.03680   59.41670  107.53310    0.05830    0.02810    0.00130    4.26240    2.66170
 5384.00000   49.36320    7.83050   29.62690   28.41050   25.70760  -38.52220   59.80200  110.25680    0.06940    0.03160    0.00280    4.14100    2.65600
 5384.50000   51.86770    7.78220   29.78270   28.74370   26.96710  -37.00760   60.13840  111.46120    0.07600    0.03090    0.00430    4.03400    2.65710
 5385.00000   53.67220    7.77620   30.68410   29.43130   28.28830  -35.49300   60.73010  112.36440    0.07620    0.02950    0.00600    4.07160    2.65950
 5385.50000   55.72730    7.80870   33.10820   30.13540   29.19910  -33.90530   61.59850  112.69340    0.07330    0.02820    0.00680    4.19550    2.66180
 5386.00000   60.29440    7.84120   33.35650   28.44990   26.50170  -33.00050   61.78280  112.80500    0.07600    0.02490    0.00560    4.17340    2.66750
 5386.50000   65.64130    7.85330   23.95050   19.48330   16.65550  -31.96430   61.40160  112.65930    0.09380    0.03290    0.00380    4.06260    2.65290
 5387.00000   69.82480    7.83640   17.80580   15.67620   13.69780  -30.98130   61.15670  112.24950    0.10800    0.03570    0.00270    3.96440    2.65030
 5387.50000   64.53320    7.82840   23.48920   18.55880   14.36570  -30.14650   61.17610  111.83960    0.09970    0.03080    0.00310    3.97650    2.66400
 5388.00000   51.31780    7.81100   30.95170   25.60420   21.90420  -29.31170   60.49570  111.60020    0.08180    0.01730    0.00510    4.16960    2.68540
 5388.50000   46.87200    7.79360   26.65570   25.43060   20.80860  -28.74020   59.85940  111.70540    0.07610    0.01130    0.00710    4.34440    2.69130
 5389.00000   51.35080    7.81290   19.54830   16.93170   13.69540  -28.63990   60.16040  113.35370    0.09620    0.02400    0.00680    4.18240    2.67100
 5389.50000   60.34810    7.85980   16.23700   13.15400   10.76840  -28.53960   60.87560  114.69860    0.12140    0.03520    0.00440    3.99200    2.65100
 5390.00000   63.79530    7.89050   20.54120   15.43650   13.45720  -28.47480   59.62740  116.42530    0.11550    0.03240    0.00390    4.01240    2.65810
 5390.50000   64.89210    7.89070   18.87720   17.50740   15.39870  -28.23380   57.24750  118.27370    0.10620    0.02370    0.00600    4.21300    2.66830
 5391.00000   71.93670    7.89100   14.56480   12.81690   10.35750  -27.59030   56.26070  119.96380    0.09980    0.02350    0.00670    4.24020    2.67200
 5391.50000   83.07290    7.89280   10.40850    8.59010    7.27270  -27.57140   59.11610  121.34320    0.12740    0.02580    0.00580    4.09360    2.66510
 5392.00000   90.09390    7.89890    9.92330    8.72180    7.16370  -29.02070   62.52410  120.50340    0.16580    0.02380    0.00500    3.91070    2.66870
 5392.50000   82.36290    7.90500   10.77610   10.03980    8.72690  -29.67860   64.47940  118.81730    0.15300    0.01640    0.00410    3.86710    2.68410
 5393.00000   73.08980    7.91110   12.48270   11.90660   10.67210  -29.78340   63.26320  117.47600    0.12800    0.01950    0.00330    3.90170    2.67790
 5393.50000   68.44340    7.91730   12.48770   11.74320   10.17880  -30.13200   62.17650  116.21230    0.11110    0.02500    0.00140    4.00100    2.66900
 5394.00000   66.91600    7.91800   12.03590   11.22040    9.92360  -30.48050   61.74820  114.97970    0.10600    0.02920   -0.00990    4.13200    2.66000
 5394.50000   65.99480    7.91340   13.70380   12.82460   11.73140  -30.75900   61.61560  113.91730    0.09790    0.02560   -0.01640    4.20290    2.66460
 5395.00000   64.72740    7.90890   16.04240   15.00050   14.09910  -31.00890   61.53630  114.52340    0.08460    0.02120   -0.01340    4.25680    2.67360
 5395.50000   64.31030    7.90430   15.81090   14.77960   13.29730  -31.25090   61.93170  115.85980    0.07460    0.01330   -0.00430    4.23480    2.68740
 5396.00000   65.80750    7.89980   12.74090   12.45320   11.91310  -31.05430   63.20820  117.62870    0.08290    0.01120    0.00550    4.14790    2.69070
 5396.50000   67.86910    7.89520   11.91150   11.69670   11.34840  -30.85760   64.67780  119.82400    0.09510    0.02400    0.00620    4.10700    2.67110
 5397.00000   71.94260    7.89070   11.89930   10.91940    9.82660  -29.91710   65.96040  122.01930    0.10670    0.03870    0.00500    4.16050    2.65150
 5397.50000   77.04030    7.90100   11.83860    8.94890    8.39760  -29.64630   67.30990  124.87870    0.11660    0.04700    0.00230    4.21410    2.63420
 5398.00000   77.48960    7.91310   10.11610    8.39900    7.92060  -29.25030   68.29370  127.03250    0.12620    0.04510   -0.00040    4.24830    2.63170
 5398.50000   75.76530    7.92030    8.93790    8.11330    7.85480  -28.66670   69.33410  128.49720    0.13590    0.04790   -0.00310    4.26720    2.62860
 5399.00000   73.77220    7.92030    8.86680    8.19630    7.88830  -28.64630   69.79930  129.61110    0.14570    0.04990   -0.00430    4.23650    2.62790
 5399.50000   71.56970    7.92030    8.94230    8.28340    7.93510  -28.89740   70.00130  130.62120    0.15210    0.04930   -0.00230    4.18730    2.62730
 5400.00000   69.44390    7.91840    9.01840    8.34040    7.96170  -29.13520   70.40630  131.63130    0.15890    0.04700    0.00090    4.12200    2.62940
 5400.50000   69.44470    7.91580    8.92910    8.34900    7.98850  -29.08280   70.86530  132.64210    0.16040    0.04450    0.00280    4.06090    2.63210
 5401.00000   70.94100    7.91310    8.72040    8.31930    8.00230  -29.03050   71.29480  133.77340    0.15880    0.04510    0.00350    4.00510    2.63300
 5401.50000   74.93210    7.91050    8.45310    8.14760    7.80690  -29.62960   72.14840  135.44340    0.16090    0.04810    0.00410    3.94920    2.62820
 5402.00000   81.25610    7.90790    7.98990    7.20770    7.18470  -30.75180   72.91830  135.77510    0.16830    0.05270    0.00470    3.87650    2.61990
 5402.50000   92.79200    7.90550    6.96870    6.22780    6.07140  -32.79030   73.47120  134.55010    0.18170    0.06550    0.00380    3.76600    2.59800
 5403.00000  105.40320    7.90600    6.07790    5.49440    5.08930  -34.82880   73.67530  133.32500    0.19250    0.07520    0.00290    3.65550    2.58140
 5403.50000  116.99580    7.90750    5.93680    5.16360    4.80930  -36.96430   73.37950  130.87330    0.18720    0.08590    0.00190    3.54500    2.56270
 5404.00000  119.25320    7.91080    6.28180    5.65580    5.32630  -39.67850   72.05000  128.68880    0.17480    0.08410    0.00100    3.55390    2.56620
 5404.50000  106.46080    7.91420    7.22450    6.71930    6.41590  -42.19150   70.52460  126.49950    0.16110    0.08090    0.00010    3.62830    2.57170
