~Version ---------------------------------------------------
VERS.   2.0 : CWLS log ASCII Standard -VERSION 2.0
WRAP.    NO : One line per depth step
DLM . SPACE : Column Data Section Delimiter
~Well ------------------------------------------------------
STRT .F                 1479.0 : START DEPTH
STOP .F                 6502.0 : STOP DEPTH
STEP .F                    0.5 : STEP
NULL .                -9999.25 : NULL VALUE
COMP .                         : COMPANY
WELL .                         : WELL
FLD  .                         : FIELD
LOC  .                         : LOCATION
PROV .                         : PROVINCE
CNTY .                         : COUNTY
STAT .                         : STATE
CTRY .                         : COUNTRY
SRVC .                         : SERVICE COMPANY
DATE .                         : DATE
UWI  .                         : UNIQUE WELL ID
API  .                         : API NUMBER
SLAT .WGS84  7.421619116200297 : SURFACE LATITUDE
SLON .WGS84 5.6041795297520025 : SURFACE LONGITUDE
DATUM.F                    nan : DEPTH DATUM ELEV
~Curve Information -----------------------------------------
DEPT   .F     : 1 MEASURED DEPTH
GRR    .GAPI  : GAMMA RAY FROM RESISTIVITY LOG
HCALR  .IN    : HRCC CALIPER CALIBRATED FROM RESISTIVITY LOG
AHT10  .OHMM  : ARRAY INDUCTION TWO FOOT RESISTIVITY A10
AHT30  .OHMM  : ARRAY INDUCTION TWO FOOT RESISTIVITY A30
AHT90  .OHMM  : ARRAY INDUCTION TWO FOOT RESISTIVITY A90
SPR    .MV    : SPONTANEOUS POTENTIAL FROM RESISTIVITY LOG
DTCO   .US/F  : DELTA-T COMPRESSIONAL
DTSM   .US/F  : DELTA-T SHEAR
NPHI_LS.DEC   : NEUTRON POROSITY LIMESTONE
DPHZ_LS.DEC   : HGRD STANDARD RESOLUTION DENSITY POROSITY
HDRA   .G/C3  : HRDD SPINE AND RIBS DENSITY CORRECTION
PEFZ   .B/E   : HRDD STANDARD RESOLUTION FORMATION PHOTOELECTRIC FACTOR
RHOZ   .G/C3  : HRDD STANDARD RESOLUTION FORMATION DENSITY
~Params ----------------------------------------------------
~Other -----------------------------------------------------
~ASCII -----------------------------------------------------
# ...
 2935.00000   52.52140    7.88190    6.80970    5.03210    4.36650  -83.64540   64.97440  119.13030    0.14970    0.07420    0.00650    3.57040    2.58400
 2935.50000   47.12010    7.85730    8.46110    5.66760    4.82550  -90.87520   63.86340  115.65410    0.13510    0.09020    0.00770    3.70260    2.55560
 2936.00000   40.72140    7.81660   10.19750    6.05310    4.84990  -97.31600   63.64180  114.73680    0.12950    0.10480    0.00900    3.78670    2.53060
 2936.50000   34.94010    7.77580   10.55430    5.99400    4.66020 -102.32570   63.62160  114.71300    0.12350    0.11320    0.01130    3.86060    2.51610
 2937.00000   33.36740    7.74170    9.48540    5.67430    4.34870 -105.09020   63.94010  114.68920    0.11790    0.10750    0.02650    3.93680    2.52620
 2937.50000   35.77650    7.74160    8.19630    5.20980    4.04760 -105.13540   64.42240  114.69060    0.11230    0.10320    0.02890    3.98560    2.53350
 2938.00000   38.64780    7.77780    7.29100    4.73410    3.75790 -104.06730   64.40810  114.77780    0.11170    0.10920    0.02170    4.03090    2.52300
 2938.50000   39.89730    7.83280    6.65680    4.35000    3.56490 -102.99920   63.76630  114.77630    0.11120    0.10960    0.00940    4.07620    2.52230
 2939.00000   38.32630    7.88780    6.79280    4.32790    3.59810 -101.66160   62.87060  114.69490    0.10860    0.10020    0.00570    4.16660    2.53850
 2939.50000   37.42520    7.92170    7.44070    4.51790    3.76010 -100.75350   62.07160  114.32630    0.10550    0.09180    0.00200    4.28930    2.55290
 2940.00000   37.54040    7.86830    8.15040    4.77160    3.98600 -100.10140   61.32400  113.80060    0.10230    0.09620   -0.00010    4.39970    2.54510
 2940.50000   37.97720    7.80020    8.79910    5.03960    4.01690  -99.44920   60.94360  113.27480    0.09840    0.09480   -0.00030    4.46300    2.54800
 2941.00000   39.30590    7.80020    8.91780    5.11890    3.99690  -98.66160   60.69510  112.98720    0.09200    0.08500    0.00050    4.50800    2.56250
 2941.50000   40.73920    7.84630    8.84480    5.10390    4.00590  -95.08170   60.95190  112.92470    0.08710    0.07310    0.00130    4.53610    2.58000
 2942.00000   40.84390    7.89340    8.77250    5.08360    4.02140  -95.42300   61.76460  113.10980    0.09440    0.06820    0.00210    4.41650    2.59020
 2942.50000   39.73150    7.87530    8.70080    5.05780    3.83310  -97.46680   62.52090  113.38430    0.10800    0.07200    0.00410    4.28780    2.58820
 2943.00000   36.83460    7.81690    8.66870    5.05320    3.60540  -98.31180   62.94710  113.90590    0.12020    0.08030    0.00610    4.20460    2.57240
 2943.50000   32.70600    7.76560    8.50010    5.04870    3.58390  -96.49240   63.29620  114.42760    0.12510    0.09320    0.00710    4.26680    2.55030
 2944.00000   29.17930    7.74680    8.21820    5.24200    3.58740  -94.08580   63.42760  114.79960    0.12280    0.10780    0.00510    4.41400    2.52290
 2944.50000   28.47650    7.75690    8.54230    5.56610    3.64160  -90.75860   63.36850  115.36180    0.11480    0.11670    0.00310    4.56120    2.51110
 2945.00000   30.43330    7.76700    8.86950    5.91030    3.69660  -86.94710   63.20300  116.27170    0.10630    0.11290    0.00280    4.65290    2.51410
 2945.50000   37.17400    7.79920    8.41180    6.09150    3.75250  -83.13570   63.60600  117.16130    0.09550    0.10000    0.00400    4.68580    2.53580
 2946.00000   47.99590    7.84230    6.93030    5.55930    3.80440  -75.00050   65.02300  118.83110    0.08430    0.08720    0.00510    4.67610    2.55840
 2946.50000   62.34130    7.86810    5.99400    4.69880    3.83570  -65.76600   67.16900  123.96500    0.07910    0.07020    0.00630    4.58170    2.58980
 2947.00000   74.23600    7.89390    5.35850    4.40480    3.87140  -56.10290   69.92750  128.71510    0.09430    0.06560    0.00690    4.30540    2.59780
 2947.50000   86.13070    7.96380    4.54250    4.12920    3.94040  -47.24280   72.87770  132.41270    0.13780    0.07480    0.00640    3.96560    2.58230
 2948.00000   92.95070    8.02650    3.75080    3.94810    4.03280  -40.06090   75.40540  136.40110    0.17880    0.09040    0.00550    3.62590    2.55540
 2948.50000   95.53010    8.07390    3.34920    3.87110    4.14420  -40.63410   76.40800  140.60490    0.19990    0.09920    0.00390    3.36720    2.54040
 2949.00000   91.78800    8.06780    3.33320    3.91100    4.37930  -42.95180   76.16040  143.01400    0.20780    0.09790    0.00230    3.24700    2.54250
 2949.50000   87.65620    8.05680    3.76330    4.05030    4.62770  -44.40880   75.51170  142.68120    0.19400    0.08920    0.00190    3.17650    2.55740
 2950.00000   84.57890    8.04580    4.04380    4.33830    4.91820  -45.33210   75.81840  142.34830    0.17510    0.08060    0.00360    3.20920    2.57210
 2950.50000   84.59510    8.02610    4.01290    4.53530    4.97960  -46.06700   76.63670  142.07240    0.16690    0.07790    0.00910    3.25720    2.57700
 2951.00000   88.71130    8.00510    3.96380    4.42350    4.83230  -47.20410   76.52920  141.87840    0.17080    0.08920    0.02500    3.28040    2.55760
 2951.50000   96.04100    8.00550    3.80880    4.21180    4.62760  -48.34130   75.54420  141.02590    0.18120    0.09520    0.05820    3.29010    2.54730
 2952.00000  101.41530    8.12250    3.54580    4.04270    4.52250  -49.52410   74.18820  140.01490    0.18920    0.10360    0.08970    3.26030    2.53280
 2952.50000   92.94460    8.60690    3.72070    4.40550    4.70170  -50.75460   72.16410  138.00170    0.16850    0.09000    0.07550    3.22350    2.54870
 2953.00000   79.00830    7.88910    4.43180    5.08040    5.62860  -51.98500   71.24140  135.98850    0.14010    0.07540    0.04640    3.17490    2.57320
 2953.50000   73.79360    7.90640    4.98400    5.23760    6.23380  -53.40820   70.62060  134.20170    0.12690    0.07220    0.02080    3.10660    2.58550
 2954.00000   77.40460    7.98140    3.81450    4.30060    5.14660  -54.63600   69.94690  131.33640    0.13480    0.07600    0.00630    3.04620    2.58020
 2954.50000   77.43630    7.98140    3.33490    3.81600    4.05620  -55.60200   68.23610  127.60370    0.15350    0.08100   -0.00450    2.99810    2.57150
 2955.00000   69.87350    7.97380    3.66260    4.24010    4.61040  -56.47420   66.03200  123.33710    0.16200    0.07610   -0.00560    2.98470    2.57980
 2955.50000   60.72840    7.96350    5.11980    6.33750    7.89490  -57.92900   63.22660  120.24790    0.14490    0.06590   -0.00550    3.39190    2.59470
 2956.00000   49.88120    7.95320    8.46290    9.72890   12.60330  -61.62910   60.46780  116.35220    0.11860    0.05290   -0.00390    3.92820    2.61220
 2956.50000   40.42230    7.94490   11.33750   12.71650   15.69410  -67.35670   59.59580  112.12490    0.09030    0.04290   -0.00240    4.31180    2.62980
 2957.00000   32.50790    7.93700   11.16190   12.11350   14.97810  -69.59640   59.06360  108.60670    0.06320    0.03800   -0.00080    4.63160    2.64280
 2957.50000   30.17250    7.90840    9.91470   11.33560   14.20220  -71.70420   58.82070  106.86140    0.05290    0.03860    0.00070    4.78800    2.64370
 2958.00000   35.10640    7.87760    9.01850   10.60770   13.71280  -73.74510   58.72060  106.28040    0.05080    0.04020    0.00230    4.75030    2.64290
 2958.50000   40.62560    7.84680   10.73410   10.36990   13.68430  -74.88200   58.51930  106.48790    0.05620    0.03900    0.00430    4.58270    2.64340
 2959.00000   45.00630    7.84730   14.63660   10.48610   13.65580  -76.21020   58.21360  106.64620    0.06100    0.03220    0.00690    4.42030    2.64820
 2959.50000   49.60350    7.84440   18.66870   11.42720   13.50170  -77.58880   58.21770  106.80460    0.05850    0.01980    0.00850    4.42630    2.66510
 2960.00000   56.70470    7.83710   23.25570   12.52170   12.89620  -81.72510   58.42410  107.00010    0.05810    0.00930    0.00470    4.49600    2.68800
 2960.50000   59.92580    7.82200   16.79940   11.51120    8.25120  -86.95880   58.68380  107.19660    0.06360    0.00410    0.00060    4.44090    2.70630
