~Version ---------------------------------------------------
VERS.   2.0 : CWLS log ASCII Standard -VERSION 2.0
WRAP.    NO : One line per depth step
DLM . SPACE : Column Data Section Delimiter
~Well ------------------------------------------------------
STRT .F                 1479.0 : START DEPTH
STOP .F                 6502.0 : STOP DEPTH
STEP .F                    0.5 : STEP
NULL .                -9999.25 : NULL VALUE
COMP .                         : COMPANY
WELL .                         : WELL
FLD  .                         : FIELD
LOC  .                         : LOCATION
PROV .                         : PROVINCE
CNTY .                         : COUNTY
STAT .                         : STATE
CTRY .                         : COUNTRY
SRVC .                         : SERVICE COMPANY
DATE .                         : DATE
UWI  .                         : UNIQUE WELL ID
API  .                         : API NUMBER
SLAT .WGS84  7.421619116200297 : SURFACE LATITUDE
SLON .WGS84 5.6041795297520025 : SURFACE LONGITUDE
DATUM.F                    nan : DEPTH DATUM ELEV
~Curve Information -----------------------------------------
DEPT   .F     : 1 MEASURED DEPTH
GRR    .GAPI  : GAMMA RAY FROM RESISTIVITY LOG
HCALR  .IN    : HRCC CALIPER CALIBRATED FROM RESISTIVITY LOG
AHT10  .OHMM  : ARRAY INDUCTION TWO FOOT RESISTIVITY A10
AHT30  .OHMM  : ARRAY INDUCTION TWO FOOT RESISTIVITY A30
AHT90  .OHMM  : ARRAY INDUCTION TWO FOOT RESISTIVITY A90
SPR    .MV    : SPONTANEOUS POTENTIAL FROM RESISTIVITY LOG
DTCO   .US/F  : DELTA-T COMPRESSIONAL
DTSM   .US/F  : DELTA-T SHEAR
NPHI_LS.DEC   : NEUTRON POROSITY LIMESTONE
DPHZ_LS.DEC   : HGRD STANDARD RESOLUTION DENSITY POROSITY
HDRA   .G/C3  : HRDD SPINE AND RIBS DENSITY CORRECTION
PEFZ   .B/E   : HRDD STANDARD RESOLUTION FORMATION PHOTOELECTRIC FACTOR
RHOZ   .G/C3  : HRDD STANDARD RESOLUTION FORMATION DENSITY
~Params ----------------------------------------------------
~Other -----------------------------------------------------
~ASCII -----------------------------------------------------
# ...
 3741.00000   46.74910    7.84880   40.36880   21.31590   18.46720 -131.61200   58.58870  111.11810    0.10330    0.07400    0.00340    4.89480    2.58260
 3741.50000   44.27100    7.86370   47.64370   22.96950   19.76930 -132.74600   59.69380  111.42250    0.11530    0.08200    0.00490    4.86330    2.56670
 3742.00000   40.60060    7.87640   46.32910   23.01370   19.71000 -133.70990   60.66550  111.86500    0.12980    0.08990    0.00570    4.80550    2.55630
 3742.50000   36.93020    7.86870   39.65620   20.97370   18.34010 -134.50100   61.30520  112.30740    0.14730    0.10420    0.00130    4.74770    2.53200
 3743.00000   32.93380    7.84130   33.68420   19.52610   16.97450 -135.62720   61.59730  112.42680    0.16710    0.12450   -0.00590    4.68890    2.49740
 3743.50000   31.67710    7.81390   34.26580   19.55490   16.29680 -137.09080   61.13570  112.44820    0.16240    0.13790   -0.01390    4.68900    2.47420
 3744.00000   34.92910    7.82330   38.75260   20.38270   16.28550 -138.55440   60.39050  111.91330    0.14450    0.13290   -0.01110    4.76700    2.48250
 3744.50000   41.02190    7.84100   43.92120   21.24550   16.45260 -139.37080   59.92770  111.47430    0.12590    0.11460   -0.00940    4.86320    2.51410
 3745.00000   46.47320    7.85200   48.26990   22.14490   16.62140 -139.99390   59.73560  111.67930    0.09560    0.10320   -0.00580    4.95830    2.53360
 3745.50000   49.66430    7.86290   51.71970   23.03700   16.62970 -140.44230   60.67710  111.88440    0.09310    0.10370   -0.00360    4.86740    2.53300
 3746.00000   49.67490    7.87380   54.19230   22.74240   16.38350 -140.23540   61.91790  112.40740    0.10760    0.12150   -0.00280    4.75150    2.50230
 3746.50000   45.77390    7.88460   53.72050   20.58460   15.93420 -139.87350   62.62290  113.23550    0.12620    0.13970   -0.00210    4.63240    2.47110
 3747.00000   40.82130    7.89120   53.50170   20.00720   15.49720 -139.03650   62.79330  114.35830    0.13980    0.15050   -0.00130    4.63250    2.45270
 3747.50000   37.63970    7.89780   54.11400   19.99910   15.01030 -138.19940   62.54100  115.31660    0.12830    0.14340   -0.00060    4.82210    2.46480
 3748.00000   38.25560    7.92520   53.85400   20.16140   14.50510 -137.66830   62.25980  115.75640    0.10860    0.11800    0.00040    5.04110    2.50820
 3748.50000   38.82350    7.95980   51.13730   19.99510   13.90700 -137.26690   62.34100  116.93650    0.09640    0.10870    0.00180    5.22120    2.52420
 3749.00000   38.72390    7.94940   46.67660   18.92670   13.33370 -136.95970   63.03500  118.11650    0.10450    0.11070    0.00470    5.37960    2.52070
 3749.50000   36.93430    7.91230   40.24820   16.13330   12.39740 -136.78140   64.69720  120.48980    0.12370    0.12040    0.01070    5.49010    2.50430
 3750.00000   33.94550    7.87010   33.43430   14.28690   11.42730 -137.19040   66.17490  123.02100    0.14300    0.13260    0.01510    5.57700    2.48320
 3750.50000   31.47110    7.86260   28.99640   13.62040   10.53320 -137.87430   67.46380  125.39220    0.16260    0.14770    0.01820    5.49360    2.45740
 3751.00000   29.27970    7.85450   26.27520   12.97730    9.73010 -138.52930   68.39690  127.14390    0.18240    0.16200    0.01450    5.38820    2.43290
 3751.50000   28.36750    7.84530   24.39020   12.29400    9.03990 -138.88030   69.00980  128.89560    0.20140    0.17540    0.01090    5.21010    2.41000
 3752.00000   28.49910    7.83610   22.49340   11.86750    8.90290 -139.20850   69.32090  129.91290    0.21990    0.18790    0.01020    5.01120    2.38860
 3752.50000   29.46470    7.82690   22.09930   11.89120    8.96420 -139.47950   69.38290  129.85720    0.23420    0.19190    0.00950    4.98100    2.38180
 3753.00000   30.71460    7.78120   22.60450   11.97490    9.10500 -139.75040   69.40880  129.76150    0.23820    0.18940    0.00870    5.06450    2.38610
 3753.50000   33.30230    7.76520   23.07870   12.55660    9.50820 -140.02140   69.47660  129.93600    0.23670    0.19520    0.00830    5.13840    2.37870
 3754.00000   35.17580    7.79590   22.60100   12.65260    9.92910 -140.29230   69.58640  130.26340    0.23560    0.21220    0.00780    5.10240    2.35550
 3754.50000   34.41010    7.82140   22.25230   13.04170   10.34280 -140.87740   69.70500  130.63590    0.23610    0.22630    0.00600    5.04880    2.32690
 3755.00000   30.71060    7.84390   22.50300   13.48140   10.77360 -141.02260   69.82890  130.93980    0.23700    0.23410    0.00450    4.99510    2.30960
 3755.50000   29.09450    7.85500   22.76390   13.88500   11.22240 -141.01470   70.02940  131.31390    0.23890    0.23240    0.00630    4.94150    2.31260
 3756.00000   29.25840    7.85230   22.36470   14.06730   11.61220 -141.00680   70.23420  131.54270    0.25120    0.23060    0.00750    4.88790    2.31560
 3756.50000   30.42430    7.84960   21.89550   14.14180   11.83490 -140.98830   70.42610  131.77340    0.26500    0.23820    0.00680    4.83710    2.30270
 3757.00000   31.68840    7.84700   21.42690   14.14180   12.07830 -140.29460   70.61730  132.68950    0.28370    0.24800    0.00610    4.84630    2.28600
 3757.50000   32.25500    7.84430   21.19210   14.59660   12.34420 -139.80130   70.61450  133.08410    0.29330    0.25760    0.00580    4.87830    2.26960
 3758.00000   32.05510    7.84170   21.21820   15.33220   12.99340 -139.04330   70.50550  133.47870    0.27820    0.26050    0.00670    4.91030    2.26430
 3758.50000   31.29230    7.83900   22.64050   16.30000   14.27910 -138.28520   70.61090  133.84490    0.24580    0.24670    0.00800    4.94230    2.28810
 3759.00000   30.54950    7.83640   25.19730   17.32890   15.77050 -137.25150   71.37210  134.69580    0.21530    0.23250    0.02070    4.97790    2.31620
 3759.50000   30.33990    7.83370   27.00100   18.30480   17.41770 -136.10590   72.47470  135.33280    0.23370    0.22150    0.03130    5.01760    2.33070
 3760.00000   30.13030    7.84510   26.61950   19.12930   17.65220 -135.39230   73.41240  135.78180    0.27470    0.24200    0.03250    5.05740    2.28750
 3760.50000   30.11020    7.86830   25.34130   19.99100   17.68440 -134.90990   73.70960  136.42270    0.31220    0.27790    0.01890    5.09710    2.23450
 3761.00000   30.64590    7.89160   25.11070   20.92190   17.93850 -134.47680   73.62220  137.06350    0.33170    0.29260    0.00970    5.13690    2.20960
 3761.50000   31.49320    7.90690   30.95380   24.60900   18.66390 -134.04370   73.62670  137.08860    0.31460    0.28460    0.00470    5.17660    2.22350
 3762.00000   31.58230    7.91600   39.89540   30.47000   21.28840 -133.34440   73.70330  137.15270    0.28610    0.27570    0.00710    5.24170    2.24040
 3762.50000   30.60150    7.90850   45.68690   35.36050   22.32560 -132.62320   73.72560  137.30660    0.28280    0.27160    0.00920    5.31580    2.24850
 3763.00000   29.54020    7.90000   52.46450   34.09860   20.88520 -131.98520   73.67780  137.30940    0.31670    0.27200    0.00910    5.34080    2.25190
 3763.50000   28.47890    7.89150   59.18760   27.84650   18.12560 -131.35630   73.35560  136.78730    0.36770    0.27640    0.00810    5.25160    2.23600
 3764.00000   27.41760    7.88650   62.15220   21.26660   15.19430 -130.72750   72.76280  135.94250    0.39500    0.28200    0.00710    5.18200    2.22620
 3764.50000   27.04290    7.88650   59.94810   16.24150   12.80810 -129.75180   71.96400  135.09780    0.36770    0.27510    0.00630    5.11240    2.23260
 3765.00000   26.73570    7.87100   51.04790   12.43120   10.53680 -128.95320   70.98660  133.39150    0.33010    0.25970    0.00540    5.05750    2.26610
 3765.50000   27.09100    7.84120   41.92580   10.30870    8.34340 -128.43710   70.21370  131.56680    0.29280    0.23780    0.00770    5.02840    2.30530
 3766.00000   31.92500    7.81150   33.49750    8.54860    6.60650 -127.92100   70.03250  130.54650    0.27620    0.22620    0.01140    5.07820    2.32330
 3766.50000   36.24300    7.78170   23.93330    7.08900    5.23130 -127.40490   69.97860  130.10390    0.26400    0.21640    0.01540    5.23180    2.34010
