~Version ---------------------------------------------------
VERS.   2.0 : CWLS log ASCII Standard -VERSION 2.0
WRAP.    NO : One line per depth step
DLM . SPACE : Column Data Section Delimiter
~Well ------------------------------------------------------
STRT .F                 1479.0 : START DEPTH
STOP .F                 6502.0 : STOP DEPTH
STEP .F                    0.5 : STEP
NULL .                -9999.25 : NULL VALUE
COMP .                         : COMPANY
WELL .                         : WELL
FLD  .                         : FIELD
LOC  .                         : LOCATION
PROV .                         : PROVINCE
CNTY .                         : COUNTY
STAT .                         : STATE
CTRY .                         : COUNTRY
SRVC .                         : SERVICE COMPANY
DATE .                         : DATE
UWI  .                         : UNIQUE WELL ID
API  .                         : API NUMBER
SLAT .WGS84  7.421619116200297 : SURFACE LATITUDE
SLON .WGS84 5.6041795297520025 : SURFACE LONGITUDE
DATUM.F                    nan : DEPTH DATUM ELEV
~Curve Information -----------------------------------------
DEPT   .F     : 1 MEASURED DEPTH
GRR    .GAPI  : GAMMA RAY FROM RESISTIVITY LOG
HCALR  .IN    : HRCC CALIPER CALIBRATED FROM RESISTIVITY LOG
AHT10  .OHMM  : ARRAY INDUCTION TWO FOOT RESISTIVITY A10
AHT30  .OHMM  : ARRAY INDUCTION TWO FOOT RESISTIVITY A30
AHT90  .OHMM  : ARRAY INDUCTION TWO FOOT RESISTIVITY A90
SPR    .MV    : SPONTANEOUS POTENTIAL FROM RESISTIVITY LOG
DTCO   .US/F  : DELTA-T COMPRESSIONAL
DTSM   .US/F  : DELTA-T SHEAR
NPHI_LS.DEC   : NEUTRON POROSITY LIMESTONE
DPHZ_LS.DEC   : HGRD STANDARD RESOLUTION DENSITY POROSITY
HDRA   .G/C3  : HRDD SPINE AND RIBS DENSITY CORRECTION
PEFZ   .B/E   : HRDD STANDARD RESOLUTION FORMATION PHOTOELECTRIC FACTOR
RHOZ   .G/C3  : HRDD STANDARD RESOLUTION FORMATION DENSITY
~Params ----------------------------------------------------
~Other -----------------------------------------------------
~ASCII -----------------------------------------------------
# ...
 2389.00000   28.59560    7.95200   26.24660   41.91040   47.32560  -36.15890   -9999.25   -9999.25   -9999.25   -9999.25   -9999.25   -9999.25   -9999.25
 2389.50000   23.02670    7.98370   21.43140   47.67500   47.95620  -36.83790   -9999.25   -9999.25   -9999.25   -9999.25   -9999.25   -9999.25   -9999.25
 2390.00000   18.34820    7.92250   13.75890   50.55670   25.30940  -37.51690   -9999.25   -9999.25   -9999.25   -9999.25   -9999.25   -9999.25   -9999.25
 2390.50000   15.14480    7.91170   10.85530   33.56960   11.76360  -37.61830   -9999.25   -9999.25   -9999.25   -9999.25   -9999.25   -9999.25   -9999.25
 2391.00000   14.09570    7.96790    9.19870   27.10790    9.81180  -37.41130   -9999.25   -9999.25   -9999.25   -9999.25   -9999.25   -9999.25   -9999.25
 2391.50000   12.46190    7.97710    7.75640   28.49140    8.20280  -36.87920   -9999.25   -9999.25   -9999.25   -9999.25   -9999.25   -9999.25   -9999.25
 2392.00000    9.79370    7.95140    6.47990   23.91410    7.02220  -37.43340   -9999.25   -9999.25   -9999.25   -9999.25   -9999.25   -9999.25   -9999.25
 2392.50000    9.38690    7.94200    5.28630   21.56220    5.90500  -38.52770   -9999.25   -9999.25   -9999.25   -9999.25   -9999.25   -9999.25   -9999.25
 2393.00000   13.18070    7.97950    4.09210   20.31270    4.87160  -38.19590   -9999.25   -9999.25   -9999.25   -9999.25   -9999.25   -9999.25   -9999.25
 2393.50000   18.32710    7.96950    3.07720   18.87800    4.24970  -38.22740   -9999.25   -9999.25   -9999.25   -9999.25   -9999.25   -9999.25   -9999.25
 2394.00000   21.78370    7.95930    2.33680   18.12850    4.08640  -39.59830   -9999.25   -9999.25   -9999.25   -9999.25   -9999.25   -9999.25   -9999.25
 2394.50000   23.05380    7.95250    1.93010   25.55460    4.60180  -41.21330   -9999.25   -9999.25   -9999.25   -9999.25   -9999.25   -9999.25   -9999.25
 2395.00000   25.99610    7.94560    1.69920   25.15580    5.75830  -42.99340   -9999.25   -9999.25   -9999.25   -9999.25   -9999.25   -9999.25   -9999.25
 2395.50000   31.79590    7.93500    1.42690   16.85480    6.62740  -44.77350   -9999.25   -9999.25   -9999.25   -9999.25   -9999.25   -9999.25   -9999.25
 2396.00000   35.08120    7.91460    1.17110   12.87890   11.25080  -47.24630   -9999.25   -9999.25    0.03300    0.29940    0.00150    4.27960    1.99980
 2396.50000   34.17280    7.91100    1.06790    9.84180   18.99830  -48.74370   -9999.25   -9999.25    0.03430    0.36920    0.00040    4.02000    2.00010
 2397.00000   30.78130    8.01960    0.98330    8.14230   23.08910  -49.74960   -9999.25   -9999.25    0.03690    0.49130   -0.00000    3.39500    1.87120
 2397.50000   27.39350    9.23000    0.68810    2.40470   33.22880  -51.36740   -9999.25   -9999.25    0.04030    0.65940    0.00270    2.94090    1.52700
 2398.00000   24.08690   12.86290    0.53700    3.40270   67.05630  -52.98530   -9999.25   -9999.25    0.06560    0.69400    0.01210    2.56620    1.48070
 2398.50000   20.93010   13.04950    0.54700    6.53190  179.31860  -53.63570   -9999.25   -9999.25    0.09930    0.64300    0.04030    2.41760    1.60980
 2399.00000   18.70260   14.21750    0.60020    7.25980  332.08810  -54.33840   -9999.25   -9999.25    0.12760    0.62450    0.06330    2.41820    1.64230
 2399.50000   18.60590   12.58040    0.67450    7.85550  395.95280  -55.58110   -9999.25   -9999.25    0.14560    0.64000    0.06260    2.58250    1.61570
 2400.00000   22.40960   13.22720    0.83010    8.10790  141.49220  -56.82380   -9999.25   -9999.25    0.14690    0.57770    0.04270    2.82700    1.70880
 2400.50000   30.13440   12.18120    1.33510   18.14740   73.70140  -58.06650   -9999.25   -9999.25    0.13530    0.44860    0.03010    3.07140    1.89420
 2401.00000   40.10460    9.93740    1.78150   33.10370  139.17180  -58.86130   -9999.25   -9999.25    0.13370    0.29040    0.05380    3.39110    2.14920
 2401.50000   52.51300    7.92670    2.37350   32.30480   75.98260  -58.86130   -9999.25   -9999.25    0.17130    0.17380    0.08880    3.70020    2.33440
 2402.00000   61.34320    7.92360    2.77700   21.35310   18.28410  -58.28730   -9999.25   -9999.25    0.20190    0.13690    0.10340    3.81710    2.47480
 2402.50000   58.92050    7.93910    2.98430   16.75280    6.23760  -56.92030   -9999.25   -9999.25    0.18430    0.10840    0.08480    3.93400    2.50570
 2403.00000   48.16400    7.95640    3.31000   15.96070    5.02110  -55.45100   -9999.25   -9999.25    0.14350    0.07370    0.07170    4.19420    2.55180
 2403.50000   38.02320    7.96950    3.84600   14.85190    4.33600  -54.00610   -9999.25   -9999.25    0.10900    0.01710    0.06260    4.54420    2.69700
 2404.00000   29.13650    7.97000    4.29700   15.67260    4.45270  -52.60870   -9999.25   -9999.25    0.07460   -0.04120    0.04950    4.98580    2.78010
 2404.50000   25.83150    7.96920    5.00870   21.38030    5.86730  -51.17200   -9999.25   -9999.25    0.05500   -0.07620    0.03660    5.19060    2.83940
 2405.00000   25.65220    7.95280    5.45800   19.65360    7.79220  -49.64840   -9999.25   -9999.25    0.04320   -0.09080    0.02120    5.25010    2.88430
 2405.50000   25.25280    7.91300    4.60500   17.15210    9.79020  -49.54620   -9999.25   -9999.25    0.03310   -0.10540    0.00680    5.17700    2.89040
 2406.00000   25.81020    7.88670    4.03830   16.16330   11.90440  -49.67050   -9999.25   -9999.25    0.03190   -0.08570   -0.00650    5.06940    2.85560
 2406.50000   30.05610    7.86790    3.55050   19.35880   12.57560  -50.04560   -9999.25   -9999.25    0.05710   -0.05810   -0.01600    4.88370    2.80820
 2407.00000   40.48860    7.91630    3.67830   20.15010    9.47740  -50.42080   -9999.25   -9999.25    0.09660   -0.03050    0.00430    4.69790    2.76090
 2407.50000   50.67430    7.97790    3.68780   15.47860    5.20130  -50.63820   -9999.25   -9999.25    0.14430   -0.00500    0.03560    4.45910    2.72690
 2408.00000   54.77050    7.97320    3.47730   10.56140    5.07700  -49.96740   -9999.25   -9999.25    0.16830    0.01380    0.07460    4.16670    2.67850
 2408.50000   53.03880    7.90010    2.97810    9.00740    7.06970  -50.55760   -9999.25   -9999.25    0.19900    0.08720    0.10780    3.87440    2.56320
 2409.00000   57.43500    8.03390    2.65490    8.52370    7.65220  -49.97420   -9999.25   -9999.25    0.24850    0.17920    0.12940    3.58200    2.40450
 2409.50000   62.41190    8.60470    2.40470    8.15160    5.79730  -49.21260   -9999.25   -9999.25    0.27820    0.26030    0.10360    3.38900    2.25420
 2410.00000   62.63430    9.53080    2.25040    7.79580    4.31840  -48.42300   -9999.25   -9999.25    0.27550    0.24570    0.06380    3.38660    2.33490
 2410.50000   58.31950    9.10240    2.36220    7.68580    4.70110  -47.33370   -9999.25   -9999.25    0.23430    0.08740    0.04950    3.74160    2.47650
 2411.00000   54.46300    8.00180    2.99360    7.66580    8.06130  -45.99160   -9999.25   -9999.25    0.19820    0.03060    0.05850    4.09660    2.65790
 2411.50000   51.80530    8.24270    3.79370   11.37240   13.82340  -43.88490   -9999.25   -9999.25    0.16180   -0.01200    0.05390    4.43810    2.73420
 2412.00000   47.33510    7.98290    4.88150   17.93090   35.91220  -42.05540   -9999.25   -9999.25    0.11380   -0.05140    0.03260    4.65020    2.78950
 2412.50000   40.90670    7.96350    6.41400   28.27170   61.70110  -43.36940   -9999.25   -9999.25    0.07840   -0.08700    0.01140    4.86710    2.83740
 2413.00000   34.78710    7.98110    7.05500   30.96070   56.36450  -45.23030   -9999.25   -9999.25    0.06710   -0.07980   -0.00100    4.99880    2.84670
 2413.50000   31.59440    8.01840    7.26210   17.31830   45.77650  -46.76920   -9999.25   -9999.25    0.08300   -0.03320   -0.00210    5.13050    2.76700
 2414.00000   29.27870    8.05570    5.37790   11.29440   35.74180  -48.30820   -9999.25   -9999.25    0.09620    0.01670    0.00940    5.16650    2.69820
 2414.50000   27.79530    8.01930    4.80440   12.38950   13.66890  -49.41880   -9999.25   -9999.25    0.06970   -0.00120    0.02450    5.12140    2.71250
