~Version ---------------------------------------------------
VERS.   2.0 : CWLS log ASCII Standard -VERSION 2.0
WRAP.    NO : One line per depth step
DLM . SPACE : Column Data Section Delimiter
~Well ------------------------------------------------------
STRT .F                 1479.0 : START DEPTH
STOP .F                 6502.0 : STOP DEPTH
STEP .F                    0.5 : STEP
NULL .                -9999.25 : NULL VALUE
COMP .                         : COMPANY
WELL .                         : WELL
FLD  .                         : FIELD
LOC  .                         : LOCATION
PROV .                         : PROVINCE
CNTY .                         : COUNTY
STAT .                         : STATE
CTRY .                         : COUNTRY
SRVC .                         : SERVICE COMPANY
DATE .                         : DATE
UWI  .                         : UNIQUE WELL ID
API  .                         : API NUMBER
SLAT .WGS84  7.421619116200297 : SURFACE LATITUDE
SLON .WGS84 5.6041795297520025 : SURFACE LONGITUDE
DATUM.F                    nan : DEPTH DATUM ELEV
~Curve Information -----------------------------------------
DEPT   .F     : 1 MEASURED DEPTH
GRR    .GAPI  : GAMMA RAY FROM RESISTIVITY LOG
HCALR  .IN    : HRCC CALIPER CALIBRATED FROM RESISTIVITY LOG
AHT10  .OHMM  : ARRAY INDUCTION TWO FOOT RESISTIVITY A10
AHT30  .OHMM  : ARRAY INDUCTION TWO FOOT RESISTIVITY A30
AHT90  .OHMM  : ARRAY INDUCTION TWO FOOT RESISTIVITY A90
SPR    .MV    : SPONTANEOUS POTENTIAL FROM RESISTIVITY LOG
DTCO   .US/F  : DELTA-T COMPRESSIONAL
DTSM   .US/F  : DELTA-T SHEAR
NPHI_LS.DEC   : NEUTRON POROSITY LIMESTONE
DPHZ_LS.DEC   : HGRD STANDARD RESOLUTION DENSITY POROSITY
HDRA   .G/C3  : HRDD SPINE AND RIBS DENSITY CORRECTION
PEFZ   .B/E   : HRDD STANDARD RESOLUTION FORMATION PHOTOELECTRIC FACTOR
RHOZ   .G/C3  : HRDD STANDARD RESOLUTION FORMATION DENSITY
~Params ----------------------------------------------------
~Other -----------------------------------------------------
~ASCII -----------------------------------------------------
# ...
 3481.00000   44.23480    7.85030   85.14900   61.48860   55.34150  -65.25820   55.34210  103.76280    0.01930   -0.00220    0.01130    5.52690    2.71300
 3481.50000   60.09800    7.80500   61.50520   42.49100   34.99880  -63.72500   56.50170  105.59610    0.02800   -0.00530    0.01380    5.26480    2.72100
 3482.00000   82.11390    7.81790   35.55620   25.62260   17.84930  -63.12250   57.19960  107.42940    0.05320    0.02150    0.01540    4.99050    2.67320
 3482.50000  101.80830    7.89420   22.65710   17.04890   10.99210  -66.83850   57.74410  107.63760    0.07010    0.04980    0.01700    4.65490    2.62470
 3483.00000   98.81590    7.89330   28.08370   18.45920   12.13420  -72.15510   57.62940  106.61940    0.08490    0.05730    0.01850    4.51940    2.61200
 3483.50000   77.91630    7.89230   40.29320   20.42130   14.87720  -77.79560   57.08610  107.35430    0.07920    0.03750    0.02000    4.50090    2.64600
 3484.00000   53.18950    7.87400   51.22360   18.84580   14.28460  -83.78080   57.00960  108.11610    0.07090    0.02740    0.02100    4.60930    2.66310
 3484.50000   36.16730    7.83350   47.20100   15.14460   10.23060  -89.63880   57.38490  108.87790    0.07040    0.03430    0.01970    4.74260    2.65140
 3485.00000   29.50590    7.79310   33.57760   12.17040    8.40940  -94.52530   58.33670  109.63970    0.08500    0.06400    0.01670    4.84080    2.60020
 3485.50000   28.10310    7.77170   24.50810   10.08480    6.98980  -99.35320   59.11650  110.13110    0.09730    0.08250    0.01320    4.84770    2.56920
 3486.00000   29.56780    7.75590   18.28950    8.96400    6.00420 -103.47910   59.51610  110.35160    0.09830    0.10200    0.00780    4.77590    2.53140
 3486.50000   31.31880    7.73900   14.83240    7.96770    5.27040 -105.93630   59.72240  110.57220    0.09940    0.10460    0.00730    4.73720    2.52810
 3487.00000   33.73810    7.71980   13.65460    7.43270    4.90170 -107.63480   59.77010  110.79270    0.10070    0.08960    0.01890    4.80120    2.55170
 3487.50000   35.62280    7.67860   13.91400    7.54830    4.84910 -108.19500   59.71090  110.65130    0.10520    0.08170    0.03050    4.88130    2.56830
 3488.00000   36.34100    7.59210   15.84480    7.93330    5.18130 -109.05700   59.52350  110.25160    0.10990    0.08230    0.03680    4.94590    2.57340
 3488.50000   36.17880    7.57940   16.05100    8.67480    5.03250 -109.63130   58.99490  109.18630    0.10990    0.08820    0.03600    4.98480    2.56240
 3489.00000   37.13190    7.69200   16.77120    9.20500    5.24550 -109.11920   57.95100  107.38710    0.09790    0.09340    0.02960    5.05200    2.55020
 3489.50000   44.42220    7.77610   17.61190    9.62890    6.17830 -107.35720   56.80250  105.90480    0.08130    0.09110    0.02530    5.12440    2.55380
 3490.00000   50.84470    7.78820   17.93990   10.40370    7.33250 -105.79190   55.62970  104.35190    0.06200    0.07320    0.02360    5.19560    2.58480
 3490.50000   54.73060    7.77500   20.26590   12.11370    8.71120 -105.28070   54.36910  102.79900    0.04690    0.06070    0.01990    5.25150    2.60700
 3491.00000   54.26780    7.76560   24.03470   14.10490   10.81110 -103.62770   53.21380  101.24610    0.03510    0.05200    0.01380    5.19720    2.62240
 3491.50000   51.83620    7.79450   29.26850   16.66370   14.56280 -102.05510   52.51610   99.69320    0.02580    0.04960    0.00890    5.12620    2.62630
 3492.00000   48.79170    7.83630   36.18470   22.60170   19.61650 -100.53050   52.02750   98.55820    0.01840    0.04340    0.00410    5.05530    2.63760
 3492.50000   50.01570    7.87080   46.91270   30.65560   26.33900 -100.13760   51.56410   97.88690    0.01590    0.03080   -0.00080    4.97270    2.64900
 3493.00000   51.90680    7.87940   60.82120   41.57950   35.01260 -100.05870   51.30670   97.89880    0.01480    0.02460   -0.00390    4.86990    2.66120
 3493.50000   51.99420    7.88370   72.83270   55.82840   45.19000 -100.05110   51.20260   97.67460    0.01390    0.01570   -0.00100    4.76710    2.67490
 3494.00000   45.34730    7.87310   84.52210   65.51910   48.18780 -100.01070   51.32840   97.38440    0.01330    0.00680    0.00580    4.77250    2.69420
 3494.50000   38.53840    7.86260   90.91350   69.72080   50.03430  -99.97040   51.64330   97.13050    0.01380    0.00300    0.01030    4.86790    2.70140
 3495.00000   36.17710    7.85200   88.79590   64.81110   49.37080  -98.87490   51.83830   96.54300    0.01480    0.01030    0.01260    4.95730    2.69880
 3495.50000   37.54900    7.84140   82.93000   59.58530   48.46520  -96.92150   51.86500   96.43480    0.01570    0.02850    0.00970    5.04310    2.67520
 3496.00000   40.16230    7.83190   77.89130   56.47440   47.57630  -95.65240   51.88310   96.49580    0.01560    0.04670    0.00560    5.13300    2.63900
 3496.50000   44.46000    7.83880   76.64750   56.63420   46.72920  -94.68480   52.00330   97.36800    0.01490    0.05440    0.00160    5.22010    2.61600
 3497.00000   50.63990    7.84570   85.82360   63.43840   49.41480  -93.70080   52.09800   97.76750    0.01420    0.05100   -0.00250    5.26530    2.62610
 3497.50000   75.29780    7.84980  106.35660   76.11710   57.12590  -93.01800   51.96200   98.16710    0.01340    0.04170   -0.00380    5.24150    2.63860
 3498.00000  105.75170    7.85080  136.21730   91.32980   66.89700  -92.89210   51.87380   98.53150    0.01330    0.03230   -0.00300    5.20330    2.65210
 3498.50000  120.51820    7.85170  177.92300  117.65460   76.50030  -93.03740   51.87760   98.96270    0.01370    0.02290   -0.00180    5.17290    2.66700
 3499.00000  115.40160    7.84400  211.94290  162.03220   86.43930  -93.18260   51.93270   99.68580    0.01420    0.01360   -0.00060    5.15100    2.68290
 3499.50000  107.19150    7.83630  319.53140  188.29540   89.76930  -93.50290   52.06050  100.79420    0.01580    0.00900    0.00060    5.14250    2.69040
 3500.00000   95.62390    7.82860  339.93880  141.80230   74.06350  -94.98650   52.82460  102.76890    0.01780    0.00590    0.00180    5.19450    2.69570
 3500.50000   91.07450    7.82090  256.82280   88.09110   54.21180  -97.28530   54.57950  104.86930    0.02080    0.00130    0.00300    5.25040    2.70420
 3501.00000   85.90990    7.81320  150.03280   54.72440   39.41080  -99.01920   58.51410  109.59450    0.03030    0.00600    0.00420    5.28410    2.70980
 3501.50000   73.06800    7.80770   90.77260   35.97810   27.02110 -100.75300   62.75830  115.52640    0.06770    0.03490    0.00510    5.23910    2.65040
 3502.00000   57.60240    7.80950   63.48470   24.14580   18.52650 -103.34320   67.60180  121.45820    0.13400    0.11260    0.00400    5.07870    2.51910
 3502.50000   42.18330    7.76360   36.88240   16.78930   12.96360 -107.26940   72.18910  127.04790    0.23610    0.19200    0.00060    4.89510    2.38270
 3503.00000   30.42530    7.62110   22.29770   11.92850    9.12960 -111.19550   74.64450  132.26170    0.29640    0.25470   -0.00310    4.71140    2.27450
 3503.50000   25.36380    7.65280   17.44420    8.83670    7.56290 -113.43370   76.22010  135.87920    0.31310    0.29280   -0.00600    4.57190    2.20640
 3504.00000   23.36870    7.85700   13.12230    7.29330    6.26500 -113.83600   76.79100  137.45670    0.31840    0.29830   -0.00860    4.59620    2.19920
 3504.50000   22.46880    7.90080   10.85430    6.09620    5.48350 -114.48660   76.81740  137.71710    0.32230    0.30380   -0.00920    4.67440    2.19170
 3505.00000   21.46390    7.89390    8.96250    5.55550    4.80550 -114.81430   76.61970  137.97760    0.32670    0.30990   -0.00910    4.75260    2.18020
 3505.50000   19.83620    7.89000    7.68070    5.07290    4.42130 -113.19720   76.21370  138.10930    0.33650    0.30990   -0.00680    4.78330    2.18010
 3506.00000   19.31730    8.00660    7.13910    4.93710    4.20970 -110.26620   75.31400  137.64310    0.32400    0.30090   -0.00470    4.75870    2.19310
 3506.50000   19.49840    7.98460    7.23620    5.22000    4.24500 -106.64240   74.39140  136.87600    0.30570    0.28240   -0.00270    4.71900    2.22720
