~Version ---------------------------------------------------
VERS.   2.0 : CWLS log ASCII Standard -VERSION 2.0
WRAP.    NO : One line per depth step
DLM . SPACE : Column Data Section Delimiter
~Well ------------------------------------------------------
STRT .F                 1479.0 : START DEPTH
STOP .F                 6502.0 : STOP DEPTH
STEP .F                    0.5 : STEP
NULL .                -9999.25 : NULL VALUE
COMP .                         : COMPANY
WELL .                         : WELL
FLD  .                         : FIELD
LOC  .                         : LOCATION
PROV .                         : PROVINCE
CNTY .                         : COUNTY
STAT .                         : STATE
CTRY .                         : COUNTRY
SRVC .                         : SERVICE COMPANY
DATE .                         : DATE
UWI  .                         : UNIQUE WELL ID
API  .                         : API NUMBER
SLAT .WGS84  7.421619116200297 : SURFACE LATITUDE
SLON .WGS84 5.6041795297520025 : SURFACE LONGITUDE
DATUM.F                    nan : DEPTH DATUM ELEV
~Curve Information -----------------------------------------
DEPT   .F     : 1 MEASURED DEPTH
GRR    .GAPI  : GAMMA RAY FROM RESISTIVITY LOG
HCALR  .IN    : HRCC CALIPER CALIBRATED FROM RESISTIVITY LOG
AHT10  .OHMM  : ARRAY INDUCTION TWO FOOT RESISTIVITY A10
AHT30  .OHMM  : ARRAY INDUCTION TWO FOOT RESISTIVITY A30
AHT90  .OHMM  : ARRAY INDUCTION TWO FOOT RESISTIVITY A90
SPR    .MV    : SPONTANEOUS POTENTIAL FROM RESISTIVITY LOG
DTCO   .US/F  : DELTA-T COMPRESSIONAL
DTSM   .US/F  : DELTA-T SHEAR
NPHI_LS.DEC   : NEUTRON POROSITY LIMESTONE
DPHZ_LS.DEC   : HGRD STANDARD RESOLUTION DENSITY POROSITY
HDRA   .G/C3  : HRDD SPINE AND RIBS DENSITY CORRECTION
PEFZ   .B/E   : HRDD STANDARD RESOLUTION FORMATION PHOTOELECTRIC FACTOR
RHOZ   .G/C3  : HRDD STANDARD RESOLUTION FORMATION DENSITY
~Params ----------------------------------------------------
~Other -----------------------------------------------------
~ASCII -----------------------------------------------------
# ...
 2649.00000   55.46890    7.69910    7.61600    6.59170    6.18630  -52.36490   64.33810  117.83500    0.14440   -0.01470   -0.00150    3.30330    2.73510
 2649.50000   58.94450    7.70040    7.24950    6.39540    5.75980  -52.32510   63.50330  116.31790    0.15530   -0.01050   -0.00020    3.28080    2.72800
 2650.00000   60.77140    7.69440    7.01820    6.36960    5.29000  -58.11140   61.96020  114.11000    0.15900   -0.00640    0.00110    3.25750    2.72100
 2650.50000   59.79320    7.68730    7.07350    6.40550    5.27500  -66.37550   60.08840  111.29790    0.14850   -0.00710    0.00330    3.22840    2.72210
 2651.00000   60.69430    7.68020    8.50960    6.92350    5.88270  -75.55360   59.05530  108.25270    0.13320   -0.00850    0.00650    3.20650    2.72450
 2651.50000   59.77040    7.67440   10.90090    7.71840    6.62580  -84.73170   58.84230  105.15310    0.12660   -0.01140    0.01180    3.22230    2.72960
 2652.00000   57.08630    7.70000   14.30120    8.60450    6.79300  -93.90980   59.00090  104.06170    0.12670   -0.01230    0.01710    3.23060    2.73130
 2652.50000   55.58360    7.72650   17.28910    9.55720    6.89920  -99.19950   59.20590  103.60630    0.13140    0.00350    0.02040    3.22330    2.70420
 2653.00000   60.07570    7.75470   18.67940   10.09100    6.76310 -103.15720   59.54410  103.93640    0.14450    0.02280    0.01570    3.17980    2.67130
 2653.50000   67.03240    7.78280   19.38830   10.01410    6.51670 -107.07950   59.72040  104.48020    0.15650    0.04580    0.01010    3.10600    2.63190
 2654.00000   73.98810    7.80640   19.65650    9.97050    6.27930 -111.22720   59.74730  104.59990    0.15560    0.05450    0.00980    3.10660    2.61650
 2654.50000   78.70600    7.81630   19.78840   10.24580    6.25050 -115.37490   59.74290  104.64570    0.15310    0.04770    0.01810    3.14670    2.62850
 2655.00000   81.41980    7.84240   19.97300   10.36320    6.43750 -117.97720   59.68370  104.71090    0.15060    0.04100    0.02170    3.16060    2.64150
 2655.50000   81.22230    7.87060   20.15940   10.13320    6.67710 -120.32210   59.59340  104.32840    0.14670    0.03770    0.01770    3.12830    2.64550
 2656.00000   76.89280    7.85880   20.46750   10.22050    7.09280 -121.78170   59.37840  104.02930    0.13990    0.05300    0.00960    3.07680    2.61860
 2656.50000   73.48050    7.81700   22.95920   11.22820    7.76210 -123.22670   58.96540  103.45260    0.13110    0.04410    0.01010    3.03250    2.63450
 2657.00000   70.72000    7.82650   26.21120   12.33530    8.48020 -124.47730   58.85770  103.14210    0.12230    0.02080    0.01700    3.13320    2.67440
 2657.50000   69.22670    7.87630   30.39050   13.37620    9.05620 -125.72790   59.02470  103.31490    0.12070    0.01010    0.02500    3.24350    2.69260
 2658.00000   72.47850    7.92650   34.03990   13.61700    9.74490 -126.97850   59.45880  103.48770    0.12970    0.01720    0.01760    3.28810    2.68060
 2658.50000   80.30820    7.90810   37.07200   13.97440   10.53990 -127.14690   59.98720  103.92050    0.14270    0.03970    0.00380    3.24590    2.64190
 2659.00000   86.10680    7.84730   40.14870   14.72290   11.20360 -127.52730   60.79460  104.94430    0.15690    0.06240    0.00510    3.20370    2.60330
 2659.50000   82.23200    7.78650   43.32040   14.99770   11.17560 -127.96770   61.40050  106.36550    0.17130    0.08270    0.00840    3.16140    2.56850
 2660.00000   65.07450    7.72780   44.63550   14.71890   10.55470 -128.04320   61.99720  107.28550    0.18770    0.09210    0.01170    3.12250    2.55230
 2660.50000   57.68870    7.70080   39.28300   13.85930    9.76710 -127.95560   62.43570  107.81030    0.20270    0.09210    0.01300    3.12990    2.55240
 2661.00000   53.63230    7.67380   31.56840   12.87760    9.03830 -127.86800   62.56970  108.33520    0.21440    0.08640    0.01010    3.15720    2.56230
 2661.50000   50.84020    7.67510   25.93210   11.96550    8.36390 -127.40430   62.51480  108.61040    0.20450    0.07660    0.00690    3.18440    2.57890
 2662.00000   45.45950    7.71500   21.60460   11.03350    7.95080 -126.89710   62.35000  108.27550    0.19060    0.05900    0.01360    3.21160    2.60900
 2662.50000   40.38230    7.76410   19.31640   10.53670    7.84850 -126.23000   62.14980  108.18450    0.18110    0.05570    0.02450    3.23880    2.61530
 2663.00000   34.54700    7.82740   19.95740   10.42310    7.77290 -125.56280   62.12850  107.67140    0.17740    0.06980    0.02050    3.23700    2.59060
 2663.50000   31.13510    7.88000   21.26560   10.43570    7.82740 -124.89570   62.09480  107.23860    0.18040    0.08520    0.01020    3.19620    2.56430
 2664.00000   32.75840    7.87780   23.45950   10.97090    7.89740 -124.80810   61.98460  107.16140    0.18880    0.09680    0.00460    3.15550    2.54420
 2664.50000   38.70550    7.84340   26.37620   11.53340    8.10010 -124.87280   61.58410  107.08090    0.19740    0.09160    0.00500    3.11470    2.54990
 2665.00000   43.27870    7.80900   29.02590   12.30570    8.51450 -125.12190   61.45270  106.88400    0.19770    0.07900    0.00600    3.07390    2.57490
 2665.50000   47.07790    7.80000   30.57630   13.25840    8.99590 -125.37100   61.59080  107.13780    0.19080    0.06860    0.00880    3.03310    2.59270
 2666.00000   47.61640    7.79450   30.57300   13.97470    9.50460 -125.62000   61.53640  106.98310    0.18450    0.06530    0.01090    3.03110    2.59920
 2666.50000   45.45180    7.77650   28.38800   13.29240    9.76190 -125.86910   61.46180  106.96120    0.17880    0.07570    0.00840    3.06650    2.58050
 2667.00000   43.74050    7.74970   25.21660   12.58130    9.58780 -126.12360   61.93200  106.81110    0.17390    0.07690    0.00590    3.10170    2.57840
 2667.50000   42.11330    7.72280   22.78960   12.09500    9.32430 -126.38520   62.44560  106.66100    0.17380    0.07450    0.00670    3.14940    2.58270
 2668.00000   36.31300    7.69840   21.87300   11.66590    9.06810 -126.64690   62.76110  106.56530    0.18110    0.07140    0.01060    3.17810    2.58790
 2668.50000   30.04220    7.69020   24.01310   11.66330    8.93130 -126.90850   62.88670  106.39520    0.19290    0.07570    0.01300    3.17340    2.58050
 2669.00000   25.53270    7.68430   26.76460   12.64620    9.13690 -127.17020   62.68900  106.23880    0.19710    0.08510    0.01460    3.15530    2.56450
 2669.50000   23.07160    7.68430   28.92900   13.09640    9.45110 -127.30490   62.44930  106.14050    0.18940    0.09220    0.01640    3.12870    2.55240
 2670.00000   21.82140    7.69070   26.71710   12.72230    9.44000 -127.41240   62.20870  105.44280    0.17570    0.08390    0.01450    3.12640    2.56640
 2670.50000   21.90370    7.70210   23.81410   12.32870    9.32570 -127.42060   62.01540  105.25880    0.15740    0.06150    0.01260    3.18560    2.59670
 2671.00000   23.35360    7.71340   21.95620   12.23400    9.24380 -127.00920   61.84140  105.06290    0.14380    0.04940    0.01070    3.24650    2.62490
 2671.50000   29.88950    7.73140   21.91080   12.16010    9.24340 -126.77860   61.85230  104.98530    0.14860    0.05300    0.00760    3.25030    2.62340
 2672.00000   38.07220    7.75030   23.47150   12.16010    9.40190 -126.58910   61.92210  104.98920    0.15880    0.06190    0.00450    3.17070    2.60430
 2672.50000   43.87510    7.76930   25.86640   12.71240    9.78050 -126.10120   61.92460  105.11900    0.16480    0.07220    0.00140    3.09110    2.58620
 2673.00000   50.12830    7.78600   28.60000   13.28160   10.05580 -125.61330   61.43540  104.93650    0.16650    0.07840    0.00160    3.02160    2.57610
 2673.50000   52.53930    7.80160   31.64080   13.41210   10.33630 -125.10020   60.43130  104.30940    0.16410    0.08410    0.00280    3.01480    2.56630
 2674.00000   51.55060    7.81730   35.14760   13.08090   10.20820 -124.51360   59.84180  103.68240    0.15610    0.07270    0.00400    3.05390    2.58570
 2674.50000   49.73060    7.83290   37.36370   12.72430    9.82490 -123.92700   59.61890  103.20700    0.14500    0.05600    0.00520    3.09300    2.61450
