~Version ---------------------------------------------------
VERS.   2.0 : CWLS log ASCII Standard -VERSION 2.0
WRAP.    NO : One line per depth step
DLM . SPACE : Column Data Section Delimiter
~Well ------------------------------------------------------
STRT .F                 1479.0 : START DEPTH
STOP .F                 6502.0 : STOP DEPTH
STEP .F                    0.5 : STEP
NULL .                -9999.25 : NULL VALUE
COMP .                         : COMPANY
WELL .                         : WELL
FLD  .                         : FIELD
LOC  .                         : LOCATION
PROV .                         : PROVINCE
CNTY .                         : COUNTY
STAT .                         : STATE
CTRY .                         : COUNTRY
SRVC .                         : SERVICE COMPANY
DATE .                         : DATE
UWI  .                         : UNIQUE WELL ID
API  .                         : API NUMBER
SLAT .WGS84  7.421619116200297 : SURFACE LATITUDE
SLON .WGS84 5.6041795297520025 : SURFACE LONGITUDE
DATUM.F                    nan : DEPTH DATUM ELEV
~Curve Information -----------------------------------------
DEPT   .F     : 1 MEASURED DEPTH
GRR    .GAPI  : GAMMA RAY FROM RESISTIVITY LOG
HCALR  .IN    : HRCC CALIPER CALIBRATED FROM RESISTIVITY LOG
AHT10  .OHMM  : ARRAY INDUCTION TWO FOOT RESISTIVITY A10
AHT30  .OHMM  : ARRAY INDUCTION TWO FOOT RESISTIVITY A30
AHT90  .OHMM  : ARRAY INDUCTION TWO FOOT RESISTIVITY A90
SPR    .MV    : SPONTANEOUS POTENTIAL FROM RESISTIVITY LOG
DTCO   .US/F  : DELTA-T COMPRESSIONAL
DTSM   .US/F  : DELTA-T SHEAR
NPHI_LS.DEC   : NEUTRON POROSITY LIMESTONE
DPHZ_LS.DEC   : HGRD STANDARD RESOLUTION DENSITY POROSITY
HDRA   .G/C3  : HRDD SPINE AND RIBS DENSITY CORRECTION
PEFZ   .B/E   : HRDD STANDARD RESOLUTION FORMATION PHOTOELECTRIC FACTOR
RHOZ   .G/C3  : HRDD STANDARD RESOLUTION FORMATION DENSITY
~Params ----------------------------------------------------
~Other -----------------------------------------------------
~ASCII -----------------------------------------------------
# ...
 4287.00000   76.18120    8.25600    8.26980    7.07040    6.45800  -58.54650   62.76880  123.79430    0.14290    0.06770    0.11270    4.16520    2.59690
 4287.50000   58.03390    8.03750   14.12710    9.83140    8.28780  -55.32050   67.94280  126.45970    0.11020    0.03770    0.09250    4.15730    2.64560
 4288.00000   53.49960    7.94900   24.05770   14.63470    9.45710  -52.40180   69.74920  128.63070    0.08730    0.02080    0.04910    4.27220    2.67450
 4288.50000   68.94150    7.97030   16.40210    9.74590    7.34130  -47.96610   71.09770  129.79320    0.11500    0.01660    0.03870    4.39980    2.68160
 4289.00000   90.85650    8.04070    7.62620    6.33390    5.41290  -44.95690   71.80970  130.28250    0.17600    0.05810    0.04970    4.35830    2.61100
 4289.50000  109.31980    8.27220    5.62200    4.91630    3.34830  -45.01340   69.59700  128.55670    0.23660    0.08670    0.08800    4.08230    2.56530
 4290.00000   99.68130    8.43160    8.26110    5.23290    3.02390  -47.25160   66.53400  123.33440    0.21670    0.09780    0.09810    3.87500    2.54180
 4290.50000   76.19150    8.13060   14.01650   10.29340    6.85990  -49.84570   63.02200  117.47800    0.15270    0.06560    0.07900    4.06700    2.57950
 4291.00000   48.32060    7.92180   28.00710   18.82710   14.48240  -53.00940   59.59920  115.31780    0.08920    0.02910    0.03450    4.42070    2.66060
 4291.50000   33.10530    7.93900   45.22570   30.39340   27.49690  -53.84830   58.34680  114.66500    0.02690    0.00420    0.00330    4.63840    2.70360
 4292.00000   27.07740    7.94480   41.40890   33.03750   26.75000  -53.52460   63.38210  122.87390    0.02020    0.00250   -0.02370    4.84130    2.70580
 4292.50000   39.30330    7.95050   28.34580   20.55430   12.42720  -52.99110   70.04110  134.24120    0.05680    0.02770   -0.00590    4.74430    2.66280
 4293.00000   57.75120    7.95240   15.23650    9.34630    5.38860  -52.39390   76.22050  145.60850    0.10370    0.05340    0.04870    4.54950    2.62140
 4293.50000   76.41810    8.07390    6.79580    4.82240    3.85120  -52.62290   78.07350  161.01330    0.18980    0.08350    0.11020    4.09070    2.56670
 4294.00000   97.28290    8.67660    2.74140    3.20630    3.07620  -53.34430   77.56120  170.10320    0.26130    0.09890    0.15260    3.64420    2.54090
 4294.50000  106.46660    9.08970    2.01700    2.77720    2.90780  -54.24930   76.39510  171.68720    0.30740    0.10120    0.15680    3.33510    2.53700
 4295.00000  113.69800    8.81120    2.05220    2.62550    2.85680  -54.93350   74.03740  167.94220    0.32290    0.10300    0.13200    3.26690    2.53410
 4295.50000  120.63050    8.92540    2.12560    2.59640    2.83170  -56.07050   70.30880  154.72810    0.33770    0.11300    0.11330    3.26460    2.51680
 4296.00000  125.50610    8.81770    2.19720    2.79470    2.97640  -57.60540   66.38640  140.97420    0.31850    0.11860    0.10110    3.47990    2.50730
 4296.50000  123.43340    8.60080    3.15850    5.26420    8.52930  -58.99610   62.46400  129.37830    0.20740    0.08240    0.09380    3.81210    2.56100
 4297.00000  112.21030    8.21880    6.57060   10.92440   17.90770  -59.69600   58.17790  119.99170    0.12600    0.02970    0.07470    4.29090    2.63400
 4297.50000   99.96350    7.95240   16.40640   17.57970   23.38970  -60.39600   54.09000  111.58050    0.06980    0.02520    0.04060    4.73900    2.66750
 4298.00000   90.92320    7.95970   20.36850   28.00600   25.02690  -60.68310   53.64530  105.97720    0.03370    0.02510    0.00650    4.90850    2.66840
 4298.50000   83.47130    7.98530   21.06500   34.63870   26.77870  -60.68310   54.02650  101.20320    0.02200    0.01120   -0.00040    5.07800    2.67240
 4299.00000   79.04620    8.01090   21.05540   30.73750   27.31590  -60.68310   54.43690   99.64670    0.02100   -0.00270    0.00400    5.22870    2.70080
 4299.50000   83.90510    8.03470   19.90150   30.06320   24.49370  -60.68310   55.25790  100.65570    0.01980   -0.01770    0.00940    5.35580    2.74210
 4300.00000  105.29840    8.05830   18.21010   30.49800   24.51580  -60.21570   56.31650  101.66470    0.02520   -0.02030    0.01220    5.27300    2.74470
 4300.50000  122.52960    8.08200   16.15020   31.77960   25.07660  -58.99230   57.14390  102.22350    0.03460    0.00180    0.01220    5.08780    2.70640
 4301.00000  129.27350    8.09600   13.14280   30.38050   21.28840  -57.54530   57.36750  102.70670    0.04090    0.02670    0.00720    5.01040    2.66310
 4301.50000  126.46210    8.02340   11.96960   28.77650   19.48810  -56.56510   58.91700  104.51800    0.04260    0.03610    0.00240    4.93560    2.64810
 4302.00000  112.74310    7.88470   11.66600   28.47890   20.63540  -56.68170   61.33780  110.24580    0.04560    0.02750   -0.00020    4.85860    2.66300
 4302.50000  103.07510    8.12200   10.64400   27.81820   21.82420  -56.70600   66.57000  119.87930    0.05100    0.01930    0.01320    4.74260    2.67710
 4303.00000   98.01500    8.17900    7.04790   16.52260   20.40840  -58.28390   73.01140  131.31750    0.08060    0.03070    0.04540    4.50970    2.65720
 4303.50000  100.42900    8.15780    3.66400    5.22770    9.32060  -60.54700   81.18250  141.73100    0.14330    0.06570    0.08830    4.17470    2.59710
 4304.00000  114.74320    8.62800    2.55060    3.42010    3.66870  -61.58180   86.68490  150.29520    0.24830    0.10070    0.13000    3.69730    2.53850
 4304.50000  122.07380    9.38050    2.00750    2.75140    3.00380  -60.38460   88.31910  158.01180    0.29900    0.09810    0.14410    3.41440    2.54160
 4305.00000  124.05850    8.96710    2.00930    2.66450    2.91610  -60.04990   88.43770  163.04690    0.30360    0.09470    0.12180    3.31000    2.54800
 4305.50000  121.61680    9.04020    1.95020    2.62660    2.89970  -60.89330   86.38290  164.90490    0.30250    0.09930    0.09460    3.24040    2.54030
 4306.00000  118.08550    8.99860    1.94540    2.63720    2.95050  -63.15460   84.43050  165.06110    0.30660    0.11170    0.05340    3.24070    2.51890
 4306.50000  114.84710    9.13030    2.09960    2.83060    3.23900  -65.08080   84.16000  165.87050    0.30410    0.12150    0.04450    3.29070    2.50220
 4307.00000  111.70580    8.98280    2.37620    3.06890    3.75120  -66.02500   84.97030  166.67990    0.28630    0.12450    0.05210    3.34080    2.49710
 4307.50000  107.48790    8.79250    2.50980    3.26770    4.07480  -65.86390   86.17950  170.60140    0.26380    0.13510    0.06390    3.39090    2.47900
 4308.00000  106.51080    8.87180    2.28880    3.23060    3.51100  -64.65920   87.13150  174.26350    0.26540    0.14750    0.07430    3.44520    2.45770
 4308.50000  110.34360    9.04930    2.12660    3.10840    3.25430  -62.91390   88.87170  176.89620    0.27990    0.15590    0.08040    3.45260    2.44340
 4309.00000  116.22870    8.83640    2.20340    3.02590    3.41490  -62.05920   90.24610  179.52890    0.29440    0.14600    0.08380    3.43840    2.46050
 4309.50000  121.41610    8.73320    2.20330    3.02520    3.49450  -61.25870   91.01730  181.16500    0.30670    0.13320    0.08590    3.42420    2.48230
 4310.00000  126.19280    8.78450    2.18260    2.99950    3.43500  -60.59560   91.16800  181.85760    0.31640    0.12360    0.08140    3.40970    2.49870
 4310.50000  128.19130    8.89910    2.18350    2.96230    3.35520  -59.93240   91.35280  182.19310    0.32820    0.12040    0.07580    3.40250    2.50410
 4311.00000  124.27760    9.03870    2.19260    2.95080    3.27730  -59.26920   91.43950  182.66600    0.34040    0.10900    0.07100    3.42850    2.52430
 4311.50000  118.94450    9.14680    2.25840    2.97390    3.22860  -58.34800   90.72730  182.55410    0.34120    0.09840    0.06620    3.45450    2.54050
 4312.00000  119.18780    9.05630    2.35790    2.99720    3.22860  -57.59880   89.60850  182.44220    0.33080    0.09490    0.05380    3.48050    2.55280
 4312.50000  121.89180    9.11440    2.45850    3.05630    3.32400  -56.51840   88.88770  181.67690    0.31520    0.09680    0.04100    3.50650    2.54250
