~Version ---------------------------------------------------
VERS.   2.0 : CWLS log ASCII Standard -VERSION 2.0
WRAP.    NO : One line per depth step
DLM . SPACE : Column Data Section Delimiter
~Well ------------------------------------------------------
STRT .F                 1479.0 : START DEPTH
STOP .F                 6502.0 : STOP DEPTH
STEP .F                    0.5 : STEP
NULL .                -9999.25 : NULL VALUE
COMP .                         : COMPANY
WELL .                         : WELL
FLD  .                         : FIELD
LOC  .                         : LOCATION
PROV .                         : PROVINCE
CNTY .                         : COUNTY
STAT .                         : STATE
CTRY .                         : COUNTRY
SRVC .                         : SERVICE COMPANY
DATE .                         : DATE
UWI  .                         : UNIQUE WELL ID
API  .                         : API NUMBER
SLAT .WGS84  7.421619116200297 : SURFACE LATITUDE
SLON .WGS84 5.6041795297520025 : SURFACE LONGITUDE
DATUM.F                    nan : DEPTH DATUM ELEV
~Curve Information -----------------------------------------
DEPT   .F     : 1 MEASURED DEPTH
GRR    .GAPI  : GAMMA RAY FROM RESISTIVITY LOG
HCALR  .IN    : HRCC CALIPER CALIBRATED FROM RESISTIVITY LOG
AHT10  .OHMM  : ARRAY INDUCTION TWO FOOT RESISTIVITY A10
AHT30  .OHMM  : ARRAY INDUCTION TWO FOOT RESISTIVITY A30
AHT90  .OHMM  : ARRAY INDUCTION TWO FOOT RESISTIVITY A90
SPR    .MV    : SPONTANEOUS POTENTIAL FROM RESISTIVITY LOG
DTCO   .US/F  : DELTA-T COMPRESSIONAL
DTSM   .US/F  : DELTA-T SHEAR
NPHI_LS.DEC   : NEUTRON POROSITY LIMESTONE
DPHZ_LS.DEC   : HGRD STANDARD RESOLUTION DENSITY POROSITY
HDRA   .G/C3  : HRDD SPINE AND RIBS DENSITY CORRECTION
PEFZ   .B/E   : HRDD STANDARD RESOLUTION FORMATION PHOTOELECTRIC FACTOR
RHOZ   .G/C3  : HRDD STANDARD RESOLUTION FORMATION DENSITY
~Params ----------------------------------------------------
~Other -----------------------------------------------------
~ASCII -----------------------------------------------------
# ...
 6211.00000   71.39220    8.75380    5.85850    5.70040    5.59610  -34.32670   75.43420  153.19710    0.20740    0.02450    0.09200    4.27900    2.66850
 6211.50000   70.50860    8.75640    5.83120    5.70040    5.59620  -34.31890   75.46560  153.37890    0.20210    0.02950    0.09510    4.23390    2.66530
 6212.00000   69.62360    8.60330    5.86200    5.70040    5.59620  -34.28510   75.50520  153.85620    0.19210    0.03860    0.08420    4.18890    2.64950
 6212.50000   68.50640    8.64830    5.96080    5.70040    5.59620  -34.78830   75.62420  154.31880    0.18870    0.04780    0.06910    4.14380    2.63130
 6213.00000   68.17820    8.71050    6.02120    5.70080    5.59620  -35.35380   75.66210  153.75000    0.19130    0.06710    0.06980    4.09880    2.59830
 6213.50000   69.90730    8.74770    5.99330    5.74540    5.59320  -35.91930   75.48740  152.53320    0.19360    0.09080    0.09140    4.05380    2.55460
 6214.00000   70.11830    8.51780    5.93550    5.79040    5.60790  -36.93060   75.28230  151.10320    0.19370    0.10330    0.12350    4.00870    2.53320
 6214.50000   68.25940    8.31870    5.92870    5.83570    5.73040  -38.94580   75.17530  149.59540    0.18950    0.09620    0.15610    3.97080    2.53910
 6215.00000   65.77210    8.33370    6.21170    5.98410    5.85560  -39.78720   75.33400  147.05440    0.18070    0.08220    0.17760    3.98990    2.56550
 6215.50000   63.88920    8.04800    6.52560    6.18820    5.98350  -39.62550   75.33130  146.48030    0.17040    0.06720    0.19590    4.02170    2.58570
 6216.00000   64.43070    8.13880    6.25330    6.24420    6.01000  -39.69280   75.09960  145.55200    0.16750    0.06980    0.19400    4.05350    2.59510
 6216.50000   66.42560    8.48950    5.42840    6.05010    6.03240  -40.43070   74.44520  142.93980    0.18180    0.07920    0.19100    4.08520    2.57680
 6217.00000   67.09720    8.28430    5.48390    5.93720    6.26840  -42.02410   73.12860  140.21260    0.19710    0.09100    0.17900    4.11560    2.55420
 6217.50000   65.09570    8.54890    6.24440    6.53000    6.94630  -44.20850   70.88740  137.29060    0.19340    0.07520    0.14690    4.17470    2.57910
 6218.00000   57.25230    7.98330    7.01610    8.05190    9.35880  -45.39400   67.92690  134.91460    0.15900    0.05310    0.11310    4.34890    2.60190
 6218.50000   47.51640    7.89140   12.17820   14.34040   16.61500  -46.25330   64.44710  130.35100    0.12010    0.03210    0.08190    4.52890    2.64080
 6219.00000   37.55740    7.81950   25.16380   27.01750   37.23230  -47.48430   62.21260  122.05940    0.06110    0.01510    0.05380    4.65780    2.68410
 6219.50000   34.92580    7.82390   26.29980   29.75550   41.74780  -47.68060   60.32480  111.74690    0.04510   -0.00210    0.05280    4.61560    2.71490
 6220.00000   34.88240    7.82840   22.02030   24.74010   31.97290  -50.57000   59.40280  106.34020    0.03680   -0.00420    0.05480    4.37930    2.71690
 6220.50000   38.98260    7.83280   18.43710   20.57000   24.48680  -53.37140   59.28840  105.00170    0.03530    0.00930    0.04630    4.14380    2.70950
 6221.00000   45.74340    7.83570   13.74230   17.10280   19.57970  -55.88230   60.32230  104.67850    0.05700    0.02420    0.03560    3.77610    2.67190
 6221.50000   54.95090    7.83720   11.77520   15.06530   17.75920  -58.39090   61.42700  105.08160    0.07870    0.04490    0.02240    3.41000    2.63350
 6222.00000   65.49050    7.83870   11.83060   14.33630   16.60410  -60.88010   62.21820  104.47260    0.10030    0.06930    0.01340    3.03300    2.59170
 6222.50000   65.01040    7.82560   14.03700   15.94240   17.75770  -63.36930   62.52720  102.37180    0.11000    0.08340    0.00870    2.73130    2.56690
 6223.00000   57.06660    7.80240   17.27260   18.99930   22.53540  -65.85850   62.52560  100.81660    0.09620    0.08050    0.00830    2.48410    2.57240
 6223.50000   44.33440    7.77930   23.83610   32.22510   39.05480  -68.17920   61.71090   99.26130    0.06720    0.07280    0.00490    2.36960    2.58710
 6224.00000   29.53690    7.75940   37.79860   52.54620   70.38300  -69.98490   60.02230   97.45880    0.02670    0.06750    0.00590    2.32950    2.59460
 6224.50000   28.19960    7.75960   45.73980   53.44610   74.17740  -71.79060   59.12550   96.82710    0.02050    0.06650    0.00710    2.28880    2.59640
 6225.00000   39.43790    7.76900   50.06630   40.75380   41.99010  -73.59630   59.29510   97.06060    0.03930    0.08210    0.00770    2.25390    2.56970
 6225.50000   52.63490    7.80020   42.67010   29.14780   23.10120  -75.96700   59.30210   97.77780    0.06770    0.09900    0.00740    2.35950    2.54070
 6226.00000   59.66510    7.83150   28.45570   25.77920   16.49160  -78.98280   60.29490   98.51020    0.10900    0.11020    0.00720    2.45780    2.52170
 6226.50000   54.16990    7.83360   28.33790   26.49100   15.24650  -84.30220   61.68520   97.84060    0.13220    0.11450    0.00670    2.46820    2.51420
 6227.00000   47.09200    7.81040   36.88590   27.81610   18.31270  -89.62150   62.18880   97.13680    0.11520    0.10900    0.00560    2.37690    2.52390
 6227.50000   34.66710    7.78710   51.43200   29.20740   22.52940  -94.47760   62.10550   96.28190    0.08810    0.11090    0.00450    2.28460    2.52040
 6228.00000   23.83210    7.76390   62.50220   29.06300   21.72790  -98.39350   61.48040   95.70690    0.06110    0.12260    0.00620    2.19940    2.50040
 6228.50000   17.84330    7.74950   68.04720   27.78570   19.95800 -102.30940   60.85780   94.98470    0.05000    0.12910    0.00700    2.20080    2.48940
 6229.00000   16.79620    7.73650   69.62960   26.08340   18.46040 -106.23250   60.99500   94.79680    0.04570    0.12910    0.00630    2.26650    2.48930
 6229.50000   16.72630    7.73050   69.87920   24.91220   17.12080 -109.29930   61.08530   95.00930    0.04500    0.12610    0.00730    2.34260    2.49450
 6230.00000   17.65820    7.73020   66.28370   22.28410   15.91150 -110.39040   60.69990   95.22180    0.04500    0.12420    0.00980    2.39290    2.49760
 6230.50000   17.99560    7.72980   61.61310   20.15590   14.87220 -114.87270   60.13620   95.34450    0.04480    0.12560    0.01100    2.36330    2.49520
 6231.00000   17.87300    7.73260   57.37660   19.61400   14.02940 -117.25950   60.17210   95.45620    0.04340    0.12700    0.00870    2.30850    2.49270
 6231.50000   17.48890    7.73750   50.82480   18.96540   13.32980 -119.74540   61.26340   95.60010    0.04200    0.12730    0.00650    2.24620    2.49220
 6232.00000   18.98470    7.74230   42.43710   17.40420   12.77180 -121.37400   62.09510   96.21910    0.04070    0.12520    0.00730    2.19830    2.49580
 6232.50000   25.17500    7.74720   34.48800   15.51810   11.74850 -122.21600   62.62000   96.95720    0.04150    0.12280    0.00850    2.17340    2.50020
 6233.00000   32.67250    7.75200   26.21300   13.60380    9.87650 -123.05810   62.83530   97.69530    0.05360    0.12140    0.00820    2.22680    2.50470
 6233.50000   40.23820    7.75690   19.83780   12.50040    8.24930 -123.85070   62.64740   98.42950    0.06970    0.12250    0.00580    2.28020    2.50340
 6234.00000   42.95760    7.75730   19.34520   12.44330    7.77410 -124.52530   62.21130   98.16850    0.08380    0.12350    0.00350    2.33360    2.50050
 6234.50000   35.29960    7.75130   26.25010   12.10270    8.15220 -124.99970   61.91830   97.89670    0.08520    0.12460    0.00220    2.36770    2.49710
 6235.00000   28.27850    7.70630   30.59570   11.46900    8.64220 -125.46550   62.10850   98.02340    0.07620    0.12750    0.00340    2.34620    2.49230
 6235.50000   21.11190    7.65310   33.26170   11.24370    8.58870 -125.93140   62.29950   98.43800    0.06650    0.13120    0.00530    2.32460    2.48560
 6236.00000   20.73050    7.59030   33.16180   10.94880    7.97260 -125.87480   62.55590   98.84470    0.06320    0.13260    0.00710    2.30300    2.48310
 6236.50000   20.79560    7.57710   32.36860   10.58010    7.40070 -125.48550   63.16140   99.23790    0.06400    0.12970    0.00670    2.28150    2.48820
