~Version ---------------------------------------------------
VERS.   2.0 : CWLS log ASCII Standard -VERSION 2.0
WRAP.    NO : One line per depth step
DLM . SPACE : Column Data Section Delimiter
~Well ------------------------------------------------------
STRT .F                 1479.0 : START DEPTH
STOP .F                 6502.0 : STOP DEPTH
STEP .F                    0.5 : STEP
NULL .                -9999.25 : NULL VALUE
COMP .                         : COMPANY
WELL .                         : WELL
FLD  .                         : FIELD
LOC  .                         : LOCATION
PROV .                         : PROVINCE
CNTY .                         : COUNTY
STAT .                         : STATE
CTRY .                         : COUNTRY
SRVC .                         : SERVICE COMPANY
DATE .                         : DATE
UWI  .                         : UNIQUE WELL ID
API  .                         : API NUMBER
SLAT .WGS84  7.421619116200297 : SURFACE LATITUDE
SLON .WGS84 5.6041795297520025 : SURFACE LONGITUDE
DATUM.F                    nan : DEPTH DATUM ELEV
~Curve Information -----------------------------------------
DEPT   .F     : 1 MEASURED DEPTH
GRR    .GAPI  : GAMMA RAY FROM RESISTIVITY LOG
HCALR  .IN    : HRCC CALIPER CALIBRATED FROM RESISTIVITY LOG
AHT10  .OHMM  : ARRAY INDUCTION TWO FOOT RESISTIVITY A10
AHT30  .OHMM  : ARRAY INDUCTION TWO FOOT RESISTIVITY A30
AHT90  .OHMM  : ARRAY INDUCTION TWO FOOT RESISTIVITY A90
SPR    .MV    : SPONTANEOUS POTENTIAL FROM RESISTIVITY LOG
DTCO   .US/F  : DELTA-T COMPRESSIONAL
DTSM   .US/F  : DELTA-T SHEAR
NPHI_LS.DEC   : NEUTRON POROSITY LIMESTONE
DPHZ_LS.DEC   : HGRD STANDARD RESOLUTION DENSITY POROSITY
HDRA   .G/C3  : HRDD SPINE AND RIBS DENSITY CORRECTION
PEFZ   .B/E   : HRDD STANDARD RESOLUTION FORMATION PHOTOELECTRIC FACTOR
RHOZ   .G/C3  : HRDD STANDARD RESOLUTION FORMATION DENSITY
~Params ----------------------------------------------------
~Other -----------------------------------------------------
~ASCII -----------------------------------------------------
# ...
 5925.00000   14.95160    7.83670  265.01280  124.24990   80.74360  -33.46120   49.41950   98.86270    0.01180    0.00970    0.00510    5.04340    2.69340
 5925.50000   14.48400    7.83200  238.54610  132.42960   68.48510  -33.49440   49.38690   91.41310    0.00940    0.01120    0.00390    5.09620    2.69060
 5926.00000   14.01640    7.82740  210.46370  155.70450   58.82710  -34.51410   49.57820   91.55390    0.00830    0.00910    0.00520    5.15010    2.69450
 5926.50000   13.76460    7.82270  201.77780  181.00400   57.02420  -35.89660   49.76320   92.84720    0.00720    0.00510    0.00700    5.20700    2.70140
 5927.00000   14.07370    7.81800  188.58240  160.45500   59.27830  -36.66020   49.75270   94.06240    0.00710   -0.00450    0.00930    5.26580    2.70960
 5927.50000   16.70430    7.81680  159.69840  114.53940   64.01500  -36.95380   49.47150   95.27760    0.00880   -0.00040    0.01370    5.32460    2.71630
 5928.00000   20.02140    7.81700  130.19100   68.32520   40.52270  -37.13300   49.92230   97.78150    0.01400   -0.00710    0.01810    5.36080    2.72140
 5928.50000   23.08930    7.81720   62.59920   39.52830   29.54160  -37.09220   52.53930  101.27260    0.01950    0.00060    0.02100    5.32850    2.71020
 5929.00000   25.37310    7.82430   39.18460   31.40900   26.01420  -36.48970   55.86990  104.76370    0.03030    0.01200    0.02370    5.20850    2.69370
 5929.50000   28.68010    7.85040   30.15840   23.82160   15.68180  -35.80560   58.26820  109.04780    0.05130    0.03200    0.02970    5.02920    2.65540
 5930.00000   33.14210    7.87650   20.84020   15.68560   11.35340  -35.48190   58.77650  113.65440    0.07070    0.05560    0.03880    4.67130    2.61490
 5930.50000   34.16190    7.90270   14.40600   11.41690   10.07200  -35.41190   57.81710  116.01980    0.07280    0.06940    0.03450    4.51780    2.59120
 5931.00000   30.28490    7.92880   15.27390   14.55730   12.27920  -35.15110   56.53150  117.63760    0.06160    0.04680    0.02760    4.51370    2.63020
 5931.50000   25.72250    7.95500   17.41730   21.06050   32.55710  -34.76400   55.13920  119.02950    0.04380    0.03120    0.01990    4.74610    2.65680
 5932.00000   24.70680    7.96040   16.30270   20.64470   24.84250  -34.80080   53.33600  116.15840    0.03690    0.01640    0.02900    4.88290    2.68200
 5932.50000   28.42370    7.91930   11.01520   18.32230   19.69010  -35.32650   53.05340  113.03060    0.04920    0.03810    0.05220    4.82770    2.64460
 5933.00000   33.18330    7.86280    9.84870   16.50400   20.26870  -35.42030   53.71750  111.28160    0.06210    0.04950    0.07730    4.72630    2.62490
 5933.50000   35.45540    7.80690    8.68680   16.60390   21.60280  -35.51410   54.36920  110.08780    0.07040    0.04400    0.08580    4.63470    2.63470
 5934.00000   32.63650    7.81820    8.51260   21.16290   41.37420  -35.30070   55.46610  109.20450    0.05890    0.01840    0.05330    4.64000    2.66990
 5934.50000   29.35210    7.85140   10.11280   25.16420   48.58550  -34.71520   57.26900  110.45350    0.04290    0.00670    0.03190    4.91530    2.69540
 5935.00000   29.23270    7.89800    9.55190   21.13720   29.87090  -34.12970   58.13010  113.27180    0.03600    0.01970    0.02820    4.98300    2.68930
 5935.50000   40.81340    7.96050    6.51980    9.86020   15.53170  -33.31210   57.85340  125.76320    0.08660    0.04040    0.04130    4.64400    2.65320
 5936.00000   56.97850    8.06970    2.95040    4.85860    7.46470  -31.90230   58.38100  148.58150    0.15300    0.08580    0.06620    4.21450    2.56340
 5936.50000   69.15870    8.19050    1.98910    3.36470    3.69690  -30.85330   59.22720  161.81850    0.25050    0.14110    0.07930    3.78510    2.46670
 5937.00000   70.72930    8.31670    1.94950    3.03900    3.58330  -29.80440   60.01780  161.91850    0.27130    0.14360    0.06490    3.64500    2.46450
 5937.50000   61.71130    8.18490    2.25800    4.63860    7.98760  -29.49510   58.22910  155.94130    0.18870    0.09810    0.06840    3.68280    2.54230
 5938.00000   49.39790    7.79740    3.79610    8.87620   20.89900  -30.90790   55.20480  147.84580    0.12740    0.06800    0.08170    4.08300    2.59400
 5938.50000   48.95020    7.92320    6.24910    8.24760   21.03270  -32.47640   52.93490  140.35960    0.14560    0.10580    0.09620    4.32530    2.52900
 5939.00000   51.36600    8.10850    4.87890    7.12300   13.95970  -33.77200   52.77870  141.33220    0.21880    0.17580    0.08740    4.22230    2.40770
 5939.50000   52.04720    8.36970    4.00270    6.50940    9.67930  -34.16130   53.16270  141.30890    0.23470    0.17730    0.07430    3.93370    2.40420
 5940.00000   43.88700    8.22030    3.92160    9.68020   17.08280  -34.15840   54.13880  140.83360    0.21480    0.11370    0.06120    4.00830    2.51580
 5940.50000   36.26150    7.98060    9.34070   24.43620   30.48340  -34.00570   54.74790  138.45600    0.12610    0.04830    0.05280    4.49250    2.62730
 5941.00000   32.57550    7.92360   24.24220   30.42510   35.74940  -33.75570   53.66310  133.36800    0.05170   -0.00170    0.04510    4.93540    2.71290
 5941.50000   32.71240    7.96520   21.09780   39.34340   48.03100  -33.46060   51.47910  118.13700    0.03150    0.00110    0.03680    5.19720    2.70770
 5942.00000   34.06240    7.96540   21.17070   40.93230   64.53180  -33.35190   50.58390  106.91490    0.02700   -0.00460    0.02720    5.23600    2.71810
 5942.50000   34.33180    7.84220   27.89970   34.58250   67.97780  -33.69080   50.73550   99.93760    0.02490   -0.00270    0.01700    5.17580    2.71450
 5943.00000   32.40670    7.79960   32.74840   30.46660   65.19550  -34.02960   51.46110   99.03650    0.02350    0.00640    0.01000    5.11570    2.69900
 5943.50000   33.72420    7.83570   34.44710   29.24240   58.00620  -34.22650   53.26070   99.71120    0.03320    0.02370    0.02570    5.05530    2.66950
 5944.00000   36.45510    7.89790   30.19860   25.86020   35.97450  -34.82860   55.86490  104.96040    0.05240    0.04080    0.05130    4.96840    2.63990
 5944.50000   38.50590    7.89290   23.67870   21.05750   16.11530  -35.74280   55.37000  106.25110    0.06990    0.05020    0.07290    4.88150    2.62250
 5945.00000   37.11990    7.86710   24.34880   20.55720   17.65860  -36.65700   53.18570  106.14800    0.06610    0.03170    0.07140    4.80410    2.66110
 5945.50000   35.02980    7.84120   53.57390   35.21480   26.01780  -37.46190   53.07530  105.06400    0.04740    0.00590    0.05130    4.91140    2.70000
 5946.00000   32.93970    7.82440  153.55550   76.50280   49.72060  -38.33770   52.63860  102.86990    0.02870   -0.00830    0.02700    5.06050    2.72960
 5946.50000   32.05570    7.81540  167.84860  105.80420   86.59920  -39.92340   51.49080  100.05850    0.02530   -0.01190    0.01850    5.17270    2.73220
 5947.00000   32.23940    7.83320  137.94650  112.27580   83.62150  -41.49160   50.74030   97.24710    0.02370   -0.01440    0.02030    5.24970    2.73300
 5947.50000   32.60790    7.85560  124.99640  120.42140   75.00190  -43.05720   50.72140   95.13160    0.02120   -0.01190    0.02140    5.31440    2.73050
 5948.00000   31.36410    7.87800  121.90600  136.20950   59.19030  -44.68570   50.49750   94.03640    0.01820   -0.00960    0.01870    5.29640    2.72790
 5948.50000   30.77990    7.90040  109.43040  156.55230   54.44950  -46.50470   49.92030   93.61510    0.01330   -0.00810    0.01370    5.27100    2.72530
 5949.00000   32.95670    7.87690   85.47840  195.23300   49.29280  -48.28180   49.23490   93.65880    0.01010   -0.00680    0.00920    5.24560    2.72240
 5949.50000   36.24700    7.90070   81.10360  210.95760   44.62450  -49.83430   48.58670   93.16730    0.00930   -0.00150    0.00690    5.22020    2.71320
 5950.00000   35.86580    7.92930   69.00390  245.20940   41.30980  -51.24100   48.27120   92.67580    0.00840    0.00800    0.00440    5.19500    2.69600
 5950.50000   31.92350    7.94680   53.74650  403.61990   40.48930  -52.42280   48.10700   92.19730    0.00780    0.01070    0.00170    5.22000    2.69170
