~Version ---------------------------------------------------
VERS.   2.0 : CWLS log ASCII Standard -VERSION 2.0
WRAP.    NO : One line per depth step
DLM . SPACE : Column Data Section Delimiter
~Well ------------------------------------------------------
STRT .F                 1479.0 : START DEPTH
STOP .F                 6502.0 : STOP DEPTH
STEP .F                    0.5 : STEP
NULL .                -9999.25 : NULL VALUE
COMP .                         : COMPANY
WELL .                         : WELL
FLD  .                         : FIELD
LOC  .                         : LOCATION
PROV .                         : PROVINCE
CNTY .                         : COUNTY
STAT .                         : STATE
CTRY .                         : COUNTRY
SRVC .                         : SERVICE COMPANY
DATE .                         : DATE
UWI  .                         : UNIQUE WELL ID
API  .                         : API NUMBER
SLAT .WGS84  7.421619116200297 : SURFACE LATITUDE
SLON .WGS84 5.6041795297520025 : SURFACE LONGITUDE
DATUM.F                    nan : DEPTH DATUM ELEV
~Curve Information -----------------------------------------
DEPT   .F     : 1 MEASURED DEPTH
GRR    .GAPI  : GAMMA RAY FROM RESISTIVITY LOG
HCALR  .IN    : HRCC CALIPER CALIBRATED FROM RESISTIVITY LOG
AHT10  .OHMM  : ARRAY INDUCTION TWO FOOT RESISTIVITY A10
AHT30  .OHMM  : ARRAY INDUCTION TWO FOOT RESISTIVITY A30
AHT90  .OHMM  : ARRAY INDUCTION TWO FOOT RESISTIVITY A90
SPR    .MV    : SPONTANEOUS POTENTIAL FROM RESISTIVITY LOG
DTCO   .US/F  : DELTA-T COMPRESSIONAL
DTSM   .US/F  : DELTA-T SHEAR
NPHI_LS.DEC   : NEUTRON POROSITY LIMESTONE
DPHZ_LS.DEC   : HGRD STANDARD RESOLUTION DENSITY POROSITY
HDRA   .G/C3  : HRDD SPINE AND RIBS DENSITY CORRECTION
PEFZ   .B/E   : HRDD STANDARD RESOLUTION FORMATION PHOTOELECTRIC FACTOR
RHOZ   .G/C3  : HRDD STANDARD RESOLUTION FORMATION DENSITY
~Params ----------------------------------------------------
~Other -----------------------------------------------------
~ASCII -----------------------------------------------------
# ...
 3195.00000   52.88400    7.89410   28.79940   32.38430   33.48350  -48.94600   54.03890  104.92570    0.02110    0.01190    0.00760    4.98550    2.68940
 3195.50000   55.59720    7.89510   43.28940   37.65090   36.81530  -47.53370   54.41140  105.37670    0.01650    0.00300    0.00490    4.95590    2.70490
 3196.00000   54.64110    7.89490   70.62280   48.94850   38.04960  -45.99010   55.40810  106.36270    0.01300   -0.00730    0.00550    4.92390    2.72040
 3196.50000   49.70470    7.89950   87.55500   42.82140   31.38490  -44.73370   57.00050  108.85810    0.02010   -0.00490    0.00770    4.84560    2.72400
 3197.00000   45.14040    7.90850   45.01920   24.24710   19.81700  -44.03380   58.04400  111.35350    0.03070    0.00690    0.00690    4.72020    2.69510
 3197.50000   48.73920    7.91740   21.04000   13.80060   12.39180  -43.25230   58.92930  112.95520    0.05100    0.01840    0.00610    4.59480    2.67860
 3198.00000   53.73730    7.92540   14.65260   13.47120   10.71400  -42.47080   59.00530  112.05300    0.06420    0.02270    0.00530    4.47220    2.67130
 3198.50000   53.10750    7.93210   16.45800   15.45300   13.95300  -42.77820   57.66850  110.42360    0.05680    0.02420    0.00380    4.43040    2.66860
 3199.00000   50.10230    7.93870   21.27200   19.36850   17.99400  -44.25070   56.05350  107.85330    0.04360    0.02350    0.00080    4.51950    2.66990
 3199.50000   45.73280    7.94530   27.12030   24.92160   22.70970  -46.12640   54.52770  105.35300    0.03050    0.02150   -0.00210    4.61340    2.67330
 3200.00000   38.66900    7.94800   47.33870   33.99710   30.08050  -48.10080   53.43040  102.91770    0.02150    0.01960   -0.00320    4.70730    2.67660
 3200.50000   33.13260    7.94670   70.92970   55.19160   42.32630  -49.31800   52.45160  100.48240    0.01410    0.01940   -0.00250    4.79900    2.67690
 3201.00000   27.89520    7.93800   73.14900   58.74190   50.02040  -50.41040   52.08920   99.20890    0.01030    0.02210   -0.00090    4.84670    2.67340
 3201.50000   26.84160    7.92540   62.82900   55.14880   46.38310  -51.67430   52.01370   98.95640    0.01060    0.01850    0.00300    4.90920    2.67680
 3202.00000   28.61700    7.91270   55.10700   51.54680   41.50720  -53.93440   52.09070   99.01770    0.01490    0.00990    0.00700    4.97390    2.69310
 3202.50000   30.39240    7.89960   51.56350   50.10720   40.96580  -56.34290   52.20760   99.53610    0.01910    0.00690    0.00800    5.03860    2.69830
 3203.00000   30.86440    7.88630   50.12300   47.10310   40.43300  -58.76390   52.24830  100.03400    0.01970    0.01450    0.00640    5.10330    2.68530
 3203.50000   30.37730    7.89020   46.52900   44.43050   39.89980  -59.09920   52.00260  100.78880    0.01760    0.01870    0.00610    5.15680    2.67810
 3204.00000   30.05460    7.89820   43.19520   41.90950   38.10490  -57.21840   52.12940  100.88710    0.01410    0.01410    0.01120    5.10350    2.68590
 3204.50000   30.75130    7.90630   42.75970   39.72860   36.58770  -55.46410   52.01520  101.11110    0.01100    0.00480    0.01580    5.04030    2.70180
 3205.00000   34.43840    7.91720   44.50440   40.70550   37.62270  -54.34790   52.09190  102.15640    0.01000    0.00160    0.01580    5.10590    2.70730
 3205.50000   39.55490    7.92830   49.96530   44.21640   40.51330  -53.58990   52.71280  103.54820    0.01070    0.01310    0.01160    5.13260    2.68780
 3206.00000   45.73870    7.93940   53.77780   46.37730   40.48480  -52.83180   54.75020  106.53780    0.01340    0.02870    0.00240    5.14390    2.66090
 3206.50000   54.49970    7.94910   39.39240   36.16340   28.75550  -51.89080   57.46990  112.44030    0.02020    0.03570   -0.00430    5.10410    2.64910
 3207.00000   74.23000    7.95160   27.46620   24.58380   16.18380  -50.97720   60.09620  116.60950    0.03770    0.03800   -0.00260    4.88160    2.64520
 3207.50000  100.93390    7.92280   15.83410   11.65590   10.63850  -50.27180   61.76680  116.70880    0.05510    0.04730    0.00370    4.65840    2.62730
 3208.00000  172.05660    7.88640   10.86460    9.66750    7.92280  -50.60380   62.87270  116.35510    0.09380    0.05280    0.01200    4.45820    2.62090
 3208.50000  243.17920    7.85000   10.32230    9.48970    7.90880  -52.08690   61.35990  114.88250    0.12780    0.04860    0.02090    4.29260    2.62550
 3209.00000  223.98410    7.82100   12.59650   10.40470    9.53660  -60.51580   59.84710  112.17250    0.12050    0.04170    0.02340    4.26890    2.63880
 3209.50000  183.00080    7.83060   14.00360   11.32010   10.26910  -68.94470   58.45670  109.85310    0.09660    0.03390    0.01340    4.41210    2.65220
 3210.00000  139.49210    7.84890   11.75620   10.81670    9.42910  -75.97700   57.21520  107.89640    0.07420    0.02640    0.00590    4.51410    2.66500
 3210.50000   63.88650    7.88640   11.29710   10.15360    8.76840  -79.43160   56.42400  106.47250    0.07010    0.02980    0.00780    4.31180    2.65900
 3211.00000   52.43530    7.90240   11.40630    9.58270    8.80380  -82.88630   56.10410  105.12110    0.07350    0.04380    0.01200    4.11920    2.63570
 3211.50000   49.72380    7.90760   11.72420    9.34870    8.70060  -84.99670   55.97260  105.56880    0.08230    0.08850    0.01220    3.92820    2.55720
 3212.00000   49.68630    7.91290   10.43400    9.06650    7.90910  -85.00670   55.98550  105.40370    0.08530    0.09470    0.00480    3.85630    2.54790
 3212.50000   51.17850    7.91810   10.38260    8.96710    7.40180  -85.22450   56.09360  104.95180    0.07540    0.06950    0.00410    3.99510    2.59200
 3213.00000   57.92010    7.91750   12.32560    8.92560    7.60640  -85.68600   56.21750  104.49980    0.06280    0.04030    0.00710    4.28410    2.64120
 3213.50000   66.39160    7.89530   13.35800    8.87020    7.81940  -86.60590   56.35080  104.04630    0.05970    0.02670    0.00790    4.52730    2.66590
 3214.00000   74.91890    7.87540   11.69560    8.81510    7.41270  -88.19390   56.73060  103.62650    0.06690    0.03880    0.00540    4.55870    2.64430
 3214.50000   81.11030    7.85750   11.57060    8.89790    7.14560  -90.86100   57.05860  103.49780    0.08030    0.05860    0.00240    4.42340    2.61150
 3215.00000   79.32590    7.78920   12.63180    9.45730    7.43120  -93.97310   56.97770  103.85810    0.09050    0.07330   -0.00070    4.36310    2.58740
 3215.50000   73.85570    7.71680   13.66350   10.34820    8.05190  -94.64090   56.47720  104.25800    0.09140    0.07370   -0.00050    4.44770    2.58670
 3216.00000   73.80730    7.65680   14.97880   10.85950    8.26290  -92.88260   55.83190  104.05830    0.07980    0.06170    0.00020    4.53740    2.60520
 3216.50000   79.46110    7.70570   16.17330   10.96960    8.36120  -90.42060   55.18870  103.27390    0.06390    0.04610    0.00100    4.61310    2.63120
 3217.00000   89.03360    7.78570   17.39840   11.69800    8.83640  -89.33040   54.66880  102.48950    0.05000    0.03280    0.00170    4.64960    2.65150
 3217.50000  100.44840    7.82470   22.52850   13.70920   10.49010  -89.43990   54.47390  101.70510    0.04550    0.02380    0.00240    4.67480    2.66870
 3218.00000  101.64410    7.84580   27.75350   16.27820   11.73270  -90.54880   54.41220  100.92070    0.04520    0.02870    0.00260    4.70460    2.66280
 3218.50000   89.23190    7.84770   33.77610   17.96580   13.07180  -92.66480   54.14910  100.18040    0.04710    0.03750    0.00260    4.75300    2.64670
 3219.00000   73.30120    7.83380   35.89920   19.57380   14.31870  -95.97200   54.27620  100.26600    0.05150    0.04600    0.00260    4.83570    2.63140
 3219.50000   60.90160    7.84310   37.52500   19.60220   14.38440  -97.50680   54.49410  100.97760    0.05620    0.05250    0.00470    4.89680    2.62020
 3220.00000   60.94950    7.87010   32.29960   16.08300   12.59830  -96.96760   54.75810  101.71460    0.05630    0.05250    0.00810    4.98260    2.61940
 3220.50000   68.26300    7.88760   28.79680   14.50370   10.52280  -96.89640   55.02210  102.65000    0.05450    0.04320    0.01150    5.08780    2.64040
