~Version ---------------------------------------------------
VERS.   2.0 : CWLS log ASCII Standard -VERSION 2.0
WRAP.    NO : One line per depth step
DLM . SPACE : Column Data Section Delimiter
~Well ------------------------------------------------------
STRT .F                 1479.0 : START DEPTH
STOP .F                 6502.0 : STOP DEPTH
STEP .F                    0.5 : STEP
NULL .                -9999.25 : NULL VALUE
COMP .                         : COMPANY
WELL .                         : WELL
FLD  .                         : FIELD
LOC  .                         : LOCATION
PROV .                         : PROVINCE
CNTY .                         : COUNTY
STAT .                         : STATE
CTRY .                         : COUNTRY
SRVC .                         : SERVICE COMPANY
DATE .                         : DATE
UWI  .                         : UNIQUE WELL ID
API  .                         : API NUMBER
SLAT .WGS84  7.421619116200297 : SURFACE LATITUDE
SLON .WGS84 5.6041795297520025 : SURFACE LONGITUDE
DATUM.F                    nan : DEPTH DATUM ELEV
~Curve Information -----------------------------------------
DEPT   .F     : 1 MEASURED DEPTH
GRR    .GAPI  : GAMMA RAY FROM RESISTIVITY LOG
HCALR  .IN    : HRCC CALIPER CALIBRATED FROM RESISTIVITY LOG
AHT10  .OHMM  : ARRAY INDUCTION TWO FOOT RESISTIVITY A10
AHT30  .OHMM  : ARRAY INDUCTION TWO FOOT RESISTIVITY A30
AHT90  .OHMM  : ARRAY INDUCTION TWO FOOT RESISTIVITY A90
SPR    .MV    : SPONTANEOUS POTENTIAL FROM RESISTIVITY LOG
DTCO   .US/F  : DELTA-T COMPRESSIONAL
DTSM   .US/F  : DELTA-T SHEAR
NPHI_LS.DEC   : NEUTRON POROSITY LIMESTONE
DPHZ_LS.DEC   : HGRD STANDARD RESOLUTION DENSITY POROSITY
HDRA   .G/C3  : HRDD SPINE AND RIBS DENSITY CORRECTION
PEFZ   .B/E   : HRDD STANDARD RESOLUTION FORMATION PHOTOELECTRIC FACTOR
RHOZ   .G/C3  : HRDD STANDARD RESOLUTION FORMATION DENSITY
~Params ----------------------------------------------------
~Other -----------------------------------------------------
~ASCII -----------------------------------------------------
# ...
 4573.00000   35.00980    7.71720   34.89300    5.58990    4.26460 -131.76400   62.69970  112.92030    0.10690    0.06840    0.02760    4.99790    2.59290
 4573.50000   32.41110    7.72620   34.65100    4.98380    3.91370 -131.76110   63.25870  114.65070    0.11490    0.08920    0.02330    4.94930    2.55740
 4574.00000   29.39500    7.73530   28.99260    4.28000    3.09020 -132.07140   63.80920  116.50010    0.12590    0.11360    0.01860    4.89690    2.51560
 4574.50000   26.37880    7.74430   21.65360    3.70420    2.58400 -132.24190   64.40050  118.50580    0.13310    0.12600    0.02190    4.84450    2.49450
 4575.00000   24.34640    7.75330   16.10270    3.23850    2.30530 -132.41250   65.12610  119.77540    0.13610    0.12090    0.03620    4.79090    2.50320
 4575.50000   23.83900    7.76570   11.81210    2.95010    2.04950 -132.42110   65.67190  121.04510    0.13860    0.11490    0.04770    4.80440    2.51360
 4576.00000   24.22860    7.77880    8.04220    2.69510    1.81770 -132.41180   66.04060  122.31470    0.14500    0.12190    0.04550    4.81960    2.50150
 4576.50000   25.37480    7.77420    7.16100    2.40620    1.61220 -132.07550   66.39080  123.54380    0.15140    0.13550    0.03950    4.83470    2.47830
 4577.00000   25.07600    7.75370    7.02540    2.20970    1.45540 -132.17670   66.86020  123.94180    0.15370    0.14910    0.03220    4.77240    2.45500
 4577.50000   23.80130    7.73330    6.97860    2.04310    1.34680 -132.48030   67.50250  124.66090    0.15550    0.15740    0.01920    4.70950    2.44070
 4578.00000   22.52660    7.71280    6.65660    1.88220    1.24630 -132.79330   68.08590  125.00940    0.15840    0.15900    0.01020    4.64650    2.43810
 4578.50000   22.68300    7.71890    5.85560    1.70510    1.15170 -132.86350   68.77820  125.90120    0.16440    0.16950    0.00990    4.59230    2.42010
 4579.00000   23.90900    7.72740    3.93270    1.56260    1.01380 -132.92180   69.13300  126.79300    0.17320    0.18120    0.01230    4.55830    2.40010
 4579.50000   24.74220    7.73320    2.70350    1.45920    0.89250 -132.75780   69.24240  127.27760    0.18570    0.19830    0.00970    4.50370    2.37090
 4580.00000   24.12360    7.73900    2.03800    1.45290    0.86910 -131.73800   69.17200  126.93290    0.19640    0.20630    0.00790    4.44990    2.35720
 4580.50000   22.93720    7.74480    2.17280    1.45990    0.89940 -130.36310   68.94490  126.33590    0.19710    0.20420    0.00630    4.40000    2.36020
 4581.00000   21.66250    7.75060    2.56050    1.48640    0.96240 -127.77570   68.33680  125.11820    0.19410    0.18880    0.00520    4.34180    2.38700
 4581.50000   20.34730    7.75640    2.87230    1.53070    1.03170 -125.09130   67.33470  123.37100    0.18440    0.17360    0.00600    4.26650    2.41310
 4582.00000   19.78220    7.76220    3.04420    1.60530    1.11970 -119.65380   66.18740  121.17200    0.17470    0.15600    0.00720    4.19120    2.44330
 4582.50000   21.05990    7.76790    3.25140    1.74660    1.22560 -114.20830   65.04610  119.66860    0.16380    0.13900    0.00250    4.11590    2.47220
 4583.00000   24.46980    7.78140    3.57590    1.90030    1.47580 -108.62940   64.02950  118.28690    0.15060    0.11770   -0.00640    4.04910    2.50710
 4583.50000   28.98620    7.80140    3.97780    2.20660    1.77700 -102.59290   63.15550  116.80610    0.13740    0.09030   -0.00460    4.04570    2.55680
 4584.00000   34.20730    7.82130    4.56790    2.64160    2.13960  -94.70570   62.91990  116.56430    0.12760    0.06320    0.00070    4.12310    2.60180
 4584.50000   39.43800    7.84120    5.06680    3.16240    2.63240  -86.81860   63.11480  116.28860    0.12100    0.04470    0.00570    4.26410    2.63420
 4585.00000   42.63150    7.85300    5.84000    4.14670    3.39620  -78.88040   63.02760  115.52500    0.11830    0.03910    0.00830    4.35920    2.64310
 4585.50000   49.89810    7.84560    7.38550    5.48690    4.38150  -70.91460   62.33810  114.76130    0.11880    0.03540    0.01090    4.39800    2.64950
 4586.00000   60.85140    7.83830   10.33800    7.32670    5.70680  -68.33860   61.15820  113.80920    0.12530    0.04140    0.00990    4.32490    2.63930
 4586.50000   69.70210    7.83090   17.07540   11.11960    7.65970  -70.75860   59.83630  112.21510    0.12730    0.05610    0.00810    4.14860    2.61410
 4587.00000   67.04230    7.82360   28.56420   16.87590   10.28090  -77.33340   58.55660  109.85770    0.11990    0.07220    0.00500    4.18630    2.58220
 4587.50000   54.13310    7.81620   28.73370   22.92720   11.86790  -83.47770   57.02760  107.59730    0.09530    0.07250    0.00290    4.44160    2.58790
 4588.00000   39.61420    7.81490   28.20990   18.46150   10.33500  -88.69610   56.84420  106.29860    0.07080    0.05710    0.00100    4.71680    2.61240
 4588.50000   34.19800    7.81510   30.05630   12.95430    8.56300  -92.92550   57.44090  107.53780    0.06120    0.04490   -0.00090    4.83060    2.63400
 4589.00000   36.77650    7.81540   35.25870    9.08990    7.09240  -96.45610   58.65450  108.85760    0.05700    0.04360   -0.00270    4.88870    2.63540
 4589.50000   37.05360    7.81560   37.89020    7.06690    5.87310 -101.06710   59.92260  110.17730    0.07340    0.05780   -0.00430    4.75430    2.61120
 4590.00000   30.55860    7.80940   32.24650    5.73150    4.86350 -106.25370   61.68630  112.39130    0.09380    0.07570   -0.00160    4.59120    2.58120
 4590.50000   23.68890    7.78820   24.97310    4.88460    4.02740 -113.00130   63.62410  114.90040    0.11380    0.09940    0.00250    4.45450    2.54110
 4591.00000   19.98970    7.77110   19.32010    4.40160    3.41660 -118.03930   64.42950  116.93620    0.13340    0.12060    0.00810    4.35490    2.49820
 4591.50000   18.19410    7.77080   15.33120    3.83120    2.94160 -121.65350   65.11080  118.97210    0.14830    0.14110    0.01480    4.37450    2.46260
 4592.00000   19.12810    7.75580   12.36370    3.29560    2.53270 -125.10510   65.42320  120.39160    0.15680    0.15250    0.01740    4.48010    2.44960
 4592.50000   20.71960    7.73270   10.02850    2.93040    2.18070 -127.89480   65.71960  121.39090    0.16200    0.15420    0.01860    4.63000    2.44670
 4593.00000   21.71650    7.69030    8.18740    2.67930    1.87750 -130.51590   65.99220  122.47080    0.16350    0.15320    0.01600    4.81950    2.44820
 4593.50000   22.31800    7.64820    7.16200    2.44960    1.72510 -132.47360   66.38240  123.44390    0.15610    0.15100    0.01280    5.00460    2.45320
 4594.00000   23.02900    7.64260    6.47080    2.30580    1.59650 -134.28410   66.78940  123.65620    0.15280    0.14960    0.01170    5.13220    2.45390
 4594.50000   23.78180    7.63690    6.10800    2.18490    1.53250 -134.79720   66.99910  123.69520    0.15030    0.15790    0.01170    5.04350    2.43860
 4595.00000   24.91670    7.63670    5.72930    2.10020    1.49920 -135.09980   66.79020  123.71520    0.16350    0.17070    0.01080    4.85290    2.41800
 4595.50000   26.28110    7.64060    5.29220    2.01870    1.44910 -135.40230   66.56920  123.42160    0.17380    0.17150    0.01080    4.67510    2.41650
 4596.00000   29.26110    7.64460    4.90070    1.94050    1.37860 -135.07140   66.73230  122.92940    0.17630    0.16490    0.01370    4.58590    2.42800
 4596.50000   35.32540    7.64860    4.58520    1.87590    1.32360 -134.64990   66.84400  122.28820    0.17750    0.15890    0.01730    4.47510    2.43830
 4597.00000   40.59310    7.67700    4.47780    1.83640    1.31840 -134.22840   66.83990  121.57320    0.17650    0.15280    0.01630    4.46010    2.44810
 4597.50000   41.21770    7.68670    4.74870    1.92150    1.32680 -133.80690   66.81870  120.84670    0.16870    0.15160    0.01210    4.51690    2.45170
 4598.00000   37.16510    7.67980    5.29430    2.01060    1.36680 -133.18810   66.43450  120.12020    0.15890    0.15190    0.01030    4.66910    2.45450
 4598.50000   31.71140    7.66210    5.58330    2.10380    1.40790 -132.52200   65.61460  119.39370    0.14890    0.14550    0.00740    4.87210    2.46190
