~Version ---------------------------------------------------
VERS.   2.0 : CWLS log ASCII Standard -VERSION 2.0
WRAP.    NO : One line per depth step
DLM . SPACE : Column Data Section Delimiter
~Well ------------------------------------------------------
STRT .F                 1479.0 : START DEPTH
STOP .F                 6502.0 : STOP DEPTH
STEP .F                    0.5 : STEP
NULL .                -9999.25 : NULL VALUE
COMP .                         : COMPANY
WELL .                         : WELL
FLD  .                         : FIELD
LOC  .                         : LOCATION
PROV .                         : PROVINCE
CNTY .                         : COUNTY
STAT .                         : STATE
CTRY .                         : COUNTRY
SRVC .                         : SERVICE COMPANY
DATE .                         : DATE
UWI  .                         : UNIQUE WELL ID
API  .                         : API NUMBER
SLAT .WGS84  7.421619116200297 : SURFACE LATITUDE
SLON .WGS84 5.6041795297520025 : SURFACE LONGITUDE
DATUM.F                    nan : DEPTH DATUM ELEV
~Curve Information -----------------------------------------
DEPT   .F     : 1 MEASURED DEPTH
GRR    .GAPI  : GAMMA RAY FROM RESISTIVITY LOG
HCALR  .IN    : HRCC CALIPER CALIBRATED FROM RESISTIVITY LOG
AHT10  .OHMM  : ARRAY INDUCTION TWO FOOT RESISTIVITY A10
AHT30  .OHMM  : ARRAY INDUCTION TWO FOOT RESISTIVITY A30
AHT90  .OHMM  : ARRAY INDUCTION TWO FOOT RESISTIVITY A90
SPR    .MV    : SPONTANEOUS POTENTIAL FROM RESISTIVITY LOG
DTCO   .US/F  : DELTA-T COMPRESSIONAL
DTSM   .US/F  : DELTA-T SHEAR
NPHI_LS.DEC   : NEUTRON POROSITY LIMESTONE
DPHZ_LS.DEC   : HGRD STANDARD RESOLUTION DENSITY POROSITY
HDRA   .G/C3  : HRDD SPINE AND RIBS DENSITY CORRECTION
PEFZ   .B/E   : HRDD STANDARD RESOLUTION FORMATION PHOTOELECTRIC FACTOR
RHOZ   .G/C3  : HRDD STANDARD RESOLUTION FORMATION DENSITY
~Params ----------------------------------------------------
~Other -----------------------------------------------------
~ASCII -----------------------------------------------------
# ...
 5665.00000  127.02890    7.89100    7.10210   12.03050   11.57800  -35.21410   63.41960  108.14680    0.16210    0.10850    0.06910    4.19670    2.52440
 5665.50000  131.87240    8.01890    5.11460    8.30680   10.11200  -34.68300   63.63970  113.84270    0.19760    0.10610    0.10650    3.91680    2.52870
 5666.00000  124.12080    8.18940    4.68570    7.10020    8.88190  -37.04430   65.01840  116.08830    0.20820    0.08860    0.10380    3.69100    2.55900
 5666.50000  148.95930    8.16090    4.65960    7.36590    7.46970  -38.45450   67.45440  126.58490    0.22880    0.10400    0.09040    3.55650    2.53200
 5667.00000  174.80930    7.89750    5.00710    8.45270    7.23870  -36.91800   69.71050  147.11790    0.27150    0.18760    0.06470    3.37660    2.38910
 5667.50000  240.69780    7.79980    4.89240    8.49700    7.03400  -34.71640   73.46650  168.26550    0.39620    0.26220    0.05670    3.11160    2.26170
 5668.00000  294.94030    8.02670    3.60020    6.11130    6.05790  -32.51490   77.89520  183.53720    0.45270    0.25550    0.06360    2.77200    2.27330
 5668.50000  280.31220    8.45800    2.50200    3.91700    4.73110  -30.83010   82.11300  184.08150    0.47310    0.21490    0.07590    2.43240    2.34270
 5669.00000  212.54780    8.40260    1.97920    3.28710    3.77290  -30.81120   83.66600  183.87990    0.46430    0.20360    0.07780    2.35670    2.36180
 5669.50000  170.46670    8.33200    1.80560    2.98270    3.44030  -31.57630   85.11530  186.10010    0.44600    0.22510    0.05920    2.28280    2.32480
 5670.00000  139.43060    8.29140    1.62990    2.62140    3.37660  -32.79930   85.90760  187.74520    0.41810    0.22350    0.03590    2.27210    2.32800
 5670.50000  127.55780    8.28110    1.49910    2.37200    3.31470  -34.25220   86.35700  188.16760    0.40350    0.21470    0.03250    2.39120    2.34280
 5671.00000  132.10570    8.32190    1.48130    2.34160    3.19660  -35.77660   86.87680  187.47370    0.39850    0.22960    0.03930    2.54340    2.31690
 5671.50000  149.56260    8.42330    1.52730    2.33840    3.16560  -37.18620   87.16600  185.98970    0.40130    0.26390    0.04250    2.69570    2.25900
 5672.00000  158.48880    8.39070    1.68040    2.32450    3.55930  -38.30530   85.99380  184.50570    0.40520    0.29480    0.04160    2.84800    2.19630
 5672.50000  145.28760    8.21410    1.66460    2.22020    2.78380  -39.22120   83.75860  183.64350    0.40710    0.28670    0.03930    3.00530    2.19650
 5673.00000  132.08640    8.87890    1.36790    1.96660    2.14320  -39.88900   79.93460  182.79510    0.40430    0.23730    0.05780    3.16300    2.30400
 5673.50000  118.05140    9.04420    1.27060    1.90850    2.13700  -39.91560   76.04260  182.74740    0.39250    0.18430    0.09600    3.38800    2.39470
 5674.00000  107.92210    8.73930    1.47780    1.91280    2.75570  -38.03340   73.96100  183.16450    0.37810    0.15810    0.12450    3.55620    2.43960
 5674.50000  101.65290    9.01550    1.64120    1.96750    3.34810  -34.71150   73.34700  181.98900    0.37300    0.16650    0.13130    3.56760    2.42540
 5675.00000   96.76020    9.27570    1.58510    2.02380    3.04710  -32.81520   74.38610  170.34010    0.37380    0.19820    0.10360    3.39700    2.37120
 5675.50000   95.27110    9.09000    1.49900    2.04850    2.63920  -32.10950   76.33540  140.41410    0.38870    0.22500    0.08180    3.22650    2.32520
 5676.00000   96.93120    8.92510    1.41760    2.04030    2.52660  -32.12050   78.58070  112.84550    0.40790    0.23290    0.07760    3.07090    2.31170
 5676.50000  101.93750    8.83880    1.40460    2.08430    2.49860  -32.27310   81.08340  107.51110    0.42110    0.22560    0.08180    2.99850    2.32410
 5677.00000  106.55040    8.85740    1.45650    2.21940    2.62740  -31.78960   81.91270  107.52960    0.42370    0.21420    0.09270    2.93250    2.34360
 5677.50000  110.96260    8.98210    1.54500    2.38490    2.80670  -29.87980   80.71020  107.43400    0.41540    0.21080    0.08180    2.86930    2.34940
 5678.00000  110.67820    8.96610    1.63880    2.55210    2.99830  -30.70910   77.58200  107.09300    0.40180    0.20440    0.07350    2.86500    2.36040
 5678.50000  109.33610    8.62830    1.78300    2.63190    3.24680  -31.97270   75.12590  106.46680    0.39050    0.18820    0.06880    2.90130    2.38800
 5679.00000  109.00330    8.87880    1.94170    2.70130    3.55010  -32.28860   73.45370  105.57600    0.38430    0.17380    0.07320    2.93760    2.41270
 5679.50000  111.29360    8.92590    2.07560    2.76060    3.71060  -31.60970   71.96770  100.99970    0.38080    0.17080    0.07770    2.97380    2.41790
 5680.00000  113.97970    9.14240    2.13390    2.82130    3.40140  -30.48800   70.93470   97.59150    0.38240    0.17450    0.08450    3.01010    2.41260
 5680.50000  115.02490    9.14260    2.09590    2.82530    3.08170  -30.18230   70.15220   96.78060    0.38400    0.16840    0.09410    2.99870    2.42210
 5681.00000  115.14310    8.86310    2.03680    2.82530    2.80490  -29.63490   69.72740   97.55080    0.38510    0.15680    0.10380    2.96250    2.44200
 5681.50000  113.86530    9.00720    2.03680    2.79820    2.61310  -29.28200   69.41820   97.62360    0.38270    0.14440    0.11060    3.03530    2.46190
 5682.00000  111.26590    9.12540    2.02920    2.76150    2.55590  -30.26050   69.34010   96.93810    0.37730    0.14250    0.11020    3.10980    2.46600
 5682.50000  108.73130    8.94920    2.01000    2.70780    2.49140  -31.70980   69.21360   96.83160    0.37600    0.14610    0.10880    3.18430    2.46270
 5683.00000  106.61350    8.82390    1.99100    2.64540    2.41760  -32.96300   68.76640   98.59050    0.38320    0.14210    0.11730    3.26390    2.47220
 5683.50000  106.43670    9.15800    1.97220    2.61120    2.35610  -33.31480   68.53810   99.10660    0.39150    0.13820    0.13330    3.18130    2.47640
 5684.00000  109.01880    9.60650    1.95360    2.60080    2.37230  -34.42970   68.74000   96.34690    0.38490    0.14480    0.13980    3.11280    2.46510
 5684.50000  111.49300    9.10900    1.92800    2.62940    2.39080  -35.51080   68.95420   94.67230    0.37100    0.16120    0.14380    3.17220    2.43430
 5685.00000  113.57200    8.83140    1.87450    2.67070    2.42410  -36.65400   68.86170   94.22740    0.37120    0.17020    0.15030    3.24010    2.41880
 5685.50000  113.91040    8.04290    1.82240    2.73820    2.46580  -37.23710   69.19660   94.12390    0.37810    0.16510    0.17570    3.22370    2.42760
 5686.00000  112.39250    9.26720    1.84010    2.80750    2.56950  -37.69400   70.07610   95.18700    0.38640    0.14700    0.18710    3.13560    2.45860
 5686.50000  110.33290    9.63660    1.87710    2.87850    2.95640  -38.02390   71.08080   96.14040    0.40150    0.13900    0.15420    3.04390    2.47230
 5687.00000  109.96220    9.41900    1.95660    2.93800    3.40140  -37.41510   70.68500   96.33860    0.41670    0.18360    0.11510    2.94970    2.39580
 5687.50000  109.94390    9.26280    2.14120    2.96890    3.93720  -36.81960   70.96530   96.53690    0.43060    0.23850    0.08790    2.84250    2.30230
 5688.00000  110.16670    9.01300    2.38450    2.92260    4.34010  -37.55150   73.01280   97.09670    0.43630    0.27990    0.07750    2.72980    2.23030
 5688.50000  110.98350    9.12550    2.42250    2.81630    3.95840  -38.58820   80.32070   98.33250    0.43270    0.28590    0.08290    2.61220    2.22120
 5689.00000  114.31200    8.86210    2.01260    2.71380    3.56920  -39.90520   91.74080   99.56950    0.42230    0.26480    0.09060    2.49460    2.25730
 5689.50000  119.14110    8.66490    1.79010    2.61870    3.38330  -41.24160   98.70290  100.47210    0.41110    0.24160    0.09670    2.47790    2.29690
 5690.00000  124.37990    8.76820    1.77050    2.61840    3.26090  -42.53030   99.06840  100.27840    0.39770    0.21750    0.09750    2.52510    2.33790
 5690.50000  129.52900    8.78380    1.81420    2.62080    3.18830  -42.55880   98.45800  100.08470    0.38840    0.19690    0.09140    2.57240    2.37380
