~Version ---------------------------------------------------
VERS.   2.0 : CWLS log ASCII Standard -VERSION 2.0
WRAP.    NO : One line per depth step
DLM . SPACE : Column Data Section Delimiter
~Well ------------------------------------------------------
STRT .F                 1479.0 : START DEPTH
STOP .F                 6502.0 : STOP DEPTH
STEP .F                    0.5 : STEP
NULL .                -9999.25 : NULL VALUE
COMP .                         : COMPANY
WELL .                         : WELL
FLD  .                         : FIELD
LOC  .                         : LOCATION
PROV .                         : PROVINCE
CNTY .                         : COUNTY
STAT .                         : STATE
CTRY .                         : COUNTRY
SRVC .                         : SERVICE COMPANY
DATE .                         : DATE
UWI  .                         : UNIQUE WELL ID
API  .                         : API NUMBER
SLAT .WGS84  7.421619116200297 : SURFACE LATITUDE
SLON .WGS84 5.6041795297520025 : SURFACE LONGITUDE
DATUM.F                    nan : DEPTH DATUM ELEV
~Curve Information -----------------------------------------
DEPT   .F     : 1 MEASURED DEPTH
GRR    .GAPI  : GAMMA RAY FROM RESISTIVITY LOG
HCALR  .IN    : HRCC CALIPER CALIBRATED FROM RESISTIVITY LOG
AHT10  .OHMM  : ARRAY INDUCTION TWO FOOT RESISTIVITY A10
AHT30  .OHMM  : ARRAY INDUCTION TWO FOOT RESISTIVITY A30
AHT90  .OHMM  : ARRAY INDUCTION TWO FOOT RESISTIVITY A90
SPR    .MV    : SPONTANEOUS POTENTIAL FROM RESISTIVITY LOG
DTCO   .US/F  : DELTA-T COMPRESSIONAL
DTSM   .US/F  : DELTA-T SHEAR
NPHI_LS.DEC   : NEUTRON POROSITY LIMESTONE
DPHZ_LS.DEC   : HGRD STANDARD RESOLUTION DENSITY POROSITY
HDRA   .G/C3  : HRDD SPINE AND RIBS DENSITY CORRECTION
PEFZ   .B/E   : HRDD STANDARD RESOLUTION FORMATION PHOTOELECTRIC FACTOR
RHOZ   .G/C3  : HRDD STANDARD RESOLUTION FORMATION DENSITY
~Params ----------------------------------------------------
~Other -----------------------------------------------------
~ASCII -----------------------------------------------------
# ...
 4027.00000   80.23520    7.90300   11.60310   11.04710   10.00000  -41.92670   66.05720  125.50380    0.12040    0.03700    0.01800    4.50100    2.64660
 4027.50000   76.42640    7.86170   12.32330   11.80160   11.10600  -42.30630   65.89650  125.81570    0.11000    0.04120    0.01140    4.55830    2.63940
 4028.00000   76.60750    7.88040   11.43290   10.60920   10.25870  -41.62500   66.05120  126.44360    0.10350    0.04270    0.00710    4.61510    2.63780
 4028.50000   78.93530    7.90260   10.10980    9.57740    9.25730  -41.16760   67.04270  127.22020    0.10510    0.04370    0.00310    4.55410    2.63620
 4029.00000   80.51240    7.92000    9.08350    8.81190    8.48350  -41.58490   68.43360  128.41070    0.11750    0.04290    0.00490    4.40990    2.63570
 4029.50000   81.13370    7.90820    8.64530    8.27000    7.90520  -42.25450   69.42780  129.89500    0.12910    0.04700    0.00780    4.26560    2.62880
 4030.00000   82.11380    7.90540    8.50940    7.80830    7.36630  -42.67560   69.68060  131.21190    0.14490    0.05120    0.00690    4.12140    2.62240
 4030.50000   83.78510    7.90410    8.22260    7.41290    6.96120  -42.53460   70.22610  132.02870    0.15390    0.05030    0.00320    4.06680    2.62410
 4031.00000   84.05650    7.90290    8.05010    7.31560    7.09600  -44.05920   71.13550  131.60890    0.15530    0.04560   -0.00050    4.07170    2.63060
 4031.50000   84.71750    7.90160    8.09180    7.56080    7.39740  -45.73370   71.63110  131.56470    0.15040    0.04860   -0.00420    4.11980    2.62940
 4032.00000   87.38070    7.90040    8.13370    7.73160    7.37660  -45.59630   71.76880  132.14070    0.14590    0.04840   -0.00680    4.16800    2.62780
 4032.50000   90.30350    7.89910    8.10720    7.36690    6.89390  -43.88460   71.76480  132.56190    0.15050    0.05040   -0.00320    4.19950    2.62400
 4033.00000   90.91900    7.89790    7.86090    7.04640    6.56060  -43.47790   71.77020  132.98300    0.15740    0.05280    0.00110    4.15290    2.61920
 4033.50000   89.45850    7.89660    7.93800    7.05460    6.82040  -44.39800   71.80480  133.15320    0.15490    0.05280    0.00550    4.09390    2.62070
 4034.00000   92.14320    7.89540    8.14400    7.15660    7.12350  -44.71190   71.73930  133.32700    0.15120    0.05010    0.00910    4.03490    2.62580
 4034.50000   99.79890    7.89540    8.14280    7.21060    7.04840  -43.26290   71.59340  133.91520    0.14920    0.05030    0.01210    3.98520    2.62630
 4035.00000  106.99380    7.89700    8.13090    7.05850    6.84620  -42.84860   71.84280  134.93440    0.15160    0.06110    0.00870    3.98840    2.60830
 4035.50000  113.44870    7.89860    8.11690    6.92150    6.66160  -42.41760   72.07200  135.17230    0.15050    0.07780    0.00410    4.06560    2.57700
 4036.00000  115.04750    7.90030    8.09920    7.03680    6.84450  -41.98660   72.13460  135.00720    0.14540    0.08330   -0.00060    4.14290    2.56740
 4036.50000  114.37960    7.90190    8.08970    7.19820    6.92180  -41.57660   72.02080  134.89480    0.14050    0.07880   -0.00460    4.21930    2.57520
 4037.00000  110.51790    7.90350    8.04610    6.98800    6.54040  -41.52360   71.36650  134.04630    0.14520    0.06790    0.00050    4.29370    2.59370
 4037.50000  101.58890    7.90510    8.00280    6.91480    6.45020  -42.16160   70.51740  132.33980    0.14930    0.05250    0.00590    4.35880    2.62010
 4038.00000   90.67750    7.90680    9.19780    8.44550    7.55680  -43.22730   69.65160  130.43620    0.13860    0.03690    0.00580    4.40170    2.64680
 4038.50000   81.95710    7.90840   10.91070   10.27240    9.48150  -44.03600   69.03820  129.32210    0.11680    0.03330   -0.00050    4.44800    2.65300
 4039.00000   80.14810    7.91000   10.53820   10.02000    9.48870  -43.86440   69.01790  129.60910    0.10010    0.03390   -0.00630    4.41600    2.65220
 4039.50000   84.91020    7.91310    9.67300    8.80450    8.45140  -43.91370   69.44490  129.89610    0.09970    0.03870   -0.01020    4.38510    2.64280
 4040.00000   94.72560    7.91820    8.27960    7.73650    7.24580  -44.15230   70.10220  130.42410    0.12180    0.04340   -0.01300    4.35980    2.63240
 4040.50000  103.92680    7.92340    7.23120    6.97680    6.69140  -44.56400   70.79230  130.63070    0.14470    0.04510   -0.01510    4.33540    2.63510
 4041.00000  104.49830    7.92860    7.35560    7.04810    6.82330  -45.92210   70.97800  130.30530    0.15550    0.03720   -0.01020    4.29310    2.65180
 4041.50000  100.16640    7.93380    7.79820    7.34000    7.06090  -47.78200   70.62880  129.57780    0.15520    0.02860   -0.00190    4.23370    2.66360
 4042.00000   93.17840    7.93900    7.93400    7.43790    7.15440  -48.32140   70.19530  128.99090    0.14390    0.02650    0.00690    4.15370    2.66320
 4042.50000   87.42950    7.94420    7.41370    7.21950    7.09870  -48.71530   70.07050  128.46270    0.14020    0.03720    0.00970    3.97160    2.64660
 4043.00000   84.92120    7.94930    7.24600    7.15720    7.04540  -49.78650   70.01070  128.17060    0.13940    0.04970    0.00530    3.78960    2.62520
 4043.50000   83.52920    7.95450    7.26870    7.11970    7.01540  -50.76230   70.28500  127.70640    0.14110    0.06100   -0.00240    3.66030    2.60580
 4044.00000   84.05040    7.95970    7.34490    7.05610    6.74930  -51.73810   70.32630  127.33780    0.14330    0.06930   -0.00590    3.70750    2.59160
 4044.50000   85.48400    7.96180    6.90180    6.58320    6.28890  -52.49350   70.06980  127.16710    0.14670    0.06900   -0.00300    3.75470    2.59190
 4045.00000   85.66850    7.94870    6.29100    6.12260    5.84400  -53.03260   69.96610  127.03060    0.15420    0.06220   -0.00380    3.70190    2.60380
 4045.50000   85.25860    7.93560    6.33090    6.05250    5.91270  -54.78420   69.98890  127.05030    0.14900    0.05500   -0.01100    3.63100    2.61590
 4046.00000   83.79570    7.92260    6.99740    6.71190    6.39100  -53.95380   70.09460  127.06560    0.13860    0.04760   -0.01630    3.58480    2.62870
 4046.50000   82.15750    7.92830    7.95250    7.24270    6.77940  -53.58110   70.22420  126.94860    0.13460    0.04550   -0.01460    3.59640    2.63230
 4047.00000   80.93460    7.94460    8.13210    6.99400    6.39890  -53.35110   70.46460  127.03970    0.13850    0.04810   -0.00900    3.63020    2.62770
 4047.50000   80.68500    7.94730    7.67710    6.70750    6.12780  -53.12100   70.68950  127.42880    0.14640    0.05080   -0.00270    3.61320    2.62310
 4048.00000   82.62270    7.94700    7.44570    6.66730    6.17740  -52.56840   70.59830  127.96490    0.15150    0.05360    0.00030    3.58150    2.61820
 4048.50000   84.60300    7.94680    7.66240    6.81740    6.43120  -51.83850   70.34790  129.26300    0.15250    0.05660    0.00250    3.60160    2.61320
 4049.00000   86.58410    7.94650    7.87720    6.97080    6.49530  -51.18300   70.62950  130.56100    0.15010    0.05660    0.00470    3.70300    2.61320
 4049.50000   89.51880    7.94330    7.80630    7.08190    6.53170  -50.52590   71.25330  132.40170    0.14680    0.05140    0.00690    3.85070    2.62200
 4050.00000   93.41560    7.93710    7.60790    7.05280    6.67580  -49.85980   72.22970  134.48480    0.14840    0.04730    0.00910    4.10460    2.62910
 4050.50000  102.24630    7.93090    7.35780    6.89290    6.60730  -48.49490   73.64810  136.44400    0.15990    0.05230    0.00930    4.27730    2.62070
 4051.00000  111.39900    7.92460    7.06100    6.30730    5.72470  -46.40060   74.76120  138.01280    0.17570    0.07030    0.00430    4.29910    2.58990
 4051.50000  121.37010    7.91840    7.02540    5.93030    5.46570  -46.36810   75.30990  138.76480    0.19070    0.08500   -0.00130    4.23190    2.56440
 4052.00000  125.56100    7.91220    7.19430    6.17570    6.28850  -47.15210   75.32000  137.92630    0.18960    0.08120   -0.00310    4.17380    2.57110
 4052.50000  121.63340    7.90590    7.50070    6.52890    6.36100  -49.12660   73.83630  135.43790    0.17800    0.07360    0.00090    4.11580    2.58420
