~Version ---------------------------------------------------
VERS.   2.0 : CWLS log ASCII Standard -VERSION 2.0
WRAP.    NO : One line per depth step
DLM . SPACE : Column Data Section Delimiter
~Well ------------------------------------------------------
STRT .F                 1479.0 : START DEPTH
STOP .F                 6502.0 : STOP DEPTH
STEP .F                    0.5 : STEP
NULL .                -9999.25 : NULL VALUE
COMP .                         : COMPANY
WELL .                         : WELL
FLD  .                         : FIELD
LOC  .                         : LOCATION
PROV .                         : PROVINCE
CNTY .                         : COUNTY
STAT .                         : STATE
CTRY .                         : COUNTRY
SRVC .                         : SERVICE COMPANY
DATE .                         : DATE
UWI  .                         : UNIQUE WELL ID
API  .                         : API NUMBER
SLAT .WGS84  7.421619116200297 : SURFACE LATITUDE
SLON .WGS84 5.6041795297520025 : SURFACE LONGITUDE
DATUM.F                    nan : DEPTH DATUM ELEV
~Curve Information -----------------------------------------
DEPT   .F     : 1 MEASURED DEPTH
GRR    .GAPI  : GAMMA RAY FROM RESISTIVITY LOG
HCALR  .IN    : HRCC CALIPER CALIBRATED FROM RESISTIVITY LOG
AHT10  .OHMM  : ARRAY INDUCTION TWO FOOT RESISTIVITY A10
AHT30  .OHMM  : ARRAY INDUCTION TWO FOOT RESISTIVITY A30
AHT90  .OHMM  : ARRAY INDUCTION TWO FOOT RESISTIVITY A90
SPR    .MV    : SPONTANEOUS POTENTIAL FROM RESISTIVITY LOG
DTCO   .US/F  : DELTA-T COMPRESSIONAL
DTSM   .US/F  : DELTA-T SHEAR
NPHI_LS.DEC   : NEUTRON POROSITY LIMESTONE
DPHZ_LS.DEC   : HGRD STANDARD RESOLUTION DENSITY POROSITY
HDRA   .G/C3  : HRDD SPINE AND RIBS DENSITY CORRECTION
PEFZ   .B/E   : HRDD STANDARD RESOLUTION FORMATION PHOTOELECTRIC FACTOR
RHOZ   .G/C3  : HRDD STANDARD RESOLUTION FORMATION DENSITY
~Params ----------------------------------------------------
~Other -----------------------------------------------------
~ASCII -----------------------------------------------------
# ...
 5119.00000   56.58600    7.87390   15.91900   14.19490   12.18780  -27.28430   64.95740  118.03590    0.09050    0.03430    0.00490    3.72430    2.65080
 5119.50000   50.82180    7.83810   20.46570   17.09650   15.60800  -30.06850   66.21420  117.14620    0.07770    0.03670    0.01250    3.90180    2.65530
 5120.00000   54.19340    7.82310   19.02160   16.08100   12.68210  -32.34910   66.85920  117.91060    0.09510    0.04870    0.05630    3.91020    2.62880
 5120.50000   66.94540    7.84110    7.75220    7.53880    6.34650  -33.90580   66.87920  117.90680    0.13680    0.06150    0.09960    3.82740    2.60480
 5121.00000   74.21730    7.99090    6.81490    6.31830    5.46220  -35.25950   65.32980  115.61570    0.17360    0.06780    0.13510    3.63660    2.59410
 5121.50000   70.40050    8.39220    7.44090    6.70020    5.66910  -36.20790   63.03880  112.46750    0.15350    0.05340    0.12560    3.53110    2.61870
 5122.00000   58.82550    7.94040   17.77890   12.52570    8.75200  -37.40070   58.67760  109.71770    0.10800    0.03640    0.08240    3.64550    2.64780
 5122.50000   49.49300    7.79200   34.47720   31.65570   21.14050  -37.99070   54.43580  106.96790    0.05630    0.02310    0.03960    3.92800    2.67060
 5123.00000   50.21680    7.79300   42.56460   31.58070   55.49880  -38.58070   52.78670  104.35710    0.03350    0.02580    0.02090    4.21070    2.66590
 5123.50000   57.83520    7.79960   43.47050   29.57310   52.83150  -39.00040   52.82110  102.36490    0.02720    0.02330    0.01200    4.53570    2.67020
 5124.00000   63.45910    7.80610   40.20840   30.24410   62.07310  -39.52430   53.26630  101.47930    0.02260    0.01630    0.00610    4.95520    2.68300
 5124.50000   65.14890    7.81270   31.92790   35.77610   66.34930  -39.77270   54.48250  102.66960    0.02010    0.01480    0.00170    5.08110    2.68530
 5125.00000   67.02490    7.81160   26.33610   37.48490   46.13370  -39.16600   56.27590  106.27610    0.02000    0.01770   -0.00720    5.02550    2.67960
 5125.50000   71.98990    7.79790   20.06070   26.19430   31.80720  -38.25100   57.04760  111.64110    0.02720    0.02230   -0.00360    4.88180    2.67340
 5126.00000   81.92130    7.78430   12.59270   18.30440   22.56650  -37.80730   57.42280  118.81340    0.03880    0.02880    0.00290    4.75410    2.66440
 5126.50000   95.79200    7.77230    8.24770   10.28020   16.01040  -37.80800   58.21690  126.43390    0.06820    0.03640    0.01140    4.55360    2.65160
 5127.00000  137.39400    7.82690    5.81940    6.85530   10.21350  -39.05890   61.55590  134.25650    0.10380    0.07410    0.03470    4.19770    2.58740
 5127.50000  183.48400    7.92990    4.11530    4.83530    6.20390  -39.71510   65.49890  141.85190    0.16560    0.12310    0.07610    3.84180    2.49950
 5128.00000  290.57790    8.03290    2.95190    3.60210    4.32140  -40.37130   71.84520  149.00900    0.23880    0.17150    0.11900    3.35160    2.41670
 5128.50000  288.21060    8.53630    2.69500    3.29890    3.48880  -40.80940   79.05080  153.90990    0.28440    0.16870    0.15080    3.25730    2.42150
 5129.00000  252.88340    8.98950    2.73460    3.24380    3.44430  -40.81270   81.45620  155.67610    0.29710    0.14080    0.15620    3.25880    2.46920
 5129.50000  206.61360    8.60230    3.33750    3.68240    3.97310  -40.73240   79.59490  154.88970    0.27860    0.11300    0.13350    3.32650    2.51670
 5130.00000  148.18370    8.06720    4.39470    4.72490    5.17760  -40.58270   76.74940  149.55760    0.25340    0.08520    0.11090    3.37600    2.56410
 5130.50000  112.01680    8.06680    5.16770    5.91520    6.74720  -40.08500   72.78600  142.54170    0.22640    0.06850    0.08540    3.42560    2.59280
 5131.00000   98.10430    8.14040    5.78270    6.85070    7.66660  -39.71640   71.86820  136.86420    0.19930    0.05870    0.06740    3.47510    2.60980
 5131.50000   87.15430    7.94530    5.79100    6.28530    6.70400  -39.74490   69.74930  133.22740    0.17910    0.06850    0.06300    3.51260    2.59350
 5132.00000   84.61900    7.94870    4.77630    5.58130    5.83860  -42.59220   64.20490  129.47580    0.20430    0.09010    0.09390    3.57680    2.55210
 5132.50000   81.84710    7.98070    4.53220    5.39920    5.75150  -46.43020   58.79900  124.64850    0.23450    0.09850    0.12070    3.70200    2.54150
 5133.00000   76.84590    8.53170    5.26820    6.22890    7.57650  -49.79850   54.88400  119.82120    0.21260    0.07680    0.12720    3.81860    2.57850
 5133.50000   67.09520    7.99400    8.20510   11.10470   15.83740  -52.16560   53.04910  113.91490    0.16790    0.04150    0.10120    4.20040    2.63880
 5134.00000   55.77480    7.85550   19.43300   31.36240   48.72730  -55.49670   51.99040  106.63700    0.07230    0.01480    0.06420    4.61880    2.68310
 5134.50000   46.90660    7.80920   42.07460   48.97310   80.27190  -63.50980   50.37330  101.08960    0.02310    0.01850    0.02030    4.92510    2.67780
 5135.00000   47.20880    7.79970   45.82950   56.58470   93.70540  -69.12360   49.27960   96.84060    0.01010    0.02510    0.00360    5.16960    2.66720
 5135.50000   50.58940    7.80710   47.11290   58.94370   80.90170  -72.47790   48.80550   94.10010    0.00930    0.02960    0.00080    5.20170    2.65970
 5136.00000   53.97000    7.81460   52.12030   60.16890   77.68170  -75.56610   49.04310   93.64900    0.01010    0.02780    0.00140    5.22370    2.66260
 5136.50000   56.40660    7.82210   54.53060   58.89230   74.53480  -79.08930   49.52840   94.02000    0.01110    0.02300    0.00190    5.27150    2.67120
 5137.00000   56.00330    7.82960   52.82070   55.10760   69.62530  -83.24570   50.09650   94.39100    0.01200    0.02790    0.00170    5.32480    2.66230
 5137.50000   54.70260    7.83660   50.05680   51.18190   65.28320  -86.96790   50.63360   94.76230    0.01300    0.03700    0.00090    5.38540    2.64660
 5138.00000   50.06730    7.83180   48.39920   50.25860   62.58370  -89.37330   50.86130   95.18680    0.01390    0.04380    0.00000    5.34450    2.63540
 5138.50000   47.94410    7.82690   47.91500   50.04910   60.40020  -90.22830   50.97250   95.72160    0.01400    0.04880   -0.00080    5.24410    2.62670
 5139.00000   49.11800    7.81020   48.35670   49.72950   60.04880  -90.44830   50.75740   96.59470    0.01320    0.04390   -0.00170    5.13450    2.63900
 5139.50000   51.74890    7.79060   48.47730   49.41200   60.37480  -89.32420   50.55590   97.22570    0.01220    0.03890   -0.00250    5.06760    2.64550
 5140.00000   54.37990    7.79300   47.18180   48.10700   56.41740  -87.10890   50.76300   97.86070    0.01260    0.03700   -0.00340    5.00790    2.64810
 5140.50000   57.02610    7.84170   45.25260   46.12970   50.34960  -84.86190   51.68450   98.49560    0.01400    0.03510   -0.00420    4.92640    2.65150
 5141.00000   60.36910    7.84040   42.36640   43.28300   44.98650  -82.61480   52.80780   99.11250    0.01790    0.03030   -0.00420    4.80010    2.65790
 5141.50000   63.71210    7.83910   35.52200   38.16180   40.30740  -80.51330   53.24910   98.76140    0.02240    0.02400   -0.00260    4.62640    2.67070
 5142.00000   63.74410    7.83210   27.98210   34.11440   36.11500  -80.15210   53.40880   98.75850    0.02700    0.01990   -0.00070    4.53270    2.67820
 5142.50000   60.05920    7.83740   26.31270   32.00840   34.70420  -79.79100   53.29660   98.81950    0.02750    0.02220    0.00110    4.57380    2.67210
 5143.00000   54.90750    7.84230   29.32780   34.59120   43.15620  -79.43380   53.11260   98.86190    0.02560    0.02420    0.00300    4.66650    2.66860
 5143.50000   48.93310    7.84350   37.35340   45.07270   60.04680  -79.08050   53.07320   98.83050    0.02350    0.02030    0.00480    4.75930    2.67520
 5144.00000   43.07200    7.84410   48.69840   56.75920   70.90340  -77.66000   53.11960   98.86990    0.02130    0.02420    0.00660    4.83840    2.66850
 5144.50000   38.41140    7.86110   50.58720   57.71930   71.18760  -75.93490   53.30810   99.22240    0.02020    0.02690    0.00840    4.83390    2.66370
