~Version ---------------------------------------------------
VERS.   2.0 : CWLS log ASCII Standard -VERSION 2.0
WRAP.    NO : One line per depth step
DLM . SPACE : Column Data Section Delimiter
~Well ------------------------------------------------------
STRT .F                 1479.0 : START DEPTH
STOP .F                 6502.0 : STOP DEPTH
STEP .F                    0.5 : STEP
NULL .                -9999.25 : NULL VALUE
COMP .                         : COMPANY
WELL .                         : WELL
FLD  .                         : FIELD
LOC  .                         : LOCATION
PROV .                         : PROVINCE
CNTY .                         : COUNTY
STAT .                         : STATE
CTRY .                         : COUNTRY
SRVC .                         : SERVICE COMPANY
DATE .                         : DATE
UWI  .                         : UNIQUE WELL ID
API  .                         : API NUMBER
SLAT .WGS84  7.421619116200297 : SURFACE LATITUDE
SLON .WGS84 5.6041795297520025 : SURFACE LONGITUDE
DATUM.F                    nan : DEPTH DATUM ELEV
~Curve Information -----------------------------------------
DEPT   .F     : 1 MEASURED DEPTH
GRR    .GAPI  : GAMMA RAY FROM RESISTIVITY LOG
HCALR  .IN    : HRCC CALIPER CALIBRATED FROM RESISTIVITY LOG
AHT10  .OHMM  : ARRAY INDUCTION TWO FOOT RESISTIVITY A10
AHT30  .OHMM  : ARRAY INDUCTION TWO FOOT RESISTIVITY A30
AHT90  .OHMM  : ARRAY INDUCTION TWO FOOT RESISTIVITY A90
SPR    .MV    : SPONTANEOUS POTENTIAL FROM RESISTIVITY LOG
DTCO   .US/F  : DELTA-T COMPRESSIONAL
DTSM   .US/F  : DELTA-T SHEAR
NPHI_LS.DEC   : NEUTRON POROSITY LIMESTONE
DPHZ_LS.DEC   : HGRD STANDARD RESOLUTION DENSITY POROSITY
HDRA   .G/C3  : HRDD SPINE AND RIBS DENSITY CORRECTION
PEFZ   .B/E   : HRDD STANDARD RESOLUTION FORMATION PHOTOELECTRIC FACTOR
RHOZ   .G/C3  : HRDD STANDARD RESOLUTION FORMATION DENSITY
~Params ----------------------------------------------------
~Other -----------------------------------------------------
~ASCII -----------------------------------------------------
# ...
 4833.00000   44.83730    7.82890   46.53540   42.64790   40.69480  -70.51840   55.65780  105.58880    0.02250    0.02510   -0.00130    4.64700    2.66690
 4833.50000   43.79140    7.81090   48.30180   44.09180   42.37050  -71.68200   55.51450  105.62570    0.02480    0.02240   -0.00170    4.70790    2.67160
 4834.00000   42.93750    7.79760   51.20800   45.80820   44.78860  -73.26040   55.33130  105.43540    0.02670    0.01870    0.00040    4.75480    2.67650
 4834.50000   43.06020    7.79170   54.21780   47.89660   46.32660  -75.00520   55.03050  104.71820    0.02580    0.01590    0.00260    4.74590    2.67980
 4835.00000   45.25410    7.78570   55.80380   52.16110   47.78970  -75.83870   55.19910  104.00110    0.02350    0.01680    0.00470    4.72000    2.68140
 4835.50000   44.68010    7.78920   62.58640   56.80540   52.28250  -77.46970   55.18900  103.65460    0.02130    0.01170    0.00740    4.71680    2.68440
 4836.00000   41.73610    7.79680   71.50750   61.86310   57.25440  -80.72750   54.85340  103.34560    0.01950    0.00620    0.01040    4.73460    2.69490
 4836.50000   40.72320    7.80440   79.91550   67.37120   62.69910  -81.77280   54.47910  103.03660    0.01770   -0.00020    0.01360    4.77130    2.70730
 4837.00000   41.65240    7.81200   81.76640   71.13400   67.67410  -81.86440   54.21110  102.72760    0.01800    0.00370    0.01810    4.80800    2.71040
 4837.50000   43.28260    7.80890   80.55710   70.62260   65.56760  -82.57340   54.03420  102.41850    0.01890    0.00790    0.02080    4.78150    2.69630
 4838.00000   44.67050    7.79950   76.38130   66.01620   60.95300  -83.26320   54.24450  102.73540    0.01990    0.02080    0.00840    4.73890    2.67440
 4838.50000   45.93800    7.79010   72.09840   60.36550   56.66320  -83.82220   54.60270  102.95820    0.02080    0.02170    0.00420    4.71520    2.67290
 4839.00000   46.62090    7.78620   64.52770   55.68780   52.83000  -84.30190   54.80540  103.16770    0.02250    0.00380    0.01470    4.73800    2.70030
 4839.50000   47.47110    7.78910   59.98930   52.96140   50.74210  -84.78150   54.82770  103.36240    0.02410    0.00150    0.01920    4.77070    2.70340
 4840.00000   48.70190    7.79200   59.56670   50.85320   48.73670  -84.73990   54.68440  102.77090    0.02580    0.00420    0.01610    4.78140    2.71140
 4840.50000   49.74000    7.79480   60.09740   50.14110   48.22140  -84.59240   54.44970  102.15040    0.02610    0.01760    0.00560    4.75000    2.67980
 4841.00000   49.05480    7.79770   64.12380   54.10350   48.51290  -84.29510   54.24780  101.61980    0.02510    0.01560    0.00130    4.73440    2.68320
 4841.50000   44.97020    7.80270   72.77970   60.65030   51.82730  -83.96070   54.00060  101.34210    0.02330    0.01210    0.00440    4.79620    2.69000
 4842.00000   40.53620    7.79790   89.51740   67.80050   60.96710  -84.09450   53.73960  101.06440    0.02160    0.00930    0.00500    4.90230    2.69640
 4842.50000   38.51370    7.78500   84.65760   71.32310   66.99040  -84.22840   53.77830  100.78670    0.02040    0.01310    0.00280    4.97550    2.68900
 4843.00000   39.49850    7.80230   72.40580   64.39770   60.80780  -84.03780   54.01760  100.50900    0.02050    0.01740    0.00120    5.04430    2.68000
 4843.50000   42.53350    7.83590   61.92700   55.74310   53.31480  -83.52770   54.27700  100.23130    0.02310    0.00840    0.00270    5.11310    2.69460
 4844.00000   46.12380    7.84520   55.89720   50.39140   46.74520  -82.94300   54.54020   99.95490    0.02560   -0.01000    0.01530    5.16050    2.71870
 4844.50000   49.76630    7.83320   56.21020   49.57560   46.00570  -82.52550   54.34770   99.68390    0.02730   -0.01910    0.02650    5.18770    2.73730
 4845.00000   50.30040    7.81640   60.36120   54.26140   51.23370  -82.97270   54.10060   99.41290    0.02560   -0.01110    0.03140    5.13960    2.74250
 4845.50000   47.20020    7.81510   65.58540   60.31910   57.05570  -83.44550   53.77960   99.40210    0.02320    0.00310    0.02250    5.01610    2.71290
 4846.00000   43.71710    7.81670   78.30390   67.75850   63.53940  -84.26340   53.32740   99.67820    0.02070    0.01780    0.01270    4.88110    2.67950
 4846.50000   41.92440    7.82950   94.50600   76.11550   71.09500  -84.40190   52.81640   99.82000    0.01830    0.02060    0.00440    4.80250    2.67460
 4847.00000   40.26710    7.84230  110.68010   85.50320   80.02050  -84.18560   52.40100   98.66400    0.01580    0.01770    0.00240    4.84820    2.67970
 4847.50000   36.06460    7.85510  129.92110   98.89410   90.06650  -84.85630   52.15660   97.50790    0.01340    0.01580    0.00260    4.98300    2.68270
 4848.00000   32.92550    7.86790  154.31960  115.34270  101.37370  -85.78250   52.05620   96.59130    0.01220    0.01390    0.00370    5.03000    2.68560
 4848.50000   31.10860    7.87130  189.33020  134.52710  117.13150  -86.76960   51.90170   96.33340    0.01110    0.01210    0.00480    4.99300    2.68850
 4849.00000   31.55860    7.86180  227.36280  155.79670  137.52100  -87.77890   51.79980   96.07550    0.01020    0.00910    0.00540    4.95550    2.69440
 4849.50000   32.63100    7.85220  269.36840  167.35390  158.55080  -88.78810   51.61910   95.81760    0.01020    0.00970    0.00400    4.91810    2.69340
 4850.00000   34.22220    7.84270  321.63730  179.76840  166.28900  -89.70180   51.54190   95.48830    0.01100    0.01530    0.00260    4.88060    2.68360
 4850.50000   35.76020    7.83320  384.04870  193.10390  174.40490  -90.06320   51.42340   94.91350    0.01060    0.01840    0.00330    4.85930    2.67850
 4851.00000   34.93270    7.82360  452.71300  223.81380  187.09740  -90.42450   51.37370   93.62800    0.00930    0.01600    0.00750    4.94740    2.68080
 4851.50000   32.82080    7.81410  534.52060  268.48660  211.53870  -90.96110   51.29510   93.63400    0.00960    0.00670    0.01000    5.10660    2.69680
 4852.00000   32.71300    7.80560  657.22960  278.68110  233.41410  -91.85980   51.13150   94.19460    0.01070    0.00820    0.01170    5.25340    2.69630
 4852.50000   36.12000    7.80950  789.99830  263.58440  245.53980  -92.08630   50.88420   94.69110    0.01190    0.00980    0.01000    5.28420    2.69390
 4853.00000   40.85950    7.81330  951.06870  266.62810  258.46200  -91.76870   50.46280   94.97670    0.01170    0.01040    0.00740    5.23410    2.69150
 4853.50000   43.03580    7.81720 1146.46610  278.74900  272.06900  -91.58040   50.17190   94.71060    0.00980    0.01220    0.00460    5.18410    2.68710
 4854.00000   42.75290    7.82110 1359.47460  291.42070  273.34810  -92.08060   50.22790   95.13300    0.00790    0.01750    0.00360    5.14560    2.67920
 4854.50000   41.77460    7.82500 1484.36760  298.39300  263.64590  -92.78770   50.28170   94.97220    0.00740    0.00950    0.00820    5.12510    2.68530
 4855.00000   40.78900    7.83220 1574.93810  297.00830  254.28800  -92.35540   50.20760   94.23640    0.00720    0.00080    0.01430    5.10470    2.70400
 4855.50000   40.35640    7.82510 1671.03390  299.74660  255.11060  -92.27050   50.20080   93.51490    0.00760   -0.00360    0.01770    5.08420    2.71610
 4856.00000   41.20770    7.81790 1786.18300  321.45430  285.37050  -92.16880   50.35630   93.52590    0.00820    0.00060    0.01610    5.05010    2.70910
 4856.50000   43.35460    7.81080 1909.63570  360.75600  343.55470  -91.54710   50.49800   93.33690    0.00870    0.01030    0.01020    5.05940    2.69250
 4857.00000   44.96610    7.80370 1960.58570  404.86280  374.35440  -90.54920   50.53770   93.30540    0.00920    0.00710    0.00570    5.09930    2.69970
 4857.50000   45.75250    7.80220 1954.74020  438.00830  382.60510  -89.75020   50.62770   93.52620    0.00980    0.01650    0.00140    5.14860    2.68360
 4858.00000   46.38800    7.80210 1903.62460  468.14210  382.28180  -88.77180   50.92340   93.25090    0.01030    0.02320   -0.00250    5.20170    2.67000
 4858.50000   46.99950    7.80190 1774.16540  491.55970  379.27620  -87.79340   51.38050   92.95350    0.01070    0.02530   -0.00410    5.24650    2.66670
