~Version ---------------------------------------------------
VERS.   2.0 : CWLS log ASCII Standard -VERSION 2.0
WRAP.    NO : One line per depth step
DLM . SPACE : Column Data Section Delimiter
~Well ------------------------------------------------------
STRT .F                1849.0 : START DEPTH
STOP .F                5060.0 : STOP DEPTH
STEP .F                   0.5 : STEP
NULL .               -9999.25 : NULL VALUE
COMP .                        : COMPANY
WELL .                        : WELL
FLD  .                        : FIELD
LOC  .                        : LOCATION
PROV .                        : PROVINCE
CNTY .                        : COUNTY
STAT .                        : STATE
CTRY .                        : COUNTRY
SRVC .                        : SERVICE COMPANY
DATE .                        : DATE
UWI  .                        : UNIQUE WELL ID
API  .                        : API NUMBER
SLAT .WGS84 2.684473877817396 : SURFACE LATITUDE
SLON .WGS84 7.151278803442992 : SURFACE LONGITUDE
DATUM.F                   nan : DEPTH DATUM ELEV
~Curve Information -----------------------------------------
DEPT   .F     : 1 MEASURED DEPTH
GR_EDTC.GAPI  : GAMMA RAY
DTCO   .US/F  : DELTA-T COMPRESSIONAL
DTSM   .US/F  : DELTA-T SHEAR
~Params ----------------------------------------------------
~Other -----------------------------------------------------
~ASCII -----------------------------------------------------
# ...
 4163.00000   31.39620   52.78240   90.71950
 4163.50000   26.39930   52.12060   89.85490
 4164.00000   25.62790   51.44540   88.94180
 4164.50000   26.89280   50.42950   87.84670
 4165.00000   27.18160   49.42670   86.37080
 4165.50000   25.17030   48.50380   85.54330
 4166.00000   21.99370   47.69580   85.27810
 4166.50000   18.92730   47.50670   85.16710
 4167.00000   18.67780   47.96110   85.50700
 4167.50000   19.74340   49.09030   86.49800
 4168.00000   22.37420   50.74970   87.82320
 4168.50000   26.19090   51.74080   88.85440
 4169.00000   30.20860   51.73470   89.55940
 4169.50000   34.52020   51.22650   89.84900
 4170.00000   33.66340   50.50140   89.86380
 4170.50000   29.10270   49.88100   89.99740
 4171.00000   23.33350   49.65450   90.34730
 4171.50000   20.61750   49.97270   90.67160
 4172.00000   21.06920   51.06110   91.16330
 4172.50000   22.72440   52.01550   91.80370
 4173.00000   24.36130   52.83900   92.17000
 4173.50000   26.04550   53.77150   92.82330
 4174.00000   27.49840   54.65500   92.83790
 4174.50000   27.34430   55.12490   92.96470
 4175.00000   25.22780   54.78790   93.36480
 4175.50000   22.51390   53.88520   93.66870
 4176.00000   20.45240   52.87730   93.17720
 4176.50000   19.98910   52.15880   92.74340
 4177.00000   20.22380   51.74460   92.66590
 4177.50000   21.16530   51.58440   92.65380
 4178.00000   24.05320   51.78510   92.94140
 4178.50000   28.96100   52.76710   93.82500
 4179.00000   33.27400   54.46800   94.75620
 4179.50000   36.08500   56.82210   95.52510
 4180.00000   35.58250   59.32610   98.55130
 4180.50000   30.38940   61.74100  101.60330
 4181.00000   26.60060   64.09110  104.59750
 4181.50000   24.99480   66.12270  106.81970
 4182.00000   25.30130   67.42290  107.68520
 4182.50000   26.55980   67.69680  107.45880
 4183.00000   27.89580   65.63580  106.52420
 4183.50000   27.76960   62.20100  105.79010
 4184.00000   26.24350   59.54910  104.57010
 4184.50000   24.18940   59.32430  104.27090
 4185.00000   22.22180   59.35160  104.55410
 4185.50000   20.12610   60.01430  105.43390
 4186.00000   19.31410   61.71910  106.46480
 4186.50000   19.56790   64.76200  108.18970
 4187.00000   22.37590   67.53390  110.85980
 4187.50000   27.86980   69.32380  112.83100
 4188.00000   33.10360   71.02610  113.57470
 4188.50000   35.81640   72.24000  113.59030
 4189.00000   36.02820   71.32970  112.34480
 4189.50000   35.69830   68.55180  109.72330
 4190.00000   34.98260   64.40060  106.80870
 4190.50000   33.37900   59.85910  104.49690
 4191.00000   30.52880   56.47000  102.19460
 4191.50000   27.44350   54.64720   99.96510
 4192.00000   25.33630   54.61650   99.35590
 4192.50000   23.93970   55.26360   98.97660
 4193.00000   23.32480   55.67670   99.25770
 4193.50000   22.51990   56.34160  100.15180
 4194.00000   21.12360   57.23210  101.19520
 4194.50000   19.79680   58.08900  102.21200
 4195.00000   19.85560   58.65470  103.06000
 4195.50000   22.10980   59.29900  103.06000
 4196.00000   23.19880   59.42610  103.06000
 4196.50000   23.49560   59.05750  102.23270
 4197.00000   22.57530   57.96880  100.86850
 4197.50000   23.51120   56.88950   99.33690
 4198.00000   28.62410   55.83310   97.78530
 4198.50000   33.84400   54.48520   96.22820
 4199.00000   37.74120   53.02750   94.65920
 4199.50000   37.43700   51.86630   93.38590
 4200.00000   33.25370   51.47920   93.11300
 4200.50000   27.95250   51.17070   92.66780
 4201.00000   24.60420   50.84730   92.21100
 4201.50000   23.45790   50.20430   91.65470
 4202.00000   23.29980   49.30870   90.97110
 4202.50000   23.08720   49.07090   90.50020
 4203.00000   20.88270   49.15810   90.02940
 4203.50000   18.81040   49.49930   89.51030
 4204.00000   18.99240   49.81890   89.00930
 4204.50000   21.54910   50.01250   89.35970
 4205.00000   23.32610   50.02170   89.42670
 4205.50000   22.40530   49.90120   89.15320
 4206.00000   18.72680   49.47220   88.87970
 4206.50000   17.39970   48.88840   88.24760
 4207.00000   18.03240   48.32950   87.58000
 4207.50000   19.25110   47.88310   87.24790
 4208.00000   18.66710   47.62130   87.11580
 4208.50000   17.01150   47.49840   87.05570
 4209.00000   15.72730   47.76820   87.04930
 4209.50000   15.65210   48.23110   87.08540
 4210.00000   16.73440   48.83850   87.00280
 4210.50000   17.82910   49.17180   86.66220
 4211.00000   18.72440   49.06100   86.08350
 4211.50000   19.22990   48.86030   85.78740
 4212.00000   19.06090   48.36820   86.00610
 4212.50000   18.33860   47.78250   86.19940
 4213.00000   17.33250   47.51420   86.22680
 4213.50000   16.10840   47.55410   86.43960
 4214.00000   15.77350   47.90650   86.99440
 4214.50000   16.13410   48.38370   87.57280
 4215.00000   17.32450   49.03360   88.21320
 4215.50000   17.92880   49.76360   88.87040
 4216.00000   18.72600   50.19360   89.53810
 4216.50000   19.73090   50.32390   90.19350
 4217.00000   20.61600   50.56530   90.80460
 4217.50000   21.13930   50.88070   91.04280
 4218.00000   21.73470   50.99110   90.91580
 4218.50000   22.47280   50.92640   90.76830
 4219.00000   22.65100   50.82080   90.62080
 4219.50000   22.18130   50.96750   90.76950
 4220.00000   23.10300   51.02100   91.28930
 4220.50000   24.68330   51.11180   92.00330
 4221.00000   28.14670   51.61920   93.37830
 4221.50000   31.24650   52.95460   94.83880
 4222.00000   33.76110   54.88320   95.89990
 4222.50000   39.76610   56.58780   96.96110
 4223.00000   47.00640   57.95940   98.02230
 4223.50000   54.68100   59.34600   98.93960
 4224.00000   57.26710   59.67730   99.80180
 4224.50000   57.56620   59.57390   99.77940
 4225.00000   55.56060   59.30780   99.38820
 4225.50000   52.14980   58.49750   97.99720
 4226.00000   50.26460   56.65780   96.60610
 4226.50000   51.38990   54.99430   95.43740
 4227.00000   53.51190   52.92550   94.48360
 4227.50000   48.66730   51.10540   93.53800
 4228.00000   39.04340   50.13410   93.14040
 4228.50000   29.09500   50.29710   92.98030
 4229.00000   23.99890   51.30100   92.56210
 4229.50000   27.95680   52.51540   92.14390
 4230.00000   31.95360   53.13180   92.47960
 4230.50000   36.06140   53.10350   92.93160
 4231.00000   35.27410   52.51240   93.39170
 4231.50000   31.85610   52.48360   93.74570
 4232.00000   30.74290   53.20500   93.80250
 4232.50000   30.50770   54.48960   93.05690
 4233.00000   35.16080   55.13970   92.33600
 4233.50000   41.26190   53.88560   92.01460
 4234.00000   46.22990   51.68050   91.75010
 4234.50000   46.56400   49.04300   92.20580
 4235.00000   41.36870   48.25770   93.01100
 4235.50000   30.37400   49.03690   94.02240
 4236.00000   21.56920   50.74330   95.03380
 4236.50000   19.59530   53.54430   96.04510
 4237.00000   24.70640   56.07840   97.23270
 4237.50000   37.00200   58.48980   99.20680
 4238.00000   46.47180   59.65060  101.16350
 4238.50000   49.39800   59.62620  102.02830
 4239.00000   47.26490   58.39730  102.38800
 4239.50000   45.90040   57.81060  102.13350
 4240.00000   45.50380   58.88290  101.83300
 4240.50000   45.40410   60.17470  101.44380
 4241.00000   44.46410   61.19380  101.05470
 4241.50000   43.57440   61.80830  100.93810
 4242.00000   43.53490   61.48650  100.87990
 4242.50000   44.42920   60.20610   99.61220
 4243.00000   45.68480   58.66200   98.34440
 4243.50000   46.63710   56.82360   96.22740
 4244.00000   46.28010   54.01800   94.18520
 4244.50000   43.40430   51.92550   92.18060
 4245.00000   37.96440   49.86160   90.17600
 4245.50000   29.99310   48.14870   88.20290
 4246.00000   22.53510   47.24130   87.81040
 4246.50000   17.20800   46.90980   87.77160
 4247.00000   15.39200   47.40880   88.28770
 4247.50000   14.14440   48.92680   89.11190
 4248.00000   14.11730   50.58480   91.26310
 4248.50000   16.46490   52.33170   93.74550
 4249.00000   21.44160   53.85160   95.80770
 4249.50000   28.12250   55.46070   97.81160
 4250.00000   33.84120   55.70200   99.81540
 4250.50000   39.23220   55.42010  100.71250
 4251.00000   41.30820   55.13830   99.73360
 4251.50000   40.14240   54.98060   98.67840
