~Version ---------------------------------------------------
VERS.   2.0 : CWLS log ASCII Standard -VERSION 2.0
WRAP.    NO : One line per depth step
DLM . SPACE : Column Data Section Delimiter
~Well ------------------------------------------------------
STRT .F                1849.0 : START DEPTH
STOP .F                5060.0 : STOP DEPTH
STEP .F                   0.5 : STEP
NULL .               -9999.25 : NULL VALUE
COMP .                        : COMPANY
WELL .                        : WELL
FLD  .                        : FIELD
LOC  .                        : LOCATION
PROV .                        : PROVINCE
CNTY .                        : COUNTY
STAT .                        : STATE
CTRY .                        : COUNTRY
SRVC .                        : SERVICE COMPANY
DATE .                        : DATE
UWI  .                        : UNIQUE WELL ID
API  .                        : API NUMBER
SLAT .WGS84 2.684473877817396 : SURFACE LATITUDE
SLON .WGS84 7.151278803442992 : SURFACE LONGITUDE
DATUM.F                   nan : DEPTH DATUM ELEV
~Curve Information -----------------------------------------
DEPT   .F     : 1 MEASURED DEPTH
GR_EDTC.GAPI  : GAMMA RAY
DTCO   .US/F  : DELTA-T COMPRESSIONAL
DTSM   .US/F  : DELTA-T SHEAR
~Params ----------------------------------------------------
~Other -----------------------------------------------------
~ASCII -----------------------------------------------------
# ...
 3540.00000   30.62890   66.90970  116.77690
 3540.50000   27.58300   62.59340  108.64430
 3541.00000   22.85750   58.34650  105.23400
 3541.50000   18.05450   55.69510  111.51870
 3542.00000   15.71790   55.80970  131.15600
 3542.50000   15.31080   61.19690  150.79320
 3543.00000   19.18770   77.92900  170.43050
 3543.50000   29.07420   83.66820  172.41500
 3544.00000   42.57970   88.03210  167.22350
 3544.50000   51.83590   89.11490  155.95360
 3545.00000   56.55950   82.95600  144.68370
 3545.50000   55.95350   77.74790  133.28050
 3546.00000   51.36400   69.15940  123.81460
 3546.50000   44.93000   67.40150  119.73840
 3547.00000   39.97490   66.93210  117.26180
 3547.50000   37.16390   67.20710  117.50670
 3548.00000   35.48030   67.69120  118.08540
 3548.50000   33.69480   67.70390  118.48550
 3549.00000   31.28180   66.92700  118.31050
 3549.50000   30.21730   66.33590  117.91300
 3550.00000   29.59480   65.46270  116.45990
 3550.50000   28.97240   65.72930  113.35500
 3551.00000   26.50660   70.22590  113.77100
 3551.50000   25.17020   74.09510  121.13150
 3552.00000   28.23420   75.93130  156.86530
 3552.50000   33.59380   75.37970  176.83550
 3553.00000   37.78040   73.02080  177.23350
 3553.50000   38.95660   71.63100  168.41720
 3554.00000   37.19510   70.06950  146.14470
 3554.50000   32.24280   68.72960  123.99940
 3555.00000   25.77180   67.23570  119.33360
 3555.50000   19.04700   67.96000  131.64070
 3556.00000   15.29220   72.63590  145.67060
 3556.50000   16.05590   81.25860  157.43950
 3557.00000   20.23780   86.45380  158.72030
 3557.50000   28.89610   87.44820  157.49290
 3558.00000   36.89020   86.86480  155.95100
 3558.50000   43.30570   83.16030  152.06390
 3559.00000   45.87510   79.44130  145.64710
 3559.50000   44.44730   76.84300  141.56280
 3560.00000   36.77200   73.74940  135.74410
 3560.50000   29.51120   71.28590  131.06720
 3561.00000   22.74830   70.27480  127.57640
 3561.50000   17.50330   70.04820  125.07420
 3562.00000   14.65960   69.39250  122.96030
 3562.50000   12.41200   69.12340  120.79470
 3563.00000   10.30920   69.26680  120.33790
 3563.50000    9.54730   69.71330  120.97370
 3564.00000    9.69700   70.74640  122.06210
 3564.50000   10.06470   73.24330  122.63480
 3565.00000    9.63640   75.21390  122.07460
 3565.50000   10.07030   72.66570  120.94540
 3566.00000   10.64560   67.57310  118.79820
 3566.50000   11.31920   62.82680  114.03920
 3567.00000   10.85600   58.79180  110.83610
 3567.50000    9.54080   55.77840  109.50070
 3568.00000    8.21930   54.17200  109.02610
 3568.50000    6.58820   54.54190  109.74150
 3569.00000    6.39150   56.49220  110.82260
 3569.50000    7.04860   58.50170  111.43500
 3570.00000    7.79620   61.45660  118.62650
 3570.50000    8.57610   65.31630  126.87230
 3571.00000    9.74100   71.39740  134.99560
 3571.50000   11.48310   77.74670  142.84930
 3572.00000   13.67610   82.52680  150.70310
 3572.50000   18.34430   84.45940  155.14110
 3573.00000   26.30810   84.85900  151.00930
 3573.50000   32.12930   78.12080  145.89320
 3574.00000   31.27160   70.56480  133.38100
 3574.50000   24.77010   65.50610  122.45150
 3575.00000   16.63610   62.02990  115.74460
 3575.50000   11.53680   58.67910  110.21090
 3576.00000    8.45040   57.40710  105.48340
 3576.50000    5.75840   56.61390  100.75580
 3577.00000    4.36260   56.27860   97.03540
 3577.50000    4.18300   55.65900   94.12490
 3578.00000    4.27390   54.43270   93.16430
 3578.50000    4.18700   52.84070   92.85030
 3579.00000    3.86210   51.47460   92.10080
 3579.50000    4.18280   50.52590   91.72310
 3580.00000    5.45370   50.41860   90.96480
 3580.50000    7.31180   50.36060   90.19850
 3581.00000    8.26510   50.27120   90.10490
 3581.50000    8.42670   50.19450   90.01170
 3582.00000    8.24800   49.71110   90.20500
 3582.50000    7.88380   48.72880   90.87520
 3583.00000    8.21740   48.06020   92.10160
 3583.50000    9.10130   48.36810   96.74070
 3584.00000   10.88860   50.07660  102.00250
 3584.50000   13.34390   54.53320  113.70170
 3585.00000   18.19730   59.52820  127.18790
 3585.50000   26.01650   68.04440  140.67400
 3586.00000   37.22960   77.38660  154.16020
 3586.50000   47.34260   83.32660  167.64640
 3587.00000   54.90390   87.69170  173.12230
 3587.50000   58.23550   88.80190  176.20040
 3588.00000   57.83860   88.08240  173.62380
 3588.50000   56.45970   86.14970  169.96770
 3589.00000   56.00580   83.23800  166.31160
 3589.50000   55.80110   75.86040  158.41110
 3590.00000   53.62880   58.34140  149.94710
 3590.50000   49.65430   54.48340  141.48310
 3591.00000   45.78820   52.88990  132.61190
 3591.50000   39.66050   51.76320  122.54720
 3592.00000   30.07480   50.49420  109.04000
 3592.50000   18.92540   50.47780  100.06300
 3593.00000   11.16850   50.52890   94.45460
 3593.50000    7.21260   50.34960   91.76680
 3594.00000    6.68700   50.32330   90.40960
 3594.50000    6.66860   50.37800   90.51440
 3595.00000    6.63390   50.20530   91.92810
 3595.50000    6.25850   50.14760   93.30480
 3596.00000    6.08200   50.73640   94.95320
 3596.50000    6.06690   51.80010   96.51210
 3597.00000    6.65810   53.02560   97.94790
 3597.50000    8.01120   54.09100   99.25940
 3598.00000    9.74810   53.97230   99.59210
 3598.50000   11.37940   53.71000   99.14150
 3599.00000   11.57450   53.23420   97.68730
 3599.50000   11.17740   51.45210   95.90890
 3600.00000    9.50970   50.27220   94.99760
 3600.50000    7.86470   50.14260   94.75000
 3601.00000    6.29620   50.46650   94.34790
 3601.50000    5.99200   50.47700   94.58660
 3602.00000    5.65620   50.34560   98.41290
 3602.50000    5.36870   51.29100  105.25780
 3603.00000    5.48230   56.42270  114.44040
 3603.50000    7.33480   65.96260  123.62310
 3604.00000   13.13500   71.19900  132.80570
 3604.50000   23.57900   73.77470  136.82400
 3605.00000   34.81700   75.20810  136.76860
 3605.50000   42.77980   74.17760  130.64770
 3606.00000   46.51880   71.36620  124.92020
 3606.50000   47.70120   68.32080  120.89850
 3607.00000   45.82340   66.68420  117.34380
 3607.50000   43.18320   66.15200  116.96210
 3608.00000   41.61930   67.35100  119.77110
 3608.50000   41.33230   69.78430  126.25860
 3609.00000   41.81090   73.68240  132.40270
 3609.50000   41.31490   75.54610  136.89920
 3610.00000   40.44670   75.40750  137.13960
 3610.50000   39.51640   75.16880  134.92620
 3611.00000   37.51690   73.44920  133.47060
 3611.50000   34.31440   71.24070  132.53510
 3612.00000   33.53150   72.45990  132.82230
 3612.50000   36.30570   78.72880  138.29470
 3613.00000   40.84570   82.26190  140.49380
 3613.50000   44.08800   83.21130  140.23440
 3614.00000   45.64190   84.17400  140.03070
 3614.50000   45.54240   85.34050  139.96120
 3615.00000   43.46810   83.58570  139.94480
 3615.50000   36.39230   79.85100  139.26350
 3616.00000   28.43980   75.42090  132.83930
 3616.50000   24.22190   71.92220  133.21950
 3617.00000   24.69000   70.88200  134.60900
 3617.50000   27.67080   71.44890  136.13160
 3618.00000   31.53970   72.39300  136.90870
 3618.50000   36.30850   74.15450  136.36670
 3619.00000   38.28350   76.18430  135.71620
 3619.50000   35.51120   77.23140  135.28570
 3620.00000   28.98380   77.54200  134.59200
 3620.50000   25.08790   76.93380  132.12250
 3621.00000   24.91240   76.46640  128.85890
 3621.50000   24.75020   75.51560  125.14830
 3622.00000   21.74130   72.85050  122.61740
 3622.50000   17.05930   69.09610  119.07180
 3623.00000   13.43750   66.11970  114.41900
 3623.50000   11.90340   61.23720  109.32990
 3624.00000   10.41030   56.67020  104.24090
 3624.50000    8.77400   53.06590  101.14470
 3625.00000    7.39240   51.90140   98.41000
 3625.50000    6.71610   51.94050   95.34040
 3626.00000    6.37130   52.24620   95.35030
 3626.50000    5.96190   52.58910   97.33940
 3627.00000    5.58340   53.08580   96.20380
 3627.50000    5.15420   53.06890   93.68340
 3628.00000    4.79330   52.60610   93.16090
 3628.50000    5.10150   52.29320   93.15170
