~Version ---------------------------------------------------
VERS.   2.0 : CWLS log ASCII Standard -VERSION 2.0
WRAP.    NO : One line per depth step
DLM . SPACE : Column Data Section Delimiter
~Well ------------------------------------------------------
STRT .F                1849.0 : START DEPTH
STOP .F                5060.0 : STOP DEPTH
STEP .F                   0.5 : STEP
NULL .               -9999.25 : NULL VALUE
COMP .                        : COMPANY
WELL .                        : WELL
FLD  .                        : FIELD
LOC  .                        : LOCATION
PROV .                        : PROVINCE
CNTY .                        : COUNTY
STAT .                        : STATE
CTRY .                        : COUNTRY
SRVC .                        : SERVICE COMPANY
DATE .                        : DATE
UWI  .                        : UNIQUE WELL ID
API  .                        : API NUMBER
SLAT .WGS84 2.684473877817396 : SURFACE LATITUDE
SLON .WGS84 7.151278803442992 : SURFACE LONGITUDE
DATUM.F                   nan : DEPTH DATUM ELEV
~Curve Information -----------------------------------------
DEPT   .F     : 1 MEASURED DEPTH
GR_EDTC.GAPI  : GAMMA RAY
DTCO   .US/F  : DELTA-T COMPRESSIONAL
DTSM   .US/F  : DELTA-T SHEAR
~Params ----------------------------------------------------
~Other -----------------------------------------------------
~ASCII -----------------------------------------------------
# ...
 3273.00000   46.14950   86.68070  156.92460
 3273.50000   62.49850   99.63250  166.84120
 3274.00000   65.49490  100.84580  177.57020
 3274.50000   60.64420  100.04020  177.52490
 3275.00000   54.87600   97.71460  173.01910
 3275.50000   50.95860   91.14030  156.73640
 3276.00000   49.30820   82.98040  135.94400
 3276.50000   46.61410   79.56980  122.27800
 3277.00000   40.77360   80.15380  124.16100
 3277.50000   30.43160   80.59740  126.36510
 3278.00000   19.44040   79.05090  128.66520
 3278.50000   14.70060   76.77070  132.33120
 3279.00000   14.06490   78.21400  146.48890
 3279.50000   15.17240   83.21570  158.53270
 3280.00000   17.12280   87.07810  164.28230
 3280.50000   21.08610   88.18050  166.97320
 3281.00000   27.07600   88.27390  166.69600
 3281.50000   32.33200   87.84020  161.99790
 3282.00000   29.25720   84.86110  156.84440
 3282.50000   21.23040   79.42820  154.50930
 3283.00000   12.85140   77.01920  156.64960
 3283.50000    8.75450   77.72010  158.64510
 3284.00000    8.93680   78.21370  157.91220
 3284.50000   12.28110   76.46040  152.78230
 3285.00000   15.52350   70.90450  134.06910
 3285.50000   16.70160   65.44520  119.58440
 3286.00000   14.44150   60.89430  107.83240
 3286.50000   10.93900   57.07770  103.46540
 3287.00000    8.41670   52.85090  103.16700
 3287.50000    7.49580   51.39050  104.39380
 3288.00000    7.47470   53.42690  105.88920
 3288.50000    7.29180   59.92510  120.03720
 3289.00000    5.75840   68.84930  137.19410
 3289.50000    4.65520   73.91970  154.35100
 3290.00000    5.59480   76.73050  164.13980
 3290.50000    8.65870   76.75530  166.62140
 3291.00000   11.83130   74.83530  156.10080
 3291.50000   13.94740   71.57190  145.01560
 3292.00000   13.83500   69.79840  131.87810
 3292.50000   12.57050   70.62890  124.53580
 3293.00000   10.57280   69.73080  124.80990
 3293.50000    8.81230   68.52300  124.67100
 3294.00000    7.61610   68.06820  122.59150
 3294.50000    6.66870   68.95980  121.44780
 3295.00000    6.48490   71.23820  124.11850
 3295.50000    6.98260   73.55210  128.51640
 3296.00000    7.45200   75.34920  130.20650
 3296.50000    8.72900   76.78080  130.76060
 3297.00000   10.29890   78.03640  130.96870
 3297.50000   12.08270   77.59220  131.83190
 3298.00000   12.42510   76.40560  135.59770
 3298.50000   12.41230   75.77680  137.30680
 3299.00000   11.11770   75.39920  137.68300
 3299.50000   11.32140   75.30430  136.95770
 3300.00000   13.82220   75.13210  133.90650
 3300.50000   16.10510   74.11850  129.78670
 3301.00000   14.92790   72.21510  125.69550
 3301.50000   12.04740   69.95430  122.16540
 3302.00000    9.00440   67.32740  118.63540
 3302.50000    7.01170   63.38320  114.91520
 3303.00000    7.56910   59.26870  111.14270
 3303.50000    8.11950   55.27960  107.37020
 3304.00000    7.96630   54.08050  105.85310
 3304.50000    7.35690   55.20080  110.48400
 3305.00000    6.95580   60.51280  117.97870
 3305.50000    7.91050   65.72600  125.47350
 3306.00000   10.37820   69.99690  132.96820
 3306.50000   12.98610   73.38390  140.39150
 3307.00000   14.98800   77.14930  141.78920
 3307.50000   14.84340   78.66020  141.59890
 3308.00000   13.90090   77.28700  138.84890
 3308.50000   11.95420   74.43910  132.05560
 3309.00000   10.32210   71.49180  129.43310
 3309.50000    8.37500   69.96030  125.63350
 3310.00000    5.85050   68.49140  120.38140
 3310.50000    4.42570   65.68890  116.45750
 3311.00000    3.66090   64.19820  115.77580
 3311.50000    4.05520   65.66540  118.57110
 3312.00000    5.62470   69.37900  123.86700
 3312.50000    7.81900   70.70820  130.30530
 3313.00000   10.10670   68.83910  132.95900
 3313.50000   11.91670   64.54870  128.48280
 3314.00000   11.99440   59.33910  122.00880
 3314.50000   10.72840   55.77930  115.53480
 3315.00000    8.41480   54.02570  107.85970
 3315.50000    6.51780   54.95370  102.32050
 3316.00000    5.72390   56.33920  101.24420
 3316.50000    5.55230   58.12670  100.15560
 3317.00000    6.01830   57.21930   99.06710
 3317.50000    6.12290   56.07880   98.25920
 3318.00000    6.31430   56.34710  103.02950
 3318.50000    6.56260   61.09390  124.46770
 3319.00000    6.60550   68.37780  145.54860
 3319.50000    6.70740   71.37710  156.52030
 3320.00000    8.51910   71.18280  153.70650
 3320.50000   11.74020   70.69930  145.65650
 3321.00000   13.91500   68.88320  137.87350
 3321.50000   13.86400   65.88660  132.42770
 3322.00000   12.58410   60.80560  127.04110
 3322.50000   11.06150   56.87970  122.65720
 3323.00000   11.12720   58.15330  118.27330
 3323.50000   10.77810   60.04230  111.35640
 3324.00000    9.55630   60.29810  103.64090
 3324.50000    7.97230   57.99300   96.40490
 3325.00000    6.67780   54.89180   95.36630
 3325.50000    6.06720   53.47150   94.78090
 3326.00000    5.69480   52.51910   96.17130
 3326.50000    5.36740   51.62610   97.54740
 3327.00000    5.06910   50.33160   97.97100
 3327.50000    5.46860   49.47190   98.30970
 3328.00000    7.77460   50.35120  101.76690
 3328.50000   11.22430   51.73530  123.06680
 3329.00000   14.24880   52.82480  141.34450
 3329.50000   17.01260   53.85520  153.54730
 3330.00000   19.56180   54.18120  140.61590
 3330.50000   21.08120   53.82060  118.48460
 3331.00000   18.29860   53.82490  109.35440
 3331.50000   13.26280   54.19740   98.53640
 3332.00000    8.50010   54.25670   91.26520
 3332.50000    5.03590   54.22170   91.53910
 3333.00000    4.79220   53.73370   94.85340
 3333.50000    4.77150   52.78200   98.16770
 3334.00000    4.79510   53.86940  103.20700
 3334.50000    4.77880   57.32240  107.51870
 3335.00000    5.52380   61.16450  110.08700
 3335.50000    8.84480   64.58670  113.51910
 3336.00000   15.61200   68.19960  120.76280
 3336.50000   23.17290   69.96350  128.00660
 3337.00000   30.40660   71.79420  133.99320
 3337.50000   33.83870   74.61950  140.37320
 3338.00000   32.98310   78.20120  147.77220
 3338.50000   29.83640   80.80240  148.71010
 3339.00000   28.90150   81.64590  146.98990
 3339.50000   32.00370   81.15370  140.29270
 3340.00000   38.23340   78.37060  134.42330
 3340.50000   43.56080   74.03670  130.10180
 3341.00000   44.32920   70.08000  124.35810
 3341.50000   44.12360   67.69420  118.77730
 3342.00000   43.81110   65.55150  114.11620
 3342.50000   43.29310   63.60870  110.67720
 3343.00000   42.59610   66.35050  111.36790
 3343.50000   40.77120   73.00400  125.90050
 3344.00000   39.01120   79.10830  156.00930
 3344.50000   37.65070   81.83850  176.61450
 3345.00000   38.22840   84.38090  183.71760
 3345.50000   39.18550   82.32020  173.24030
 3346.00000   39.31000   77.95230  157.24600
 3346.50000   36.73860   75.59610  135.49560
 3347.00000   31.43330   73.13600  128.55810
 3347.50000   27.54760   70.19980  127.14930
 3348.00000   23.25490   68.82990  124.22760
 3348.50000   20.01000   67.65590  122.21800
 3349.00000   18.43030   67.12410  120.83250
 3349.50000   18.34480   66.86960  119.77130
 3350.00000   17.45510   66.50220  119.46540
 3350.50000   15.72890   66.33420  119.79810
 3351.00000   14.30620   67.79380  122.01530
 3351.50000   13.85550   71.97690  132.57960
 3352.00000   14.33700   78.81340  153.08300
 3352.50000   15.22650   86.48750  173.58630
 3353.00000   19.45000   91.05360  181.15170
 3353.50000   26.80030   94.45850  185.03130
 3354.00000   33.95720   92.75130  176.60560
 3354.50000   38.45950   89.04760  168.18000
 3355.00000   38.90170   84.64300  161.95540
 3355.50000   35.40660   78.96410  153.69550
 3356.00000   28.28130   73.40550  145.13910
 3356.50000   22.75780   69.61560  136.58260
 3357.00000   18.10020   67.86720  130.29390
 3357.50000   14.89550   67.69300  124.77770
 3358.00000   12.01820   67.65860  120.67520
 3358.50000    8.53420   67.92510  118.76560
 3359.00000    6.49080   68.35300  118.79980
 3359.50000    5.60820   69.10480  119.25400
 3360.00000    5.66620   70.13140  121.02980
 3360.50000    6.01130   71.03450  122.76260
 3361.00000    7.70120   71.49080  124.17520
 3361.50000   11.57510   72.16830  125.16870
