~Version ---------------------------------------------------
VERS.   2.0 : CWLS log ASCII Standard -VERSION 2.0
WRAP.    NO : One line per depth step
DLM . SPACE : Column Data Section Delimiter
~Well ------------------------------------------------------
STRT .F                1849.0 : START DEPTH
STOP .F                5060.0 : STOP DEPTH
STEP .F                   0.5 : STEP
NULL .               -9999.25 : NULL VALUE
COMP .                        : COMPANY
WELL .                        : WELL
FLD  .                        : FIELD
LOC  .                        : LOCATION
PROV .                        : PROVINCE
CNTY .                        : COUNTY
STAT .                        : STATE
CTRY .                        : COUNTRY
SRVC .                        : SERVICE COMPANY
DATE .                        : DATE
UWI  .                        : UNIQUE WELL ID
API  .                        : API NUMBER
SLAT .WGS84 2.684473877817396 : SURFACE LATITUDE
SLON .WGS84 7.151278803442992 : SURFACE LONGITUDE
DATUM.F                   nan : DEPTH DATUM ELEV
~Curve Information -----------------------------------------
DEPT   .F     : 1 MEASURED DEPTH
GR_EDTC.GAPI  : GAMMA RAY
DTCO   .US/F  : DELTA-T COMPRESSIONAL
DTSM   .US/F  : DELTA-T SHEAR
~Params ----------------------------------------------------
~Other -----------------------------------------------------
~ASCII -----------------------------------------------------
# ...
 2472.00000   30.18590   67.21960  150.49780
 2472.50000   25.01010   65.49980  143.57900
 2473.00000   21.72450   69.45170  135.63390
 2473.50000   20.42150   74.30740  129.45490
 2474.00000   19.24400   75.31100  125.04580
 2474.50000   16.84520   74.86770  124.59070
 2475.00000   14.99510   74.81100  125.46790
 2475.50000   14.19170   74.43890  126.33050
 2476.00000   14.77600   73.51570  126.33340
 2476.50000   14.19800   72.46480  125.02020
 2477.00000   12.55470   71.66410  123.83220
 2477.50000   11.65140   71.35910  123.59920
 2478.00000   11.71740   71.32900  124.12960
 2478.50000   11.98650   71.35260  125.19560
 2479.00000   12.12200   71.35450  125.49950
 2479.50000   12.12140   71.10780  125.73150
 2480.00000   12.42520   70.74410  125.60930
 2480.50000   12.96130   70.73950  125.50190
 2481.00000   14.00620   71.17910  125.32560
 2481.50000   14.19050   71.38310  124.89380
 2482.00000   14.39410   71.17250  124.88230
 2482.50000   14.59760   70.68510  124.89920
 2483.00000   14.89720   70.24380  122.96690
 2483.50000   15.05240   70.01800  120.49580
 2484.00000   15.07660   69.00840  118.58540
 2484.50000   12.22080   67.98910  118.30320
 2485.00000   11.95880   67.41660  119.11120
 2485.50000   14.95400   67.03840  119.89790
 2486.00000   23.19330   67.24250  120.74740
 2486.50000   37.54200   68.19700  121.99380
 2487.00000   53.16830   69.46590  123.07160
 2487.50000   60.87940   70.73220  123.38820
 2488.00000   52.03640   70.95480  122.58970
 2488.50000   34.38670   70.49300  121.66390
 2489.00000   21.17740   69.61040  121.06460
 2489.50000   16.56160   68.35500  121.14540
 2490.00000   17.44630   67.02690  121.34630
 2490.50000   19.28410   66.34450  121.59660
 2491.00000   18.05780   67.79780  122.03410
 2491.50000   15.40730   69.44110  122.66760
 2492.00000   12.79560   70.51050  123.34670
 2492.50000   10.81160   71.44760  124.52790
 2493.00000   10.22510   71.70890  125.84860
 2493.50000   10.13020   71.34190  125.75790
 2494.00000    9.96530   70.74970  124.21240
 2494.50000    9.51620   69.87840  121.82790
 2495.00000    9.10260   69.40610  118.95350
 2495.50000    9.24740   69.07330  116.52840
 2496.00000    9.57680   67.50690  114.63560
 2496.50000    9.78210   65.41060  112.72950
 2497.00000    8.97830   63.56660  111.85180
 2497.50000    7.57940   62.85370  116.07170
 2498.00000    6.08260   64.15910  125.40740
 2498.50000    5.70560   67.08000  134.74300
 2499.00000    6.49220   69.90380  143.19620
 2499.50000    8.26960   70.98430  140.14090
 2500.00000    9.89140   70.92890  134.07380
 2500.50000   10.37200   70.26260  127.51220
 2501.00000    9.21170   68.90250  121.41130
 2501.50000    8.00520   68.23930  119.30450
 2502.00000    7.59650   67.88870  116.08130
 2502.50000    8.53320   66.74950  112.51530
 2503.00000   10.94340   66.90030  116.86250
 2503.50000   13.84910   69.93580  133.23340
 2504.00000   14.80710   74.43040  151.11110
 2504.50000   14.61620   77.03620  161.75150
 2505.00000   14.12770   76.59890  157.12320
 2505.50000   13.50090   74.46220  145.89260
 2506.00000   12.97140   70.17600  133.49330
 2506.50000   12.00270   68.89510  120.27760
 2507.00000   10.37690   68.94280  117.49520
 2507.50000    8.59790   68.98150  118.80400
 2508.00000    7.16050   69.15330  119.73770
 2508.50000    6.29390   69.35400  120.55920
 2509.00000    6.49340   69.53110  121.38910
 2509.50000    6.60870   69.70650  121.91830
 2510.00000    6.84300   69.87120  121.54290
 2510.50000    7.25680   69.92800  119.69260
 2511.00000    8.22800   69.94290  119.61260
 2511.50000    8.31680   69.98120  120.01130
 2512.00000    7.93440   69.98260  119.80600
 2512.50000    7.69590   69.68890  119.42790
 2513.00000    8.54330   68.86610  119.04980
 2513.50000    9.11630   68.03570  118.66950
 2514.00000    8.55120   67.66420  118.39360
 2514.50000    7.15640   67.57860  118.69760
 2515.00000    6.36470   67.63930  119.56000
 2515.50000    6.49660   67.76740  120.05290
 2516.00000    6.97700   68.10700  120.37860
 2516.50000    7.59150   68.43050  120.73950
 2517.00000    6.61870   68.96280  121.76590
 2517.50000    5.53680   69.91780  124.00720
 2518.00000    5.29420   71.31760  125.89790
 2518.50000    6.25580   72.63610  129.24390
 2519.00000    8.36180   74.29460  131.68420
 2519.50000    9.76280   75.88430  134.26980
 2520.00000   10.83930   76.30210  137.06100
 2520.50000   11.97560   76.38770  138.57470
 2521.00000   13.22320   75.88360  137.40930
 2521.50000   13.18320   75.18380  134.83330
 2522.00000   11.63680   74.45320  132.63020
 2522.50000   10.03730   74.32600  132.45780
 2523.00000   10.01200   74.95910  132.70710
 2523.50000   10.37620   75.41700  132.69590
 2524.00000   11.04150   75.30680  131.11480
 2524.50000   11.92880   74.20920  128.01270
 2525.00000   12.10740   72.65210  125.22860
 2525.50000   11.80840   71.61270  122.34890
 2526.00000   10.79800   70.76960  120.50910
 2526.50000    9.91930   69.87210  119.39090
 2527.00000   10.17930   68.37090  120.43560
 2527.50000   11.00950   66.32970  121.51830
 2528.00000   11.64490   65.11840  122.03750
 2528.50000   11.62700   65.53680  122.24430
 2529.00000   10.70710   66.50730  122.20340
 2529.50000    9.78470   68.31800  122.28190
 2530.00000    9.19270   70.27310  122.22720
 2530.50000    8.99320   71.17580  122.19760
 2531.00000   10.15460   70.90490  122.68470
 2531.50000   11.50510   70.55990  122.88540
 2532.00000   12.32120   69.80540  122.74250
 2532.50000   11.57720   68.79750  122.32230
 2533.00000   10.37300   68.33740  121.76330
 2533.50000    9.48260   68.34910  120.96330
 2534.00000    8.84030   68.37810  120.43950
 2534.50000    8.77460   68.21600  119.86420
 2535.00000    9.06880   68.08700  118.57730
 2535.50000    9.77950   68.30590  116.78900
 2536.00000   11.60160   68.76570  114.21650
 2536.50000   14.82780   68.65510  112.07930
 2537.00000   19.76590   67.04590  110.69760
 2537.50000   28.97170   64.76710  110.90610
 2538.00000   42.63630   62.36930  111.11450
 2538.50000   68.99790   60.13460  111.31920
 2539.00000   96.63760   57.94960  111.46940
 2539.50000  118.23530   58.96230  112.94100
 2540.00000  116.62530   64.27460  119.51000
 2540.50000   93.62730   70.16540  127.32390
 2541.00000   59.86850   74.98150  136.05960
 2541.50000   40.50480   77.29690  145.22060
 2542.00000   24.32800   79.90310  148.15870
 2542.50000   19.34860   80.43700  145.19230
 2543.00000   18.13710   78.98060  141.83240
 2543.50000   16.60880   77.39520  138.81270
 2544.00000   14.74580   76.24930  137.53000
 2544.50000   14.18800   74.88870  136.63310
 2545.00000   14.71660   74.21280  136.09180
 2545.50000   15.25370   74.12010  136.23650
 2546.00000   15.24110   74.75140  137.33000
 2546.50000   15.06160   75.57630  139.93150
 2547.00000   14.88830   76.15400  140.08020
 2547.50000   15.20000   76.06920  137.66560
 2548.00000   15.26570   75.21510  133.32700
 2548.50000   15.18180   73.78290  129.55100
 2549.00000   14.80380   72.34910  126.52930
 2549.50000   13.63960   71.62480  124.82690
 2550.00000   12.31360   71.12210  123.60020
 2550.50000   11.39190   70.88090  123.25190
 2551.00000   11.19930   70.57160  123.57730
 2551.50000   11.15120   69.96060  124.25940
 2552.00000   11.01430   69.28000  124.47070
 2552.50000   10.97730   68.53860  123.57430
 2553.00000   11.42410   68.14770  121.98590
 2553.50000   12.03630   68.20800  121.29700
 2554.00000   12.63550   69.89340  121.93360
 2554.50000   13.46030   72.33450  123.82590
 2555.00000   13.30370   74.79970  128.26840
 2555.50000   12.31140   76.92430  134.74140
 2556.00000   10.91700   78.44010  136.88540
 2556.50000    9.94100   78.15020  135.52330
 2557.00000   10.09770   75.76090  132.62140
 2557.50000   10.52620   72.91340  128.59860
 2558.00000   11.49290   70.89000  123.58190
 2558.50000   13.14970   70.15720  120.45900
 2559.00000   14.40640   70.07820  120.26620
 2559.50000   14.91580   70.07620  121.18450
 2560.00000   16.02120   69.92710  122.73040
 2560.50000   17.94780   69.57930  124.38560
