~Version ---------------------------------------------------
VERS.   2.0 : CWLS log ASCII Standard -VERSION 2.0
WRAP.    NO : One line per depth step
DLM . SPACE : Column Data Section Delimiter
~Well ------------------------------------------------------
STRT .F                1849.0 : START DEPTH
STOP .F                5060.0 : STOP DEPTH
STEP .F                   0.5 : STEP
NULL .               -9999.25 : NULL VALUE
COMP .                        : COMPANY
WELL .                        : WELL
FLD  .                        : FIELD
LOC  .                        : LOCATION
PROV .                        : PROVINCE
CNTY .                        : COUNTY
STAT .                        : STATE
CTRY .                        : COUNTRY
SRVC .                        : SERVICE COMPANY
DATE .                        : DATE
UWI  .                        : UNIQUE WELL ID
API  .                        : API NUMBER
SLAT .WGS84 2.684473877817396 : SURFACE LATITUDE
SLON .WGS84 7.151278803442992 : SURFACE LONGITUDE
DATUM.F                   nan : DEPTH DATUM ELEV
~Curve Information -----------------------------------------
DEPT   .F     : 1 MEASURED DEPTH
GR_EDTC.GAPI  : GAMMA RAY
DTCO   .US/F  : DELTA-T COMPRESSIONAL
DTSM   .US/F  : DELTA-T SHEAR
~Params ----------------------------------------------------
~Other -----------------------------------------------------
~ASCII -----------------------------------------------------
# ...
 2650.00000   36.45900   71.78890  128.05770
 2650.50000   38.24880   71.27500  119.86970
 2651.00000   31.22360   72.25490  117.39080
 2651.50000   22.08560   72.05790  117.49810
 2652.00000   13.17860   72.01180  118.45830
 2652.50000    6.44560   72.29320  121.99200
 2653.00000    5.89600   73.45750  126.98230
 2653.50000    6.57980   74.87420  131.27650
 2654.00000    8.19550   75.01660  135.75700
 2654.50000    9.23870   75.11490  139.34780
 2655.00000    9.68730   76.36670  140.44470
 2655.50000   10.20860   79.04730  140.85510
 2656.00000   11.26200   80.55380  139.06820
 2656.50000   12.51430   80.54930  134.70950
 2657.00000   12.62410   78.70570  130.95630
 2657.50000   12.19130   75.82740  127.85730
 2658.00000   12.18820   72.84140  127.68380
 2658.50000   13.19810   71.45540  128.64410
 2659.00000   14.68800   72.15960  130.91400
 2659.50000   16.54760   74.92970  135.07700
 2660.00000   19.39770   78.61960  141.64470
 2660.50000   23.94340   81.38560  143.56770
 2661.00000   26.95510   81.25560  140.95580
 2661.50000   26.81060   78.73090  137.98430
 2662.00000   22.39080   75.49030  135.55110
 2662.50000   17.65440   72.25030  132.07950
 2663.00000   14.80350   71.01260  128.83190
 2663.50000   12.68680   71.21260  129.48080
 2664.00000   10.55970   72.33300  131.76190
 2664.50000    9.03510   73.79740  134.22910
 2665.00000    8.50340   74.87290  135.56730
 2665.50000    9.10190   75.54420  135.78700
 2666.00000    9.67550   75.56220  134.57720
 2666.50000   10.10010   75.07770  132.07300
 2667.00000   10.46400   74.16330  130.12830
 2667.50000   11.26350   73.38650  127.95040
 2668.00000   11.55150   72.58350  126.55550
 2668.50000   11.48290   71.89210  125.01160
 2669.00000   10.42560   71.66250  124.03970
 2669.50000    9.27580   71.38960  123.86280
 2670.00000    8.15810   70.97290  123.77880
 2670.50000    7.34070   70.80710  123.72540
 2671.00000    7.46980   70.47470  123.67820
 2671.50000    8.45130   70.21480  123.37820
 2672.00000    8.82820   70.15090  122.84780
 2672.50000    8.88410   70.19960  122.33380
 2673.00000    9.14250   70.16820  121.56230
 2673.50000   10.24040   70.24650  122.00190
 2674.00000   12.52400   70.55930  122.84870
 2674.50000   13.78010   71.33090  123.50580
 2675.00000   13.16520   71.98680  124.14590
 2675.50000   12.63440   72.18820  124.16080
 2676.00000   12.89690   71.95190  123.92950
 2676.50000   14.12430   71.15910  123.68680
 2677.00000   15.56290   69.67380  123.28880
 2677.50000   16.90760   68.45750  122.58860
 2678.00000   16.74140   67.96780  122.06620
 2678.50000   15.20190   67.86470  121.85510
 2679.00000   12.74560   68.02690  121.74300
 2679.50000   10.60840   68.48990  121.65010
 2680.00000   10.35750   69.76320  122.02880
 2680.50000   10.21320   70.46860  122.39070
 2681.00000    9.61860   71.21530  123.50110
 2681.50000    8.68180   71.71510  124.72620
 2682.00000    8.62260   71.99820  125.32890
 2682.50000    9.66660   71.69910  124.89460
 2683.00000   10.65000   70.69830  124.21860
 2683.50000   10.33290   70.00330  123.38100
 2684.00000    9.70270   69.35100  122.18410
 2684.50000    9.61310   68.69740  120.75860
 2685.00000   10.18570   68.20270  120.27230
 2685.50000   10.96770   67.90870  120.25400
 2686.00000   12.10860   68.02850  120.51160
 2686.50000   12.68840   68.46410  120.67460
 2687.00000   12.09670   69.28770  121.22990
 2687.50000   11.35430   70.10710  121.65350
 2688.00000   11.13490   70.61510  122.05080
 2688.50000   12.04630   71.05300  122.28380
 2689.00000   13.60410   70.74000  122.27610
 2689.50000   14.74770   70.09100  122.26830
 2690.00000   14.87130   69.23370  122.26050
 2690.50000   12.97090   68.53470  122.31260
 2691.00000   10.76630   68.76010  123.17530
 2691.50000    8.41590   69.67770  124.38400
 2692.00000    7.53050   70.82540  126.29250
 2692.50000    7.55490   71.76900  128.27610
 2693.00000    8.46450   71.97330  128.43370
 2693.50000    8.67790   71.77370  128.11300
 2694.00000    7.87220   71.58100  127.60620
 2694.50000    6.69360   71.78600  126.87130
 2695.00000    6.01890   72.56520  126.74270
 2695.50000    6.21510   73.28170  126.43740
 2696.00000    7.36990   73.35010  125.65420
 2696.50000    8.04720   72.47130  124.46570
 2697.00000    8.27180   71.09980  123.29380
 2697.50000    8.43510   70.12070  122.41570
 2698.00000    8.57960   69.34750  121.82550
 2698.50000    9.38200   68.91760  121.87660
 2699.00000   10.01740   68.88690  122.14070
 2699.50000   10.24070   68.90130  122.25290
 2700.00000    9.99110   69.12930  122.42650
 2700.50000    9.17070   69.38070  122.65270
 2701.00000    7.51240   69.43200  122.66860
 2701.50000    6.38040   69.50640  122.50710
 2702.00000    7.62330   69.58160  122.48470
 2702.50000   11.16610   69.35830  122.48910
 2703.00000   13.71910   68.63970  122.18100
 2703.50000   15.47300   67.89660  121.59330
 2704.00000   16.26570   67.36100  120.78430
 2704.50000   17.02510   67.34530  121.07190
 2705.00000   21.45590   67.83630  120.87160
 2705.50000   27.60310   68.85490  120.86710
 2706.00000   32.95770   70.18450  121.14460
 2706.50000   32.01670   70.61570  121.15840
 2707.00000   25.94830   69.84850  120.33180
 2707.50000   20.09160   68.83820  119.35590
 2708.00000   17.91020   67.82980  118.12750
 2708.50000   18.31440   67.16380  116.41190
 2709.00000   20.66760   66.47420  116.49830
 2709.50000   24.34510   66.16100  116.48350
 2710.00000   25.80560   66.63120  116.84090
 2710.50000   23.50280   67.69080  118.20390
 2711.00000   18.46370   68.81750  120.21260
 2711.50000   12.93110   69.65360  121.42580
 2712.00000   10.33800   70.11930  122.32590
 2712.50000    9.97980   69.83260  122.66940
 2713.00000   10.92030   68.83480  122.28080
 2713.50000   12.29520   68.07840  121.67520
 2714.00000   12.78520   67.58210  121.22190
 2714.50000   12.44750   67.96230  120.90870
 2715.00000   11.28690   69.69480  122.45690
 2715.50000   11.00080   71.55760  125.46110
 2716.00000   12.98050   73.84780  133.58940
 2716.50000   18.10070   75.84710  138.75940
 2717.00000   24.39130   76.55360  143.02020
 2717.50000   31.55440   76.45150  144.47290
 2718.00000   35.63740   76.05920  145.46560
 2718.50000   37.05000   75.69470  145.71910
 2719.00000   38.28700   75.63410  145.19030
 2719.50000   39.37170   75.36800  143.55980
 2720.00000   37.94680   74.52400  141.74860
 2720.50000   35.86200   73.39080  139.08110
 2721.00000   31.31220   72.15000  131.29370
 2721.50000   24.66070   70.33050  126.50220
 2722.00000   17.67280   69.55400  124.67570
 2722.50000   10.78400   69.06340  122.26310
 2723.00000    8.40370   68.70990  120.61370
 2723.50000    8.43690   68.42990  119.55950
 2724.00000    9.10350   67.95230  118.31440
 2724.50000   10.24560   67.08270  117.24950
 2725.00000   11.54000   66.11840  116.56170
 2725.50000   12.09340   65.66830  115.72930
 2726.00000   11.44620   65.68420  114.83640
 2726.50000   10.17670   65.73010  114.10660
 2727.00000   10.33230   65.64150  113.34010
 2727.50000   11.28570   65.34820  113.07190
 2728.00000   11.49870   64.73020  113.81210
 2728.50000   11.47590   64.31460  115.46230
 2729.00000   10.70340   64.60430  116.96000
 2729.50000    9.79280   65.81210  118.31470
 2730.00000    8.95990   67.86730  120.63580
 2730.50000    8.31530   69.30720  123.13940
 2731.00000    8.68020   70.37630  125.60880
 2731.50000   10.10820   71.36310  128.59440
 2732.00000   12.45590   72.34410  132.99400
 2732.50000   15.43060   73.69510  136.47410
 2733.00000   18.79380   75.17200  138.83370
 2733.50000   21.78390   75.76910  139.72570
 2734.00000   23.72120   75.19230  138.95270
 2734.50000   24.60900   74.59370  138.18790
 2735.00000   25.31330   74.61100  137.27710
 2735.50000   25.85970   75.42840  137.09040
 2736.00000   26.03640   75.86340  137.26840
 2736.50000   26.82990   75.97950  137.51260
 2737.00000   28.30800   75.70840  137.13280
 2737.50000   28.63010   74.79210  135.33330
 2738.00000   25.98280   73.30360  132.99220
 2738.50000   21.00430   72.52520  131.87210
