~Version ---------------------------------------------------
VERS.   2.0 : CWLS log ASCII Standard -VERSION 2.0
WRAP.    NO : One line per depth step
DLM . SPACE : Column Data Section Delimiter
~Well ------------------------------------------------------
STRT .F                1849.0 : START DEPTH
STOP .F                5060.0 : STOP DEPTH
STEP .F                   0.5 : STEP
NULL .               -9999.25 : NULL VALUE
COMP .                        : COMPANY
WELL .                        : WELL
FLD  .                        : FIELD
LOC  .                        : LOCATION
PROV .                        : PROVINCE
CNTY .                        : COUNTY
STAT .                        : STATE
CTRY .                        : COUNTRY
SRVC .                        : SERVICE COMPANY
DATE .                        : DATE
UWI  .                        : UNIQUE WELL ID
API  .                        : API NUMBER
SLAT .WGS84 2.684473877817396 : SURFACE LATITUDE
SLON .WGS84 7.151278803442992 : SURFACE LONGITUDE
DATUM.F                   nan : DEPTH DATUM ELEV
~Curve Information -----------------------------------------
DEPT   .F     : 1 MEASURED DEPTH
GR_EDTC.GAPI  : GAMMA RAY
DTCO   .US/F  : DELTA-T COMPRESSIONAL
DTSM   .US/F  : DELTA-T SHEAR
~Params ----------------------------------------------------
~Other -----------------------------------------------------
~ASCII -----------------------------------------------------
# ...
 3718.00000   39.04130   66.33670  120.66370
 3718.50000   40.79880   71.47630  125.96730
 3719.00000   41.09200   77.65030  130.32430
 3719.50000   39.98500   81.86610  131.28340
 3720.00000   39.53970   78.80190  130.31480
 3720.50000   39.27920   69.52540  127.35490
 3721.00000   38.89620   59.07460  118.93170
 3721.50000   36.35830   49.80030  112.37490
 3722.00000   30.30050   50.59680  105.81820
 3722.50000   23.57320   50.59040   99.61800
 3723.00000   15.60860   48.94600   94.20060
 3723.50000   10.22170   47.36690   92.18310
 3724.00000    7.54590   46.04630   99.51520
 3724.50000    7.70010   44.67080  116.69350
 3725.00000    9.72730   54.46530  133.87740
 3725.50000   15.09220   73.49250  149.05420
 3726.00000   26.99460   83.96530  150.13870
 3726.50000   36.83330   81.89100  141.06800
 3727.00000   45.55140   79.19410  131.99730
 3727.50000   48.23150   76.61100  128.98680
 3728.00000   48.05650   73.34600  124.82310
 3728.50000   46.18000   70.76050  123.55060
 3729.00000   42.94680   69.66730  123.75460
 3729.50000   39.67050   70.11870  124.87110
 3730.00000   37.83330   71.58030  125.77280
 3730.50000   36.97580   72.69170  125.82010
 3731.00000   36.47250   71.07770  123.88290
 3731.50000   35.93800   66.90780  119.63530
 3732.00000   32.74290   61.98190  111.43830
 3732.50000   25.61690   57.15320  104.85100
 3733.00000   16.37520   54.27830  100.00220
 3733.50000   10.60020   52.27890   97.07830
 3734.00000    8.21690   51.58310   94.14990
 3734.50000    7.44950   51.46820   93.34210
 3735.00000    7.33010   51.60290   93.30770
 3735.50000    6.98570   51.40010   93.39830
 3736.00000    7.07880   51.20060   93.48090
 3736.50000    7.39740   51.31500   93.53050
 3737.00000    7.88180   51.54300   94.49170
 3737.50000    8.32510   51.97600   96.21740
 3738.00000   10.26730   52.59000   99.69940
 3738.50000   12.91340   53.65910  104.22330
 3739.00000   15.24770   56.01420  108.66270
 3739.50000   16.97550   59.58150  113.16420
 3740.00000   19.65170   63.42630  117.56220
 3740.50000   27.23390   66.60320  118.74980
 3741.00000   38.01700   67.95190  118.84840
 3741.50000   46.10140   67.48330  116.73300
 3742.00000   49.01170   66.10590  114.53050
 3742.50000   48.51790   64.25580  112.32800
 3743.00000   46.31640   62.13050  111.61400
 3743.50000   44.73440   60.52900  113.77310
 3744.00000   42.01150   61.16710  116.40670
 3744.50000   37.18110   64.60270  131.70380
 3745.00000   31.81250   69.53990  141.58360
 3745.50000   29.17820   73.49880  147.27590
 3746.00000   31.99510   79.01990  152.31320
 3746.50000   39.52870   81.61470  157.06430
 3747.00000   43.69050   82.55310  157.58270
 3747.50000   43.87200   82.84750  154.79600
 3748.00000   43.38330   81.18750  149.13290
 3748.50000   43.11200   77.45470  142.09400
 3749.00000   43.85300   72.53140  135.16740
 3749.50000   43.25790   69.10510  133.12610
 3750.00000   33.56580   66.66330  131.08470
 3750.50000   27.45250   67.10330  129.09950
 3751.00000   25.76490   68.13640  127.80350
 3751.50000   31.15390   69.96220  125.32350
 3752.00000   38.00570   71.20100  126.66660
 3752.50000   42.92800   71.41620  129.37930
 3753.00000   45.50080   72.12500  131.44470
 3753.50000   46.95380   73.54560  132.14580
 3754.00000   47.70270   73.82940  131.39050
 3754.50000   47.56310   71.68460  127.35350
 3755.00000   46.63940   67.78370  121.26340
 3755.50000   44.01560   62.94110  114.19610
 3756.00000   34.89870   57.80220  106.77440
 3756.50000   23.52130   54.14480  100.40900
 3757.00000   14.86710   51.59380   96.57660
 3757.50000    8.81250   50.39280   94.55370
 3758.00000    7.87710   50.21490   92.98840
 3758.50000    7.66840   50.16600   92.17350
 3759.00000    7.72250   50.18560   92.76690
 3759.50000    7.39600   50.25530   93.01780
 3760.00000    7.70280   50.21740   92.76170
 3760.50000    7.98280   50.16820   92.84320
 3761.00000    7.99000   50.60390   94.85020
 3761.50000    8.00910   51.02270   97.76750
 3762.00000    8.42560   51.84510  102.89930
 3762.50000   11.50060   55.62030  108.03120
 3763.00000   15.58130   61.09510  112.07010
 3763.50000   21.39320   64.17130  114.37600
 3764.00000   26.36290   65.67410  115.51870
 3764.50000   31.18400   63.78960  115.88590
 3765.00000   31.78690   60.80210  116.25040
 3765.50000   27.18890   58.51630  116.59450
 3766.00000   21.58990   59.16510  118.27930
 3766.50000   16.23020   63.09940  121.29760
 3767.00000   17.15330   65.81840  124.03360
 3767.50000   21.33380   67.68840  124.59710
 3768.00000   30.06350   69.05580  124.08980
 3768.50000   35.73600   68.83710  122.71190
 3769.00000   33.96270   67.54440  121.81860
 3769.50000   27.50810   67.46580  121.35250
 3770.00000   19.08800   68.24090  121.79390
 3770.50000   14.63150   70.05170  122.53780
 3771.00000   14.09100   71.68810  126.17280
 3771.50000   15.48270   72.50680  129.20670
 3772.00000   18.49600   71.98820  130.94950
 3772.50000   22.61780   71.25100  130.39020
 3773.00000   24.87110   71.00070  128.32330
 3773.50000   24.31720   70.78600  126.13600
 3774.00000   22.27220   70.75150  123.41640
 3774.50000   21.08530   70.72350  122.12140
 3775.00000   24.50600   69.84550  122.74610
 3775.50000   31.74000   68.62770  123.11150
 3776.00000   36.60230   67.52180  122.35780
 3776.50000   40.39300   66.87650  121.25470
 3777.00000   38.30070   66.69290  120.04710
 3777.50000   32.85460   66.73800  119.71700
 3778.00000   25.07150   67.04990  119.13300
 3778.50000   17.84570   67.37190  118.92840
 3779.00000   13.62520   68.02990  119.79590
 3779.50000   12.22330   68.42200  120.78090
 3780.00000   11.33350   67.71490  123.66490
 3780.50000   10.75110   67.09310  127.73700
 3781.00000   11.56950   67.16270  131.61360
 3781.50000   14.84380   67.82570  135.36440
 3782.00000   18.89770   68.00310  136.35240
 3782.50000   22.95030   68.59180  134.68090
 3783.00000   23.85500   70.18520  130.95810
 3783.50000   22.91840   70.82290  126.97350
 3784.00000   21.63560   70.52390  125.60990
 3784.50000   19.10110   72.15330  127.04620
 3785.00000   17.50390   74.92030  130.02000
 3785.50000   17.55130   77.66100  132.99390
 3786.00000   19.05120   78.18890  134.72430
 3786.50000   23.73280   75.13170  135.19730
 3787.00000   29.07130   69.72390  130.63310
 3787.50000   32.84700   64.07930  123.10510
 3788.00000   31.54810   60.24020  115.57700
 3788.50000   25.65590   56.49680  110.54190
 3789.00000   18.36170   54.39800  105.85140
 3789.50000   12.57100   53.88030  102.75310
 3790.00000    8.98310   54.73060   99.57210
 3790.50000    8.41170   55.72550   97.64110
 3791.00000    8.02320   56.21180   96.94420
 3791.50000    7.27130   56.55540   96.24720
 3792.00000    6.66850   56.13200   96.45340
 3792.50000    6.17900   55.18650   96.52880
 3793.00000    5.88660   53.55980   96.40500
 3793.50000    5.42700   52.37030   95.55410
 3794.00000    4.91170   51.86240   93.64990
 3794.50000    4.61970   51.13360   93.32700
 3795.00000    5.00700   50.64790   93.61920
 3795.50000    5.35320   50.61570   94.40810
 3796.00000    5.81610   51.04550   95.49690
 3796.50000    6.24800   52.18260   97.30410
 3797.00000    7.99290   54.12610   99.69220
 3797.50000   12.41190   56.16440  101.41680
 3798.00000   18.52440   58.09100  101.86260
 3798.50000   23.48060   59.85980  103.76270
 3799.00000   28.25020   60.26200  103.34180
 3799.50000   31.78890   60.36090  102.59360
 3800.00000   33.83210   60.65100  103.04670
 3800.50000   34.61480   61.02730  104.33100
 3801.00000   35.45310   61.64100  107.04480
 3801.50000   35.93770   62.30610  110.47580
 3802.00000   34.79350   62.65960  114.34330
 3802.50000   32.06580   64.39190  120.15480
 3803.00000   29.98020   67.91120  125.99330
 3803.50000   30.32700   71.72260  131.87350
 3804.00000   32.94470   74.35270  137.93460
 3804.50000   37.75700   75.15740  138.47470
 3805.00000   42.27860   74.04910  135.31070
 3805.50000   41.87690   71.95880  131.81490
 3806.00000   38.33370   68.86980  127.70750
 3806.50000   33.14280   65.96870  122.41430
