~Version ---------------------------------------------------
VERS.   2.0 : CWLS log ASCII Standard -VERSION 2.0
WRAP.    NO : One line per depth step
DLM . SPACE : Column Data Section Delimiter
~Well ------------------------------------------------------
STRT .F                1849.0 : START DEPTH
STOP .F                5060.0 : STOP DEPTH
STEP .F                   0.5 : STEP
NULL .               -9999.25 : NULL VALUE
COMP .                        : COMPANY
WELL .                        : WELL
FLD  .                        : FIELD
LOC  .                        : LOCATION
PROV .                        : PROVINCE
CNTY .                        : COUNTY
STAT .                        : STATE
CTRY .                        : COUNTRY
SRVC .                        : SERVICE COMPANY
DATE .                        : DATE
UWI  .                        : UNIQUE WELL ID
API  .                        : API NUMBER
SLAT .WGS84 2.684473877817396 : SURFACE LATITUDE
SLON .WGS84 7.151278803442992 : SURFACE LONGITUDE
DATUM.F                   nan : DEPTH DATUM ELEV
~Curve Information -----------------------------------------
DEPT   .F     : 1 MEASURED DEPTH
GR_EDTC.GAPI  : GAMMA RAY
DTCO   .US/F  : DELTA-T COMPRESSIONAL
DTSM   .US/F  : DELTA-T SHEAR
~Params ----------------------------------------------------
~Other -----------------------------------------------------
~ASCII -----------------------------------------------------
# ...
 4519.00000    7.50620   58.80340  109.74460
 4519.50000    7.22210   59.26140  113.03470
 4520.00000    7.76860   60.93940  115.81550
 4520.50000    8.70700   63.37570  118.59640
 4521.00000    9.48900   64.80370  120.01940
 4521.50000    9.90860   64.38460  119.38460
 4522.00000   10.07210   63.89660  116.67140
 4522.50000   10.17750   63.23330  109.90150
 4523.00000    9.72190   62.45490  107.83300
 4523.50000    9.20060   61.63110  108.13300
 4524.00000    8.90760   60.87800  108.19010
 4524.50000    8.73710   60.16720  107.54190
 4525.00000    8.24500   59.45520  107.30740
 4525.50000    7.57790   57.97250  106.67970
 4526.00000    7.40260   55.74880  105.74700
 4526.50000    7.17260   53.80580  104.79300
 4527.00000    6.96470   54.64650  104.57100
 4527.50000    6.70990   56.18220  105.22940
 4528.00000    7.15190   57.84170  105.37260
 4528.50000    7.98520   59.32580  105.52230
 4529.00000    8.66410   60.17740  105.67200
 4529.50000    8.50420   60.19870  105.82180
 4530.00000    7.82050   59.88190  105.88660
 4530.50000    7.10630   59.35310  104.83450
 4531.00000    7.27150   58.11620  103.78240
 4531.50000    7.73020   57.00260  102.88680
 4532.00000    7.95800   56.03790  102.02580
 4532.50000    7.94000   54.93820  101.06300
 4533.00000    6.78050   54.12570  100.03380
 4533.50000    5.88930   53.63870   99.02200
 4534.00000    5.71850   52.86810   97.99030
 4534.50000    6.11050   52.61840   96.90220
 4535.00000    6.81450   52.88850   96.14790
 4535.50000    7.43880   53.08560   96.04010
 4536.00000    7.65860   52.98220   96.74210
 4536.50000    7.70040   52.93380   97.72030
 4537.00000    7.15270   53.37350   98.20470
 4537.50000    6.62790   53.92370   98.77920
 4538.00000    7.01600   54.42400   99.64650
 4538.50000    7.67920   54.76260  100.42860
 4539.00000    8.16490   54.79600  100.95140
 4539.50000    7.69950   54.82260  101.12910
 4540.00000    7.35640   55.04020  100.70300
 4540.50000    7.34970   55.46390  100.29830
 4541.00000    7.94600   55.57890  100.76830
 4541.50000    8.45460   55.66050  101.81310
 4542.00000    8.68120   55.85750  102.20580
 4542.50000    8.51830   56.14060  103.29520
 4543.00000    7.77400   56.48620  104.34270
 4543.50000    7.00690   56.97640  105.20630
 4544.00000    6.22250   57.65110  105.71860
 4544.50000    5.32690   57.98880  106.47120
 4545.00000    4.85470   57.68450  107.33260
 4545.50000    4.39570   56.95320  107.83430
 4546.00000    4.81910   56.75310  107.67680
 4546.50000    6.01270   56.88230  106.83100
 4547.00000    7.58140   57.27350  105.35770
 4547.50000    8.86920   57.87570  103.99610
 4548.00000    9.43980   58.20340  103.18140
 4548.50000    9.44980   58.07260  102.16320
 4549.00000    8.28980   57.51030  101.03000
 4549.50000    7.06990   56.86940  100.86190
 4550.00000    7.16620   56.51790  100.89440
 4550.50000    7.64590   56.51420  101.02750
 4551.00000    7.58080   56.75890  102.38140
 4551.50000    7.37930   57.27560  103.99880
 4552.00000    7.20270   58.05490  105.61730
 4552.50000    7.18610   59.04700  106.45940
 4553.00000    7.17200   60.03890  107.28790
 4553.50000    6.94070   60.48990  107.84280
 4554.00000    6.38240   60.61380  108.07380
 4554.50000    5.82770   60.62140  108.09050
 4555.00000    5.92760   60.57540  107.93790
 4555.50000    6.68350   59.95980  107.78520
 4556.00000    7.99060   58.52750  107.63250
 4556.50000    8.87060   57.74970  108.29110
 4557.00000    9.27680   58.70870  109.20650
 4557.50000    9.56470   60.39100  110.34080
 4558.00000    9.75250   62.34220  111.47500
 4558.50000    9.67200   63.68490  112.66310
 4559.00000    8.69510   64.56800  113.87930
 4559.50000    7.14350   64.53160  115.93880
 4560.00000    5.79820   64.40500  118.18710
 4560.50000    5.77570   64.63460  121.33570
 4561.00000    6.42610   65.36660  124.76790
 4561.50000    7.06130   67.12790  127.14890
 4562.00000    7.40380   70.95360  128.37170
 4562.50000    7.67970   73.15970  128.81520
 4563.00000    8.06430   74.37510  128.39490
 4563.50000    8.10320   73.30930  127.55260
 4564.00000    7.99480   70.32860  125.40850
 4564.50000    8.10480   66.20540  121.21360
 4565.00000    8.84520   63.55170  116.71130
 4565.50000    9.65960   62.25190  112.45390
 4566.00000    9.80690   61.77660  111.08560
 4566.50000    9.28750   61.27400  109.71730
 4567.00000    9.30390   60.77130  108.34910
 4567.50000   10.01370   60.19270  106.98080
 4568.00000    9.87830   59.41990  106.31490
 4568.50000    8.75170   58.22700  106.31670
 4569.00000    7.67360   57.40500  106.70850
 4569.50000    7.85310   58.05820  107.07890
 4570.00000    8.10190   58.95660  107.15330
 4570.50000    8.12930   59.88200  107.22760
 4571.00000    7.13380   60.47250  107.29460
 4571.50000    6.05770   60.29520  107.09890
 4572.00000    5.52460   59.63290  106.00040
 4572.50000    6.25160   58.58550  104.80850
 4573.00000    7.51880   57.49760  103.61670
 4573.50000    8.30720   56.35820  102.34000
 4574.00000    8.44760   55.34500  101.64280
 4574.50000    8.12220   54.88140  100.96240
 4575.00000    7.52040   54.95580  100.16870
 4575.50000    7.22370   55.19830   99.85200
 4576.00000    8.08540   55.57700   99.07730
 4576.50000    9.45250   55.70400   98.08530
 4577.00000   10.47160   55.10860   97.19520
 4577.50000   10.01210   54.77580   96.60670
 4578.00000    9.18820   54.49690   96.31690
 4578.50000    8.67820   54.09860   96.18050
 4579.00000    8.70500   53.37330   95.78250
 4579.50000    8.57020   52.71830   95.38450
 4580.00000    8.22850   52.37540   95.13770
 4580.50000    7.94200   52.24930   94.95250
 4581.00000    8.13680   52.17060   94.76290
 4581.50000    8.63020   52.15440   94.20450
 4582.00000    8.51100   51.90690   93.97090
 4582.50000    7.84560   51.76980   93.19500
 4583.00000    6.97910   51.35430   92.85080
 4583.50000    6.67490   51.01660   92.80600
 4584.00000    6.79040   50.76410   92.86400
 4584.50000    6.92210   50.68510   92.93090
 4585.00000    7.54250   50.87100   92.93080
 4585.50000    9.31820   51.37790   92.88330
 4586.00000   13.82520   51.88750   92.86820
 4586.50000   23.51720   52.06730   92.83200
 4587.00000   37.31600   51.82980   92.76600
 4587.50000   50.06640   51.42730   92.60990
 4588.00000   55.71630   50.90580   92.61100
 4588.50000   49.72740   50.35410   92.58680
 4589.00000   39.89030   50.03750   92.58680
 4589.50000   30.00340   50.10260   92.58680
 4590.00000   24.82790   50.78430   92.76190
 4590.50000   20.74010   51.69790   93.05010
 4591.00000   18.56220   52.43710   93.59580
 4591.50000   17.60990   52.84610   94.12290
 4592.00000   17.36330   53.17410   94.74540
 4592.50000   17.55360   53.66170   95.16930
 4593.00000   18.58300   54.11720   95.53420
 4593.50000   19.09500   54.47950   95.91100
 4594.00000   18.96740   54.79420   96.10840
 4594.50000   18.77320   54.94040   96.23360
 4595.00000   18.87620   54.66280   96.25880
 4595.50000   19.32770   54.35040   96.03440
 4596.00000   19.41810   53.89330   95.62030
 4596.50000   20.90860   53.23810   95.04120
 4597.00000   23.84570   52.79920   94.45840
 4597.50000   25.67190   52.49260   93.86230
 4598.00000   25.51810   52.03090   93.58930
 4598.50000   24.87460   51.68970   93.22560
 4599.00000   25.68710   51.38250   92.96530
 4599.50000   27.09100   51.10350   92.74050
 4600.00000   27.86990   50.84060   92.66870
 4600.50000   28.05330   50.63880   92.63040
 4601.00000   26.43890   50.60760   92.59210
 4601.50000   24.78730   50.49850   92.55680
 4602.00000   23.81590   50.22370   92.41790
 4602.50000   23.35020   50.14660   92.24850
 4603.00000   23.92770   50.50430   92.34810
 4603.50000   26.01490   51.01790   92.51840
 4604.00000   29.16440   51.37330   92.60450
 4604.50000   31.15170   51.45240   92.59120
 4605.00000   30.61860   51.44650   92.59890
 4605.50000   28.55040   51.36750   92.60660
 4606.00000   26.04470   51.25380   92.60250
 4606.50000   25.50120   51.21510   92.55790
 4607.00000   26.78180   51.21330   92.54390
 4607.50000   28.38630   51.20130   92.56090
