~Version ---------------------------------------------------
VERS.   2.0 : CWLS log ASCII Standard -VERSION 2.0
WRAP.    NO : One line per depth step
DLM . SPACE : Column Data Section Delimiter
~Well ------------------------------------------------------
STRT .F                1849.0 : START DEPTH
STOP .F                5060.0 : STOP DEPTH
STEP .F                   0.5 : STEP
NULL .               -9999.25 : NULL VALUE
COMP .                        : COMPANY
WELL .                        : WELL
FLD  .                        : FIELD
LOC  .                        : LOCATION
PROV .                        : PROVINCE
CNTY .                        : COUNTY
STAT .                        : STATE
CTRY .                        : COUNTRY
SRVC .                        : SERVICE COMPANY
DATE .                        : DATE
UWI  .                        : UNIQUE WELL ID
API  .                        : API NUMBER
SLAT .WGS84 2.684473877817396 : SURFACE LATITUDE
SLON .WGS84 7.151278803442992 : SURFACE LONGITUDE
DATUM.F                   nan : DEPTH DATUM ELEV
~Curve Information -----------------------------------------
DEPT   .F     : 1 MEASURED DEPTH
GR_EDTC.GAPI  : GAMMA RAY
DTCO   .US/F  : DELTA-T COMPRESSIONAL
DTSM   .US/F  : DELTA-T SHEAR
~Params ----------------------------------------------------
~Other -----------------------------------------------------
~ASCII -----------------------------------------------------
# ...
 2294.00000    8.55510   70.90490  120.14720
 2294.50000   11.63340   70.04340  120.31570
 2295.00000   14.87270   69.15450  120.41190
 2295.50000   16.03570   68.41980  120.44960
 2296.00000   14.07400   68.12400  120.30490
 2296.50000   10.78910   68.00230  119.61820
 2297.00000    9.32210   68.15210  119.86550
 2297.50000    8.98430   68.76550  120.46450
 2298.00000    9.45800   69.46820  122.49670
 2298.50000   10.08900   69.61030  124.45290
 2299.00000   10.67450   69.79870  124.31150
 2299.50000   11.99140   70.00660  122.55230
 2300.00000   14.90730   70.01070  121.38660
 2300.50000   19.03430   69.27920  120.14190
 2301.00000   22.46620   68.07150  119.33910
 2301.50000   26.45490   66.27530  118.70620
 2302.00000   31.01110   64.96960  118.75800
 2302.50000   36.16790   65.10880  119.92330
 2303.00000   39.92480   65.97660  122.03400
 2303.50000   38.25260   66.89440  122.69610
 2304.00000   32.52590   67.64600  121.53740
 2304.50000   25.24410   67.63470  119.70780
 2305.00000   18.06900   67.01360  117.15170
 2305.50000   11.85140   66.60390  116.52180
 2306.00000    9.33750   67.89120  116.07820
 2306.50000    9.04320   74.76750  116.10520
 2307.00000   11.66690   81.50000  117.56260
 2307.50000   16.88230   87.08850  119.11930
 2308.00000   23.83500   85.82390  121.57520
 2308.50000   31.80410   81.67030  124.58760
 2309.00000   37.43960   76.60270  124.68110
 2309.50000   39.62820   73.36590  118.63210
 2310.00000   38.14600   72.03500  110.64700
 2310.50000   33.55360   71.84890  107.19830
 2311.00000   27.21120   72.93390  117.77210
 2311.50000   21.27890   74.08430  127.52450
 2312.00000   19.54690   75.48920  136.59050
 2312.50000   21.17790   76.54840  141.45730
 2313.00000   21.34800   76.50200  139.20430
 2313.50000   19.45750   75.67880  136.30070
 2314.00000   17.10770   73.45140  134.35770
 2314.50000   15.88220   71.43530  131.71340
 2315.00000   16.03440   69.25990  127.05150
 2315.50000   16.87240   67.40310  115.47540
 2316.00000   17.26670   66.05140  105.87090
 2316.50000   17.13400   65.95070  121.88950
 2317.00000   15.68120   70.90620  146.47270
 2317.50000   14.73010   78.25730  171.05590
 2318.00000   16.20720   79.91640  189.91200
 2318.50000   18.95640   75.22650  184.14910
 2319.00000   20.15340   70.70340  170.13200
 2319.50000   19.14210   71.20320  145.77510
 2320.00000   17.08120   70.24300  124.16680
 2320.50000   15.37930   68.65490  108.23110
 2321.00000   14.66810   67.49770  106.61560
 2321.50000   14.47170   66.71860  107.64970
 2322.00000   14.31050   66.16920  111.57470
 2322.50000   14.19390   65.61440  116.16140
 2323.00000   13.88680   65.04970  123.58600
 2323.50000   14.36200   64.49530  131.01070
 2324.00000   14.54530   60.66560  146.71640
 2324.50000   14.72860   57.27590  154.98290
 2325.00000   14.91200   64.48300  165.47880
 2325.50000   15.40080   71.60670  179.34310
 2326.00000   16.20730   74.99600  180.48320
 2326.50000   16.51470   75.19480  169.92690
 2327.00000   15.70200   73.19130  153.87450
 2327.50000   14.33620   71.49510  132.63790
 2328.00000   12.20710   69.95550  122.85070
 2328.50000   10.34320   69.05320  121.74810
 2329.00000    8.96540   68.52430  122.02240
 2329.50000    8.00890   68.14970  122.03570
 2330.00000    8.45470   67.88210  120.50620
 2330.50000    9.47690   67.85990  118.22550
 2331.00000   11.75920   67.96240  117.27180
 2331.50000   13.74020   67.75620  117.47620
 2332.00000   14.34230   67.15120  118.43400
 2332.50000   14.47740   66.83190  120.81670
 2333.00000   12.56020   67.29470  124.76900
 2333.50000   11.13660   70.29450  128.90720
 2334.00000   10.91670   73.78760  130.81660
 2334.50000   11.95660   76.30900  130.85970
 2335.00000   13.40320   78.30340  135.63450
 2335.50000   14.25350   81.92180  160.59870
 2336.00000   15.49840   88.40210  190.52780
 2336.50000   18.01480   94.39400  215.79520
 2337.00000   21.43510  101.93020  222.38370
 2337.50000   24.18300  105.01770  207.50790
 2338.00000   25.43810  104.26660  178.65970
 2338.50000   26.23800   98.58210  164.45030
 2339.00000   25.60920   89.30290  159.10600
 2339.50000   23.75820   84.21440  154.78780
 2340.00000   22.11240   82.42800  144.46820
 2340.50000   21.05660   79.97490  138.69640
 2341.00000   21.24900   75.46840  131.28560
 2341.50000   21.16120   72.77470  126.96600
 2342.00000   19.43810   71.39130  123.61640
 2342.50000   16.70710   70.19190  121.16040
 2343.00000   14.08510   69.65240  120.11590
 2343.50000   13.22470   68.85190  118.71720
 2344.00000   13.27820   67.27750  117.36740
 2344.50000   13.99360   66.34330  116.13240
 2345.00000   13.75360   67.08000  115.73950
 2345.50000   14.37700   60.61090  117.15780
 2346.00000   16.01970   59.61930  119.32310
 2346.50000   19.97340   66.23710  121.36440
 2347.00000   23.41510   70.77170  122.88550
 2347.50000   24.40260   70.17090  124.07590
 2348.00000   23.38250   69.34150  123.29930
 2348.50000   19.04300   69.14860  120.28420
 2349.00000   14.99370   69.03320  118.14930
 2349.50000   12.43820   68.14450  117.36810
 2350.00000   10.64380   67.37950  116.19430
 2350.50000    9.67500   67.80060  115.32930
 2351.00000    9.64040   68.19730  116.03650
 2351.50000   10.66720   67.58860  121.51800
 2352.00000   12.59860   69.36640  131.85150
 2352.50000   15.70980   73.82090  142.35080
 2353.00000   18.28090   78.61230  152.87570
 2353.50000   19.87850   82.58990  163.40060
 2354.00000   20.98860   85.95190  169.18380
 2354.50000   22.36910   86.26560  167.18460
 2355.00000   23.42520   84.46850  160.21540
 2355.50000   24.28680   81.86410  155.63290
 2356.00000   24.97160   81.15580  155.20000
 2356.50000   25.36580   82.13740  155.03890
 2357.00000   25.47410   81.87370  153.38320
 2357.50000   26.28480   80.59920  149.54720
 2358.00000   26.67020   79.62370  144.98430
 2358.50000   26.45830   78.81550  142.44270
 2359.00000   25.26440   77.74050  139.17950
 2359.50000   24.33590   75.90630  135.67280
 2360.00000   24.59250   73.81940  133.81940
 2360.50000   24.84920   73.33780  132.81020
 2361.00000   23.83990   74.12060  132.75930
 2361.50000   20.64020   75.44560  135.71170
 2362.00000   17.73710   75.78850  137.76120
 2362.50000   16.66830   75.59240  138.63410
 2363.00000   16.48210   74.97210  141.50230
 2363.50000   15.62300   74.60000  152.90710
 2364.00000   14.62030   76.12760  166.27140
 2364.50000   14.44430   77.65510  174.35170
 2365.00000   14.78380   78.11590  176.12570
 2365.50000   15.05440   76.25170  170.85240
 2366.00000   13.76830   73.40080  146.62680
 2366.50000   12.19310   72.14310  121.63270
 2367.00000   11.30920   70.86510  119.07780
 2367.50000   11.24150   69.48900  118.72860
 2368.00000   11.96220   68.62680  117.10530
 2368.50000   13.06490   68.40050  114.46670
 2369.00000   14.39350   67.68820  114.31490
 2369.50000   15.07490   66.51840  115.27120
 2370.00000   16.19800   67.19670  118.98570
 2370.50000   21.54920   69.90750  124.01090
 2371.00000   34.50830   71.97870  129.81290
 2371.50000   49.27210   73.62320  134.26020
 2372.00000   54.90650   74.80070  132.71100
 2372.50000   46.00180   74.91560  130.42910
 2373.00000   32.09490   73.84740  126.87770
 2373.50000   18.94280   71.70110  122.60930
 2374.00000   11.92820   69.40830  119.24510
 2374.50000    9.05930   68.62350  117.71250
 2375.00000    8.23610   68.75850  116.83040
 2375.50000    8.14320   68.77370  114.90590
 2376.00000    9.24790   68.80260  112.16660
 2376.50000   14.14430   68.34770  109.12820
 2377.00000   23.08160   66.72740  106.07880
 2377.50000   40.48490   64.71920  105.48270
 2378.00000   59.37640   62.99740  109.74640
 2378.50000   74.99630   62.53770  115.41230
 2379.00000   87.30830   64.29250  121.14970
 2379.50000   94.64530   66.78930  125.36710
 2380.00000   94.15220   69.32800  126.05190
 2380.50000   83.96970   70.92060  125.63220
 2381.00000   62.63850   70.56830  124.83340
 2381.50000   37.96230   68.92660  122.52710
 2382.00000   20.91560   67.91340  120.77860
 2382.50000   12.70790   67.37710  120.31580
