~Version ---------------------------------------------------
VERS.   2.0 : CWLS log ASCII Standard -VERSION 2.0
WRAP.    NO : One line per depth step
DLM . SPACE : Column Data Section Delimiter
~Well ------------------------------------------------------
STRT .F                1849.0 : START DEPTH
STOP .F                5060.0 : STOP DEPTH
STEP .F                   0.5 : STEP
NULL .               -9999.25 : NULL VALUE
COMP .                        : COMPANY
WELL .                        : WELL
FLD  .                        : FIELD
LOC  .                        : LOCATION
PROV .                        : PROVINCE
CNTY .                        : COUNTY
STAT .                        : STATE
CTRY .                        : COUNTRY
SRVC .                        : SERVICE COMPANY
DATE .                        : DATE
UWI  .                        : UNIQUE WELL ID
API  .                        : API NUMBER
SLAT .WGS84 2.684473877817396 : SURFACE LATITUDE
SLON .WGS84 7.151278803442992 : SURFACE LONGITUDE
DATUM.F                   nan : DEPTH DATUM ELEV
~Curve Information -----------------------------------------
DEPT   .F     : 1 MEASURED DEPTH
GR_EDTC.GAPI  : GAMMA RAY
DTCO   .US/F  : DELTA-T COMPRESSIONAL
DTSM   .US/F  : DELTA-T SHEAR
~Params ----------------------------------------------------
~Other -----------------------------------------------------
~ASCII -----------------------------------------------------
# ...
 2917.00000   26.53710   72.18700  160.98890
 2917.50000   21.57720   69.24090  146.30960
 2918.00000   17.91360   67.01500  133.94830
 2918.50000   17.57840   65.63400  123.61360
 2919.00000   20.11420   65.58510  122.22740
 2919.50000   24.76380   65.94260  122.81710
 2920.00000   30.80810   66.56400  130.43590
 2920.50000   34.60320   68.86020  138.22870
 2921.00000   37.02920   72.33910  147.34630
 2921.50000   40.45120   80.48020  157.45020
 2922.00000   45.76500   85.30320  167.55410
 2922.50000   51.30710   87.73380  176.69820
 2923.00000   54.79630   89.18960  182.42400
 2923.50000   56.06930   90.17700  191.39230
 2924.00000   56.56350   91.12250  202.27450
 2924.50000   56.72070   92.48530  211.76050
 2925.00000   56.01940   94.62960  220.16000
 2925.50000   54.50130   98.36070  234.07490
 2926.00000   52.78670  102.98560  237.60910
 2926.50000   51.86200  106.03630  237.90300
 2927.00000   50.68180  106.71620  233.66090
 2927.50000   47.89100  107.41510  215.83510
 2928.00000   45.24420  107.92360  193.46860
 2928.50000   44.91240  106.10590  172.94790
 2929.00000   45.81920  103.24400  161.31180
 2929.50000   47.30400   96.03850  151.40860
 2930.00000   46.72010   79.24260  146.32180
 2930.50000   44.23680   67.62210  141.23500
 2931.00000   39.52810   61.51400  138.98890
 2931.50000   34.56070   68.58230  148.25240
 2932.00000   30.76350   79.30880  159.18050
 2932.50000   30.72940   83.17300  172.49920
 2933.00000   34.74830   86.13130  178.84680
 2933.50000   40.47650   86.65830  177.53760
 2934.00000   45.58250   83.61250  171.59750
 2934.50000   47.11200   78.75790  145.65690
 2935.00000   45.35110   73.88170  125.67490
 2935.50000   41.35120   68.24120  114.45640
 2936.00000   36.12860   64.45700  109.88580
 2936.50000   34.97290   63.26240  106.52240
 2937.00000   36.04850   62.72290  105.48200
 2937.50000   39.33540   62.37130  104.90720
 2938.00000   43.21130   62.81400  104.60120
 2938.50000   45.25020   63.58010  104.51870
 2939.00000   45.22820   64.20170  108.04210
 2939.50000   44.89990   64.48640  110.62130
 2940.00000   43.56880   64.75340  111.43420
 2940.50000   41.80610   65.20860  112.56250
 2941.00000   39.19170   65.97910  113.66930
 2941.50000   36.73220   66.51900  113.50590
 2942.00000   36.01970   66.75580  113.43910
 2942.50000   35.93250   66.85610  113.69940
 2943.00000   36.50090   66.86880  114.95850
 2943.50000   37.74140   67.18010  115.25250
 2944.00000   37.59840   67.60770  116.15340
 2944.50000   37.29770   68.13900  118.20510
 2945.00000   36.31590   68.59300  119.44470
 2945.50000   36.12540   68.64660  120.37700
 2946.00000   37.44630   68.63420  121.32930
 2946.50000   39.00260   68.72060  124.75090
 2947.00000   39.56780   69.11120  128.94470
 2947.50000   40.60730   70.20770  132.14130
 2948.00000   41.69080   72.41570  135.79260
 2948.50000   42.35200   75.41550  144.49930
 2949.00000   42.65960   77.69370  153.20590
 2949.50000   43.41060   79.55700  158.96450
 2950.00000   43.34490   79.97050  155.19890
 2950.50000   43.30650   76.83750  148.82920
 2951.00000   43.32270   72.81310  136.91030
 2951.50000   45.28120   65.54420  122.46330
 2952.00000   45.40700   60.16820  116.58370
 2952.50000   42.75460   56.95270  115.83520
 2953.00000   39.70320   55.05460  118.94120
 2953.50000   37.70960   59.01770  126.85340
 2954.00000   40.31860   65.66420  159.01550
 2954.50000   44.93390   67.06250  159.79310
 2955.00000   50.19430   63.27180  132.98280
 2955.50000   49.49710   54.81980  117.23090
 2956.00000   46.42820   51.49780  120.97390
 2956.50000   38.34100   50.08260  125.70470
 2957.00000   26.93490   49.86050  125.51750
 2957.50000   14.46370   50.43140  116.40420
 2958.00000    7.69860   50.49570  103.39970
 2958.50000    3.67240   50.19490   94.29030
 2959.00000    3.32330   49.83920   91.61860
 2959.50000    3.57960   49.00200   90.14390
 2960.00000    3.49470   48.48870   89.13490
 2960.50000    3.33860   48.11830   88.36830
 2961.00000    3.56950   48.35840   88.06250
 2961.50000    3.89030   47.60130   87.87780
 2962.00000    4.16230   48.96280   92.30670
 2962.50000    5.85420   52.95390  114.40410
 2963.00000    8.24850   53.34110  129.43700
 2963.50000   13.53560   53.54590  138.58250
 2964.00000   21.03650   58.52930  141.61770
 2964.50000   27.68890   65.40170  142.04770
 2965.00000   31.54980   69.10320  140.58730
 2965.50000   32.08660   69.29570  139.01070
 2966.00000   32.59040   68.26390  138.17160
 2966.50000   35.89740   67.14810  136.40340
 2967.00000   41.95150   66.81150  132.97580
 2967.50000   46.81580   67.58580  129.54820
 2968.00000   49.46340   67.46900  126.12840
 2968.50000   48.25280   66.81890  122.01900
 2969.00000   44.64880   66.89490  118.11280
 2969.50000   40.13010   66.58480  117.25600
 2970.00000   37.33910   66.12670  116.58940
 2970.50000   36.32340   67.01970  114.35480
 2971.00000   36.64840   67.88840  113.39140
 2971.50000   38.29380   67.01440  113.52500
 2972.00000   42.35820   64.80360  127.13990
 2972.50000   44.06700   62.17930  142.18060
 2973.00000   43.21260   60.48130  154.53820
 2973.50000   42.57800   60.45630  163.35580
 2974.00000   44.56660   76.11200  170.63240
 2974.50000   48.03540   88.59090  176.37700
 2975.00000   50.58700   98.08130  179.24970
 2975.50000   51.32270   99.68030  182.64410
 2976.00000   49.73420   98.87070  184.92380
 2976.50000   46.30420   96.51670  179.57440
 2977.00000   46.19580   92.56350  162.07370
 2977.50000   49.67800   89.83840  150.30000
 2978.00000   55.91480   88.34060  151.45900
 2978.50000   58.20750   87.30210  154.33850
 2979.00000   60.07400   87.05930  160.38920
 2979.50000   59.80330   86.23640  162.64790
 2980.00000   58.14800   85.50250  162.86740
 2980.50000   57.38570   85.07430  162.92920
 2981.00000   57.76570   84.97020  163.38130
 2981.50000   57.31440   85.73610  165.81390
 2982.00000   56.29470   90.26050  175.63790
 2982.50000   55.39290   94.14460  191.59300
 2983.00000   55.22660   95.30370  198.46760
 2983.50000   54.20910   90.72750  181.27560
 2984.00000   48.44910   81.93310  153.81700
 2984.50000   42.89200   77.61850  134.91990
 2985.00000   39.40610   77.47020  120.10150
 2985.50000   40.42320   77.91660  114.36690
 2986.00000   42.47770   72.99060  112.99270
 2986.50000   43.05090   68.43330  112.10900
 2987.00000   42.46060   62.19230  115.88790
 2987.50000   41.99250   61.63980  125.92210
 2988.00000   41.09630   61.54960  168.91350
 2988.50000   38.20460   61.24740  197.00690
 2989.00000   34.55240   58.87210  198.26950
 2989.50000   32.36170   55.62540  194.25430
 2990.00000   29.18000   53.54700  183.44150
 2990.50000   25.78380   52.68250  156.78270
 2991.00000   18.34080   51.70730  115.36250
 2991.50000   11.58360   52.35840   90.24920
 2992.00000    7.68540   55.26420   91.23310
 2992.50000    5.58180   57.34990   95.19520
 2993.00000    5.86210   59.01210   99.15730
 2993.50000    9.19700   60.35460  106.19130
 2994.00000   17.56590   63.40350  116.23200
 2994.50000   28.46580   67.46370  126.27270
 2995.00000   39.05930   71.62510  129.48780
 2995.50000   44.71090   76.19990  130.94720
 2996.00000   47.68410   78.55480  132.58110
 2996.50000   46.74440   78.04460  133.26210
 2997.00000   44.51300   77.06360  133.36840
 2997.50000   43.66570   77.35040  131.88140
 2998.00000   43.95390   79.08450  132.05620
 2998.50000   45.07310   81.81380  138.11720
 2999.00000   44.31090   84.25940  170.27230
 2999.50000   43.08850   85.23400  195.36750
 3000.00000   42.86610   82.27830  196.62080
 3000.50000   44.01320   78.65580  181.86560
 3001.00000   44.65120   73.58760  162.48110
 3001.50000   42.87540   67.51930  140.57050
 3002.00000   38.28800   58.54770  118.71290
 3002.50000   32.08260   55.10920  108.88190
 3003.00000   23.86330   53.44440  103.60990
 3003.50000   14.65980   52.40300  100.70540
 3004.00000    8.94180   51.88580   95.72440
 3004.50000    5.62240   51.52490   92.08780
 3005.00000    5.41790   51.69960   91.52070
 3005.50000    6.36170   52.00940   92.12570
