~Version ---------------------------------------------------
VERS.   2.0 : CWLS log ASCII Standard -VERSION 2.0
WRAP.    NO : One line per depth step
DLM . SPACE : Column Data Section Delimiter
~Well ------------------------------------------------------
STRT .F                1849.0 : START DEPTH
STOP .F                5060.0 : STOP DEPTH
STEP .F                   0.5 : STEP
NULL .               -9999.25 : NULL VALUE
COMP .                        : COMPANY
WELL .                        : WELL
FLD  .                        : FIELD
LOC  .                        : LOCATION
PROV .                        : PROVINCE
CNTY .                        : COUNTY
STAT .                        : STATE
CTRY .                        : COUNTRY
SRVC .                        : SERVICE COMPANY
DATE .                        : DATE
UWI  .                        : UNIQUE WELL ID
API  .                        : API NUMBER
SLAT .WGS84 2.684473877817396 : SURFACE LATITUDE
SLON .WGS84 7.151278803442992 : SURFACE LONGITUDE
DATUM.F                   nan : DEPTH DATUM ELEV
~Curve Information -----------------------------------------
DEPT   .F     : 1 MEASURED DEPTH
GR_EDTC.GAPI  : GAMMA RAY
DTCO   .US/F  : DELTA-T COMPRESSIONAL
DTSM   .US/F  : DELTA-T SHEAR
~Params ----------------------------------------------------
~Other -----------------------------------------------------
~ASCII -----------------------------------------------------
# ...
 4341.00000   10.85700   50.47010   90.89190
 4341.50000   12.19580   50.97570   91.56450
 4342.00000   13.12490   51.14710   90.98530
 4342.50000   14.96370   50.97690   90.54510
 4343.00000   17.04880   50.33390   90.55890
 4343.50000   18.03630   49.86950   90.58190
 4344.00000   17.20030   49.77660   90.58190
 4344.50000   14.87490   49.76310   90.59130
 4345.00000   13.19300   49.74720   90.83910
 4345.50000   11.70060   50.07830   91.75940
 4346.00000   10.70910   51.09840   92.26160
 4346.50000   10.09940   51.94320   92.76480
 4347.00000    9.61430   52.33590   93.19780
 4347.50000    9.95280   52.30700   93.53240
 4348.00000   10.86580   52.12330   93.86710
 4348.50000   11.83200   51.64790   93.84070
 4349.00000   12.10520   50.99960   94.12580
 4349.50000   11.07140   50.86690   94.38900
 4350.00000    9.65280   51.12850   94.46710
 4350.50000    8.24580   51.72030   94.50880
 4351.00000    8.25620   52.33540   94.85420
 4351.50000    9.27890   53.03640   95.46370
 4352.00000   10.78950   53.34070   95.91900
 4352.50000   11.88150   53.29140   95.52340
 4353.00000   11.76820   52.95630   95.09330
 4353.50000   10.75610   52.38820   94.66650
 4354.00000    9.45290   52.00190   94.03720
 4354.50000    8.85390   51.69820   93.63110
 4355.00000    9.09830   51.47650   93.79010
 4355.50000   10.32660   51.54160   94.07600
 4356.00000   11.76780   51.83830   94.12700
 4356.50000   11.78540   52.17280   94.16000
 4357.00000   10.76830   52.20360   94.20360
 4357.50000    9.84410   51.88620   94.22460
 4358.00000    9.59040   51.39790   94.04120
 4358.50000    9.60830   51.14650   93.73670
 4359.00000   10.58720   51.47100   94.02810
 4359.50000   10.93600   52.78330   94.49740
 4360.00000   10.47730   54.57520   96.09420
 4360.50000    9.04810   55.23870   98.44180
 4361.00000    8.42810   54.79940  100.91750
 4361.50000    8.40020   53.67190  101.08650
 4362.00000    8.39570   52.47040  101.22410
 4362.50000    7.94820   52.16540  101.27560
 4363.00000    7.36870   52.59370  102.49040
 4363.50000    6.79080   53.87580  105.73310
 4364.00000    7.17990   55.27730  111.93740
 4364.50000    7.68240   56.50510  112.89820
 4365.00000    8.07680   57.12760  111.02720
 4365.50000    8.23370   56.48090  107.41660
 4366.00000    8.31420   54.59130  102.96610
 4366.50000    8.67500   52.59980  100.47070
 4367.00000    9.83320   51.36440   98.91180
 4367.50000   10.04900   51.28560   96.96020
 4368.00000    8.99830   51.71730   95.90380
 4368.50000    7.66070   52.23060   95.20070
 4369.00000    7.11990   52.41430   95.26230
 4369.50000    6.77820   52.20700   95.70500
 4370.00000    6.48860   51.68940   96.40280
 4370.50000    6.22330   51.37310   97.28520
 4371.00000    6.87470   51.08680   97.94310
 4371.50000    7.38810   50.99910   98.21090
 4372.00000    7.24450   51.51620   97.72450
 4372.50000    6.80730   52.04920   96.77890
 4373.00000    6.97780   52.29340   97.55500
 4373.50000    7.94640   52.40370   97.90870
 4374.00000    9.11160   52.17070   97.66840
 4374.50000    9.46640   51.53630   96.50490
 4375.00000    8.66490   50.60750   95.73890
 4375.50000    7.45360   50.24900   94.96210
 4376.00000    7.24050   50.39260   94.64630
 4376.50000    7.43450   50.82910   94.65810
 4377.00000    8.47530   50.97260   95.04720
 4377.50000    9.64080   51.08050   96.06680
 4378.00000   10.52860   51.74060   97.13160
 4378.50000   10.66960   52.25170   97.34940
 4379.00000    9.66320   52.11020   97.42630
 4379.50000    8.97530   51.73740   97.69230
 4380.00000    8.65940   51.56420   98.54860
 4380.50000    8.53160   52.51260   99.97850
 4381.00000    8.87860   55.18870  101.80840
 4381.50000    9.82990   57.52150  104.22470
 4382.00000   11.13160   59.19430  106.88820
 4382.50000   12.25110   59.87870  108.01160
 4383.00000   12.72290   59.91600  108.07870
 4383.50000   12.83040   58.97410  107.25790
 4384.00000   12.74340   57.76010  105.21850
 4384.50000   12.20130   56.84970  102.57910
 4385.00000   10.96700   55.62670  101.10350
 4385.50000    9.33780   55.06760  100.31840
 4386.00000    8.56950   55.72640  100.40560
 4386.50000    8.39860   58.00660  101.10480
 4387.00000    8.74390   59.23420  101.80410
 4387.50000    8.36840   59.70560  102.49830
 4388.00000    7.71040   60.07430  103.42330
 4388.50000    7.31040   60.46190  104.27940
 4389.00000    7.31450   60.50360  103.91620
 4389.50000    7.62360   60.28300  103.38510
 4390.00000    8.46890   59.82960  103.34390
 4390.50000    9.19800   59.45110  103.57970
 4391.00000    9.59620   58.93700  104.41610
 4391.50000    9.95020   58.02300  105.33080
 4392.00000   10.44260   58.02400  106.16790
 4392.50000   10.84610   58.93220  106.54890
 4393.00000   11.04710   59.94300  106.83520
 4393.50000   11.43040   60.18450  107.12160
 4394.00000   11.78810   60.28920  107.24230
 4394.50000   12.24760   60.39940  107.16150
 4395.00000   13.06140   60.45390  107.08070
 4395.50000   13.97280   60.42310  106.55420
 4396.00000   14.53610   60.28360  105.86730
 4396.50000   14.78280   59.69030  105.17700
 4397.00000   14.29010   58.55720  104.47080
 4397.50000   13.41600   55.77290  103.82840
 4398.00000   12.00370   52.88780  103.92270
 4398.50000   10.74330   51.47450  104.27910
 4399.00000   10.15330   52.09660  104.22060
 4399.50000    9.64250   53.31560  105.11100
 4400.00000    9.25940   54.63870  106.11330
 4400.50000    9.05760   54.74650  106.89150
 4401.00000    9.33740   53.78840  107.59700
 4401.50000    9.79900   52.48640  107.54620
 4402.00000   10.10170   51.71740  107.22520
 4402.50000   10.36140   51.12970  106.72420
 4403.00000   10.98620   50.84190  106.41570
 4403.50000   11.56070   50.74240  106.54020
 4404.00000   12.09050   49.89610  106.67030
 4404.50000   12.65060   49.06950  106.53580
 4405.00000   13.49060   49.38550  106.36720
 4405.50000   13.98470   50.40890  106.25420
 4406.00000   13.08520   51.82420  106.10030
 4406.50000   12.18090   53.01760  105.94630
 4407.00000   11.34210   54.03350  105.79240
 4407.50000   10.88370   55.04150  105.59670
 4408.00000   10.31170   56.55470  105.13180
 4408.50000    9.61310   58.04530  104.47240
 4409.00000    8.88350   58.79600  104.19750
 4409.50000    8.74530   58.19440  103.83360
 4410.00000    9.12440   57.06010  103.31880
 4410.50000    9.26240   56.12150  102.97660
 4411.00000    8.78600   56.02550  102.94610
 4411.50000    8.83960   56.18690  102.75400
 4412.00000    9.38810   56.23610  102.59190
 4412.50000   10.14290   56.27500  102.62880
 4413.00000    9.92090   56.35960  103.02740
 4413.50000    8.83420   56.19270  102.77510
 4414.00000    7.61580   55.37910  101.70760
 4414.50000    7.00540   54.19600  100.22260
 4415.00000    7.46430   53.27000   98.86210
 4415.50000    8.49870   52.72100   97.67650
 4416.00000    8.63520   52.32280   96.63970
 4416.50000    7.93430   51.93120   95.64440
 4417.00000    6.97610   51.21600   94.99250
 4417.50000    6.42660   49.97930   94.47460
 4418.00000    6.50860   48.82940   94.02020
 4418.50000    6.99990   48.58680   93.72620
 4419.00000    7.46380   48.62080   93.82880
 4419.50000    7.50100   49.89510   94.58790
 4420.00000    7.44560   52.18070   94.91080
 4420.50000    7.52230   54.03050   95.02340
 4421.00000    8.68820   54.40180   95.70470
 4421.50000    9.44060   54.11940   96.40780
 4422.00000    9.65200   53.40290   96.64440
 4422.50000    9.22910   53.22910   96.53590
 4423.00000    9.28560   53.60230   96.35490
 4423.50000    9.44540   53.54900   95.90240
 4424.00000    9.12640   52.99470   95.86680
 4424.50000    8.29100   51.50930   96.23870
 4425.00000    7.45000   50.32810   96.94860
 4425.50000    7.50230   49.91250   97.96280
 4426.00000    8.31180   50.35350   99.00310
 4426.50000    8.93110   51.41230   99.81530
 4427.00000    9.56980   53.18860  100.83420
 4427.50000   10.15620   54.69610  101.48640
 4428.00000   10.15130   55.67140  102.26940
 4428.50000    9.78250   56.21530  102.91650
 4429.00000    8.74280   56.32860  103.22870
 4429.50000    8.07410   55.98800  102.07620
