~Version ---------------------------------------------------
VERS.   2.0 : CWLS log ASCII Standard -VERSION 2.0
WRAP.    NO : One line per depth step
DLM . SPACE : Column Data Section Delimiter
~Well ------------------------------------------------------
STRT .F                1849.0 : START DEPTH
STOP .F                5060.0 : STOP DEPTH
STEP .F                   0.5 : STEP
NULL .               -9999.25 : NULL VALUE
COMP .                        : COMPANY
WELL .                        : WELL
FLD  .                        : FIELD
LOC  .                        : LOCATION
PROV .                        : PROVINCE
CNTY .                        : COUNTY
STAT .                        : STATE
CTRY .                        : COUNTRY
SRVC .                        : SERVICE COMPANY
DATE .                        : DATE
UWI  .                        : UNIQUE WELL ID
API  .                        : API NUMBER
SLAT .WGS84 2.684473877817396 : SURFACE LATITUDE
SLON .WGS84 7.151278803442992 : SURFACE LONGITUDE
DATUM.F                   nan : DEPTH DATUM ELEV
~Curve Information -----------------------------------------
DEPT   .F     : 1 MEASURED DEPTH
GR_EDTC.GAPI  : GAMMA RAY
DTCO   .US/F  : DELTA-T COMPRESSIONAL
DTSM   .US/F  : DELTA-T SHEAR
~Params ----------------------------------------------------
~Other -----------------------------------------------------
~ASCII -----------------------------------------------------
 1849.00000   43.66440   -9999.25   -9999.25
 1849.50000   42.82080   -9999.25   -9999.25
 1850.00000   41.85650   -9999.25   -9999.25
 1850.50000   41.77810   -9999.25   -9999.25
 1851.00000   42.57910   -9999.25   -9999.25
 1851.50000   41.86340   -9999.25   -9999.25
 1852.00000   41.03520   -9999.25   -9999.25
 1852.50000   40.17040   -9999.25   -9999.25
 1853.00000   39.49440   -9999.25   -9999.25
 1853.50000   38.65320   -9999.25   -9999.25
 1854.00000   39.43520   -9999.25   -9999.25
 1854.50000   41.15190   -9999.25   -9999.25
 1855.00000   42.48610   -9999.25   -9999.25
 1855.50000   42.86770   -9999.25   -9999.25
 1856.00000   42.23590   -9999.25   -9999.25
 1856.50000   42.12910   -9999.25   -9999.25
 1857.00000   44.12770   -9999.25   -9999.25
 1857.50000   45.12220   -9999.25   -9999.25
 1858.00000   44.42060   -9999.25   -9999.25
 1858.50000   41.88240   -9999.25   -9999.25
 1859.00000   38.27300   -9999.25   -9999.25
 1859.50000   35.05120   -9999.25   -9999.25
 1860.00000   34.95880   -9999.25   -9999.25
 1860.50000   36.54550   -9999.25   -9999.25
 1861.00000   38.34210   -9999.25   -9999.25
 1861.50000   37.33440   -9999.25   -9999.25
 1862.00000   35.29390   -9999.25   -9999.25
 1862.50000   34.36870   -9999.25   -9999.25
 1863.00000   34.19300   -9999.25   -9999.25
 1863.50000   34.13420   -9999.25   -9999.25
 1864.00000   33.69170   -9999.25   -9999.25
 1864.50000   32.24750   -9999.25   -9999.25
 1865.00000   29.92070   -9999.25   -9999.25
 1865.50000   27.85670   -9999.25   -9999.25
 1866.00000   26.58050   -9999.25   -9999.25
 1866.50000   27.11400   -9999.25   -9999.25
 1867.00000   29.71410   -9999.25   -9999.25
 1867.50000   35.01050   -9999.25   -9999.25
 1868.00000   39.15770   68.64560  142.34230
 1868.50000   40.73880   76.35610  149.71650
 1869.00000   42.07330   85.34530  155.54790
 1869.50000   44.46860   91.70530  159.98340
 1870.00000   47.70480   94.45470  159.12980
 1870.50000   50.35400   91.23960  156.61800
 1871.00000   53.17920   82.61850  151.96480
 1871.50000   55.59340   69.90960  138.82310
 1872.00000   53.05560   62.70120  128.46200
 1872.50000   45.63060   55.72730  118.96830
 1873.00000   34.56890   54.49230  109.47470
 1873.50000   20.86140   52.89910  102.58400
 1874.00000    9.83420   51.17870   98.35790
 1874.50000    5.00800   50.36160   94.44650
 1875.00000    4.01720   50.29960   93.59600
 1875.50000    4.21970   50.33890   93.42430
 1876.00000    4.69480   50.23510   93.35800
 1876.50000    5.35660   50.04340   93.18460
 1877.00000    6.28540   50.01280   92.96060
 1877.50000    7.93340   50.01270   92.73940
 1878.00000    8.76520   49.91530   92.40800
 1878.50000    8.77720   49.65900   92.07320
 1879.00000    7.43460   49.46630   92.02330
 1879.50000    6.28650   49.25610   92.20230
 1880.00000    5.63370   49.27690   92.66060
 1880.50000    6.02820   49.34060   92.92840
 1881.00000    7.03690   49.53710   93.14620
 1881.50000    8.13780   49.63590   93.78730
 1882.00000    8.65510   49.60090   94.70460
 1882.50000    8.86220   49.54580   97.55780
 1883.00000    9.29790   49.47690  100.21800
 1883.50000    9.90880   49.38470  101.65070
 1884.00000    9.83950   50.10890  103.08870
 1884.50000    9.11370   53.45520  105.41450
 1885.00000    7.91310   56.84920  107.64380
 1885.50000    6.77700   60.48650  109.34260
 1886.00000    6.25920   62.90420  114.98350
 1886.50000    5.94840   64.52580  116.82030
 1887.00000    5.66960   65.84660  117.87980
 1887.50000    5.39240   66.24800  118.17320
 1888.00000    4.76610   66.33690  118.75260
 1888.50000    4.26800   66.61850  119.27740
 1889.00000    4.21930   67.10470  119.42770
 1889.50000    4.64910   67.41900  119.43350
 1890.00000    5.07270   67.62750  119.65590
 1890.50000    5.40680   67.62360  119.96220
 1891.00000    5.45940   67.51540  119.99320
 1891.50000    5.78880   67.17600  119.49600
 1892.00000    6.97630   66.78640  119.28100
 1892.50000    8.08010   66.67090  119.20910
 1893.00000    7.80530   66.74230  118.99540
 1893.50000    6.83100   66.81790  119.21870
 1894.00000    6.54260   66.94280  119.43540
 1894.50000    6.80240   67.37570  119.68410
 1895.00000    7.11550   67.44940  119.79810
 1895.50000    6.60150   67.46880  119.96810
 1896.00000    5.21350   67.53170  120.15210
 1896.50000    4.09580   67.57370  120.28830
 1897.00000    3.83480   67.47550  120.36820
 1897.50000    4.65770   67.46910  119.54460
 1898.00000    6.17240   67.55670  118.50730
 1898.50000    7.07100   67.72970  118.18610
 1899.00000    6.80030   67.86100  117.99800
 1899.50000    5.91490   67.95490  118.29360
 1900.00000    4.95380   67.85490  118.57070
 1900.50000    4.17280   67.65740  118.79670
 1901.00000    3.68400   67.53570  118.97490
 1901.50000    3.72510   67.57910  119.14990
 1902.00000    4.01060   67.66130  119.09950
 1902.50000    4.36550   67.69560  118.95280
 1903.00000    4.80080   67.55370  118.81350
 1903.50000    5.25940   67.49010  118.83490
 1904.00000    5.44830   67.47640  119.07480
 1904.50000    5.50690   67.45940  119.41950
 1905.00000    5.59810   67.48220  119.75430
 1905.50000    5.58380   67.49930  119.43090
 1906.00000    5.25760   67.51810  119.13920
 1906.50000    4.82470   67.56420  118.86610
 1907.00000    4.51570   67.60790  118.59590
 1907.50000    4.32110   67.68090  118.52710
 1908.00000    4.51370   67.68310  118.87060
 1908.50000    4.75750   67.61590  119.22090
 1909.00000    4.72820   67.56240  119.42940
 1909.50000    4.43170   67.50890  119.81200
 1910.00000    4.56440   67.58300  119.69480
 1910.50000    4.74930   67.70600  119.60760
 1911.00000    4.93250   67.74150  119.44780
 1911.50000    5.32170   67.73810  119.43270
 1912.00000    5.32600   67.80560  119.52950
 1912.50000    4.95920   67.86430  119.58380
 1913.00000    4.20810   67.91300  119.43860
 1913.50000    3.88870   67.85980  119.56740
 1914.00000    4.63230   67.90270  119.65840
 1914.50000    5.72510   67.90930  119.62150
 1915.00000    6.41650   67.89570  118.80100
 1915.50000    5.78180   67.97030  118.04880
 1916.00000    5.42990   68.15250  117.76830
 1916.50000    5.57770   68.12360  117.84570
 1917.00000    6.92710   67.94490  118.67930
 1917.50000    7.38470   67.82150  118.96130
 1918.00000    6.97710   67.67630  117.92150
 1918.50000    6.02050   67.54740  117.06860
 1919.00000    5.35500   67.52000  117.51590
 1919.50000    4.43570   67.58770  117.85420
 1920.00000    4.09040   67.89750  117.08270
 1920.50000    4.23500   68.18840  115.97040
 1921.00000    5.44940   68.01100  115.45020
 1921.50000    6.32640   67.12250  115.21100
 1922.00000    5.84950   65.71330  115.02260
 1922.50000    5.44620   64.58920  115.79430
 1923.00000    5.60550   64.30370  117.03560
 1923.50000    5.88990   64.34340  117.78200
 1924.00000    6.20810   65.24030  118.20670
 1924.50000    6.49300   66.84620  118.55290
 1925.00000    6.17990   67.66820  119.20600
 1925.50000    5.82970   67.86410  119.31080
 1926.00000    5.72170   68.03480  119.23250
 1926.50000    6.46260   68.19340  118.52490
 1927.00000    7.00980   68.18620  117.56110
 1927.50000    6.42970   67.84420  117.19420
 1928.00000    5.10470   66.95840  117.13580
 1928.50000    4.76880   65.90260  117.05140
 1929.00000    4.75220   65.26320  117.00210
 1929.50000    4.99370   65.14120  116.56740
 1930.00000    4.44600   65.69720  115.98660
 1930.50000    4.11130   66.87730  115.70230
 1931.00000    4.74530   67.77850  115.48090
 1931.50000    5.41650   68.22510  114.88260
 1932.00000    5.53990   68.61110  113.41710
 1932.50000    5.26810   68.59620  111.07780
 1933.00000    5.14950   67.65090  108.99040
 1933.50000    5.12380   65.96890  107.39510
 1934.00000    4.85250   62.98500  106.85650
 1934.50000    4.55570   59.99730  107.26320
 1935.00000    4.64690   58.06570  108.55350
 1935.50000    4.95820   57.01570  109.77570
 1936.00000    5.09930   57.04990  109.39600
 1936.50000    4.71550   58.02260  109.33980
 1937.00000    4.20980   59.49510  110.03440
 1937.50000    3.96570   61.34520  111.11410
