~Version ---------------------------------------------------
VERS.   2.0 : CWLS log ASCII Standard -VERSION 2.0
WRAP.    NO : One line per depth step
DLM . SPACE : Column Data Section Delimiter
~Well ------------------------------------------------------
STRT .F                1849.0 : START DEPTH
STOP .F                5060.0 : STOP DEPTH
STEP .F                   0.5 : STEP
NULL .               -9999.25 : NULL VALUE
COMP .                        : COMPANY
WELL .                        : WELL
FLD  .                        : FIELD
LOC  .                        : LOCATION
PROV .                        : PROVINCE
CNTY .                        : COUNTY
STAT .                        : STATE
CTRY .                        : COUNTRY
SRVC .                        : SERVICE COMPANY
DATE .                        : DATE
UWI  .                        : UNIQUE WELL ID
API  .                        : API NUMBER
SLAT .WGS84 2.684473877817396 : SURFACE LATITUDE
SLON .WGS84 7.151278803442992 : SURFACE LONGITUDE
DATUM.F                   nan : DEPTH DATUM ELEV
~Curve Information -----------------------------------------
DEPT   .F     : 1 MEASURED DEPTH
GR_EDTC.GAPI  : GAMMA RAY
DTCO   .US/F  : DELTA-T COMPRESSIONAL
DTSM   .US/F  : DELTA-T SHEAR
~Params ----------------------------------------------------
~Other -----------------------------------------------------
~ASCII -----------------------------------------------------
# ...
 3095.00000   23.68420   73.23080  114.11410
 3095.50000   17.46420   71.41580  117.72810
 3096.00000   13.20880   68.13610  125.81770
 3096.50000    9.98030   66.16620  128.63440
 3097.00000    8.20960   68.51050  130.40520
 3097.50000    6.86740   71.13980  131.93640
 3098.00000    6.69490   71.65720  131.78220
 3098.50000    6.86670   68.75660  126.48500
 3099.00000    8.01040   65.01370  120.90880
 3099.50000    8.85870   61.29320  115.50960
 3100.00000    8.61320   57.98410  110.11030
 3100.50000    7.41210   55.58640  104.77520
 3101.00000    6.79850   53.32200  103.34420
 3101.50000    6.88000   52.67420  104.83500
 3102.00000    7.19770   53.99160  108.22880
 3102.50000    7.39150   56.37670  113.07900
 3103.00000    7.54840   60.91340  118.22630
 3103.50000    8.23470   65.62290  123.57010
 3104.00000    8.99120   71.27620  128.91380
 3104.50000    9.87560   74.44150  136.00070
 3105.00000   10.11530   76.94020  142.33560
 3105.50000   10.37960   78.95660  148.55910
 3106.00000   10.94270   79.51370  150.93280
 3106.50000   12.07750   81.14260  152.16960
 3107.00000   13.35150   83.79010  151.85950
 3107.50000   14.87570   85.10350  149.86380
 3108.00000   16.55270   83.23030  146.54580
 3108.50000   17.53780   76.16590  139.45850
 3109.00000   16.80780   68.04080  128.81470
 3109.50000   14.30310   65.09720  119.05820
 3110.00000   10.99840   62.50460  114.29740
 3110.50000    7.97950   60.64370  110.33060
 3111.00000    6.86420   59.05110  106.98990
 3111.50000    6.77530   58.06160  105.62350
 3112.00000    7.01160   57.12140  103.97300
 3112.50000    7.30460   55.75790  103.09830
 3113.00000    6.69120   54.02080  104.64590
 3113.50000    5.93170   53.29310  107.30700
 3114.00000    5.97780   53.82310  110.04060
 3114.50000    6.73680   55.53680  112.18240
 3115.00000    7.57700   59.05100  112.77570
 3115.50000    8.14930   61.27320  113.08340
 3116.00000    8.25650   62.05380  113.75340
 3116.50000    8.17560   61.70980  114.91530
 3117.00000    7.64950   60.30000  120.11650
 3117.50000    7.37630   63.71680  126.41640
 3118.00000    7.34830   72.79480  132.45340
 3118.50000    8.04990   76.53490  132.28600
 3119.00000   10.13120   74.18670  128.75310
 3119.50000   12.73660   70.44230  124.96110
 3120.00000   14.06530   65.60240  116.85580
 3120.50000   12.31170   60.81930  108.75050
 3121.00000   10.83510   58.18160  103.95510
 3121.50000   11.44920   56.32930  101.92380
 3122.00000   13.78090   55.66100  100.00520
 3122.50000   16.75330   54.94210   97.82810
 3123.00000   17.50290   53.70630   97.02090
 3123.50000   16.89100   53.02880  101.18930
 3124.00000   15.35590   52.43110  111.98720
 3124.50000   14.09980   52.06170  117.19440
 3125.00000   14.27170   51.04680  116.72700
 3125.50000   16.26540   45.16930  115.94860
 3126.00000   20.70850   46.24510  116.51080
 3126.50000   27.02570   52.19590  118.31300
 3127.00000   30.68880   58.31590  120.05430
 3127.50000   32.73510   64.19360  120.03520
 3128.00000   31.34950   68.05930  113.78430
 3128.50000   25.57090   69.22920  106.16540
 3129.00000   17.98020   69.64180  107.10000
 3129.50000   11.73490   69.23470  109.99280
 3130.00000    7.11760   68.40470  113.90110
 3130.50000    5.52620   67.89690  117.73210
 3131.00000    5.65900   67.81070  119.96350
 3131.50000    6.50630   68.15280  121.37430
 3132.00000    8.58720   68.83860  121.79870
 3132.50000   12.32790   69.05360  121.80710
 3133.00000   14.43250   68.56390  121.30800
 3133.50000   14.16520   68.12480  120.97070
 3134.00000   12.11090   70.37180  123.17050
 3134.50000    9.38420   77.13660  130.54810
 3135.00000    7.11730   82.44700  137.72470
 3135.50000    6.78330   81.62040  141.70180
 3136.00000    8.57250   74.80730  143.07150
 3136.50000   10.94300   62.45680  134.78610
 3137.00000   11.92800   55.25930  116.79210
 3137.50000   10.56140   54.43570  103.34380
 3138.00000    7.58920   54.22270   97.08910
 3138.50000    5.53240   53.67730   91.71240
 3139.00000    4.92660   53.18140   87.35570
 3139.50000    5.34080   53.11810   87.14640
 3140.00000    5.79350   53.40490   91.26350
 3140.50000    5.97030   53.88100   94.59100
 3141.00000    5.90370   54.47900   94.66520
 3141.50000    5.65680   55.03830   94.30880
 3142.00000    5.40390   54.90580   94.34970
 3142.50000    4.99940   53.91720   94.81100
 3143.00000    4.77900   52.71490   95.79870
 3143.50000    4.48820   51.14660   97.44960
 3144.00000    4.96410   49.49500  103.59500
 3144.50000    5.40120   47.92950  112.94060
 3145.00000    6.45890   50.02220  122.28620
 3145.50000    9.20780   60.91590  136.54890
 3146.00000   15.23220   71.25990  151.71170
 3146.50000   25.91950   78.59410  151.87930
 3147.00000   38.32600   81.47580  150.07870
 3147.50000   49.14560   82.42870  149.23010
 3148.00000   56.10940   81.38530  149.12550
 3148.50000   59.69620   80.10990  148.63430
 3149.00000   59.13170   77.96550  144.06650
 3149.50000   53.93240   74.20820  135.02130
 3150.00000   40.36870   67.70410  125.18740
 3150.50000   23.64990   66.21950  120.73060
 3151.00000   14.01940   65.83260  121.43340
 3151.50000    9.89960   65.97210  121.45960
 3152.00000    8.74320   66.52300  119.97230
 3152.50000    8.45160   66.71120  118.57540
 3153.00000    8.39640   66.54770  118.69340
 3153.50000    8.30140   66.46510  118.99000
 3154.00000    7.75300   67.84610  118.78250
 3154.50000    7.23570   70.32800  118.76660
 3155.00000    7.06340   76.08790  119.87460
 3155.50000    8.42890   82.55490  129.47660
 3156.00000   11.89550   87.75310  147.61970
 3156.50000   18.62280   91.88460  164.11900
 3157.00000   24.76500   94.61050  169.50310
 3157.50000   29.25090   91.67210  163.19560
 3158.00000   31.94780   86.12770  153.77450
 3158.50000   31.22820   82.41620  148.82590
 3159.00000   29.92600   80.65560  154.19620
 3159.50000   28.38330   81.60730  158.77420
 3160.00000   27.05340   83.21630  162.25820
 3160.50000   26.08370   84.95740  163.67370
 3161.00000   27.35260   85.34110  158.76450
 3161.50000   30.08400   83.00470  149.62070
 3162.00000   33.86560   78.37650  140.88020
 3162.50000   35.60900   75.30630  134.63190
 3163.00000   36.93970   73.21300  133.02210
 3163.50000   37.13950   72.42800  132.94950
 3164.00000   35.98280   72.49680  133.29450
 3164.50000   32.52620   73.20140  133.72370
 3165.00000   28.38080   73.61850  132.45570
 3165.50000   24.44740   73.12760  129.32840
 3166.00000   22.49840   71.84030  126.43170
 3166.50000   20.80480   70.07100  124.83000
 3167.00000   18.06020   69.23710  125.50520
 3167.50000   17.19530   69.16060  131.11010
 3168.00000   18.22660   68.66420  137.08240
 3168.50000   20.24470   67.82100  141.21160
 3169.00000   20.61810   65.90990  133.47870
 3169.50000   18.89970   63.84890  124.90250
 3170.00000   15.48960   61.69940  112.57620
 3170.50000   10.91330   59.88170  104.36060
 3171.00000    6.79160   58.00870  102.53150
 3171.50000    4.56330   56.46140  101.35190
 3172.00000    4.65860   56.28480  100.70240
 3172.50000    5.73570   56.24120   99.63690
 3173.00000    6.58010   56.22500   98.44400
 3173.50000    6.82850   56.02140   98.07350
 3174.00000    6.64960   55.31720   99.35290
 3174.50000    6.08630   54.31150  101.36740
 3175.00000    5.42750   53.59430  100.46890
 3175.50000    5.32890   54.11940   97.69850
 3176.00000    5.80160   55.11360   94.69520
 3176.50000    6.18380   55.75200   92.41740
 3177.00000    6.16880   56.00800   94.73460
 3177.50000    5.91820   57.80700  101.95270
 3178.00000    6.01410   60.83760  109.17080
 3178.50000    6.65700   62.60010  116.08680
 3179.00000    7.65960   62.23800  116.92580
 3179.50000    8.90590   61.35020  117.52840
 3180.00000    9.69280   58.97140  113.09890
 3180.50000    9.60490   55.37030  102.68720
 3181.00000    7.93580   52.86750   94.97000
 3181.50000    6.23020   51.15470   90.75090
 3182.00000    5.53950   50.15270   89.65930
 3182.50000    5.19530   48.97020   89.48680
 3183.00000    5.04720   48.29060   89.75910
 3183.50000    4.73320   48.06640   90.30050
