~Version ---------------------------------------------------
VERS.   2.0 : CWLS log ASCII Standard -VERSION 2.0
WRAP.    NO : One line per depth step
DLM . SPACE : Column Data Section Delimiter
~Well ------------------------------------------------------
STRT .F                1849.0 : START DEPTH
STOP .F                5060.0 : STOP DEPTH
STEP .F                   0.5 : STEP
NULL .               -9999.25 : NULL VALUE
COMP .                        : COMPANY
WELL .                        : WELL
FLD  .                        : FIELD
LOC  .                        : LOCATION
PROV .                        : PROVINCE
CNTY .                        : COUNTY
STAT .                        : STATE
CTRY .                        : COUNTRY
SRVC .                        : SERVICE COMPANY
DATE .                        : DATE
UWI  .                        : UNIQUE WELL ID
API  .                        : API NUMBER
SLAT .WGS84 2.684473877817396 : SURFACE LATITUDE
SLON .WGS84 7.151278803442992 : SURFACE LONGITUDE
DATUM.F                   nan : DEPTH DATUM ELEV
~Curve Information -----------------------------------------
DEPT   .F     : 1 MEASURED DEPTH
GR_EDTC.GAPI  : GAMMA RAY
DTCO   .US/F  : DELTA-T COMPRESSIONAL
DTSM   .US/F  : DELTA-T SHEAR
~Params ----------------------------------------------------
~Other -----------------------------------------------------
~ASCII -----------------------------------------------------
# ...
 2027.00000   14.69850   70.75470  126.97220
 2027.50000   15.73060   71.59590  126.76450
 2028.00000   17.26500   72.21330  126.45660
 2028.50000   18.46250   72.60570  125.24510
 2029.00000   18.13120   72.70370  123.76440
 2029.50000   17.00450   72.78700  123.41780
 2030.00000   15.86010   73.03390  123.76040
 2030.50000   14.84270   73.21720  124.31070
 2031.00000   14.96150   73.32010  124.86430
 2031.50000   16.46470   72.94660  125.25830
 2032.00000   20.99160   72.06520  125.93650
 2032.50000   27.99670   71.21840  127.59570
 2033.00000   34.01910   70.71250  130.02810
 2033.50000   38.21510   70.81980  133.32370
 2034.00000   40.01070   74.07260  137.92580
 2034.50000   41.52080   77.43070  141.56390
 2035.00000   42.82360   80.03930  139.24290
 2035.50000   44.37070   79.41430  133.30800
 2036.00000   45.84200   77.19940  127.31300
 2036.50000   45.91160   73.54950  123.43860
 2037.00000   44.78560   69.56340  120.27480
 2037.50000   44.21800   67.02830  119.05660
 2038.00000   43.54910   66.30190  118.81850
 2038.50000   43.82670   66.38520  119.06450
 2039.00000   44.82130   67.11660  120.14040
 2039.50000   46.07880   67.91990  122.19170
 2040.00000   43.93850   68.96720  124.71140
 2040.50000   35.90040   70.08740  126.72500
 2041.00000   27.20830   71.15930  129.00610
 2041.50000   21.81710   72.34770  131.94250
 2042.00000   23.57510   73.27070  134.38290
 2042.50000   29.27800   74.41460  134.84310
 2043.00000   36.09340   74.41910  134.87700
 2043.50000   39.95100   73.73830  134.19840
 2044.00000   36.99340   72.92660  131.41660
 2044.50000   32.44190   72.14660  128.49310
 2045.00000   28.43110   71.39250  126.02160
 2045.50000   24.44300   70.58020  124.28420
 2046.00000   21.45020   69.77080  122.92480
 2046.50000   18.09570   68.55970  122.12080
 2047.00000   15.23370   67.78730  122.09140
 2047.50000   12.56050   67.73910  123.10130
 2048.00000   10.97830   68.81360  124.62700
 2048.50000   10.62650   70.60570  127.14120
 2049.00000   11.86090   72.20070  129.77520
 2049.50000   14.95970   73.78770  131.70370
 2050.00000   18.90030   73.78770  130.92000
 2050.50000   21.34290   73.25980  129.14600
 2051.00000   21.19750   72.54430  127.03840
 2051.50000   19.05790   71.30610  124.53140
 2052.00000   17.02800   69.61070  123.05230
 2052.50000   15.07760   68.29840  121.87500
 2053.00000   14.33230   67.37150  121.22320
 2053.50000   14.11160   66.64190  120.46250
 2054.00000   13.45750   66.16750  120.24850
 2054.50000   12.11700   66.02430  120.18070
 2055.00000   10.56420   66.55280  119.98540
 2055.50000    9.31170   67.26420  120.04100
 2056.00000    8.18430   67.56070  120.25010
 2056.50000    7.04380   67.69360  120.56870
 2057.00000    5.63650   67.84410  120.20000
 2057.50000    4.69190   67.84520  119.84950
 2058.00000    4.47740   67.81080  119.34520
 2058.50000    5.21350   68.39190  118.80630
 2059.00000    7.14030   69.08540  119.09710
 2059.50000   10.38070   69.01230  119.70740
 2060.00000   14.02570   68.94580  122.36010
 2060.50000   18.31040   69.36870  125.97060
 2061.00000   24.58230   70.87090  130.41720
 2061.50000   31.61560   72.62160  134.06120
 2062.00000   36.56240   74.55990  135.40070
 2062.50000   39.50510   75.52160  133.39500
 2063.00000   38.02400   75.04940  130.23820
 2063.50000   33.93030   74.00060  127.62580
 2064.00000   29.25120   72.54370  125.62880
 2064.50000   25.58230   71.20810  123.64350
 2065.00000   25.72160   70.58180  123.62880
 2065.50000   28.66790   70.27780  123.77620
 2066.00000   34.39820   70.06720  123.99460
 2066.50000   41.00280   70.01880  123.92680
 2067.00000   41.26130   70.04760  123.39110
 2067.50000   36.51350   70.15700  123.32400
 2068.00000   29.05120   70.29410  123.66840
 2068.50000   25.44530   70.38310  123.86220
 2069.00000   26.96970   70.29280  123.74150
 2069.50000   28.73810   69.89630  123.10850
 2070.00000   29.19240   69.30510  121.95520
 2070.50000   28.05830   68.87630  120.85720
 2071.00000   25.40240   68.60180  119.98110
 2071.50000   21.61090   68.11520  119.01670
 2072.00000   20.89420   67.49310  118.06910
 2072.50000   22.51670   66.68700  117.18800
 2073.00000   25.36240   65.74270  117.00350
 2073.50000   27.78570   65.44820  117.36190
 2074.00000   29.53330   66.46460  118.21980
 2074.50000   30.49260   68.20470  120.47710
 2075.00000   33.76120   69.98830  123.37580
 2075.50000   38.64990   71.64500  125.79600
 2076.00000   43.79030   72.51960  126.57290
 2076.50000   46.89290   72.78340  127.14840
 2077.00000   46.57280   72.40930  127.47720
 2077.50000   44.08160   71.96550  127.21110
 2078.00000   41.30150   71.81950  126.21810
 2078.50000   39.19420   71.40820  125.22250
 2079.00000   37.85030   70.75280  123.60830
 2079.50000   35.13700   70.22110  120.59770
 2080.00000   29.68990   69.59330  118.71540
 2080.50000   23.18600   68.61580  116.08510
 2081.00000   19.37580   67.61560  114.06030
 2081.50000   21.73100   66.49300  112.29840
 2082.00000   26.37460   65.19360  110.47570
 2082.50000   30.10570   64.36630  108.93460
 2083.00000   31.97060   63.74610  108.34020
 2083.50000   33.18860   62.96270  108.14580
 2084.00000   35.18820   62.50630  108.32880
 2084.50000   37.69510   62.43010  108.50670
 2085.00000   39.28710   62.38890  108.53590
 2085.50000   38.47650   62.20550  108.58170
 2086.00000   34.90660   62.08970  108.93570
 2086.50000   31.45300   62.32760  110.18580
 2087.00000   29.82730   63.00510  115.38060
 2087.50000   29.90290   66.35790  120.81920
 2088.00000   30.90040   70.53580  127.16920
 2088.50000   32.83840   75.74380  137.71180
 2089.00000   35.51940   80.40080  141.28160
 2089.50000   37.81280   81.15720  141.02300
 2090.00000   36.05920   79.05310  134.66390
 2090.50000   30.40250   74.73810  129.88610
 2091.00000   23.76590   71.80620  126.62950
 2091.50000   17.10350   69.88160  123.37170
 2092.00000   12.47210   68.60940  122.15840
 2092.50000    9.91910   68.11120  121.16960
 2093.00000    8.94270   68.05260  120.53030
 2093.50000    8.55470   68.12940  120.40090
 2094.00000    8.09410   68.00570  120.36170
 2094.50000    7.57440   67.95830  120.32240
 2095.00000    6.80550   68.02170  120.22600
 2095.50000    5.88980   68.00830  119.36550
 2096.00000    6.20400   68.00840  118.67660
 2096.50000    6.84580   68.00440  118.90520
 2097.00000    6.63670   67.85860  119.29480
 2097.50000    5.58890   67.59170  119.22060
 2098.00000    5.49990   67.25320  119.20840
 2098.50000    5.78700   67.11610  119.60440
 2099.00000    6.01280   67.36770  121.05170
 2099.50000    6.19990   68.38770  124.02960
 2100.00000    6.78880   72.76120  131.10270
 2100.50000    7.85550   76.98920  139.55050
 2101.00000    9.53660   80.33430  147.41950
 2101.50000   13.65030   82.23620  151.64250
 2102.00000   19.63830   82.11590  148.30550
 2102.50000   23.04600   79.55790  139.83290
 2103.00000   21.58650   76.99990  128.87120
 2103.50000   17.47070   73.67770  119.81790
 2104.00000   14.37230   70.14510  115.16390
 2104.50000   12.79930   65.54970  112.30430
 2105.00000   11.57640   62.59230  109.75510
 2105.50000    9.74170   60.28940  107.20590
 2106.00000    7.77440   59.34680  104.65660
 2106.50000    6.02480   58.79240  103.46840
 2107.00000    4.80510   57.82680  103.02280
 2107.50000    4.18740   57.21920  102.57720
 2108.00000    4.13900   57.32760  102.22990
 2108.50000    4.35250   58.27610  102.17600
 2109.00000    4.62060   59.42360  102.12220
 2109.50000    4.86680   59.97510  102.08560
 2110.00000    5.23590   59.95550  101.66300
 2110.50000    5.70210   59.80610  100.88490
 2111.00000    5.52960   59.32340  100.07940
 2111.50000    5.21090   58.46670  100.07820
 2112.00000    4.95950   57.47610  100.44420
 2112.50000    4.72210   56.43380  100.49810
 2113.00000    4.64640   55.80490  100.37420
 2113.50000    4.93450   55.02060   99.35040
 2114.00000    5.90960   53.72780   96.73780
 2114.50000    6.68910   52.66040   94.28060
 2115.00000    6.69370   57.11300  109.96190
 2115.50000    6.80400   62.15490  139.35950
