~Version ---------------------------------------------------
VERS.   2.0 : CWLS log ASCII Standard -VERSION 2.0
WRAP.    NO : One line per depth step
DLM . SPACE : Column Data Section Delimiter
~Well ------------------------------------------------------
STRT .F                1849.0 : START DEPTH
STOP .F                5060.0 : STOP DEPTH
STEP .F                   0.5 : STEP
NULL .               -9999.25 : NULL VALUE
COMP .                        : COMPANY
WELL .                        : WELL
FLD  .                        : FIELD
LOC  .                        : LOCATION
PROV .                        : PROVINCE
CNTY .                        : COUNTY
STAT .                        : STATE
CTRY .                        : COUNTRY
SRVC .                        : SERVICE COMPANY
DATE .                        : DATE
UWI  .                        : UNIQUE WELL ID
API  .                        : API NUMBER
SLAT .WGS84 2.684473877817396 : SURFACE LATITUDE
SLON .WGS84 7.151278803442992 : SURFACE LONGITUDE
DATUM.F                   nan : DEPTH DATUM ELEV
~Curve Information -----------------------------------------
DEPT   .F     : 1 MEASURED DEPTH
GR_EDTC.GAPI  : GAMMA RAY
DTCO   .US/F  : DELTA-T COMPRESSIONAL
DTSM   .US/F  : DELTA-T SHEAR
~Params ----------------------------------------------------
~Other -----------------------------------------------------
~ASCII -----------------------------------------------------
# ...
 4786.00000   11.13680   55.59160   99.62710
 4786.50000   11.46410   55.57860  100.40020
 4787.00000   11.75110   55.63650  101.25280
 4787.50000   11.26540   55.88370  102.14040
 4788.00000   10.18170   56.14710  102.87880
 4788.50000    9.56400   56.47440  103.49400
 4789.00000    9.93580   56.85590  104.21550
 4789.50000   10.23240   57.34100  104.76090
 4790.00000    9.82100   57.74690  104.80590
 4790.50000    9.12870   58.09410  104.64680
 4791.00000    8.34920   58.19610  103.24890
 4791.50000    8.49170   58.12490  101.35760
 4792.00000    9.42120   57.41030   99.78920
 4792.50000   10.73800   55.93590   98.31020
 4793.00000   11.16690   54.45190   96.82640
 4793.50000   10.90180   52.98520   95.36810
 4794.00000   10.88970   51.55140   94.37050
 4794.50000   10.96870   50.58840   93.80530
 4795.00000   11.45470   50.46340   93.70260
 4795.50000   12.23160   50.99140   93.64310
 4796.00000   12.40800   51.71780   93.64360
 4796.50000   12.23580   51.99820   93.65170
 4797.00000   11.83360   52.18230   93.80710
 4797.50000   12.12510   52.09610   94.03390
 4798.00000   12.78430   51.75590   94.12800
 4798.50000   13.50210   50.92240   94.10250
 4799.00000   13.54830   50.43750   93.69290
 4799.50000   13.69180   50.68250   93.19780
 4800.00000   14.44980   51.19310   92.76070
 4800.50000   15.79200   51.44520   92.44860
 4801.00000   16.24620   51.48560   92.25620
 4801.50000   15.73890   51.42990   92.02100
 4802.00000   14.80500   51.16630   91.79080
 4802.50000   13.35910   50.67140   91.50570
 4803.00000   14.05430   50.08300   90.70490
 4803.50000   15.54220   49.66500   90.38350
 4804.00000   16.78190   49.19610   90.16200
 4804.50000   16.64070   48.69990   89.94040
 4805.00000   15.33650   48.38360   90.13680
 4805.50000   14.69240   48.28230   90.60440
 4806.00000   16.96840   48.52700   91.87860
 4806.50000   20.03980   49.58690   93.20590
 4807.00000   21.88530   51.13560   94.09950
 4807.50000   21.11900   53.36750   94.55440
 4808.00000   19.03590   54.95630   94.83720
 4808.50000   18.03200   55.63860   95.02290
 4809.00000   18.07450   55.11500   95.21710
 4809.50000   18.28540   53.78760   95.03480
 4810.00000   17.75710   52.41860   94.37010
 4810.50000   17.03680   50.78490   93.43540
 4811.00000   16.61430   49.18920   92.81410
 4811.50000   16.21970   48.26670   92.19270
 4812.00000   15.61220   48.31840   91.86580
 4812.50000   14.93840   48.90470   91.99860
 4813.00000   15.29550   49.90940   92.26430
 4813.50000   16.71440   51.38270   92.59980
 4814.00000   17.71000   52.49650   93.16480
 4814.50000   17.98850   52.81970   93.80750
 4815.00000   16.85420   52.76060   94.23300
 4815.50000   16.50030   52.51480   94.59190
 4816.00000   17.99750   52.47310   94.65520
 4816.50000   19.34320   52.54020   94.85680
 4817.00000   19.89590   52.64940   94.84720
 4817.50000   19.93070   52.93530   94.66410
 4818.00000   20.20050   53.17890   94.50800
 4818.50000   20.62670   53.06220   94.41260
 4819.00000   21.68410   52.76070   94.24150
 4819.50000   23.01020   52.31960   94.08390
 4820.00000   23.13250   51.65020   93.66830
 4820.50000   20.27980   51.07780   93.04070
 4821.00000   17.19520   50.79120   92.84400
 4821.50000   15.54850   50.55120   92.52250
 4822.00000   14.30950   50.48060   91.93840
 4822.50000   13.04600   50.59220   91.37090
 4823.00000   11.71050   51.02780   91.07960
 4823.50000   11.02840   51.10490   90.87860
 4824.00000   10.80860   50.92460   90.34850
 4824.50000   10.63630   50.51350   89.76620
 4825.00000    9.39030   49.99890   89.73090
 4825.50000    8.01290   49.42410   89.39570
 4826.00000    7.45330   48.92690   89.22370
 4826.50000    7.37600   48.56060   88.98210
 4827.00000    7.78400   48.58380   88.79910
 4827.50000    8.85440   48.58860   88.61620
 4828.00000    9.84870   48.57210   88.56510
 4828.50000   10.86840   48.47200   88.46470
 4829.00000   11.82230   48.36310   88.13280
 4829.50000   11.92010   48.29590   88.04980
 4830.00000   11.16610   48.16380   88.10570
 4830.50000   10.10230   48.02840   88.06330
 4831.00000   10.11730   47.91090   87.88240
 4831.50000   10.71450   47.83330   87.75640
 4832.00000   11.39040   47.94800   87.46690
 4832.50000   12.03210   48.04270   87.62100
 4833.00000   12.66130   48.08390   87.77520
 4833.50000   13.30490   48.03140   87.81970
 4834.00000   12.99820   47.89300   88.25460
 4834.50000   12.49970   47.80740   88.64280
 4835.00000   12.11700   47.93920   89.44770
 4835.50000   12.62750   48.36750   90.25260
 4836.00000   13.19370   49.50690   91.04770
 4836.50000   13.95880   51.10720   91.60750
 4837.00000   13.77420   52.09820   92.16730
 4837.50000   13.54950   52.43970   92.84380
 4838.00000   14.20410   52.55860   93.34110
 4838.50000   15.41550   52.46670   93.47610
 4839.00000   17.67920   52.14260   93.45780
 4839.50000   19.24110   51.81850   93.27410
 4840.00000   19.15970   51.48750   93.02950
 4840.50000   16.93630   51.14820   92.69560
 4841.00000   13.75430   50.88070   92.26230
 4841.50000   12.25450   50.70660   91.72870
 4842.00000   13.09530   50.59810   91.19500
 4842.50000   14.26140   50.49080   90.66130
 4843.00000   14.36400   50.46670   90.28290
 4843.50000   14.04420   50.44620   90.13810
 4844.00000   13.18360   50.30050   89.99320
 4844.50000   12.25920   50.12820   89.84830
 4845.00000   11.04170   50.05700   89.70930
 4845.50000    9.90020   50.00770   89.69550
 4846.00000    9.49150   49.98940   89.58820
 4846.50000    9.49950   49.90310   89.45070
 4847.00000    9.47420   49.54560   89.30820
 4847.50000    9.17900   49.35170   88.96680
 4848.00000    8.55970   49.20540   88.70560
 4848.50000    7.88480   48.85730   88.46740
 4849.00000    8.05260   48.53690   88.79630
 4849.50000    8.56240   48.40360   88.98570
 4850.00000    9.64950   48.29630   88.90550
 4850.50000   10.66510   48.25510   88.90880
 4851.00000   11.81600   48.44460   89.17070
 4851.50000   12.41160   48.60540   89.27570
 4852.00000   12.41740   48.95520   89.48290
 4852.50000   12.28800   49.37240   90.14730
 4853.00000   12.62570   49.79740   90.61980
 4853.50000   12.56750   50.09640   90.72150
 4854.00000   12.02740   50.25540   90.82310
 4854.50000   11.35990   50.43410   91.00540
 4855.00000   10.82220   50.57840   91.52010
 4855.50000   10.64400   50.68540   91.57600
 4856.00000   10.60540   50.71220   91.66350
 4856.50000   10.75580   50.70230   91.83780
 4857.00000   11.05440   50.58750   91.89020
 4857.50000   11.68060   50.40140   91.64600
 4858.00000   12.61220   50.23830   91.67080
 4858.50000   13.75150   50.19050   91.77710
 4859.00000   14.90520   50.38540   91.87950
 4859.50000   16.33800   50.58220   91.98190
 4860.00000   17.59660   50.90790   92.24490
 4860.50000   18.55710   51.53160   92.78500
 4861.00000   19.75580   52.10420   93.36260
 4861.50000   20.95250   52.38090   93.62670
 4862.00000   21.21800   52.18780   93.84090
 4862.50000   21.23920   52.03840   94.03830
 4863.00000   21.53760   51.80220   94.18480
 4863.50000   22.45150   51.17080   93.96480
 4864.00000   22.53220   50.44040   93.66300
 4864.50000   21.76710   50.17250   93.33130
 4865.00000   20.77970   50.37540   93.21980
 4865.50000   20.45960   50.73660   93.08410
 4866.00000   20.74610   51.38180   93.23320
 4866.50000   23.02840   51.87390   93.61560
 4867.00000   27.41240   51.87530   93.59800
 4867.50000   31.54160   51.84690   93.75150
 4868.00000   32.41200   52.01660   93.91860
 4868.50000   30.28910   52.16660   94.03860
 4869.00000   26.04060   52.06770   93.91860
 4869.50000   22.18070   52.12860   93.88830
 4870.00000   19.79920   52.26140   93.71280
 4870.50000   18.72780   52.16710   93.55620
 4871.00000   17.70430   51.71980   93.44200
 4871.50000   17.12120   51.20050   93.34340
 4872.00000   17.21040   50.88870   93.33160
 4872.50000   17.44760   50.96860   93.32940
 4873.00000   16.48450   51.39470   93.36200
 4873.50000   15.66440   51.75040   93.61150
 4874.00000   16.27660   52.04760   93.93770
 4874.50000   16.95230   52.35540   94.13370
