~Version ---------------------------------------------------
VERS.   2.0 : CWLS log ASCII Standard -VERSION 2.0
WRAP.    NO : One line per depth step
DLM . SPACE : Column Data Section Delimiter
~Well ------------------------------------------------------
STRT .F                1849.0 : START DEPTH
STOP .F                5060.0 : STOP DEPTH
STEP .F                   0.5 : STEP
NULL .               -9999.25 : NULL VALUE
COMP .                        : COMPANY
WELL .                        : WELL
FLD  .                        : FIELD
LOC  .                        : LOCATION
PROV .                        : PROVINCE
CNTY .                        : COUNTY
STAT .                        : STATE
CTRY .                        : COUNTRY
SRVC .                        : SERVICE COMPANY
DATE .                        : DATE
UWI  .                        : UNIQUE WELL ID
API  .                        : API NUMBER
SLAT .WGS84 2.684473877817396 : SURFACE LATITUDE
SLON .WGS84 7.151278803442992 : SURFACE LONGITUDE
DATUM.F                   nan : DEPTH DATUM ELEV
~Curve Information -----------------------------------------
DEPT   .F     : 1 MEASURED DEPTH
GR_EDTC.GAPI  : GAMMA RAY
DTCO   .US/F  : DELTA-T COMPRESSIONAL
DTSM   .US/F  : DELTA-T SHEAR
~Params ----------------------------------------------------
~Other -----------------------------------------------------
~ASCII -----------------------------------------------------
# ...
 4964.00000   23.97590   51.36930   93.01220
 4964.50000   22.05690   51.89290   92.90020
 4965.00000   23.18500   52.14120   92.90020
 4965.50000   25.31040   52.08490   92.90020
 4966.00000   26.06540   51.65340   92.84750
 4966.50000   26.12400   50.93490   92.66860
 4967.00000   26.10920   50.61260   92.62660
 4967.50000   26.40450   50.48710   92.73100
 4968.00000   26.66470   50.63560   93.61220
 4968.50000   25.78360   51.27920   93.94300
 4969.00000   24.81210   52.32780   94.26650
 4969.50000   25.20150   53.43800   95.00970
 4970.00000   27.68600   54.45020   95.77190
 4970.50000   29.13490   54.83270   96.43980
 4971.00000   29.21300   54.73230   97.01790
 4971.50000   29.05520   54.46790   97.58130
 4972.00000   30.09290   54.23050   97.92040
 4972.50000   32.00320   54.02130   98.35980
 4973.00000   32.55640   54.17770   99.45040
 4973.50000   30.72750   54.55860  100.27680
 4974.00000   27.09140   54.87190  100.74470
 4974.50000   25.10810   55.13520  100.97100
 4975.00000   24.48680   55.34880  101.19990
 4975.50000   24.56180   55.59100  101.12790
 4976.00000   25.18110   55.71120  100.93890
 4976.50000   26.15320   55.76800  100.68650
 4977.00000   25.94850   55.72700  100.30340
 4977.50000   24.62240   55.50690   99.86910
 4978.00000   22.43120   55.07040   98.96040
 4978.50000   21.11500   54.63320   98.52450
 4979.00000   21.77170   54.33750   97.78020
 4979.50000   23.62490   54.06290   97.00050
 4980.00000   27.35250   53.82840   96.34010
 4980.50000   31.00670   53.62360   95.64050
 4981.00000   31.33670   53.52730   95.29850
 4981.50000   29.73710   53.39240   95.16670
 4982.00000   28.04820   53.31560   95.13570
 4982.50000   25.72820   53.33440   95.08860
 4983.00000   25.63840   53.34210   95.09660
 4983.50000   25.99510   53.36010   95.10460
 4984.00000   26.47960   53.72830   95.07950
 4984.50000   27.16750   54.61660   95.10230
 4985.00000   28.26030   55.11310   95.45480
 4985.50000   29.10400   55.28360   95.77390
 4986.00000   29.20640   55.37470   95.93570
 4986.50000   29.30180   55.28460   95.99750
 4987.00000   29.31520   55.14450   96.41350
 4987.50000   29.32850   55.03880   97.01970
 4988.00000   29.42600   54.79540   97.17170
 4988.50000   29.34500   54.42600   97.09370
 4989.00000   27.13580   53.67540   97.01570
 4989.50000   23.45800   53.60930   97.10390
 4990.00000   20.29990   54.42350   97.20080
 4990.50000   20.61140   55.22140   97.41570
 4991.00000   22.51840   55.89790   97.85380
 4991.50000   23.88650   56.33150   98.36960
 4992.00000   23.55220   56.41690   98.33010
 4992.50000   22.60920   56.38030   98.16970
 4993.00000   22.09860   56.45980   98.18450
 4993.50000   22.41680   56.55690   98.16000
 4994.00000   23.68820   56.65280   98.05590
 4994.50000   25.55930   56.51940   98.02660
 4995.00000   27.79480   56.41560   98.93130
 4995.50000   28.97610   56.44950   99.89100
 4996.00000   29.15390   56.90640  100.78440
 4996.50000   29.13860   58.05480  101.53530
 4997.00000   29.32460   59.02280  102.28610
 4997.50000   29.32180   59.63580  103.02620
 4998.00000   29.63920   60.18000  103.70400
 4998.50000   30.24390   60.54370  104.48230
 4999.00000   32.38220   60.80520  105.34610
 4999.50000   33.40250   60.57390  106.18280
 5000.00000   31.85590   60.21080  106.34650
 5000.50000   29.89770   59.84900  106.47400
 5001.00000   28.59180   59.41630  106.60060
 5001.50000   29.02050   59.25750  106.60750
 5002.00000   29.64500   59.44870  106.11940
 5002.50000   29.92140   59.66220  105.47500
 5003.00000   29.55840   60.05010  104.83060
 5003.50000   28.93000   60.47580  104.18610
 5004.00000   28.01240   60.36130  103.61290
 5004.50000   27.37250   59.62690  102.98390
 5005.00000   26.93740   58.34950  102.53220
 5005.50000   26.14130   57.06980  101.98920
 5006.00000   24.85940   56.13310  101.16960
 5006.50000   23.51280   55.56430  100.29090
 5007.00000   23.37060   55.65030  100.07700
 5007.50000   24.11260   56.11910  100.05350
 5008.00000   25.41960   56.65900   99.99300
 5008.50000   27.06970   57.09490   99.93260
 5009.00000   28.73980   57.32590  100.02840
 5009.50000   29.87910   57.45290  101.33230
 5010.00000   30.90470   57.62900  102.15790
 5010.50000   30.90210   58.03990  102.23410
 5011.00000   30.90190   58.61650  102.31020
 5011.50000   30.56740   58.87960  102.38640
 5012.00000   30.19940   58.90570  102.46250
 5012.50000   30.04200   58.36920  102.57070
 5013.00000   30.13690   57.38440  102.63340
 5013.50000   -9999.25   56.58550  102.68160
 5014.00000   -9999.25   56.10750  102.38470
 5014.50000   -9999.25   55.31990  101.40500
 5015.00000   -9999.25   54.64360  100.49680
 5015.50000   -9999.25   54.68420  100.16530
 5016.00000   -9999.25   55.48680  100.17460
 5016.50000   -9999.25   55.90730  100.18390
 5017.00000   -9999.25   56.00070  100.19320
 5017.50000   -9999.25   56.14120  100.48910
 5018.00000   -9999.25   56.22330  100.59200
 5018.50000   -9999.25   56.24180  100.43350
 5019.00000   -9999.25   56.25230  100.27510
 5019.50000   -9999.25   56.36650  100.55040
 5020.00000   -9999.25   56.42790  100.53920
 5020.50000   -9999.25   56.35790  100.42830
 5021.00000   -9999.25   56.27720  100.82640
 5021.50000   -9999.25   56.36540  101.67780
 5022.00000   -9999.25   56.63280  102.00210
 5022.50000   -9999.25   57.31410  101.88960
 5023.00000   -9999.25   57.89170  102.07430
 5023.50000   -9999.25   57.87150  101.11870
 5024.00000   -9999.25   57.01160  100.16320
 5024.50000   -9999.25   56.12100   99.20760
 5025.00000   -9999.25   55.32700   99.15250
 5025.50000   -9999.25   54.59380   99.01160
 5026.00000   -9999.25   53.52140   97.97460
 5026.50000   -9999.25   52.37070   97.34290
 5027.00000   -9999.25   52.02120   96.72750
 5027.50000   -9999.25   51.99770   96.32200
 5028.00000   -9999.25   52.02470   97.07200
 5028.50000   -9999.25   52.11510   97.70970
 5029.00000   -9999.25   52.69040   98.63530
 5029.50000   -9999.25   53.89750   99.38120
 5030.00000   -9999.25   55.21190  100.20510
 5030.50000   -9999.25   56.40600  101.43620
 5031.00000   -9999.25   57.52110  102.49780
 5031.50000   -9999.25   58.57490  103.82070
 5032.00000   -9999.25   58.73810  105.10530
 5032.50000   -9999.25   58.69690  105.83670
 5033.00000   -9999.25   58.46130  106.36140
 5033.50000   -9999.25   58.17070  106.66720
 5034.00000   -9999.25   58.00490  107.02080
 5034.50000   -9999.25   58.30230  107.32400
 5035.00000   -9999.25   58.66210  107.39330
 5035.50000   -9999.25   59.06950  107.48120
 5036.00000   -9999.25   59.16120  107.53850
 5036.50000   -9999.25   58.98750  107.41320
 5037.00000   -9999.25   58.70540  106.68380
 5037.50000   -9999.25   58.57970  105.94170
 5038.00000   -9999.25   58.47850  105.66340
 5038.50000   -9999.25   58.36550  105.61960
 5039.00000   -9999.25   58.24910  105.32750
 5039.50000   -9999.25   58.18210  104.30600
 5040.00000   -9999.25   58.17570  103.27290
 5040.50000   -9999.25   -9999.25  102.77690
 5041.00000   -9999.25   -9999.25  102.67790
 5041.50000   -9999.25   -9999.25  102.66340
 5042.00000   -9999.25   -9999.25  102.67690
 5042.50000   -9999.25   -9999.25  102.69280
 5043.00000   -9999.25   -9999.25  102.90850
 5043.50000   -9999.25   -9999.25  102.86930
 5044.00000   -9999.25   -9999.25  102.96360
 5044.50000   -9999.25   -9999.25  102.90690
 5045.00000   -9999.25   -9999.25  102.45300
 5045.50000   -9999.25   -9999.25  101.92830
 5046.00000   -9999.25   -9999.25  101.40370
 5046.50000   -9999.25   -9999.25  100.87900
 5047.00000   -9999.25   -9999.25  100.57300
 5047.50000   -9999.25   -9999.25  100.36490
 5048.00000   -9999.25   -9999.25  100.27840
 5048.50000   -9999.25   -9999.25  100.27840
 5049.00000   -9999.25   -9999.25  100.63480
 5049.50000   -9999.25   -9999.25  101.39520
 5050.00000   -9999.25   -9999.25  102.83310
 5050.50000   -9999.25   -9999.25  104.27090
 5051.00000   -9999.25   -9999.25  105.24740
 5051.50000   -9999.25   -9999.25  105.85800
 5052.00000   -9999.25   -9999.25  106.32870
 5052.50000   -9999.25   -9999.25  106.72000
