~Version ---------------------------------------------------
VERS.   2.0 : CWLS log ASCII Standard -VERSION 2.0
WRAP.    NO : One line per depth step
DLM . SPACE : Column Data Section Delimiter
~Well ------------------------------------------------------
STRT .F                1849.0 : START DEPTH
STOP .F                5060.0 : STOP DEPTH
STEP .F                   0.5 : STEP
NULL .               -9999.25 : NULL VALUE
COMP .                        : COMPANY
WELL .                        : WELL
FLD  .                        : FIELD
LOC  .                        : LOCATION
PROV .                        : PROVINCE
CNTY .                        : COUNTY
STAT .                        : STATE
CTRY .                        : COUNTRY
SRVC .                        : SERVICE COMPANY
DATE .                        : DATE
UWI  .                        : UNIQUE WELL ID
API  .                        : API NUMBER
SLAT .WGS84 2.684473877817396 : SURFACE LATITUDE
SLON .WGS84 7.151278803442992 : SURFACE LONGITUDE
DATUM.F                   nan : DEPTH DATUM ELEV
~Curve Information -----------------------------------------
DEPT   .F     : 1 MEASURED DEPTH
GR_EDTC.GAPI  : GAMMA RAY
DTCO   .US/F  : DELTA-T COMPRESSIONAL
DTSM   .US/F  : DELTA-T SHEAR
~Params ----------------------------------------------------
~Other -----------------------------------------------------
~ASCII -----------------------------------------------------
# ...
 3896.00000   16.63070   55.98790   99.39560
 3896.50000   17.62800   57.50720  101.58130
 3897.00000   20.50330   58.88340  104.71570
 3897.50000   24.02390   59.82820  107.25380
 3898.00000   26.92950   61.15740  108.80380
 3898.50000   29.82070   63.17310  110.03260
 3899.00000   35.14790   63.33010  110.01710
 3899.50000   41.84930   61.80160  109.50370
 3900.00000   47.36990   59.89990  108.46660
 3900.50000   45.18140   57.09160  107.45310
 3901.00000   34.86740   54.97560  106.52370
 3901.50000   21.58990   54.20980  105.21000
 3902.00000   13.03500   54.54180  103.63610
 3902.50000   11.13750   54.87630  102.21280
 3903.00000   10.12590   54.66590  101.29200
 3903.50000    9.23980   53.51420   99.26180
 3904.00000    8.14930   51.97740   97.18630
 3904.50000    7.44820   51.21510   95.68310
 3905.00000    8.01180   51.00500   94.22350
 3905.50000    9.80640   50.92340   92.55400
 3906.00000   11.19720   51.00970   92.39880
 3906.50000   12.03610   51.17950   92.52570
 3907.00000   10.81630   51.01790   92.56430
 3907.50000    9.19910   50.66220   92.39910
 3908.00000    8.16010   50.57840   92.30950
 3908.50000    7.33500   50.64610   91.93940
 3909.00000    6.97610   50.68190   91.66750
 3909.50000    6.62500   50.68600   91.56540
 3910.00000    6.18650   50.65290   91.86860
 3910.50000    6.50360   50.45210   92.49710
 3911.00000    7.30710   50.27370   93.36290
 3911.50000    7.73430   50.49960   95.33620
 3912.00000    7.28360   51.78660   97.82090
 3912.50000    6.58810   54.34800  100.90690
 3913.00000    7.46850   57.38250  104.55060
 3913.50000   12.15220   61.36500  108.19430
 3914.00000   22.66410   63.97660  110.26520
 3914.50000   32.62430   64.75070  111.80220
 3915.00000   40.54860   64.85410  113.14800
 3915.50000   43.34440   64.38630  113.51710
 3916.00000   43.51430   64.21410  113.70900
 3916.50000   43.07670   64.49740  113.59730
 3917.00000   42.63210   65.24950  112.74400
 3917.50000   42.64100   65.18380  111.72330
 3918.00000   43.24110   63.32170  109.99760
 3918.50000   42.89270   61.04080  108.47020
 3919.00000   41.02930   58.96520  107.33280
 3919.50000   35.65480   56.39240  106.09520
 3920.00000   25.61490   55.51320  104.47390
 3920.50000   17.10100   55.32940  103.11340
 3921.00000   12.70590   55.53520  101.70660
 3921.50000   12.27570   55.56540   99.78100
 3922.00000   12.71830   55.15790   98.11400
 3922.50000   13.55140   54.23730   96.72800
 3923.00000   14.76180   53.02210   94.91330
 3923.50000   16.79690   52.05080   92.99310
 3924.00000   18.51570   51.83540   92.68860
 3924.50000   19.17620   51.79610   92.87740
 3925.00000   18.89260   51.89000   94.12060
 3925.50000   17.89340   52.81460   97.84490
 3926.00000   16.74650   55.34980  101.65480
 3926.50000   16.29530   59.13410  104.86670
 3927.00000   20.01060   61.41670  108.01020
 3927.50000   27.55160   63.03560  111.15380
 3928.00000   36.58300   63.53020  114.21870
 3928.50000   43.45600   64.11950  116.33350
 3929.00000   43.96940   65.47860  117.72300
 3929.50000   41.43990   67.02840  122.18100
 3930.00000   37.77700   71.25060  128.05060
 3930.50000   34.24910   75.77010  137.35400
 3931.00000   31.18310   78.78680  141.39620
 3931.50000   30.28990   79.85120  144.41040
 3932.00000   33.40230   79.43070  148.28190
 3932.50000   38.10180   79.07240  150.93560
 3933.00000   40.94330   79.40690  148.80980
 3933.50000   40.71710   79.74580  147.69180
 3934.00000   38.52110   79.65180  147.68830
 3934.50000   35.08750   79.11290  147.56710
 3935.00000   32.64900   78.37670  144.21060
 3935.50000   31.76010   77.25160  140.27660
 3936.00000   33.04060   74.66810  135.11100
 3936.50000   37.45080   70.87480  128.14580
 3937.00000   41.41020   66.95910  121.25210
 3937.50000   43.49350   62.54720  115.47330
 3938.00000   39.71940   58.97910  109.79280
 3938.50000   34.01220   56.18750  104.11240
 3939.00000   29.76560   54.93300  101.58470
 3939.50000   27.58990   54.67530   99.89640
 3940.00000   27.25690   55.07960   99.69290
 3940.50000   27.26470   56.19980  102.02430
 3941.00000   27.83030   59.45590  104.96020
 3941.50000   30.69160   61.59210  107.95250
 3942.00000   35.89910   64.06230  110.94480
 3942.50000   43.92960   65.03200  114.27360
 3943.00000   47.13610   65.01480  116.75930
 3943.50000   46.79870   64.62240  117.52150
 3944.00000   45.62130   64.37940  116.94150
 3944.50000   42.62600   64.15140  115.75700
 3945.00000   40.58950   63.74600  113.72200
 3945.50000   40.69990   62.55280  112.36080
 3946.00000   39.67340   60.13720  110.05590
 3946.50000   34.58970   57.55550  107.97810
 3947.00000   25.64770   55.89830  106.71550
 3947.50000   18.10280   55.55160  104.80040
 3948.00000   14.48170   55.55650  102.31850
 3948.50000   13.45360   55.22630  100.21050
 3949.00000   14.23240   54.78880   99.10570
 3949.50000   14.87450   53.89100   97.87770
 3950.00000   13.93180   52.77140   96.73960
 3950.50000   12.42350   51.95130   95.76480
 3951.00000   12.21270   51.52490   94.90790
 3951.50000   12.17760   51.17990   94.20750
 3952.00000   11.44800   51.05460   94.24170
 3952.50000    9.57550   51.15550   94.81140
 3953.00000    7.82260   51.48030   95.24100
 3953.50000    7.08390   51.83980   95.45720
 3954.00000    6.91530   52.08240   96.27280
 3954.50000    7.07700   52.29610   97.21690
 3955.00000    7.59130   52.71670   98.62140
 3955.50000    7.69420   53.49060  100.34150
 3956.00000    7.77910   54.73100  101.97040
 3956.50000    8.87620   55.97990  103.66570
 3957.00000   12.95190   57.11350  105.24990
 3957.50000   18.17450   58.26560  106.14830
 3958.00000   21.78780   58.49720  107.06260
 3958.50000   23.82360   58.13080  107.77200
 3959.00000   24.91090   57.36790  107.78220
 3959.50000   25.41220   56.82710  107.04850
 3960.00000   24.58360   56.46970  106.00990
 3960.50000   20.99090   56.21170  104.36390
 3961.00000   17.55040   55.62730  102.08900
 3961.50000   14.99340   54.62220  100.96420
 3962.00000   13.90990   53.61430  100.48120
 3962.50000   13.08840   53.01060  100.05730
 3963.00000   10.87290   53.82110  101.04590
 3963.50000    8.94780   55.02420  102.92510
 3964.00000    9.47510   56.66420  104.89700
 3964.50000   12.69600   58.79280  105.96990
 3965.00000   19.00050   60.51560  106.87200
 3965.50000   23.13130   60.93760  107.78930
 3966.00000   25.73220   60.33570  107.41280
 3966.50000   27.07120   59.33280  106.79460
 3967.00000   27.01750   58.58740  107.31710
 3967.50000   24.63550   57.86850  109.11860
 3968.00000   20.29770   58.21210  110.84880
 3968.50000   16.52960   59.69710  112.42620
 3969.00000   16.46140   61.10250  114.08750
 3969.50000   18.76970   60.72230  115.52530
 3970.00000   22.29060   59.88290  114.81720
 3970.50000   26.70830   58.87460  113.33970
 3971.00000   27.11100   58.01210  112.10420
 3971.50000   23.50980   58.17680  110.33960
 3972.00000   17.03540   58.43920  108.44460
 3972.50000   11.74070   58.41590  107.12860
 3973.00000   10.43120   58.21220  106.85800
 3973.50000   10.26020   57.55920  106.48110
 3974.00000   10.50470   56.43840  105.28950
 3974.50000   10.57760   55.37240  104.21090
 3975.00000   10.02600   54.40700  104.08140
 3975.50000    8.65670   53.92370  104.23510
 3976.00000    7.58390   54.59040  105.00310
 3976.50000    6.89450   56.18770  105.61370
 3977.00000    7.30800   57.95400  104.95610
 3977.50000    8.34070   58.07840  103.36360
 3978.00000   10.58160   56.41990  100.51060
 3978.50000   12.77060   53.65970   98.93110
 3979.00000   14.57020   51.50720   97.04310
 3979.50000   16.08190   50.21400   95.75970
 3980.00000   16.35470   50.81710   95.67100
 3980.50000   15.80820   51.75100   95.84450
 3981.00000   16.40320   53.00100   96.83050
 3981.50000   18.11420   54.12960   99.56630
 3982.00000   18.80890   54.50240  101.90680
 3982.50000   17.82150   54.62550  102.19400
 3983.00000   14.32110   54.49910  101.84950
 3983.50000   11.59960   54.56970  101.24810
 3984.00000   10.08100   54.87840  100.83740
 3984.50000    9.30390   54.93390  100.33250
