~Version ---------------------------------------------------
VERS.   2.0 : CWLS log ASCII Standard -VERSION 2.0
WRAP.    NO : One line per depth step
DLM . SPACE : Column Data Section Delimiter
~Well ------------------------------------------------------
STRT .F                  174.0 : START DEPTH
STOP .F                10495.0 : STOP DEPTH
STEP .F                    0.5 : STEP
NULL .                -9999.25 : NULL VALUE
COMP .                         : COMPANY
WELL .                         : WELL
FLD  .                         : FIELD
LOC  .                         : LOCATION
PROV .                         : PROVINCE
CNTY .                         : COUNTY
STAT .                         : STATE
CTRY .                         : COUNTRY
SRVC .                         : SERVICE COMPANY
DATE .                         : DATE
UWI  .                         : UNIQUE WELL ID
API  .                         : API NUMBER
SLAT .WGS84  3.672660125498602 : SURFACE LATITUDE
SLON .WGS84 7.0958042414240055 : SURFACE LONGITUDE
DATUM.F                3544.03 : DEPTH DATUM ELEV
~Curve Information -----------------------------------------
DEPT.F     : 
TNPH.DEC   : THERMAL NEUTRON POROSITY
SGR .GAPI  : STANDARD GAMMA RAY, SPECTROSCOPY GAMMA RAY
RHOZ.G/C3  : HILT BULK DENSITY
HCAL.IN    : HILT CALIPER
PEFZ.B/E   : HILT PHOTOELECTRIC FACTOR
HDRA.G/C3  : DELTA RHO HIP TOOL
DPHZ.DEC   : DENSITY POROSITY LIMESTONE
HLLD.OHMM  : LATEROLOG DEEP RES.
HLLS.OHMM  : LATEROLOG SHALLOW RES.
RXOZ.OHMM  : FLUSHED ZONE RESISTIVITY
DTCO.US/F  : COMPRESSIONAL-WAVE INTERVAL TRANSIT TIME ACAUSTIC SLOWNESS
DTSM.US/F  : SHEAR-WAVE INTERVAL TRANSIT TIME DELTA-T
~Params ----------------------------------------------------
~Other -----------------------------------------------------
~ASCII -----------------------------------------------------
# ...
 5354.00000    0.28510   25.45280   -9999.25   -9999.25   -9999.25   -9999.25   -9999.25   -9999.25   -9999.25   -9999.25   -9999.25   -9999.25
 5354.50000    0.25880   24.99190   -9999.25   -9999.25   -9999.25   -9999.25   -9999.25   -9999.25   -9999.25   -9999.25   -9999.25   -9999.25
 5355.00000    0.24790   24.05320   -9999.25   -9999.25   -9999.25   -9999.25   -9999.25   -9999.25   -9999.25   -9999.25   -9999.25   -9999.25
 5355.50000    0.26620   22.87580   -9999.25   -9999.25   -9999.25   -9999.25   -9999.25   -9999.25   -9999.25   -9999.25   -9999.25   -9999.25
 5356.00000    0.27930   22.65290   -9999.25   -9999.25   -9999.25   -9999.25   -9999.25   -9999.25   -9999.25   -9999.25   -9999.25   -9999.25
 5356.50000    0.27410   23.62590   -9999.25   -9999.25   -9999.25   -9999.25   -9999.25   -9999.25   -9999.25   -9999.25   -9999.25   -9999.25
 5357.00000    0.26260   24.35930   -9999.25   -9999.25   -9999.25   -9999.25   -9999.25   -9999.25   -9999.25   -9999.25   -9999.25   -9999.25
 5357.50000    0.24240   23.89830   -9999.25   -9999.25   -9999.25   -9999.25   -9999.25   -9999.25   -9999.25   -9999.25   -9999.25   -9999.25
 5358.00000    0.24010   21.52660   -9999.25   -9999.25   -9999.25   -9999.25   -9999.25   -9999.25   -9999.25   -9999.25   -9999.25   -9999.25
 5358.50000    0.25290   22.73760   -9999.25   -9999.25   -9999.25   -9999.25   -9999.25   -9999.25   -9999.25   -9999.25   -9999.25   -9999.25
 5359.00000    0.26710   25.14300   -9999.25   -9999.25   -9999.25   -9999.25   -9999.25   -9999.25   -9999.25   -9999.25   -9999.25   -9999.25
 5359.50000    0.27730   26.35400   -9999.25   -9999.25   -9999.25   -9999.25   -9999.25   -9999.25   -9999.25   -9999.25   -9999.25   -9999.25
 5360.00000    0.27380   24.69890   -9999.25   -9999.25   -9999.25   -9999.25   -9999.25   -9999.25   -9999.25   -9999.25   -9999.25   -9999.25
 5360.50000    0.26300   22.56600   -9999.25   -9999.25   -9999.25   -9999.25   -9999.25   -9999.25   -9999.25   -9999.25   -9999.25   -9999.25
 5361.00000    0.26050   21.14960   -9999.25   -9999.25   -9999.25   -9999.25   -9999.25   -9999.25   -9999.25   -9999.25   -9999.25   -9999.25
 5361.50000    0.26180   20.68450   -9999.25   -9999.25   -9999.25   -9999.25   -9999.25   -9999.25   -9999.25   -9999.25   -9999.25   -9999.25
 5362.00000    0.25760   21.66090   -9999.25   -9999.25   -9999.25   -9999.25   -9999.25   -9999.25   -9999.25   -9999.25   -9999.25   -9999.25
 5362.50000    0.25310   20.72230   -9999.25   -9999.25   -9999.25   -9999.25   -9999.25   -9999.25   -9999.25   -9999.25   -9999.25   -9999.25
 5363.00000    0.24960   19.54060    3.00030   10.96940    7.79240    0.19620   -0.10920    0.23280    0.19980    0.20380   66.00520  112.46980
 5363.50000    0.25440   19.80050    3.00040   10.97070    4.97860    0.18180   -0.10950    0.40450    0.20210    0.24390   64.17250  114.91650
 5364.00000    0.24670   21.48920    2.98940   10.98790    3.53990    0.09700   -0.04470   27.28740    0.21180   31.48400   61.22110  117.03720
 5364.50000    0.23290   24.61110    2.82910   10.98920    3.01320    0.03730    0.01710   34.98710    0.60320   33.14610   60.29700  117.90390
 5365.00000    0.20720   26.53870    2.65260   11.03820    2.98220    0.02860    0.05560    5.34950    1.29230   11.97400   60.24210  118.49850
 5365.50000    0.18760   27.74560    2.60910   11.07140    3.04780    0.01750    0.05650    4.00290    1.82560    5.01650   60.54940  118.49150
 5366.00000    0.18570   27.04580    2.60040   11.10450    3.09710    0.01120    0.06390    3.48670    2.08350    3.75350   61.23620  118.48570
 5366.50000    0.19560   28.26110    2.59440   11.10580    3.11440    0.00720    0.07540    3.07920    2.27810    2.62110   62.34680  118.47980
 5367.00000    0.20270   29.71100    2.58580   11.07520    3.13170    0.00410    0.08060    3.25410    2.40990    2.28210   63.28460  117.87330
 5367.50000    0.20460   30.68320    2.57780   11.06050    3.06900    0.00660    0.07800    3.26270    2.50090    2.18910   63.48800  117.26680
 5368.00000    0.19750   29.98340    2.58190   11.01410    3.02230    0.01060    0.06960    3.03700    2.57210    2.13030   61.86340  116.66030
 5368.50000    0.19840   28.56710    2.58860   11.01540    3.03960    0.01470    0.06840    2.83440    2.57920    2.12800   60.54390  114.25210
 5369.00000    0.20420   27.15080    2.58580   11.08030    3.07290    0.01950    0.08020    2.71930    2.40980    2.10080   61.41140  111.84380
 5369.50000    0.21600   26.92450    2.55390   11.14530    3.08980    0.02360    0.09910    2.60900    2.22750    2.09090   60.95980  109.40670
 5370.00000    0.21670   27.90090    2.52870   11.16250    3.04000    0.02290    0.11800    2.53790    2.31540    1.60510   53.84960  104.85910
 5370.50000    0.20860   29.82850    2.50760   11.16380    3.01010    0.01810    0.12150    2.71930    2.68420    1.23500   46.02580   93.21440
 5371.00000    0.19840   31.51730    2.51130   11.14880    2.99770    0.01660    0.11880    2.99530    3.13090    1.17590   46.63470   82.29810
 5371.50000    0.18550   32.25060    2.52570   11.13420    2.99900    0.01670    0.11280    3.34520    3.45460    1.37370   47.82650   83.21990
 5372.00000    0.17220   31.07310    2.54950   11.13580    3.04830    0.01670    0.09720    3.73590    3.46600    2.11600   49.85980   86.70130
 5372.50000    0.17140   27.98480    2.57050   11.13710    3.06560    0.01680    0.07280    4.05860    2.79770    2.46760   51.57360   93.94440
 5373.00000    0.17670   24.65770    2.57450   11.18610    3.06880    0.01680    0.07790    1.86720    1.98900    2.76750   54.09950  103.35860
 5373.50000    0.18820   21.09170    2.55000   11.26700    3.05220    0.01690    0.10740    1.16870    1.23630    1.24520   60.23440  110.49630
 5374.00000    0.22330   20.86540    2.51420   11.34790    2.98950    0.01460    0.15230    1.01820    1.04550    0.67930   64.92570  116.38000
 5374.50000    0.22390   21.20920    2.47760   11.46070    2.91080    0.01140    0.14840    0.96540    1.01160    0.61420   66.27860  122.15940
 5375.00000    0.22550   22.89040    2.51010   11.50970    2.87980    0.00590    0.12720    1.08320    1.12070    0.81350   67.09020  124.68410
 5375.50000    0.22930   25.87400    2.56010   11.54280    2.92940    0.00360    0.08170    1.21100    1.25290    1.58770   66.90930  122.52390
 5376.00000    0.25490   27.38160    2.56790   11.52790    3.05870    0.00520    0.08010    1.31240    1.28820    2.47700   65.28480  120.06390
 5376.50000    0.26770   25.69900    2.55750   11.48140    3.10800    0.00290    0.08810    1.38500    1.28800    1.59510   62.57760  118.35930
 5377.00000    0.26550   25.76700    2.54890   11.43520    3.10930   -0.00340    0.09580    1.44390    1.32430    1.18430   61.85530  118.35340
 5377.50000    0.25010   27.23250    2.54080   11.40470    3.06230   -0.00500    0.10510    1.49210    1.41980    1.12520   62.66980  118.34750
 5378.00000    0.22470   29.15440    2.54110   11.40590    2.99990   -0.00090    0.10280    1.60000    1.60960    1.22980   62.84690  117.74100
 5378.50000    0.20360   30.58290    2.56940   11.40720    2.95320    0.00880    0.09420    1.76900    1.92950    1.45310   61.96990  117.13460
 5379.00000    0.19550   31.54300    2.60090   11.37670    2.95450    0.02160    0.07460    2.04000    2.21820    2.01730   60.29510  115.92750
 5379.50000    0.18530   31.79850    2.61440   11.37790    3.00650    0.02650    0.05280    2.27250    2.22270    3.51600   58.72660  114.11980
 5380.00000    0.17630   28.23250    2.62420   11.37920    3.06880    0.02570    0.04770    2.19460    2.15650    2.49030   58.94770  111.71150
 5380.50000    0.16890   22.03910    2.61500   11.38050    3.08610    0.01870    0.05370    2.06310    2.24840    1.95490   59.43740  109.30320
 5381.00000    0.15570   21.10030    2.60900   11.38180    3.15180    0.00710    0.06210    2.46440    2.51360    1.98220   59.34180  107.48350
 5381.50000    0.14640   22.78920    2.64300   11.36680    3.24860    0.00190    0.05380    2.91310    2.81010    3.10850   58.35130  106.24990
