~Version ---------------------------------------------------
VERS.   2.0 : CWLS log ASCII Standard -VERSION 2.0
WRAP.    NO : One line per depth step
DLM . SPACE : Column Data Section Delimiter
~Well ------------------------------------------------------
STRT .F                  174.0 : START DEPTH
STOP .F                10495.0 : STOP DEPTH
STEP .F                    0.5 : STEP
NULL .                -9999.25 : NULL VALUE
COMP .                         : COMPANY
WELL .                         : WELL
FLD  .                         : FIELD
LOC  .                         : LOCATION
PROV .                         : PROVINCE
CNTY .                         : COUNTY
STAT .                         : STATE
CTRY .                         : COUNTRY
SRVC .                         : SERVICE COMPANY
DATE .                         : DATE
UWI  .                         : UNIQUE WELL ID
API  .                         : API NUMBER
SLAT .WGS84  3.672660125498602 : SURFACE LATITUDE
SLON .WGS84 7.0958042414240055 : SURFACE LONGITUDE
DATUM.F                3544.03 : DEPTH DATUM ELEV
~Curve Information -----------------------------------------
DEPT.F     : 
TNPH.DEC   : THERMAL NEUTRON POROSITY
SGR .GAPI  : STANDARD GAMMA RAY, SPECTROSCOPY GAMMA RAY
RHOZ.G/C3  : HILT BULK DENSITY
HCAL.IN    : HILT CALIPER
PEFZ.B/E   : HILT PHOTOELECTRIC FACTOR
HDRA.G/C3  : DELTA RHO HIP TOOL
DPHZ.DEC   : DENSITY POROSITY LIMESTONE
HLLD.OHMM  : LATEROLOG DEEP RES.
HLLS.OHMM  : LATEROLOG SHALLOW RES.
RXOZ.OHMM  : FLUSHED ZONE RESISTIVITY
DTCO.US/F  : COMPRESSIONAL-WAVE INTERVAL TRANSIT TIME ACAUSTIC SLOWNESS
DTSM.US/F  : SHEAR-WAVE INTERVAL TRANSIT TIME DELTA-T
~Params ----------------------------------------------------
~Other -----------------------------------------------------
~ASCII -----------------------------------------------------
# ...
 7734.00000    0.06670    7.27930    2.77550    9.15480    3.20710    0.01300   -0.02980  806.62860 1345.99380   55.70530   47.32800   88.45650
 7734.50000    0.06270    8.00580    2.78370    9.15610    3.12850    0.01540   -0.03630  705.14080  581.48850   66.66790   46.78450   87.86230
 7735.00000    0.05580    8.01810    2.79100    9.15740    3.09750    0.01700   -0.04850  765.72730  439.09200   84.31890   46.41770   87.86820
 7735.50000    0.04810    7.78340    2.79640    9.15880    3.11540    0.01630   -0.05330 1138.77450  558.65940  103.73830   46.06150   87.27330
 7736.00000    0.03850    8.28950    2.80380    9.14400    3.19690    0.01550   -0.05500 1499.91870  869.02990  115.87090   45.77580   86.67880
 7736.50000    0.03360    8.30180    2.81510    9.14540    3.37470    0.01240   -0.06010 1617.69400 1020.79380  129.42250   45.49960   86.08410
 7737.00000    0.03290    7.82050    2.83020    9.14660    3.48830    0.00850   -0.07370 1468.75090  938.83690  148.60690   45.20720   85.48930
 7737.50000    0.03590    7.33940    2.83790    9.14790    3.56990    0.00530   -0.08110 1294.84450  863.49190  177.85220   44.87580   85.44530
 7738.00000    0.04250    6.85830    2.83530    9.14920    3.50720    0.00220   -0.08300 1304.37150  799.82700  177.87640   44.80360   84.90060
 7738.50000    0.04610    6.37720    2.82160    9.15050    3.31640    0.00300   -0.07120 1340.03750  746.06650  177.90070   44.93960   84.30580
 7739.00000    0.04480    7.39500    2.81430    9.16770    3.18960    0.00470   -0.06320 1379.94840  716.57920  182.90720   45.18820   84.19530
 7739.50000    0.03780    8.63990    2.82240    9.16880    3.12700    0.01030   -0.07160 1589.29710  744.50870  198.73400   45.10630   83.71700
 7740.00000    0.03230    9.12830    2.84290    9.17020    3.09600    0.01360   -0.09090 2032.38760  834.56920  231.36540   44.70960   83.56340
 7740.50000    0.02940    9.14060    2.86410    9.18750    3.11390    0.01680   -0.10020 2264.65990 1027.09800  288.92300   44.31560   83.12910
 7741.00000    0.02750    9.89310    2.86730    9.18870    3.11530    0.01930   -0.10030 2184.62670  999.21580  300.85680   44.22220   83.13510
 7741.50000    0.02510   10.90580    2.86170    9.18980    3.14880    0.02010   -0.09580 1904.47910  846.53860  245.82990   44.41960   82.53940
 7742.00000    0.01920   10.90440    2.88180    9.19130    3.25260    0.01700   -0.09300 1603.53320  816.36190  209.30480   44.95330   83.39550
 7742.50000    0.00860   10.16430    2.90110    9.19260    3.39980    0.01230   -0.10000 4012.95310  985.89730  190.82550   45.89710   84.35430
 7743.00000    0.00050    9.44890    2.92510    9.19360    3.62610    0.00590   -0.12190 15686.69820 1164.02760  250.22580   46.86370   84.96100
 7743.50000   -0.00450   10.21210    2.94210    9.19490    3.88190   -0.00200   -0.14890 27360.44340 1472.73560  276.05700   47.36580   84.65290
 7744.00000   -0.00760   11.96010    2.95170    9.19620    4.08860   -0.01230   -0.15310 60496.86330 4219.95900  307.87150   47.49950   84.37240
 7744.50000   -0.00590   13.69750    2.95500    9.19770    3.89190   -0.01470   -0.15350 23746.51950 2782.98050  330.27990   47.11630   83.77780
 7745.00000   -0.00130   15.42710    2.93770    9.19870    3.63940   -0.00100   -0.13910 20902.82030 4354.95260  341.04110   46.18970   83.18430
 7745.50000    0.00270   15.93290    2.91320    9.20000    3.48060    0.00860   -0.12560 44600.14060 7670.31840  317.13910   44.97040   83.19020
 7746.00000    0.00630   15.93750    2.90640    9.20140    3.40190    0.01430   -0.12020 59396.30860 9401.93070  319.71230   44.33790   82.59460
 7746.50000    0.00720   15.45060    2.89970    9.20250    3.38730    0.01750   -0.11710 55296.48440 2326.32230  327.34300   43.97610   82.60140
 7747.00000    0.00650   14.22070    2.90260    9.20380    3.40490    0.02000   -0.11770 34585.05080 2550.94750  325.81760   44.20450   83.20790
 7747.50000    0.00650   12.02330    2.90540    9.20510    3.42230    0.01760   -0.12130 16392.59180 2890.91240  322.93480   44.60590   84.41500
 7748.00000    0.00820   10.30960    2.90730    9.19050    3.40780    0.01130   -0.12360 10231.93070 3334.35620  321.21930   44.96590   85.62210
 7748.50000    0.01050    8.84170    2.90270    9.17580    3.37720    0.01370   -0.12230 6468.07620 2349.84180  302.84710   45.32590   87.42980
 7749.00000    0.01380    8.11680    2.87420    9.17710    3.26640    0.01780   -0.11240 3827.26980 1746.44170  254.75430   45.68590   88.03630
 7749.50000    0.01700    8.62450    2.85610    9.16250    3.18780    0.01780   -0.09450 2142.96460 1263.52450  232.15980   45.95570   88.64280
 7750.00000    0.01900    9.86900    2.84070    9.16380    3.15680    0.01790   -0.07690 1930.56100  860.30760  216.60970   45.96990   88.04800
 7750.50000    0.02030    8.64290    2.83800    9.14270    3.14220    0.01710   -0.07760 1718.15750 1057.72710  150.23110   45.68320   87.41050
 7751.00000    0.02200    7.90830    2.84760    9.13440    3.21730    0.01720   -0.08820 1870.09840 1315.70080  149.92010   45.59210   85.65740
 7751.50000    0.02360    7.66900    2.86640    9.11980    3.25740    0.01880   -0.09850 2130.85060 1603.75570  201.13040   45.59120   85.06270
 7752.00000    0.02520    8.41840    2.87510    9.12140    3.29740    0.01810   -0.10590 2804.17240 1675.95690  259.25400   45.77080   84.38010
 7752.50000    0.02750    9.41270    2.88090    9.12270    3.34070    0.01410   -0.10630 2944.05590 1629.62570  245.35600   46.13080   83.76380
 7753.00000    0.03120   11.64050    2.85970    9.12370    3.27800    0.01020   -0.08930 2776.74000 1562.71560  205.06660   46.40060   83.14670
 7753.50000    0.03410   14.11500    2.83800    9.12500    3.23140    0.00390   -0.07840 2631.08690 1457.71730  186.19810   46.67040   82.68390
 7754.00000    0.03610   14.36910    2.82850    9.12630    3.21640   -0.00090   -0.07230 2642.00540 1323.31040  178.66290   46.57620   82.08920
 7754.50000    0.03410   14.86990    2.82730    9.12750    3.26630   -0.00080   -0.07490 2672.80350 1208.35670  183.69470   46.29700   81.49450
 7755.00000    0.03080   15.12400    2.83460    9.12880    3.28380    0.00560   -0.08130 2658.27120 1244.85740  199.58960   45.92340   81.50150
 7755.50000    0.02710   14.14460    2.84730    9.13000    3.31730    0.01440   -0.08680 2599.99800 1383.48570  210.95270   45.55460   81.50750
 7756.00000    0.02180   12.91850    2.85950    9.13130    3.31870    0.02010   -0.09610 2923.01830 1626.04380  213.91510   45.21030   80.91290
 7756.50000    0.01720   12.67730    2.86650    9.13260    3.28810    0.02650   -0.10000 3559.10890 1854.24210  222.99320   44.93640   81.20430
 7757.00000    0.01420   13.42670    2.87270    9.13390    3.25710    0.02970   -0.10230 5175.07520 2509.24320  235.68870   44.85950   81.83360
 7757.50000    0.01150   14.42090    2.88040    9.13510    3.32300    0.02420   -0.10520 6635.58110 3231.11620  245.69090   44.91490   83.06290
 7758.00000    0.00950   13.44150    2.88610    9.13640    3.48470    0.01310   -0.10710 7323.99660 3297.59770  256.11750   45.55240   84.64580
 7758.50000    0.00720   11.47520    2.89330    9.13780    3.77460    0.01210   -0.11130 4389.10450 2718.32540  263.32530   45.98600   87.55070
 7759.00000    0.00690   10.24910    2.89830    9.13900    3.90430    0.01960   -0.11810 2671.14790 2310.03690  267.02300   46.32520   88.15720
 7759.50000    0.00720   10.00790    2.90130    9.12430    3.72940    0.01880   -0.12010 2025.60180 1930.96240  278.35490   46.50690   88.76370
 7760.00000    0.00680   11.49750    2.89580    9.12560    3.57060    0.00930   -0.12140 1671.35610 1524.40860   94.81830   46.65880   88.76960
 7760.50000    0.00450   11.99640    2.89500    9.12690    3.52360    0.00210   -0.11430 1918.84110 1223.85600   69.98700   46.50300   88.77550
 7761.00000    0.00220   11.51040    2.90700    9.12830    3.63760    0.00460   -0.11210 3369.11790 1521.01490   77.97160   45.97730   88.78140
 7761.50000    0.00020   12.25980    2.92240    9.12940    3.83130    0.00460   -0.12240 5136.08540 2168.67680  203.91800   45.15490   88.18670
