~Version ---------------------------------------------------
VERS.   2.0 : CWLS log ASCII Standard -VERSION 2.0
WRAP.    NO : One line per depth step
DLM . SPACE : Column Data Section Delimiter
~Well ------------------------------------------------------
STRT .F                  174.0 : START DEPTH
STOP .F                10495.0 : STOP DEPTH
STEP .F                    0.5 : STEP
NULL .                -9999.25 : NULL VALUE
COMP .                         : COMPANY
WELL .                         : WELL
FLD  .                         : FIELD
LOC  .                         : LOCATION
PROV .                         : PROVINCE
CNTY .                         : COUNTY
STAT .                         : STATE
CTRY .                         : COUNTRY
SRVC .                         : SERVICE COMPANY
DATE .                         : DATE
UWI  .                         : UNIQUE WELL ID
API  .                         : API NUMBER
SLAT .WGS84  3.672660125498602 : SURFACE LATITUDE
SLON .WGS84 7.0958042414240055 : SURFACE LONGITUDE
DATUM.F                3544.03 : DEPTH DATUM ELEV
~Curve Information -----------------------------------------
DEPT.F     : 
TNPH.DEC   : THERMAL NEUTRON POROSITY
SGR .GAPI  : STANDARD GAMMA RAY, SPECTROSCOPY GAMMA RAY
RHOZ.G/C3  : HILT BULK DENSITY
HCAL.IN    : HILT CALIPER
PEFZ.B/E   : HILT PHOTOELECTRIC FACTOR
HDRA.G/C3  : DELTA RHO HIP TOOL
DPHZ.DEC   : DENSITY POROSITY LIMESTONE
HLLD.OHMM  : LATEROLOG DEEP RES.
HLLS.OHMM  : LATEROLOG SHALLOW RES.
RXOZ.OHMM  : FLUSHED ZONE RESISTIVITY
DTCO.US/F  : COMPRESSIONAL-WAVE INTERVAL TRANSIT TIME ACAUSTIC SLOWNESS
DTSM.US/F  : SHEAR-WAVE INTERVAL TRANSIT TIME DELTA-T
~Params ----------------------------------------------------
~Other -----------------------------------------------------
~ASCII -----------------------------------------------------
# ...
 8096.50000    0.01010   43.69730    2.89030    8.55670    3.12730    0.01680   -0.11080 1168.41980 1186.04740  350.74610   43.54310   82.72560
 8097.00000    0.00750   37.01080    2.89330    8.55840    3.17630    0.01600   -0.11270  818.27760 1232.96810  327.39130   43.82090   82.71380
 8097.50000    0.00680   35.34520    2.89480    8.56000    3.19360    0.01210   -0.11400  484.75320  638.85700  285.20450   44.41420   83.30250
 8098.00000    0.00970   40.14500    2.89580    8.56160    3.14690    0.00500   -0.11500  436.05720  504.64050  235.10270   45.18780   83.89130
 8098.50000    0.01190   45.18100    2.89400    8.56320    3.13220    0.00600   -0.11530  290.09410  416.65180  191.14450   45.53750   84.48000
 8099.00000    0.01540   49.49940    2.88870    8.56480    3.10150    0.00760   -0.11150  256.27470  361.51670  143.04880   45.60820   85.06870
 8099.50000    0.01960   50.94690    2.87990    8.56640    3.10280    0.01010   -0.10860  251.56490  338.57730  113.13430   45.57910   85.65750
 8100.00000    0.02120   50.23820    2.87490    8.56760    3.10400    0.01570   -0.10510  312.20920  363.90330  162.02260   45.42210   85.64570
 8100.50000    0.01980   49.05410    2.87020    8.56300    3.10550    0.01580   -0.09960  393.90620  559.97220  178.53650   45.51090   85.63360
 8101.00000    0.01860   48.82700    2.86640    8.55880    3.10690    0.01260   -0.09780  404.09010  601.65190  270.26180   45.25690   85.62160
 8101.50000    0.01730   48.31300    2.86300    8.55680    3.10830    0.01020   -0.09490  372.03130  366.08060  196.78910   45.27560   85.60960
 8102.00000    0.01610   47.10130    2.86080    8.57490    3.10980    0.00540   -0.09270  402.04920  425.51480  147.30300   45.58960   84.99700
 8102.50000    0.01490   44.76490    2.86600    8.56030    3.11120    0.00310   -0.09310  496.59480  533.37600  144.28880   45.82080   84.38440
 8103.00000    0.01420   44.31560    2.87110    8.57840    3.11260    0.00070   -0.09800  532.54550  546.59740  194.28840   45.95570   83.76940
 8103.50000    0.01420   44.86010    2.87700    8.59610    3.11560    0.00170   -0.10210  429.39000  381.77260  286.09520   45.81390   83.75770
 8104.00000    0.01480   45.80220    2.88030    8.59790    3.21320    0.00730   -0.10510  415.55760  442.14030  267.09950   45.34200   83.74590
 8104.50000    0.01290   44.98060    2.88580    8.61560    3.34290    0.00640   -0.10900  525.31940  733.48660  256.34780   44.68630   83.73420
 8105.00000    0.01030   35.93770    2.89290    8.63330    3.44050    0.00020   -0.11480  925.44430 1635.65140  267.28110   44.14280   83.12180
 8105.50000    0.01060   31.26860    2.90060    8.63500    3.50620    0.00190   -0.11960 59228.17970 51339.30470  342.81750   43.50900   83.11010
 8106.00000    0.01090   27.38950    2.90160    8.65270    3.55320    0.00180   -0.12210 43334.68360 60673.73440  352.77180   43.32690   83.09840
 8106.50000    0.01150   28.59520    2.89460    8.67040    3.38920   -0.00050   -0.11720 2252.83500 2215.84400  372.68250   43.14490   83.08660
 8107.00000    0.01270   32.67170    2.89080    8.68810    3.21420    0.00040   -0.11340  863.34290  977.31730  303.06210   43.32420   83.67570
 8107.50000    0.01400   35.31280    2.88850    8.72180    3.17350    0.00220   -0.11080  620.15500  692.10160  316.61440   43.41330   83.66370
 8108.00000    0.01460   34.84390    2.88680    8.77140    3.20730    0.00690   -0.10940  721.76870  670.46260  331.90300   43.59270   83.05110
 8108.50000    0.01420   31.98260    2.88420    8.80500    3.30480    0.00600   -0.10940 1004.93990 1186.23690  366.18140   43.50100   83.03900
 8109.00000    0.01390   27.20740    2.88070    8.83870    3.30620    0.00450   -0.10710 1305.99660 1400.21510  347.29680   43.31890   82.42640
 8109.50000    0.01320   25.30310    2.87740    8.84040    3.27560    0.00380   -0.10450 1418.72970 1585.72180  343.74980   43.13690   82.41440
 8110.00000    0.01260   25.79110    2.87580    8.84220    3.21310    0.00870   -0.10180 1674.11560 1871.76060  361.10070   43.13550   81.80180
 8110.50000    0.01320   26.75750    2.87830    8.85990    3.18210    0.01430   -0.10050 1895.42760 1929.11960  417.41510   43.13420   81.78980
 8111.00000    0.01410   27.24550    2.88040    8.90950    3.18390    0.01520   -0.10310 1380.42290 1381.76710  429.17790   42.94670   81.77780
 8111.50000    0.01500   27.49190    2.88070    8.95910    3.16900    0.01520   -0.10600 1122.59030 1123.41220  393.52420   42.48780   81.76580
 8112.00000    0.01440   26.54690    2.88080    8.97680    3.18680    0.01930   -0.10640 1316.87920 1307.87240  361.78590   42.31690   81.75380
 8112.50000    0.01370   24.88180    2.88190    8.97850    3.30020    0.02410   -0.10580 1859.95400 1847.35230  354.12450   42.42850   81.74170
 8113.00000    0.01300   25.13050    2.88400    8.98030    3.36570    0.01460   -0.10580 2056.76120 2182.00100  356.66090   42.68970   81.72970
 8113.50000    0.01300   25.85780    2.88700    8.98200    3.38310    0.00900   -0.10740 2088.34590 2249.69430  330.66380   42.94550   81.71770
 8114.00000    0.01230   25.38880    2.89070    8.98380    3.38450    0.00580   -0.10970 2354.72050 2683.34450  298.52110   42.94400   81.70330
 8114.50000    0.01070   24.91750    2.89460    8.98550    3.38600    0.01070   -0.11290 3065.98830 3261.05740  326.27580   42.94260   81.69160
 8115.00000    0.00970   28.03950    2.89540    8.99510    3.32340    0.01070   -0.11520 3534.04640 3655.12670  380.11830   43.03180   81.67980
 8115.50000    0.00900   31.15900    2.89460    9.01280    3.26090    0.01240   -0.11550 2752.25460 3386.95240  418.83740   43.05880   81.66810
 8116.00000    0.00900   33.56090    2.89310    9.07050    3.21430    0.01890   -0.11370 2207.54590 2547.05400  442.77290   43.30360   81.65630
 8116.50000    0.00930   33.33120    2.89230    9.07220    3.18340    0.02850   -0.11180 2118.21560 2247.93650  455.32630   43.66030   81.64460
 8117.00000    0.00960   31.90530    2.89290    9.07400    3.13720    0.02700   -0.11270 2465.31810 2196.93600  425.09420   43.53130   81.63280
 8117.50000    0.01020   30.24020    2.89420    9.09200    3.13860    0.02540   -0.11530 3248.35060 2321.94480  396.86960   43.43680   81.62110
 8118.00000    0.01050   27.85740    2.89560    9.12540    3.17200    0.01660   -0.11540 3780.59960 2709.96480  408.12150   43.34220   81.60930
 8118.50000    0.00980   26.43150    2.89680    9.14360    3.20550    0.01270   -0.11440 3995.23440 3295.27660  408.26010   43.29320   81.59760
 8119.00000    0.00880   25.48410    2.89730    9.17670    3.27090    0.01350   -0.11320 3886.83180 3777.67580  397.27440   43.29190   82.18640
 8119.50000    0.00880   24.53430    2.89730    9.17850    3.33630    0.01360   -0.11350 3117.57450 3616.15010  381.28280   43.29050   82.17420
 8120.00000    0.00940   23.11080    2.89640    9.19620    3.35340    0.01040   -0.11550 2535.28030 2614.47020  360.91640   43.28890   82.16220
 8120.50000    0.01070   22.16340    2.89500    9.19790    3.29120    0.00890   -0.11710 2570.65310 2406.91600  376.30960   43.28760   82.15010
 8121.00000    0.01160   21.69450    2.89360    9.19970    3.21230    0.00970   -0.11520 2792.55130 2651.54660  386.97860   43.28620   82.13810
 8121.50000    0.01190   21.94330    2.89270    9.20140    3.21410    0.01140   -0.11300 2951.09180 2961.65550  403.64110   43.55600   82.12610
 8122.00000    0.01190   22.67050    2.89100    9.22080    3.21550    0.01300   -0.11240 3205.82930 3262.66720  409.57530   43.73540   82.11410
 8122.50000    0.01180   22.44080    2.89030    9.23680    3.21690    0.00350   -0.11270 3532.66670 3544.98240  415.06360   43.82450   82.10210
 8123.00000    0.01250   21.73260    2.88960    9.23860    3.21840    0.00270   -0.11270 3629.87430 3746.80760  403.22180   43.73270   82.09010
 8123.50000    0.01340   21.74210    2.88910    9.25630    3.21980    0.00350   -0.11180 2999.54590 3309.38790  397.65590   43.64100   82.07810
 8124.00000    0.01430   23.18710    2.88560    9.25810    3.18890    0.00440   -0.11020 2312.62110 2546.03250  392.16680   43.63970   82.06610
