~Version ---------------------------------------------------
VERS.   2.0 : CWLS log ASCII Standard -VERSION 2.0
WRAP.    NO : One line per depth step
DLM . SPACE : Column Data Section Delimiter
~Well ------------------------------------------------------
STRT .F                  174.0 : START DEPTH
STOP .F                10495.0 : STOP DEPTH
STEP .F                    0.5 : STEP
NULL .                -9999.25 : NULL VALUE
COMP .                         : COMPANY
WELL .                         : WELL
FLD  .                         : FIELD
LOC  .                         : LOCATION
PROV .                         : PROVINCE
CNTY .                         : COUNTY
STAT .                         : STATE
CTRY .                         : COUNTRY
SRVC .                         : SERVICE COMPANY
DATE .                         : DATE
UWI  .                         : UNIQUE WELL ID
API  .                         : API NUMBER
SLAT .WGS84  3.672660125498602 : SURFACE LATITUDE
SLON .WGS84 7.0958042414240055 : SURFACE LONGITUDE
DATUM.F                3544.03 : DEPTH DATUM ELEV
~Curve Information -----------------------------------------
DEPT.F     : 
TNPH.DEC   : THERMAL NEUTRON POROSITY
SGR .GAPI  : STANDARD GAMMA RAY, SPECTROSCOPY GAMMA RAY
RHOZ.G/C3  : HILT BULK DENSITY
HCAL.IN    : HILT CALIPER
PEFZ.B/E   : HILT PHOTOELECTRIC FACTOR
HDRA.G/C3  : DELTA RHO HIP TOOL
DPHZ.DEC   : DENSITY POROSITY LIMESTONE
HLLD.OHMM  : LATEROLOG DEEP RES.
HLLS.OHMM  : LATEROLOG SHALLOW RES.
RXOZ.OHMM  : FLUSHED ZONE RESISTIVITY
DTCO.US/F  : COMPRESSIONAL-WAVE INTERVAL TRANSIT TIME ACAUSTIC SLOWNESS
DTSM.US/F  : SHEAR-WAVE INTERVAL TRANSIT TIME DELTA-T
~Params ----------------------------------------------------
~Other -----------------------------------------------------
~ASCII -----------------------------------------------------
# ...
 8768.50000    0.02360   17.61470    2.86480    8.49990    3.07380    0.00990   -0.09670  835.61750  602.05730  227.44060   45.32420   82.98800
 8769.00000    0.02390   16.65540    2.86280    8.50020    3.07430    0.00990   -0.09500  805.80660  569.82170  250.27020   45.23470   83.60950
 8769.50000    0.02680   15.69600    2.86260    8.50050    3.07480    0.01070   -0.09380  888.84070  577.86350  278.16990   45.43990   85.47480
 8770.00000    0.02780   15.45430    2.86580    8.50080    3.07530    0.01150   -0.09440 1001.14300  602.42850  296.40330   46.10460   87.74870
 8770.50000    0.02520   15.69120    2.87110    8.50110    3.07570    0.01000   -0.09820 1084.69240  636.77020  311.38210   46.94780   87.63030
 8771.00000    0.02130   17.12410    2.87630    8.50140    3.09220    0.00760   -0.10090 1142.70590  663.83900  320.26820   47.57880   87.11710
 8771.50000    0.01750   19.03560    2.88140    8.50180    3.09270    0.00920   -0.10440 1184.69090  711.43800  333.99760   46.47210   86.50150
 8772.00000    0.01590   20.70780    2.88280    8.51800    3.09320    0.01080   -0.10630 1242.38170  741.68120  326.72110   45.78270   86.48650
 8772.50000    0.01490   21.90160    2.87970    8.51830    3.09370    0.01000   -0.10630 1254.49990  673.48440  309.09590   45.46750   86.28080
 8773.00000    0.01490   22.61740    2.87310    8.53460    3.09420    0.00840   -0.10560 1209.25380  586.74130  298.84990   45.40450   85.64380
 8773.50000    0.01620   22.37520    2.85890    8.55090    3.09460    0.00760   -0.10180 1127.53060  578.80100  293.14800   45.52880   85.00570
 8774.00000    0.01880   21.41580    2.85180    8.56720    3.07900    0.00610   -0.09880  826.96590  540.31020  289.20770   45.62100   83.76800
 8774.50000    0.02130   20.93490    2.84760    8.58340    3.07950    0.00530   -0.09090  506.70310  410.00800  273.75560   45.71350   83.40840
 8775.00000    0.02790   20.69380    2.84310    8.59970    3.08000    0.00530   -0.08510  407.43280  282.46360  171.23140   45.76050   84.29430
 8775.50000    0.03470   20.98630    2.83810    8.60000    3.06450    0.00780   -0.08160  381.46730  156.02010   81.25760   45.71080   85.82370
 8776.00000    0.04160   23.41990    2.83280    8.61630    3.06500    0.00930   -0.07870  350.86620  160.42190   95.92840   45.66750   87.05750
 8776.50000    0.04800   29.07450    2.82490    8.61660    3.04940    0.00930   -0.07360  182.96970  169.56690  139.31080   45.84660   88.75090
 8777.00000    0.05430   38.62680    2.80630    8.63290    3.04990    0.00540   -0.06620  106.76190  145.70120    9.93460   46.92960   89.33670
 8777.50000    0.06390   38.14590    2.79110    8.63320    3.05040   -0.00020   -0.05130   79.76160   69.13760    8.56700   48.55480   90.52320
 8778.00000    0.07740   30.96640    2.77790    8.66540    3.06690   -0.00340   -0.04300   66.13890   34.19450   28.09890   49.54740   91.70960
 8778.50000    0.08570   24.74390    2.74890    8.68170    3.06740   -0.00340   -0.03890   49.05150   15.78390   21.92110   50.35930   92.89610
 8779.00000    0.09850   20.67450    2.73750    8.69800    3.03590   -0.00100   -0.03250   33.73970   10.72470   12.62120   50.62910   94.08260
 8779.50000    0.10880   19.71510    2.72340    8.74620    2.98840    0.00380   -0.01960   26.65440    8.36620    7.16710   50.62770   95.26900
 8780.00000    0.12800   18.51650    2.71050    8.76240    2.95690    0.00950   -0.00770   24.25900    9.47530    5.00650   50.62640   97.05610
 8780.50000    0.13250   18.51410    2.70650    8.77860    2.92540    0.01030    0.00250   24.86750   10.01820    4.60240   50.80580   97.04130
 8781.00000    0.13350   18.99020    2.70430    8.79490    2.92580    0.01190    0.00570   23.73980   10.29800    5.29380   51.07560   97.62760
 8781.50000    0.13220   18.98770    2.70510    8.79520    2.92630    0.01510    0.00540   24.07430   10.30020    5.44350   52.15860   97.61240
 8782.00000    0.13020   18.02840    2.71400    8.79580    2.94280    0.01270    0.00410   28.41190   10.63100    5.59740   52.88120   96.98750
 8782.50000    0.12700   18.50440    2.72540    8.81180    2.94320    0.01030    0.00250   33.07170   12.06590    5.52220   52.96920   95.72340
 8783.00000    0.11710   20.65510    2.73690    8.82810    2.94600    0.00720   -0.00030   36.43020   13.87100    5.91850   52.34670   93.91130
 8783.50000    0.10110   20.89250    2.74760    8.84430    2.97620    0.00560   -0.00680   39.03830   15.94610    8.60850   50.20140   92.07330
 8784.00000    0.09240   19.93260    2.76000    8.84470    2.99330    0.00560   -0.01730   38.51170   18.16210   18.40300   48.05670   90.83520
 8784.50000    0.08920   18.73400    2.77510    8.84500    3.02510    0.00640   -0.03160   35.95350   11.10010   19.70500   48.11950   90.31530
 8785.00000    0.08730   18.21310    2.77970    8.86130    3.02560    0.00720   -0.04300   35.74830    9.62680   22.28890   48.35410   90.90260
 8785.50000    0.08530   18.01200    2.78080    8.86160    3.02610    0.00640   -0.04680   47.38920   11.70790   23.57810   48.09950   90.88590
 8786.00000    0.08370   17.75380    2.77580    8.87790    3.02660    0.00080   -0.04520   58.28930   16.08010   21.41160   47.66320   90.27030
 8786.50000    0.08170   17.05020    2.77370    8.87820    3.02710    0.00090   -0.04270   66.00400   21.54260   26.34690   47.32470   89.44890
 8787.00000    0.07750   17.52630    2.78180    8.89450    3.02760    0.00330   -0.03850   70.72930   26.57400   25.43020   47.04900   88.20960
 8787.50000    0.07200   20.39470    2.78820    8.89480    3.02800    0.00810   -0.03950   81.20230   25.95590   22.85760   46.90140   87.22220
 8788.00000    0.06730   23.50230    2.79790    8.89510    3.02850    0.01130   -0.04710   99.87980   34.65840   26.22300   47.03140   86.33380
 8788.50000    0.06390   25.41390    2.80350    8.91140    3.01290    0.00890   -0.05290  107.15810   45.00070   34.69520   47.21400   86.59160
 8789.00000    0.06190   24.45440    2.80330    8.92760    3.01350    0.00970   -0.05770   77.95990   44.37260   35.25770   47.44450   87.49410
 8789.50000    0.06160   23.97350    2.79830    8.92800    3.01400    0.00900   -0.05640   58.37300   35.68810   26.91440   47.76010   88.70180
 8790.00000    0.06100   23.73250    2.79490    8.94420    3.01450    0.00820   -0.05000   55.99180   22.22220   22.82550   47.97860   89.54950
 8790.50000    0.05740   24.44710    2.80130    8.94460    3.01500    0.00900   -0.05160   62.56480   19.78370   21.76280   47.79660   90.13510
 8791.00000    0.05040   26.35860    2.80980    8.94480    3.03140    0.00900   -0.05640   72.85090   28.42360   26.87100   47.16270   90.11770
 8791.50000    0.04300   28.50930    2.82250    8.96110    3.07990    0.00900   -0.06320   86.18440   44.63080   38.42780   46.61920   88.90180
 8792.00000    0.03560   29.46440    2.83400    8.96140    3.11530    0.01140   -0.06990  104.62320   68.00150   97.79050   46.16610   88.28640
 8792.50000    0.03270   29.94040    2.84110    8.96170    3.13100    0.01390   -0.07860  139.99320  103.83580  152.13250   45.98400   87.67110
 8793.00000    0.03240   28.50200    2.84640    8.97800    3.14530    0.01550   -0.08380  220.35910  117.20430  116.75530   45.89230   86.45510
 8793.50000    0.03240   26.82490    2.84510    8.97830    3.14580    0.01150   -0.08460  307.06310  132.85730   72.27380   45.80070   85.23920
 8794.00000    0.03240   25.86560    2.84330    8.97860    3.14620    0.00590   -0.08400  337.93950  142.73260   72.35600   45.61860   85.22440
 8794.50000    0.03340   26.58090    2.84170    8.97900    3.14670    0.00590   -0.08210  335.77110  143.72350  135.16830   45.07510   85.81080
 8795.00000    0.03370   27.29680    2.84100    8.99520    3.14720    0.00770   -0.08140  327.86410  157.41850  180.25160   44.62200   86.39640
 8795.50000    0.03370   26.76060    2.84100    8.99560    3.14770    0.01080   -0.08330  421.67140  195.18970  165.56330   44.43990   86.38140
 8796.00000    0.03430   24.62720    2.83980    9.01180    3.14820    0.01070   -0.08300  485.09290  222.44960  128.87900   44.53970   86.34010
