~Version ---------------------------------------------------
VERS.   2.0 : CWLS log ASCII Standard -VERSION 2.0
WRAP.    NO : One line per depth step
DLM . SPACE : Column Data Section Delimiter
~Well ------------------------------------------------------
STRT .F                  174.0 : START DEPTH
STOP .F                10495.0 : STOP DEPTH
STEP .F                    0.5 : STEP
NULL .                -9999.25 : NULL VALUE
COMP .                         : COMPANY
WELL .                         : WELL
FLD  .                         : FIELD
LOC  .                         : LOCATION
PROV .                         : PROVINCE
CNTY .                         : COUNTY
STAT .                         : STATE
CTRY .                         : COUNTRY
SRVC .                         : SERVICE COMPANY
DATE .                         : DATE
UWI  .                         : UNIQUE WELL ID
API  .                         : API NUMBER
SLAT .WGS84  3.672660125498602 : SURFACE LATITUDE
SLON .WGS84 7.0958042414240055 : SURFACE LONGITUDE
DATUM.F                3544.03 : DEPTH DATUM ELEV
~Curve Information -----------------------------------------
DEPT.F     : 
TNPH.DEC   : THERMAL NEUTRON POROSITY
SGR .GAPI  : STANDARD GAMMA RAY, SPECTROSCOPY GAMMA RAY
RHOZ.G/C3  : HILT BULK DENSITY
HCAL.IN    : HILT CALIPER
PEFZ.B/E   : HILT PHOTOELECTRIC FACTOR
HDRA.G/C3  : DELTA RHO HIP TOOL
DPHZ.DEC   : DENSITY POROSITY LIMESTONE
HLLD.OHMM  : LATEROLOG DEEP RES.
HLLS.OHMM  : LATEROLOG SHALLOW RES.
RXOZ.OHMM  : FLUSHED ZONE RESISTIVITY
DTCO.US/F  : COMPRESSIONAL-WAVE INTERVAL TRANSIT TIME ACAUSTIC SLOWNESS
DTSM.US/F  : SHEAR-WAVE INTERVAL TRANSIT TIME DELTA-T
~Params ----------------------------------------------------
~Other -----------------------------------------------------
~ASCII -----------------------------------------------------
# ...
 10476.50000   -9999.25   -9999.25    2.68840    7.72530    3.70460    0.00880    0.04500  135.87070  178.15590  146.23700   64.32290  134.57600
 10477.00000   -9999.25   -9999.25    2.65960    7.72710    3.56210    0.01210    0.07480  120.28080  133.26320  129.53830   71.64000  143.57910
 10477.50000   -9999.25   -9999.25    2.62460    7.72880    3.45160    0.01380    0.09650  124.08860  187.79410  126.53500   82.30040  145.97570
 10478.00000   -9999.25   -9999.25    2.57940    7.71460    3.37320    0.01550    0.10100  145.05790  214.69530  135.87940   82.02710  144.76860
 10478.50000   -9999.25   -9999.25    2.55190    7.71640    3.34270    0.01640    0.09550  161.46720  225.45200  163.95630   81.29620  142.36030
 10479.00000   -9999.25   -9999.25    2.55140    7.70210    3.31220    0.01330    0.09460  167.31890  217.48610  179.87300   80.65200  141.12910
 10479.50000   -9999.25   -9999.25    2.55380    7.70390    3.31370    0.01100    0.09430  172.08640  200.68540  181.39740   80.09690  140.49390
 10480.00000   -9999.25   -9999.25    2.55530    7.70570    3.31530    0.01350    0.09390  179.64740  191.21410  181.44760   79.64430  139.93990
 10480.50000   -9999.25   -9999.25    2.55710    7.70740    3.31680    0.01520    0.09390  192.73330  204.66290  182.75460   79.37980  139.93390
 10481.00000   -9999.25   -9999.25    2.55710    7.70920    3.33430    0.01450    0.09610  209.62450  220.63250  190.60980   79.21230  139.92790
 10481.50000   -9999.25   -9999.25    2.55110    7.71100    3.31950    0.01150    0.10190  219.15020  242.23560  193.09180   79.23240  140.52330
 10482.00000   -9999.25   -9999.25    2.54530    7.69660    3.27300    0.00760    0.10440  225.30820  259.94150  184.81860   79.41450  140.70870
 10482.50000   -9999.25   -9999.25    2.54400    7.68250    3.24290    0.01090    0.10540  231.63920  281.21390  171.94340   79.68680  141.33120
 10483.00000   -9999.25   -9999.25    2.54130    7.66780    3.21250    0.01420    0.10630  238.14810  295.74450  162.74800   80.08250  143.15570
 10483.50000   -9999.25   -9999.25    2.53820    7.65400    3.19760    0.01510    0.10760  248.23920  304.24730  165.05580   80.57480  144.65720
 10484.00000   -9999.25   -9999.25    2.53490    7.65580    3.19950    0.01600    0.11200  258.75780  319.45470  172.08380   81.12590  146.20180
 10484.50000   -9999.25   -9999.25   -9999.25    7.65760    3.21710    0.01450    0.11620  269.72210  337.97080  189.59950   81.58520  147.69370
 10485.00000   -9999.25   -9999.25   -9999.25    7.67520    3.21840    0.01380    0.11770  281.15100  344.91140  213.54390   81.99840  148.28830
 10485.50000   -9999.25   -9999.25   -9999.25   -9999.25   -9999.25   -9999.25   -9999.25  289.05110  321.43770   -9999.25   82.31440  147.08000
 10486.00000   -9999.25   -9999.25   -9999.25   -9999.25   -9999.25   -9999.25   -9999.25  277.37650  299.75090   -9999.25   82.62300  145.27240
 10486.50000   -9999.25   -9999.25   -9999.25   -9999.25   -9999.25   -9999.25   -9999.25  231.89130  278.89220   -9999.25   82.80200  144.66590
 10487.00000   -9999.25   -9999.25   -9999.25   -9999.25   -9999.25   -9999.25   -9999.25  225.61470  278.98720   -9999.25   82.89010  144.66000
 10487.50000   -9999.25   -9999.25   -9999.25   -9999.25   -9999.25   -9999.25   -9999.25  225.64540  277.79600   -9999.25   82.97820  144.65420
 10488.00000   -9999.25   -9999.25   -9999.25   -9999.25   -9999.25   -9999.25   -9999.25  238.47210  279.17750   -9999.25   82.97560  144.64830
 10488.50000   -9999.25   -9999.25   -9999.25   -9999.25   -9999.25   -9999.25   -9999.25  259.20500  283.15570   -9999.25   82.88300  144.64240
 10489.00000   -9999.25   -9999.25   -9999.25   -9999.25   -9999.25   -9999.25   -9999.25  277.91290  295.23260   -9999.25   82.88080  144.63660
 10489.50000   -9999.25   -9999.25   -9999.25   -9999.25   -9999.25   -9999.25   -9999.25  281.49660  303.60300   -9999.25   82.87860  144.63060
 10490.00000   -9999.25   -9999.25   -9999.25   -9999.25   -9999.25   -9999.25   -9999.25  273.11230  316.55200   -9999.25   82.87650  144.62460
 10490.50000   -9999.25   -9999.25   -9999.25   -9999.25   -9999.25   -9999.25   -9999.25  257.40340  325.52700   -9999.25   -9999.25   -9999.25
 10491.00000   -9999.25   -9999.25   -9999.25   -9999.25   -9999.25   -9999.25   -9999.25  230.20790  312.42370   -9999.25   -9999.25   -9999.25
 10491.50000   -9999.25   -9999.25   -9999.25   -9999.25   -9999.25   -9999.25   -9999.25  208.22560  218.25790   -9999.25   -9999.25   -9999.25
 10492.00000   -9999.25   -9999.25   -9999.25   -9999.25   -9999.25   -9999.25   -9999.25  183.09600  240.48990   -9999.25   -9999.25   -9999.25
 10492.50000   -9999.25   -9999.25   -9999.25   -9999.25   -9999.25   -9999.25   -9999.25  160.18920  247.53660   -9999.25   -9999.25   -9999.25
 10493.00000   -9999.25   -9999.25   -9999.25   -9999.25   -9999.25   -9999.25   -9999.25  147.79790  185.11850   -9999.25   -9999.25   -9999.25
 10493.50000   -9999.25   -9999.25   -9999.25   -9999.25   -9999.25   -9999.25   -9999.25  137.81400  161.29760   -9999.25   -9999.25   -9999.25
 10494.00000   -9999.25   -9999.25   -9999.25   -9999.25   -9999.25   -9999.25   -9999.25  129.05950  154.77170   -9999.25   -9999.25   -9999.25
 10494.50000   -9999.25   -9999.25   -9999.25   -9999.25   -9999.25   -9999.25   -9999.25  124.35340  150.63940   -9999.25   -9999.25   -9999.25
 10495.00000   -9999.25   -9999.25   -9999.25   -9999.25   -9999.25   -9999.25   -9999.25  122.61810  146.58600   -9999.25   -9999.25   -9999.25
