~Version ---------------------------------------------------
VERS.   2.0 : CWLS log ASCII Standard -VERSION 2.0
WRAP.    NO : One line per depth step
DLM . SPACE : Column Data Section Delimiter
~Well ------------------------------------------------------
STRT .F                  174.0 : START DEPTH
STOP .F                10495.0 : STOP DEPTH
STEP .F                    0.5 : STEP
NULL .                -9999.25 : NULL VALUE
COMP .                         : COMPANY
WELL .                         : WELL
FLD  .                         : FIELD
LOC  .                         : LOCATION
PROV .                         : PROVINCE
CNTY .                         : COUNTY
STAT .                         : STATE
CTRY .                         : COUNTRY
SRVC .                         : SERVICE COMPANY
DATE .                         : DATE
UWI  .                         : UNIQUE WELL ID
API  .                         : API NUMBER
SLAT .WGS84  3.672660125498602 : SURFACE LATITUDE
SLON .WGS84 7.0958042414240055 : SURFACE LONGITUDE
DATUM.F                3544.03 : DEPTH DATUM ELEV
~Curve Information -----------------------------------------
DEPT.F     : 
TNPH.DEC   : THERMAL NEUTRON POROSITY
SGR .GAPI  : STANDARD GAMMA RAY, SPECTROSCOPY GAMMA RAY
RHOZ.G/C3  : HILT BULK DENSITY
HCAL.IN    : HILT CALIPER
PEFZ.B/E   : HILT PHOTOELECTRIC FACTOR
HDRA.G/C3  : DELTA RHO HIP TOOL
DPHZ.DEC   : DENSITY POROSITY LIMESTONE
HLLD.OHMM  : LATEROLOG DEEP RES.
HLLS.OHMM  : LATEROLOG SHALLOW RES.
RXOZ.OHMM  : FLUSHED ZONE RESISTIVITY
DTCO.US/F  : COMPRESSIONAL-WAVE INTERVAL TRANSIT TIME ACAUSTIC SLOWNESS
DTSM.US/F  : SHEAR-WAVE INTERVAL TRANSIT TIME DELTA-T
~Params ----------------------------------------------------
~Other -----------------------------------------------------
~ASCII -----------------------------------------------------
# ...
 6026.00000    0.06690   60.23190    2.76020    9.06890    2.91350    0.00730   -0.01060   44.61320   41.22590   33.34500   55.24440   97.21360
 6026.50000    0.06820   61.44530    2.74270    9.10250    2.85160    0.00810    0.00860   39.54830   28.60230   27.13500   55.69380   98.41770
 6027.00000    0.07040   63.37530    2.70130    9.15200    2.75560    0.01140    0.02720   24.46180   20.90790   15.74930   56.50400  100.82310
 6027.50000    0.07330   67.21620    2.63430    9.18560    2.63170    0.01390    0.03740   17.81050   16.56450   13.71410   57.41310  103.22840
 6028.00000    0.07970   72.01240    2.56020    9.20330    2.58580    0.01470    0.05340   16.62680   11.99290   13.01220   58.51450  105.03320
 6028.50000    0.08960   77.76410    2.53610    9.23690    2.57340    0.01480    0.09270   16.40330    6.23930   10.81070   59.89350  106.23730
 6029.00000    0.11230   79.93300    2.52500    9.27050    2.60740    0.01410    0.11320   13.90220    5.29440    5.57580   61.16720  107.44150
 6029.50000    0.11130   79.23560    2.53170    9.30410    2.60930    0.01340    0.11000    5.90730    6.29410    3.93960   62.35770  109.26180
 6030.00000    0.09530   78.06050    2.54810    9.33780    2.61120    0.01420    0.08660    5.82980    7.84160    4.33960   63.33260  109.84990
 6030.50000    0.09200   77.83610    2.56290    9.35540    2.61310    0.01590    0.08620    7.27080    7.92330    5.17270   63.70970  109.85290
 6031.00000    0.10000   77.14350    2.57390    9.37310    2.61500    0.01680    0.09390    7.83890    6.26650    4.71890   63.36310  109.76730
 6031.50000    0.10250   75.25180    2.55320    9.39080    2.60090    0.01520    0.10280    6.51390    5.68370    4.07210   62.80990  107.94460
 6032.00000    0.09960   71.92710    2.54280    9.39260    2.58690    0.01210    0.09610    6.24420    6.90200    4.76640   62.22560  105.98550
 6032.50000    0.08810   69.79660    2.54040    9.39430    2.58880    0.01060    0.08320    7.79900    8.58240    5.94570   61.61340  103.09790
 6033.00000    0.08130   68.14380    2.55070    9.39610    2.62270    0.00910    0.07260    8.95620    9.42940    6.37160   61.11300  100.49040
 6033.50000    0.07840   65.77450    2.56440    9.39790    2.65660    0.00910    0.06300    9.60170   10.14250    7.31610   60.20300   97.65070
 6034.00000    0.07360   63.49740    2.58050    9.39960    2.70660    0.00840    0.05240   10.15260   13.04230    9.77850   58.83090   95.59590
 6034.50000    0.06520   60.14060    2.60080    9.38500    2.75650    0.00850    0.03920   10.78070   21.56040   12.36750   56.70990   93.40460
 6035.00000    0.06100   55.23760    2.65100    9.38720    2.82240    0.00940    0.01650   14.22150   38.75440   16.08000   52.91440   91.44170
 6035.50000    0.05360   48.05770    2.68520    9.38900    2.88830    0.01180   -0.00870   17.68110   62.30190   26.43850   48.71360   89.45530
 6036.00000    0.04400   38.21570    2.73580    9.39070    2.97030    0.01590   -0.04810   44.37140  138.06260   44.07420   46.99760   87.93650
 6036.50000    0.03790   22.99120    2.79760    9.39250    3.11620    0.02160   -0.07540   77.07780  248.59840  140.60210   46.54470   86.11300
 6037.00000    0.03080   20.02050    2.83090    9.39430    3.27810    0.02240   -0.09370  182.59480  375.49160  317.59530   47.08430   85.26780
 6037.50000    0.02880   20.06370    2.85210    9.39600    3.34400    0.02090   -0.10150  294.45500  502.38480  373.38540   47.62380   85.87140
 6038.00000    0.03070   20.32130    2.86580    9.39740    3.42600    0.02340   -0.10760  438.12140  486.19970  359.71260   47.80270   87.67610
 6038.50000    0.03360   19.62400    2.87560    9.38320    3.39590    0.02900   -0.10690  513.50760  335.59020  374.97810   48.07140   88.88030
 6039.00000    0.03710   19.15730    2.87940    9.38510    3.34980    0.03310   -0.10170  270.08430  213.49540  323.48240   48.25010   90.08440
 6039.50000    0.04060   18.70690    2.88100    9.37080    3.27170    0.03080   -0.09490  144.82120  139.69680  208.38110   48.51900   90.68790
 6040.00000    0.04190   18.96500    2.87140    9.37260    3.20970    0.02610   -0.08370   68.45550   72.82260  106.10280   48.60750   91.89210
 6040.50000    0.04020   19.22300    2.84780    9.37440    3.17950    0.02210   -0.06330   49.07840   55.10280   53.47130   48.78610   93.09620
 6041.00000    0.03860   20.91420    2.82060    9.37610    3.16540    0.02060   -0.05880   44.69020   46.61940   42.15690   48.87460   93.09920
 6041.50000    0.03790   23.08300    2.80790    9.37790    3.19940    0.02310   -0.05980   42.83760   70.87680   34.70930   48.97480   93.10210
 6042.00000    0.03890   26.44620    2.80590    9.36370    3.26540    0.02390   -0.07840   50.91220  170.78200   64.41930   49.32220   91.28770
 6042.50000    0.04110   29.09280    2.82190    9.36540    3.34730    0.02240   -0.08230  118.46250  219.61040  197.64770   49.42110   89.46490
 6043.00000    0.04490   35.56100    2.83300    9.36720    3.35220    0.02010   -0.08170  202.79960  136.68220   86.12710   49.63060   88.90680
 6043.50000    0.06280   45.85090    2.83960    9.36900    3.28710    0.01780   -0.07240   32.09150   57.55380   27.27350   50.05570   89.51050
 6044.00000    0.07660   48.25860    2.82840    9.38660    3.22510    0.01700   -0.06250   27.57670   32.94350   21.82370   50.23760   89.51350
 6044.50000    0.08040   46.36700    2.81550    9.38840    3.19450    0.01630   -0.05900   36.35470   27.87160   21.08750   50.30580   89.38010
 6045.00000    0.07330   42.08680    2.80840    9.39020    3.14890    0.01640   -0.06030   32.20880   27.69760   21.47830   50.30380   88.75860
 6045.50000    0.06590   38.04550    2.80680    9.39190    3.13440    0.01650   -0.06580   31.68300   33.90390   25.08720   50.27160   88.13710
 6046.00000    0.06170   35.67610    2.80770    9.39370    3.13680    0.01730   -0.06900   35.26590   38.45170   28.80590   50.05230   87.51550
 6046.50000    0.05790   36.88960    2.81590    9.39550    3.13870    0.01980   -0.07100   39.46030   43.00510   32.17490   49.44510   86.89400
 6047.00000    0.05180   38.33710    2.82250    9.41310    3.15660    0.02230   -0.07360   43.25180   54.53430   44.82330   48.15960   86.52850
 6047.50000    0.04150   35.49480    2.82850    9.41490    3.17450    0.02550   -0.07680   47.75040   79.51080   73.69800   47.54440   87.09150
 6048.00000    0.02220   35.27040    2.83290    9.44870    3.25650    0.02960   -0.08200   61.04680  105.13760   90.67130   47.40570   88.64020
 6048.50000    0.01190   36.48860    2.84380    9.46620    3.45040    0.03290   -0.09250   98.85190  114.35140   87.00370   47.92570   90.46900
 6049.00000    0.00260   34.35810    2.86520    9.46800    3.64430    0.03370   -0.10390  120.82390  112.79780   85.06940   49.38670   92.65080
 6049.50000   -0.00060   23.86780    2.90430    9.48560    3.96620    0.02740   -0.12880  113.12410  168.01980  139.17280   51.09920   93.15070
 6050.00000    0.00030   22.44900    2.93860    9.50330    4.22370    0.01830   -0.15060  188.41540  462.02600  170.10280   52.99220   93.15360
 6050.50000    0.02690   26.53240    2.95440    9.56840    4.12430   -0.00840   -0.15000  392.57250  246.78770   60.79290   53.26110   92.55600
 6051.00000    0.06410   38.01420    2.92720    9.56990    3.92280   -0.00350   -0.08980  103.91830   68.09590   11.75630   53.43980   91.35770
 6051.50000    0.07300   50.45150    2.87930    9.58730    3.46010    0.00700   -0.00880   41.19730   41.41750    1.60980   53.16730   89.55890
 6052.00000    0.05920   49.13410    2.82860    9.60460    3.28230    0.01230   -0.00690   35.56180   38.57910    1.48200   52.17310   88.96100
 6052.50000    0.03830   35.71260    2.74300    9.60610    3.15840    0.01860   -0.04700   47.86030  143.74200    2.27410   51.08860   88.36340
 6053.00000    0.03160   31.38960    2.72790    9.62340    3.25860    0.02170   -0.08130  184.33940  392.76240  225.87290   49.55300   88.36650
 6053.50000    0.04150   38.21510    2.82400    9.65670    3.35300    0.02260   -0.09280  382.26060  443.93350  306.09580   49.27360   88.97010
