~Version ---------------------------------------------------
VERS.   2.0 : CWLS log ASCII Standard -VERSION 2.0
WRAP.    NO : One line per depth step
DLM . SPACE : Column Data Section Delimiter
~Well ------------------------------------------------------
STRT .F                  174.0 : START DEPTH
STOP .F                10495.0 : STOP DEPTH
STEP .F                    0.5 : STEP
NULL .                -9999.25 : NULL VALUE
COMP .                         : COMPANY
WELL .                         : WELL
FLD  .                         : FIELD
LOC  .                         : LOCATION
PROV .                         : PROVINCE
CNTY .                         : COUNTY
STAT .                         : STATE
CTRY .                         : COUNTRY
SRVC .                         : SERVICE COMPANY
DATE .                         : DATE
UWI  .                         : UNIQUE WELL ID
API  .                         : API NUMBER
SLAT .WGS84  3.672660125498602 : SURFACE LATITUDE
SLON .WGS84 7.0958042414240055 : SURFACE LONGITUDE
DATUM.F                3544.03 : DEPTH DATUM ELEV
~Curve Information -----------------------------------------
DEPT.F     : 
TNPH.DEC   : THERMAL NEUTRON POROSITY
SGR .GAPI  : STANDARD GAMMA RAY, SPECTROSCOPY GAMMA RAY
RHOZ.G/C3  : HILT BULK DENSITY
HCAL.IN    : HILT CALIPER
PEFZ.B/E   : HILT PHOTOELECTRIC FACTOR
HDRA.G/C3  : DELTA RHO HIP TOOL
DPHZ.DEC   : DENSITY POROSITY LIMESTONE
HLLD.OHMM  : LATEROLOG DEEP RES.
HLLS.OHMM  : LATEROLOG SHALLOW RES.
RXOZ.OHMM  : FLUSHED ZONE RESISTIVITY
DTCO.US/F  : COMPRESSIONAL-WAVE INTERVAL TRANSIT TIME ACAUSTIC SLOWNESS
DTSM.US/F  : SHEAR-WAVE INTERVAL TRANSIT TIME DELTA-T
~Params ----------------------------------------------------
~Other -----------------------------------------------------
~ASCII -----------------------------------------------------
# ...
 6726.00000    0.01950   26.31070    2.89030    9.33360    3.48040    0.01520   -0.11390 1378.37770 1628.83670  389.09670   45.63730   83.84380
 6726.50000    0.02280   24.60100    2.88200    9.33500    3.49770    0.00570   -0.11100 1234.55680 1485.01590  249.53740   45.63640   83.84380
 6727.00000    0.02900   23.87390    2.87460    9.33640    3.45090    0.00330   -0.10500  911.37210 1257.78810  196.39340   45.63550   83.84380
 6727.50000    0.03430   23.40210    2.86780    9.33790    3.35600    0.00660   -0.09580  281.88330  702.83640  147.97560   45.63460   83.84380
 6728.00000    0.03470   22.92590    2.86280    9.33930    3.29320    0.00980   -0.09250  208.09140  256.19120  134.22640   45.63350   83.84380
 6728.50000    0.03330   22.44980    2.86360    9.34070    3.29420    0.01070   -0.09210  183.82300  202.58650  124.38180   45.54240   83.24320
 6729.00000    0.03030   24.19270    2.87010    9.35800    3.36520    0.01080   -0.09450  176.41170  171.66700  140.52740   45.45130   83.24320
 6729.50000    0.02540   33.83170    2.87870    9.35950    3.47560    0.01000   -0.09890  197.07080  347.64950  154.64720   45.36020   83.24320
 6730.00000    0.02170   41.99040    2.88560    9.36090    3.55660    0.01010   -0.10280  306.65150  808.45610  203.81050   45.26910   82.64260
 6730.50000    0.01940   44.96830    2.89530    9.36230    3.63770    0.00930   -0.11210  784.44050 1330.51890  388.02780   45.17800   82.64260
 6731.00000    0.01770   43.50530    2.89660    9.36390    3.61820    0.00940   -0.11610 1401.36990 1571.23610  451.20390   45.17710   82.64260
 6731.50000    0.01840   37.10810    2.89020    9.36520    3.49300    0.00860   -0.11570 1565.47990 1830.02080  462.40020   45.26650   82.64260
 6732.00000    0.02130   33.67150    2.88650    9.36690    3.41460    0.00870   -0.11340 1171.73470 1780.70670  460.71940   45.35580   83.24320
 6732.50000    0.02790   31.22170    2.87750    9.36820    3.35260    0.00790   -0.11010  952.78080 1467.76550  407.81890   45.44510   83.24320
 6733.00000    0.04220   28.52510    2.86860    9.35340    3.32150    0.00800   -0.10680  595.95520  996.86650  265.70350   45.53440   83.24320
 6733.50000    0.05140   27.30890    2.85600    9.35520    3.27500    0.00810   -0.08730  229.40250  581.50200  198.03320   45.62480   83.24320
 6734.00000    0.05370   26.09260    2.84580    9.35670    3.21220    0.00890   -0.08040  126.67240  283.39180  133.62970   45.62290   83.24320
 6734.50000    0.04710   24.87640    2.84310    9.35800    3.21350    0.01220   -0.08240  105.89740  110.69480   94.59880   45.61460   83.43740
 6735.00000    0.03480   24.39970    2.85280    9.35930    3.29490    0.01620   -0.09400  108.96390  108.93580  121.67850   45.43020   83.84380
 6735.50000    0.02660   32.80570    2.86950    9.35770    3.37630    0.01390   -0.09700  172.89340  195.28570  197.76660   45.23170   83.84380
 6736.00000    0.01730   38.99080    2.88400    9.34630    3.40960    0.00990   -0.10690  362.13380  618.81770  423.45670   44.98770   83.84380
 6736.50000    0.01500   39.57760    2.89230    9.33160    3.39490    0.01160   -0.11260  881.41640 1061.07430  489.67230   44.89650   83.84380
 6737.00000    0.01360   33.35100    2.89710    9.33320    3.38010    0.01800   -0.11460  957.10860 1302.16040  486.54800   44.98600   83.84380
 6737.50000    0.01330   27.69400    2.89930    9.31860    3.49360    0.01650   -0.11590 1070.10410 1297.49710  463.59480   45.07520   83.84380
 6738.00000    0.01400   24.75080    2.89930    9.32030    3.55900    0.00940   -0.11720 1334.73070 1354.08080  444.63170   45.34500   83.84380
 6738.50000    0.01530   24.27390    2.89860    9.30570    3.56030    0.00140   -0.11760 1748.26890 1784.01980  429.59730   45.25380   83.84380
 6739.00000    0.01790   25.03210    2.89260    9.29130    3.51350    0.00470   -0.11490 1987.82370 1814.16260  421.10300   45.34890   83.24320
 6739.50000    0.01950   27.26980    2.88250    9.27680    3.46670    0.01190   -0.11030 1153.38370 1187.25180  428.02970   45.53170   83.24320
 6740.00000    0.01820   29.50740    2.87690    9.26220    3.38790    0.01840   -0.10300  756.08030  729.06480  445.21940   45.70230   83.24320
 6740.50000    0.01690   30.01820    2.87880    9.24760    3.34110    0.02240   -0.09970  668.29930  709.10930  457.78030   45.70140   83.24320
 6741.00000    0.01390   33.73610    2.89150    9.23310    3.39050    0.02410   -0.10010  766.31120  784.38760  451.59500   45.68220   83.24320
 6741.50000    0.01160   38.93430    2.89850    9.21860    3.45590    0.02250   -0.10280  914.96250  906.11440  445.49340   45.49760   83.24320
 6742.00000    0.00920   45.85950    2.90750    9.20420    3.56930    0.02100   -0.11140 1138.35570 1057.29610  427.50310   45.33770   83.24320
 6742.50000    0.00790   46.61260    2.91280    9.18970    3.69880    0.01860   -0.12070 1376.79170 1239.65000  415.94350   45.33680   83.84380
 6743.00000    0.00790   45.15400    2.91730    9.17520    3.82830    0.01550   -0.12560 1610.02930 1487.78610  421.81350   45.30490   83.84380
 6743.50000    0.00890   42.21080    2.91700    9.16080    3.94180    0.01240   -0.12930 1780.02280 1709.60000  427.76620   45.24480   83.84380
 6744.00000    0.01090   39.76240    2.91140    9.14630    3.99080    0.01000   -0.12800 1923.82230 1855.80220  433.80300   45.24390   83.84380
 6744.50000    0.01280   35.83230    2.90130    9.14810    3.59180    0.00930   -0.12470 2021.65810 1856.47190  433.89200   45.28350   83.84380
 6745.00000    0.01510   31.40880    2.89410    9.13330    3.41680    0.01090   -0.12070 1971.62960 1574.27610  347.95140   45.50970   83.84380
 6745.50000    0.01630   28.95900    2.88690    9.11880    3.33770    0.01260   -0.11510 1586.38110 1225.65490  324.79900   45.73920   83.67720
 6746.00000    0.01820   28.47860    2.88370    9.10440    3.33930    0.01590   -0.11070 1173.95020 1079.44630  329.38880   46.01210   83.24320
 6746.50000    0.01920   28.74690    2.88120    9.08990    3.35660    0.01830   -0.10680  858.90220  952.03120  324.93820   46.19470   83.24320
 6747.00000    0.01910   29.25760    2.88110    9.07540    3.37390    0.02160   -0.10320  623.31530  811.39360  279.20480   46.41130   83.24320
 6747.50000    0.01810   29.02390    2.88160    9.04540    3.34310    0.02400   -0.10130  466.34030  580.26880  264.25270   46.50060   83.24320
 6748.00000    0.01740   29.04550    2.88220    9.03060    3.34440    0.02730   -0.10460  424.51870  437.02100  279.31940   46.49970   83.24320
 6748.50000    0.01680   29.55630    2.88530    9.01610    3.31330    0.02890   -0.10730  449.79780  404.49750  325.20490   46.58910   83.56570
 6749.00000    0.01640   33.27420    2.88710    8.98580    3.28290    0.02980   -0.10910  443.75080  439.64310  334.37990   46.58820   83.84380
 6749.50000    0.01610   38.47240    2.88790    8.97130    3.23610    0.02740   -0.11120  425.86000  519.18340  353.44130   46.49710   83.84380
 6750.00000    0.01640   38.31160    2.88670    8.95680    3.20040    0.02460   -0.11280  475.73110  630.30860  363.41290   46.49620   83.84380
 6750.50000    0.01730   34.30780    2.88230    8.94280    3.15880    0.02210   -0.11220  524.15460  549.08750  363.48740   46.49530   83.84380
 6751.00000    0.01930   30.37550    2.87840    8.91210    3.16060    0.02040   -0.10990  408.91410  362.75200  348.07070   46.49440   84.44440
 6751.50000    0.02060   28.17010    2.87360    8.89760    3.17850    0.01650   -0.10610  327.94340  338.63220  311.36790   46.40330   84.44440
 6752.00000    0.02120   27.68800    2.86850    8.88320    3.18020    0.01090   -0.09880  323.52330  336.52460  274.49090   46.13170   84.44440
 6752.50000    0.02060   30.91400    2.86480    8.86870    3.21410    0.00780   -0.09530  346.75630  434.64350  237.87370   45.86010   84.44440
 6753.00000    0.01820   40.55080    2.87080    8.86700    3.21590    0.00630   -0.09400  398.21090  589.40480  200.28390   45.76900   83.84380
 6753.50000    0.01620   42.78620    2.87810    8.83780    3.23370    0.00610   -0.09510  602.75650  696.04010  227.99220   45.76810   83.84380
