~Version ---------------------------------------------------
VERS.   2.0 : CWLS log ASCII Standard -VERSION 2.0
WRAP.    NO : One line per depth step
DLM . SPACE : Column Data Section Delimiter
~Well ------------------------------------------------------
STRT .F                  174.0 : START DEPTH
STOP .F                10495.0 : STOP DEPTH
STEP .F                    0.5 : STEP
NULL .                -9999.25 : NULL VALUE
COMP .                         : COMPANY
WELL .                         : WELL
FLD  .                         : FIELD
LOC  .                         : LOCATION
PROV .                         : PROVINCE
CNTY .                         : COUNTY
STAT .                         : STATE
CTRY .                         : COUNTRY
SRVC .                         : SERVICE COMPANY
DATE .                         : DATE
UWI  .                         : UNIQUE WELL ID
API  .                         : API NUMBER
SLAT .WGS84  3.672660125498602 : SURFACE LATITUDE
SLON .WGS84 7.0958042414240055 : SURFACE LONGITUDE
DATUM.F                3544.03 : DEPTH DATUM ELEV
~Curve Information -----------------------------------------
DEPT.F     : 
TNPH.DEC   : THERMAL NEUTRON POROSITY
SGR .GAPI  : STANDARD GAMMA RAY, SPECTROSCOPY GAMMA RAY
RHOZ.G/C3  : HILT BULK DENSITY
HCAL.IN    : HILT CALIPER
PEFZ.B/E   : HILT PHOTOELECTRIC FACTOR
HDRA.G/C3  : DELTA RHO HIP TOOL
DPHZ.DEC   : DENSITY POROSITY LIMESTONE
HLLD.OHMM  : LATEROLOG DEEP RES.
HLLS.OHMM  : LATEROLOG SHALLOW RES.
RXOZ.OHMM  : FLUSHED ZONE RESISTIVITY
DTCO.US/F  : COMPRESSIONAL-WAVE INTERVAL TRANSIT TIME ACAUSTIC SLOWNESS
DTSM.US/F  : SHEAR-WAVE INTERVAL TRANSIT TIME DELTA-T
~Params ----------------------------------------------------
~Other -----------------------------------------------------
~ASCII -----------------------------------------------------
# ...
 9440.50000    0.01390    8.95460    2.86270    8.86870    3.20460    0.00090   -0.09270 6238.48440 3051.46410  187.05610   44.82330   83.22820
 9441.00000    0.01640   11.11500    2.84940    8.87020    3.17440    0.00240   -0.08210 4115.25780 2808.62400  166.89750   45.09260   83.21320
 9441.50000    0.01790   19.01700    2.84210    8.82360    3.15680    0.00430   -0.07700 3169.62160 1988.56010  147.24160   45.09080   82.59760
 9442.00000    0.01970   30.02910    2.83590    8.77710    3.12890    0.00900   -0.07610 2763.60180 1901.20210  156.70060   45.08910   82.58260
 9442.50000    0.02060   38.88800    2.83720    8.76220    3.13230    0.00910   -0.07710 2740.64380 1731.48380  165.77970   44.99690   82.33120
 9443.00000    0.02150   39.61300    2.84340    8.76400    3.16380    0.01000   -0.08130 3025.08150 1662.88390  176.86570   44.99520   81.95190
 9443.50000    0.02210   37.94560    2.85210    8.76540    3.18130    0.01560   -0.08770 3061.08300 1770.82950  201.58120   44.99300   81.33630
 9444.00000    0.02210   30.29740    2.85660    8.78250    3.18270    0.01410   -0.09150 2905.83790 1981.77360  235.50500   44.90120   81.32130
 9444.50000    0.02120   19.77830    2.86020    8.76800    3.20020    0.01180   -0.09210 2418.78640 2146.32760  300.58040   44.80180   81.30340
 9445.00000    0.01860   11.89090    2.86020    8.80180    3.18560    0.01270   -0.09180 2081.55490 2064.86990  292.48340   44.61610   81.88930
 9445.50000    0.01570    9.26660    2.86040    8.80330    3.18710    0.01440   -0.09220 1916.63130 1704.19950  221.89710   44.35360   82.47750
 9446.00000    0.01340    8.07760    2.86510    8.80470    3.20450    0.01690   -0.09510 1475.11300 1163.08390  200.40820   44.36940   83.06310
 9446.50000    0.01220    6.88870    2.86980    8.80620    3.25400    0.01780   -0.09950 1943.77010  929.82300  193.36040   44.64200   83.64870
 9447.00000    0.01210    6.17650    2.87640    8.82360    3.27140    0.01790   -0.10340 2526.25100 1159.63820  252.80830   44.91470   84.23320
 9447.50000    0.01280    6.18560    2.88020    8.82510    3.28890    0.01800   -0.10600 2424.21750 1368.53740  290.86980   45.06950   84.21860
 9448.00000    0.01400    6.19140    2.88380    8.82910    3.30630    0.01810   -0.10730 1998.93370 1549.52940  282.62300   45.06750   84.20390
 9448.50000    0.01500    6.43780    2.88620    8.84370    3.30780    0.01740   -0.10830 1465.43810 1225.23940  273.21980   45.06570   84.18930
 9449.00000    0.01630    7.18660    2.88700    8.86110    3.29290    0.01510   -0.10860 1359.07080  942.42790  268.01960   45.06390   84.77520
 9449.50000    0.01790    8.13790    2.88470    8.87860    3.27830    0.01840   -0.10770 1378.12710  929.43980  268.12860   45.23590   84.75980
 9450.00000    0.02490    8.61240    2.87350    8.87820    3.27370    0.02250   -0.10610  900.27870  942.30910  264.52660   45.51200   84.84560
 9450.50000    0.03130    8.14120    2.85500    8.87230    3.23780    0.02410   -0.08690  383.77060  787.40390  246.97720   45.73980   85.46060
 9451.00000    0.03960    7.19140    2.83840    8.86630    3.20360    0.02030   -0.07440  144.41910  343.83310  112.45420   45.92210   85.91790
 9451.50000    0.04150    6.48090    2.83190    8.85140    3.18890    0.01240   -0.06930  109.07610  163.10970   67.48930   46.04850   85.90090
 9452.00000    0.03800    6.48840    2.82810    8.85260    3.20720    0.00930   -0.07160  154.54880  100.59000   71.34610   45.95630   85.88590
 9452.50000    0.02870    6.97410    2.83590    8.85370    3.20900    0.00860   -0.08090  300.31230  106.29500  154.65030   45.86420   85.87090
 9453.00000    0.02100    7.93840    2.84700    8.85480    3.27480    0.01190   -0.09120  355.30620  167.64250  265.08290   45.86240   85.85580
 9453.50000    0.01330    8.66330    2.86130    8.88800    3.34060    0.01510   -0.09970  401.06650  257.19440  254.41250   45.77030   85.84080
 9454.00000    0.01200    8.19210    2.87220    8.90510    3.35840    0.01050   -0.10460  454.71440  312.02520  251.00920   45.58780   85.82580
 9454.50000    0.01170    7.95830    2.87870    8.90630    3.36020    0.00660   -0.11130  505.73730  320.74320  247.65120   45.49560   85.80810
 9455.00000    0.01360    8.44590    2.88480    8.90740    3.34550    0.00590   -0.11070  533.06300  316.32030  240.98740   45.40350   85.79350
 9455.50000    0.01810    8.92980    2.88840    8.90830    3.34740    0.01080   -0.10240  522.66420  299.30170  215.85720   45.58250   85.77880
 9456.00000    0.02730    7.26430    2.87440    8.90940    3.36510    0.01490   -0.08290  469.80940  264.30550  120.90390   46.03250   85.76420
 9456.50000    0.03630    7.03050    2.85430    8.91060    3.41490    0.01340   -0.07910  297.43050  179.53970   56.52070   46.30180   85.74960
 9457.00000    0.04140    7.03950    2.84460    8.91170    3.43270    0.00920   -0.07400  275.05590  150.02700   49.30960   46.39040   85.73490
 9457.50000    0.04460    7.28600    2.83880    8.91280    3.37050    0.00690   -0.07050  263.77430  134.32710   55.90650   46.47900   85.72030
 9458.00000    0.04700    7.53110    2.83180    8.91400    3.26030    0.00700   -0.07110  247.58370  123.63800   56.64960   46.38670   85.70570
 9458.50000    0.04940    8.01670    2.82890    8.89910    3.18210    0.00870   -0.07120  229.55330  112.23880   52.63490   46.38490   85.69070
 9459.00000    0.05000    8.02390    2.82790    8.90030    3.11940    0.01270   -0.07050  211.87080   96.41530   49.37680   46.29280   85.67570
 9459.50000    0.04640    8.27030    2.82880    8.90140    3.10520    0.01600   -0.07090  233.37080   86.32570   55.35030   46.20060   85.66070
 9460.00000    0.04390    8.75600    2.83100    8.90250    3.12350    0.01930   -0.07500  264.23960   91.22180   81.44260   46.08430   86.24770
 9460.50000    0.04390    9.00250    2.83450    8.90370    3.17330    0.01940   -0.07540  295.09460  116.95390  119.51240   45.89830   86.38260
 9461.00000    0.04900    9.24900    2.83330    8.90480    3.19110    0.01390   -0.06680  325.03980  169.78680  129.99410   45.83370   86.81900
 9461.50000    0.05890    9.01670    2.82480    8.90600    3.19250    0.01060   -0.05080  329.59740  205.98330  115.45060   45.86640   87.01560
 9462.00000    0.07880    9.02430    2.80900    8.90710    3.19420    0.00590   -0.02710  307.68250  230.02670   55.47390   46.47170   87.63100
 9462.50000    0.10210    9.03160    2.79020    8.90540    3.19600    0.00290   -0.01140  140.23120  230.81270   17.24310   47.30790   89.12350
 9463.00000    0.10990    8.79780    2.76110    8.87570    3.26180    0.00060   -0.00860   72.35670   97.70220    7.07810   48.08410   90.36040
 9463.50000    0.10920    8.80690    2.74460    8.84620    3.35960    0.00470   -0.00830   64.80870   53.95150    5.51230   48.57150   89.40840
 9464.00000    0.10210    9.05340    2.72670    8.84740    3.39340    0.00720   -0.02170   70.40780   41.49830    5.75620   48.21080   88.52570
 9464.50000    0.08610    9.06060    2.73020    8.86450    3.37870    0.00800   -0.03620  123.93350   38.12930    7.52770   47.62800   87.30990
 9465.00000    0.06340    9.06790    2.75450    8.86570    3.33250    0.00650   -0.05560  275.77400   52.47110   14.63220   47.17440   86.69460
 9465.50000    0.04640    8.83590    2.78850    8.86680    3.27030    0.00340   -0.07040  557.18800   91.15290   56.87100   46.72080   86.07940
 9466.00000    0.04120    8.84320    2.81760    8.91590    3.22410    0.00110   -0.07590  754.74020  156.17930  101.48150   46.08650   85.46410
 9466.50000    0.04000    8.85050    2.83110    8.93310    3.20990    0.00040   -0.07750  808.71730  393.90620  125.07190   45.63290   84.84890
 9467.00000    0.03990    8.85770    2.83450    8.93420    3.27620   -0.00110   -0.07620  867.13430  439.88480  164.84200   45.45040   84.23370
 9467.50000    0.03990    9.10420    2.83590    8.91910    3.32560    0.00070   -0.07400  928.52860  421.82420  172.82720   45.53920   84.21900
 9468.00000    0.04020    9.34930    2.83440    8.92050    3.35940    0.00310   -0.07430  763.69690  393.44710   83.97420   45.62760   84.81930
