~Version ---------------------------------------------------
VERS.   2.0 : CWLS log ASCII Standard -VERSION 2.0
WRAP.    NO : One line per depth step
DLM . SPACE : Column Data Section Delimiter
~Well ------------------------------------------------------
STRT .F                  174.0 : START DEPTH
STOP .F                10495.0 : STOP DEPTH
STEP .F                    0.5 : STEP
NULL .                -9999.25 : NULL VALUE
COMP .                         : COMPANY
WELL .                         : WELL
FLD  .                         : FIELD
LOC  .                         : LOCATION
PROV .                         : PROVINCE
CNTY .                         : COUNTY
STAT .                         : STATE
CTRY .                         : COUNTRY
SRVC .                         : SERVICE COMPANY
DATE .                         : DATE
UWI  .                         : UNIQUE WELL ID
API  .                         : API NUMBER
SLAT .WGS84  3.672660125498602 : SURFACE LATITUDE
SLON .WGS84 7.0958042414240055 : SURFACE LONGITUDE
DATUM.F                3544.03 : DEPTH DATUM ELEV
~Curve Information -----------------------------------------
DEPT.F     : 
TNPH.DEC   : THERMAL NEUTRON POROSITY
SGR .GAPI  : STANDARD GAMMA RAY, SPECTROSCOPY GAMMA RAY
RHOZ.G/C3  : HILT BULK DENSITY
HCAL.IN    : HILT CALIPER
PEFZ.B/E   : HILT PHOTOELECTRIC FACTOR
HDRA.G/C3  : DELTA RHO HIP TOOL
DPHZ.DEC   : DENSITY POROSITY LIMESTONE
HLLD.OHMM  : LATEROLOG DEEP RES.
HLLS.OHMM  : LATEROLOG SHALLOW RES.
RXOZ.OHMM  : FLUSHED ZONE RESISTIVITY
DTCO.US/F  : COMPRESSIONAL-WAVE INTERVAL TRANSIT TIME ACAUSTIC SLOWNESS
DTSM.US/F  : SHEAR-WAVE INTERVAL TRANSIT TIME DELTA-T
~Params ----------------------------------------------------
~Other -----------------------------------------------------
~ASCII -----------------------------------------------------
# ...
 7062.00000    0.04600   39.46540    2.85360    8.77270    3.12550    0.01190   -0.08330   82.48630   93.44610   81.50220   49.20120   90.07810
 7062.50000    0.04520   38.48850    2.84870    8.77450    3.19040    0.01510   -0.08530   87.38550  115.21590  101.66720   48.56020   88.87380
 7063.00000    0.04260   36.77140    2.84840    8.77610    3.23940    0.01510   -0.08770  115.05640  141.27080  105.98170   47.88990   88.27020
 7063.50000    0.03930   34.80760    2.85080    8.77770    3.28840    0.01440   -0.08930  143.01710  158.57370  105.99610   47.24600   87.06600
 7064.00000    0.03560   32.35040    2.85600    8.77900    3.32130    0.01130   -0.09070  167.99050  167.48750  106.01050   46.60230   86.46250
 7064.50000    0.03130   31.12680    2.86040    8.78060    3.35450    0.01050   -0.09300  199.24350  229.95910  115.18350   45.90560   85.85890
 7065.00000    0.02630   31.38340    2.86650    8.76620    3.38780    0.01130   -0.10000  269.59220  350.01510  143.78990   45.61650   85.25520
 7065.50000    0.02530   34.35380    2.87220    8.76800    3.42120    0.01220   -0.10100  528.52170  475.71270  181.57850   45.56600   85.25230
 7066.00000    0.02700   43.24530    2.87650    8.76970    3.42370    0.01060   -0.10560  667.63850  468.82480  317.87680   45.56510   85.14540
 7066.50000    0.02890   48.18690    2.88180    8.75490    3.37570    0.00830   -0.10460   63.06100  158.94640  171.03620   45.47400   84.64560
 7067.00000    0.03060   39.31770    2.88110    8.74110    3.32890    0.00910   -0.10100   47.20000   56.06690   43.84490   45.47310   84.64260
 7067.50000    0.02820   28.64660    2.87620    8.74250    3.29810    0.01240   -0.09970   49.89400   58.57610   37.66930   45.47200   84.03900
 7068.00000    0.02290   21.24980    2.87500    8.72780    3.26740    0.01160   -0.10330   59.72100  113.79610   54.82330   45.47110   84.03600
 7068.50000    0.01760   15.32970    2.87970    8.72980    3.26870    0.00850   -0.10930   78.73820  192.51910  111.69900   45.38000   84.03300
 7069.00000    0.01400   14.19040    2.88730    8.71510    3.26990    0.00690   -0.11490  166.01290  822.66530  279.99290   45.10840   84.86630
 7069.50000    0.01260   14.51870    2.89430    8.71710    3.25520    0.00620   -0.11600 1631.15690 2453.44630  400.27890   45.08370   86.08670
 7070.00000    0.02450   17.26940    2.89320    8.70240    3.25650    0.00620   -0.11200 2289.75420 1607.97270  428.30760   45.73820   87.30700
 7070.50000    0.03970   21.41740    2.88190    8.68830    3.25780    0.01030   -0.09480  284.61960  282.13860  296.82390   47.00050   88.52790
 7071.00000    0.05690   30.37050    2.85720    8.67420    3.24270    0.01430   -0.08060   91.54940   36.41650   29.56560   48.44320   88.82280
 7071.50000    0.06250   28.61170    2.84320    8.67580    3.24430    0.01600   -0.07720   31.37220   25.10130   20.91230   48.26190   87.87290
 7072.00000    0.05420   21.28900    2.83720    8.67740    3.26170    0.01040   -0.08390   24.30770   23.24690   15.71170   47.71970   85.81320
 7072.50000    0.03430   16.66170    2.85010    8.67900    3.27900    0.00890   -0.09020   28.53780   58.31440   24.05270   47.08720   84.60910
 7073.00000    0.02440   15.99660    2.86270    8.68060    3.29630    0.00970   -0.09750   70.58920  111.51070   72.01080   46.36450   83.40490
 7073.50000    0.01610   16.25330    2.87970    8.68220    3.34570    0.01300   -0.10280  134.19870  223.35050  165.54190   45.73200   82.20080
 7074.00000    0.01340   16.26990    2.88850    8.68380    3.41100    0.01220   -0.11140  356.32530  737.27570  341.87540   45.27640   82.19780
 7074.50000    0.01410   17.26150    2.89520    8.70130    3.47640    0.00970   -0.11680 1572.83510 1708.25700  366.16410   44.91350   81.59430
 7075.00000    0.01570   20.97200    2.89850    8.71880    3.52550    0.00740   -0.11740 2172.71220 1717.76560  378.78370   44.72180   81.59130
 7075.50000    0.01730   23.69580    2.89900    8.73610    3.31880    0.00580   -0.11430 1816.67220 1608.71860  384.11360   44.45490   80.98780
 7076.00000    0.01860   24.69250    2.89510    8.75380    3.22390    0.00440   -0.11000 1410.52210 1398.85960  389.50760   44.27070   80.98480
 7076.50000    0.01830   25.19580    2.88940    8.77530    3.16110    0.00370   -0.10680 1238.68840 1267.72690  389.56060   44.19280   80.98190
 7077.00000    0.01830   24.95900    2.88390    8.80450    3.14630    0.00450   -0.10450 1031.99160 1095.84410  373.80330   44.32010   80.97900
 7077.50000    0.01860   24.47550    2.88140    8.82220    3.14760    0.00710   -0.10250  483.01340  852.20030  344.12820   44.48350   80.97600
 7078.00000    0.01860   25.71900    2.88000    8.83970    3.13260    0.01670   -0.10090  337.40800  455.10220  295.67350   44.55110   80.97300
 7078.50000    0.01750   28.93440    2.88000    8.84130    3.13420    0.02470   -0.10220  298.05780  307.43300  190.09360   44.43230   80.36940
 7079.00000    0.01320   30.42460    2.88060    8.85880    3.15150    0.02710   -0.10750  619.81180  553.99280  261.19070   44.15800   80.36640
 7079.50000    0.01020   30.43450    2.88480    8.86040    3.16880    0.02550   -0.11250 1585.52830 3035.96510  374.05790   44.06380   80.36340
 7080.00000    0.00860   28.71740    2.89220    8.86200    3.20220    0.02080   -0.11680 3207.15230 2794.98340  412.07570   43.91580   80.48000
 7080.50000    0.00890   27.00040    2.90040    8.86350    3.23550    0.01760   -0.12080 2182.68580 2034.04100  412.13170   43.91490   80.95830
 7081.00000    0.00880   26.02340    2.90410    8.84920    3.28490    0.01530   -0.12050 1402.76710 1476.61300  384.68940   44.04590   80.95500
 7081.50000    0.00880   24.55310    2.90500    8.85080    3.34020    0.01610   -0.11950  964.04610 1005.24210  354.15010   44.13830   81.73880
 7082.00000    0.00990   21.84910    2.90340    8.85240    3.43420    0.01780   -0.11980 1078.57130 1100.37760  330.56850   44.45820   82.95850
 7082.50000    0.01150   21.11840    2.90420    8.85390    3.53130    0.01860   -0.12150 1204.87770 1203.88750  335.28500   45.02620   83.94950
 7083.00000    0.01520   21.86890    2.90210    8.85550    3.56220    0.01470   -0.12090  519.09170  732.22120  349.43610   45.78420   84.54650
 7083.50000    0.01980   24.34600    2.88740    8.85710    3.54580    0.01070   -0.11690   73.94060  199.68110  258.95170   46.34540   85.14410
 7084.00000    0.02740   26.32950    2.87790    8.85850    3.43390    0.00760   -0.11130   54.69770   57.45730   49.96470   46.16410   85.74170
 7084.50000    0.03450   24.11900    2.87310    8.86020    3.30870    0.00920   -0.10270   74.27940   83.22700   45.91830   45.62180   85.41990
 7085.00000    0.03350   18.70130    2.87070    8.86740    3.19820    0.01410   -0.09840  186.70650  334.71300  105.59280   45.16980   84.19420
 7085.50000    0.02880   15.74820    2.87070    8.87920    3.18400    0.01810   -0.10000  539.45040  647.28680  294.22060   44.80800   83.32970
 7086.00000    0.02490   17.73430    2.87370    8.89670    3.18530    0.02210   -0.10300  599.78770  738.62450  386.33050   44.53640   82.12560
 7086.50000    0.01890   20.70470    2.87680    8.90010    3.20260    0.02540   -0.10340  810.27040 1173.76560  402.87490   44.44530   81.52200
 7087.00000    0.01490   22.44160    2.88200    8.91570    3.23590    0.02860   -0.10470 1152.05750 1753.37260  414.38130   44.53470   82.11970
 7087.50000    0.01260   22.94490    2.88450    8.93320    3.31730    0.02950   -0.10770 2108.44360 2339.46630  426.20730   44.80450   82.71730
 7088.00000    0.01120   22.70810    2.88930    8.95070    3.44680    0.02630   -0.11270 3804.81760 3223.56200  420.85340   44.98410   83.91560
 7088.50000    0.00950   22.46880    2.89940    8.95230    3.62440    0.02000   -0.12100 3797.00760 3359.90890  403.50850   44.98310   84.51330
 7089.00000    0.00790   22.23200    2.91160    8.95390    3.80200    0.01280   -0.12730 6005.55470 3920.59250  381.58690   44.89200   84.51030
 7089.50000    0.00690   27.17940    2.92310    8.95560    3.89940    0.00810   -0.13460 7281.60740 3850.38130  377.20550   44.71050   83.90680
