~Version ---------------------------------------------------
VERS.   2.0 : CWLS log ASCII Standard -VERSION 2.0
WRAP.    NO : One line per depth step
DLM . SPACE : Column Data Section Delimiter
~Well ------------------------------------------------------
STRT .F                  174.0 : START DEPTH
STOP .F                10495.0 : STOP DEPTH
STEP .F                    0.5 : STEP
NULL .                -9999.25 : NULL VALUE
COMP .                         : COMPANY
WELL .                         : WELL
FLD  .                         : FIELD
LOC  .                         : LOCATION
PROV .                         : PROVINCE
CNTY .                         : COUNTY
STAT .                         : STATE
CTRY .                         : COUNTRY
SRVC .                         : SERVICE COMPANY
DATE .                         : DATE
UWI  .                         : UNIQUE WELL ID
API  .                         : API NUMBER
SLAT .WGS84  3.672660125498602 : SURFACE LATITUDE
SLON .WGS84 7.0958042414240055 : SURFACE LONGITUDE
DATUM.F                3544.03 : DEPTH DATUM ELEV
~Curve Information -----------------------------------------
DEPT.F     : 
TNPH.DEC   : THERMAL NEUTRON POROSITY
SGR .GAPI  : STANDARD GAMMA RAY, SPECTROSCOPY GAMMA RAY
RHOZ.G/C3  : HILT BULK DENSITY
HCAL.IN    : HILT CALIPER
PEFZ.B/E   : HILT PHOTOELECTRIC FACTOR
HDRA.G/C3  : DELTA RHO HIP TOOL
DPHZ.DEC   : DENSITY POROSITY LIMESTONE
HLLD.OHMM  : LATEROLOG DEEP RES.
HLLS.OHMM  : LATEROLOG SHALLOW RES.
RXOZ.OHMM  : FLUSHED ZONE RESISTIVITY
DTCO.US/F  : COMPRESSIONAL-WAVE INTERVAL TRANSIT TIME ACAUSTIC SLOWNESS
DTSM.US/F  : SHEAR-WAVE INTERVAL TRANSIT TIME DELTA-T
~Params ----------------------------------------------------
~Other -----------------------------------------------------
~ASCII -----------------------------------------------------
# ...
 7398.00000    0.02300   22.66810    2.89070    8.41460    3.26490    0.02170   -0.11320 1792.58240 1569.16280  408.20580   44.60330   79.61600
 7398.50000    0.02860   34.75390    2.88940    8.41510    3.20190    0.02250   -0.11400  331.95780  193.04460  266.66240   45.05400   80.22250
 7399.00000    0.03090   44.96810    2.88660    8.41560    3.18670    0.02340   -0.10850  266.22550  124.04650  108.44110   45.41440   80.22840
 7399.50000    0.03350   48.85160    2.88290    8.41610    3.17180    0.02420   -0.10350  210.58120  122.32350   98.10250   45.50420   80.83490
 7400.00000    0.03250   46.62830    2.88180    8.41650    3.14090    0.02410   -0.10350  188.60910  144.50700  111.38680   45.05260   81.44140
 7400.50000    0.02890   35.28830    2.88440    8.41770    3.12600    0.02030   -0.10690  332.29460  232.83170  172.43600   44.65900   81.44450
 7401.00000    0.02700   26.41420    2.88710    8.40270    3.19160    0.01560   -0.11060  438.07860  321.15630  233.48520   44.72720   81.39960
 7401.50000    0.02570   26.91510    2.88960    8.38790    3.28880    0.01080   -0.11190  479.32410  420.80640  230.81380   45.12910   80.84970
 7402.00000    0.02570   36.54420    2.88830    8.38930    3.32170    0.00610   -0.11000  351.38030  468.10500  204.14130   45.62650   82.14980
 7402.50000    0.02530   45.16300    2.88800    8.39040    3.25460    0.00220   -0.10750  366.31700  348.20570  190.92330   45.99850   83.37790
 7403.00000    0.02170   56.35250    2.88970    8.39160    3.17680    0.00060   -0.10810  432.42400  282.95040  240.49560   45.67960   84.00570
 7403.50000    0.02020   59.81700    2.88820    8.39270    3.11600   -0.00020   -0.11070  510.46090  347.30090  319.82860   45.13500   84.63420
 7404.00000    0.02210   60.50310    2.88650    8.39380    3.10190    0.00230   -0.11010  249.00440  481.08040  183.17310   45.59450   85.26170
 7404.50000    0.02330   55.44690    2.88620    8.39490    3.13510    0.00550   -0.10690  191.58120  252.96470  137.48890   48.39100   85.67270
 7405.00000    0.02200   47.62060    2.88840    8.39600    3.16830    0.00800   -0.10590  223.05320  185.61320  128.84820   49.29320   85.43520
 7405.50000    0.01780   40.78480    2.89220    8.39720    3.20150    0.00170   -0.10790  415.30040  251.65190  270.27160   48.03010   83.94870
 7406.00000    0.01520   38.82240    2.89510    8.39830    3.17050   -0.00150   -0.11080  744.13240  815.39860  356.26250   44.51130   81.50140
 7406.50000    0.01330   44.50420    2.89780    8.41530    3.17170    0.00730   -0.11750 1800.23280 1360.35250  376.51970   44.24060   79.96700
 7407.00000    0.01260   48.70580    2.89790    8.41640    3.17280    0.00900   -0.11980 1112.88810 1498.83120  366.28850   44.33080   79.34550
 7407.50000    0.01610   49.94680    2.89610    8.41750    3.19000    0.00420   -0.11700  329.32590 1628.72570  266.63790   44.51130   79.08410
 7408.00000    0.01900   48.72070    2.89420    8.41840    3.20710    0.00190   -0.11340  281.49220  782.68840  216.76860   44.69170   79.08760
 7408.50000    0.01870   43.79390    2.89470    8.41960    3.22430    0.00190   -0.11210  263.62920  273.64760  181.52720   44.87220   79.09060
 7409.00000    0.01710   42.32110    2.89560    8.42070    3.33760    0.00440   -0.11220  323.85890  245.02070  281.83750   44.88360   79.09350
 7409.50000    0.01580   41.58660    2.89860    8.43770    3.46690    0.00840   -0.11790  643.40770  355.97890  351.54460   44.42110   79.09650
 7410.00000    0.01510   40.60900    2.90280    8.43880    3.51620    0.01250   -0.12370 1255.61240  627.66750  392.63230   44.33080   79.70000
 7410.50000    0.01800   38.14940    2.90940    8.43990    3.50130    0.01490   -0.12570 1589.91030  911.90810  409.26690   44.24060   80.30350
 7411.00000    0.01990   35.68980    2.90430    8.45690    3.45430    0.01580   -0.12310 1678.93990 1236.35270  366.48840   44.24060   81.50770
 7411.50000    0.02210   33.23010    2.89170    8.45800    3.37530    0.01820   -0.11420 1205.62300 1219.53870  337.37100   44.42320   82.71180
 7412.00000    0.02530   31.01720    2.87730    8.45920    3.28030    0.01660   -0.10420  120.58070  814.61380  181.24760   44.72550   84.51660
 7412.50000    0.03270   32.99830    2.86450    8.44440    3.18530    0.00870   -0.08630   73.11090  237.29260   14.68410   46.79700   86.92190
 7413.00000    0.04080   37.19980    2.85450    8.44550    3.15410    0.00640   -0.08090  127.32360   73.64680   13.51750   49.68610   88.75070
 7413.50000    0.04290   37.20730    2.84610    8.44660    3.12320    0.00560   -0.08570  236.01080   96.47500   15.58320   50.64660   89.33020
 7414.00000    0.04390   34.25420    2.85150    8.44780    3.12460    0.01040   -0.09130  168.54340  225.16080   80.27270   49.77230   88.06030
 7414.50000    0.05470   37.71560    2.85760    8.44890    3.14150    0.01600   -0.09310   43.10240   60.14230   26.15160   49.07630   86.33310
 7415.00000    0.06720   48.82510    2.85790    8.45000    3.15870    0.01760   -0.08750   39.39290   37.56490   24.09370   48.61950   85.01550
 7415.50000    0.06110   48.33910    2.85200    8.46700    3.17730    0.01450   -0.08450  110.45600   47.22650   25.23690   48.38600   83.93660
 7416.00000    0.03220   39.21830    2.85180    8.46810    3.22580    0.00900   -0.09510  392.73340  337.79900  134.76420   47.39350   83.33890
 7416.50000    0.02000   27.12220    2.86380    8.46920    3.29040    0.00820   -0.10150 1143.24440  718.33320  340.78410   46.26040   83.34230
 7417.00000    0.01610   21.96220    2.87770    8.47050    3.33940    0.01300   -0.11180 1854.05600 1195.57360  423.25130   45.62030   83.34530
 7417.50000    0.01420   20.24270    2.89040    8.47150    3.35660    0.01780   -0.11660 2072.62770 1718.86850  438.94420   45.41350   83.34830
 7418.00000    0.01350   19.73660    2.89700    8.47260    3.37370    0.01860   -0.11980 1216.21840 1849.88890  421.66580   45.36050   83.35130
 7418.50000    0.02340   22.23130    2.90000    8.47370    3.35880    0.01310   -0.11890  375.56040 1336.14490  354.68570   45.28330   83.35440
 7419.00000    0.02630   26.67950    2.89480    8.47490    3.36000    0.01150   -0.11380  253.00830  408.69330  259.99280   45.10020   82.75680
 7419.50000    0.02630   27.71560    2.88950    8.47600    3.29670    0.01240   -0.10770  345.41310  274.55210  220.12770   44.96240   82.15920
 7420.00000    0.02560   25.95430    2.88700    8.46120    3.15390    0.01480   -0.10740  463.72200  314.51310  315.59810   44.92020   82.16280
 7420.50000    0.02720   24.23480    2.88390    8.46230    3.10670    0.01730   -0.10730  479.75870  401.87780  456.63910   45.06420   83.36690
 7421.00000    0.03130   26.46270    2.88330    8.46340    3.10810    0.01960   -0.10570  192.60230  436.15270  332.56780   46.30970   83.97040
 7421.50000    0.04030   33.87140    2.88120    8.44840    3.12530    0.02120   -0.10290   74.55240  108.80720   73.80360   48.39100   85.77520
 7422.00000    0.05180   41.03350    2.87060    8.44980    3.12640    0.01870   -0.09750   65.82690   62.66330   47.04910   49.47370   87.57990
 7422.50000    0.06340   45.97520    2.82450    8.45070    3.12750    0.00860   -0.09050   50.15680   52.98640   31.46850   49.83460   89.38470
 7423.00000    0.07240   47.95630    2.77470    8.45200    3.11240    0.00460   -0.07640   33.53220   42.47450   11.11650   49.56390   90.58880
 7423.50000    0.07430   50.92430    2.74970    8.46900    3.11380    0.00070   -0.03880   44.59300   32.66430    1.11190   48.75190   90.59180
 7424.00000    0.06830   52.90540    2.74280    8.48610    3.11490   -0.00010   -0.01800  124.31760   48.78730    1.21650   47.39850   88.79290
 7424.50000    0.03930   51.92600    2.73700    8.48700    3.11600    0.00240   -0.03700  312.40280  118.23610   77.26960   44.87220   86.99410
 7425.00000    0.02800   47.73940    2.75220    8.50400    3.13320    0.00950   -0.07390  597.48700  399.33530  362.16150   44.15040   85.19520
 7425.50000    0.02410   41.82580    2.79090    8.50510    3.16640    0.01910   -0.09950 1058.28650  639.14750  458.01630   44.42110   83.97310
