~Version ---------------------------------------------------
VERS.   2.0 : CWLS log ASCII Standard -VERSION 2.0
WRAP.    NO : One line per depth step
DLM . SPACE : Column Data Section Delimiter
~Well ------------------------------------------------------
STRT .F                  174.0 : START DEPTH
STOP .F                10495.0 : STOP DEPTH
STEP .F                    0.5 : STEP
NULL .                -9999.25 : NULL VALUE
COMP .                         : COMPANY
WELL .                         : WELL
FLD  .                         : FIELD
LOC  .                         : LOCATION
PROV .                         : PROVINCE
CNTY .                         : COUNTY
STAT .                         : STATE
CTRY .                         : COUNTRY
SRVC .                         : SERVICE COMPANY
DATE .                         : DATE
UWI  .                         : UNIQUE WELL ID
API  .                         : API NUMBER
SLAT .WGS84  3.672660125498602 : SURFACE LATITUDE
SLON .WGS84 7.0958042414240055 : SURFACE LONGITUDE
DATUM.F                3544.03 : DEPTH DATUM ELEV
~Curve Information -----------------------------------------
DEPT.F     : 
TNPH.DEC   : THERMAL NEUTRON POROSITY
SGR .GAPI  : STANDARD GAMMA RAY, SPECTROSCOPY GAMMA RAY
RHOZ.G/C3  : HILT BULK DENSITY
HCAL.IN    : HILT CALIPER
PEFZ.B/E   : HILT PHOTOELECTRIC FACTOR
HDRA.G/C3  : DELTA RHO HIP TOOL
DPHZ.DEC   : DENSITY POROSITY LIMESTONE
HLLD.OHMM  : LATEROLOG DEEP RES.
HLLS.OHMM  : LATEROLOG SHALLOW RES.
RXOZ.OHMM  : FLUSHED ZONE RESISTIVITY
DTCO.US/F  : COMPRESSIONAL-WAVE INTERVAL TRANSIT TIME ACAUSTIC SLOWNESS
DTSM.US/F  : SHEAR-WAVE INTERVAL TRANSIT TIME DELTA-T
~Params ----------------------------------------------------
~Other -----------------------------------------------------
~ASCII -----------------------------------------------------
# ...
 8432.50000    0.11390   68.70910    2.70740    8.75130    4.17370    0.02570   -0.00260   15.39110   15.81790   15.91940   64.17150  115.70310
 8433.00000    0.11680   69.20680    2.70610    8.75290    4.17520    0.02500    0.00090   15.45870   15.99760   15.68320   64.82760  115.68550
 8433.50000    0.11420   68.98190    2.70620    8.75450    4.17660    0.02110    0.00150   15.46300   15.46590   15.46710   64.31260  115.06720
 8434.00000    0.11070   68.52750    2.70710    8.75610    4.17800    0.01950    0.00010   15.18030   14.67670   15.04480   63.61430  114.44900
 8434.50000    0.10930   67.82900    2.70870    8.77360    4.16310    0.01880   -0.00050   15.04990   14.52660   14.86950   63.20290  115.03190
 8435.00000    0.11190   66.65200    2.71030    8.79120    4.16490    0.01730   -0.00090   15.26390   15.06020   14.91060   63.06930  115.61560
 8435.50000    0.11380   66.18790    2.71030    8.79280    4.15000    0.01660   -0.00060   15.48010   15.85490   15.42490   62.97780  116.79840
 8436.00000    0.11410   66.68560    2.70990    8.79440    4.11950    0.01670   -0.00130   15.69930   16.30480   16.66970   62.97690  116.78080
 8436.50000    0.11370   64.79570    2.71120    8.79600    4.12130    0.01590   -0.00350   15.48860   16.68220   16.61990   62.88570  116.76280
 8437.00000    0.11500   65.05420    2.71330    8.79760    4.05870    0.01360   -0.00550   15.18020   16.05510   16.33540   62.85900  116.14410
 8437.50000    0.11910   67.94420    2.71540    8.79920    4.06020    0.01050   -0.00680   14.76740   15.44720   15.88850   63.60680  116.12610
 8438.00000    0.12300   70.11650    2.71610    8.81670    4.10960    0.01140   -0.00780   14.36540   15.47850   15.45450   64.59990  116.20660
 8438.50000    0.12580   71.33190    2.71590    8.81830    4.12700    0.01150   -0.00530   13.87170   14.66140   14.82610   65.41230  117.29310
 8439.00000    0.12710   71.82950    2.71380    8.83590    4.12850    0.00990   -0.00270   13.22490   13.94600   14.15350   65.77280  118.02400
 8439.50000    0.12510   74.95880    2.71020    8.83750    4.12990    0.00760   -0.00090   13.14840   13.95210   13.57460   65.86240  118.63110
 8440.00000    0.12290   76.89190    2.70570    8.85500    4.14740    0.01090    0.00140   13.33540   14.44480   13.34440   65.86140  119.04200
 8440.50000    0.12130   78.10730    2.70240    8.88850    4.16480    0.01660    0.00390   13.90240   14.53880   13.88310   65.67980  119.02100
 8441.00000    0.12250   75.73410    2.69930    8.92200    4.18230    0.01910    0.00610   14.09920   14.42430   14.59300   65.49780  118.75320
 8441.50000    0.12410   72.88250    2.69870    8.90730    4.18370    0.02000    0.00740   13.91000   13.75960   14.70840   65.31260  118.38440
 8442.00000    0.12630   71.70550    2.69960    8.90930    4.16880    0.02480    0.00570   13.72320   13.02110   14.41300   65.12770  118.36640
 8442.50000    0.12730   70.52850    2.70040    8.91090    4.13820    0.02490    0.00380   13.53840   13.20310   13.82680   64.95330  118.02290
 8443.00000    0.12850   69.83010    2.70250    8.89610    4.12400    0.02420    0.00180   13.92130   13.20400   13.63600   64.98040  117.72970
 8443.50000    0.12950   69.36600    2.70460    8.89810    4.09310    0.02350    0.00050   14.11850   13.26010   13.18110   65.25720  117.70840
 8444.00000    0.12980   70.58620    2.70530    8.96350    4.03060    0.02120    0.00080   14.31840   13.02470   13.47360   65.62420  117.69080
 8444.50000    0.13070   72.28000    2.70540    8.94880    4.03240    0.01800    0.00140   13.93280   12.49700   13.85790   65.87710  117.67310
 8445.00000    0.13230   73.01690    2.70540    8.93480    4.06580    0.01490    0.00140   13.74530   12.45780   14.13260   65.82540  117.65540
 8445.50000    0.13390   73.27050    2.70540    8.93640    4.08320    0.01100    0.00130   13.37550   13.02740   14.13550   65.51950  118.24020
 8446.00000    0.13540   71.61990    2.70630    8.93800    4.02070    0.00220    0.00030   13.75320   13.20940   13.94450   65.39900  118.82140
 8446.50000    0.13440   70.20370    2.70840    8.93960    3.99010    0.00630   -0.00070   13.75700   13.21030   13.75610   65.92360  118.80370
 8447.00000    0.13380   68.30900    2.70960    8.94120    3.99160    0.01120   -0.00130   13.95180   12.67510   13.95020   66.06980  119.38740
 8447.50000    0.13570   68.32820    2.71040    8.94280    3.99300    0.01450   -0.00200   13.57600   12.33070   13.76170   66.07540  119.36900
 8448.00000    0.13820   70.26130    2.70930    8.94440    3.99450    0.02020   -0.00240   13.21040   11.99560   13.76460   66.02770  119.35130
 8448.50000    0.14010   73.15130    2.70810    8.94600    3.99590    0.02190   -0.00110   13.03300   11.99640   13.39240   66.07700  119.93430
 8449.00000    0.14460   74.60600    2.70690    8.93130    3.99740    0.02200    0.00080   12.68190   12.33320   13.03020   66.11630  119.91590
 8449.50000    0.14780   73.90740    2.70570    8.93330    3.99880    0.02040    0.00200   12.51170   12.67940   12.67790   66.29590  119.97240
 8450.00000    0.15060   73.68260    2.70390    8.93460    3.99990    0.02220    0.00020   12.68890   12.68030   12.50640   66.29500  120.48190
 8450.50000    0.14900   72.74410    2.70240    8.93620    3.98460    0.02340   -0.00120   12.69240   12.33170   12.33740   66.29420  120.46250
 8451.00000    0.14350   73.71790    2.70180    8.93780    3.97030    0.02380    0.00100   12.69590   11.99270   12.51170   66.20290  120.44440
 8451.50000    0.13900   75.40950    2.70220    8.93940    3.97140    0.02390    0.00260   12.69940   11.83680   12.68830   66.02130  120.25000
 8452.00000    0.13890   76.38330    2.70350    8.94120    3.97250    0.02070    0.00420   12.70290   11.82280   13.04630   66.11080  119.80780
 8452.50000    0.14000   74.72550    2.70730    8.92640    3.97370    0.01840    0.00370   12.90120   11.49730   13.23040   66.47130  119.78980
 8453.00000    0.14060   71.39310    2.71110    8.91210    3.95880    0.01850    0.00050   12.88620   11.20300   13.41710   66.74150  120.02060
 8453.50000    0.14120   69.25690    2.71640    8.89820    3.92760    0.01930   -0.00310   12.71320   11.22960   13.41980   66.92140  120.35440
 8454.00000    0.14180   68.55180    2.71810    8.88340    3.92900    0.02100   -0.00690   12.54250   11.51830   13.23780   66.83010  120.33630
 8454.50000    0.14370   69.52990    2.71650    8.86910    3.91420    0.02100   -0.00750   12.72050   11.48590   13.05960   66.73890  120.31830
 8455.00000    0.14720   72.41750    2.71420    8.87110    3.91530    0.02190   -0.00560   12.72400   11.17030   12.88320   66.82830  120.30030
 8455.50000    0.15140   72.91290    2.71170    8.85630    3.91640    0.02350   -0.00310   12.55280   10.71430   12.69680   66.91780  120.27900
 8456.00000    0.15450   71.01590    2.71100    8.84240    3.91760    0.02520   -0.00080   12.17550   10.45990   12.52130   66.92630  120.26130
 8456.50000    0.15420   70.07160    2.71120    8.81210    3.91870    0.02530   -0.00250   11.84390   10.50460   12.15930   67.00640  119.64310
 8457.00000    0.15350   72.00650    2.71110    8.79740    3.90380    0.02530   -0.00310   11.52180   10.80320   11.66290   67.00540  119.62540
 8457.50000    0.15290   75.37270    2.71000    8.79900    3.87270    0.02460   -0.00310   11.41040   10.90460   11.20890   66.96510  119.00720
 8458.00000    0.15250   77.30350    2.70870    8.78460    3.85780    0.02380   -0.00280   11.73310   10.60820   11.08130   66.36750  118.98950
 8458.50000    0.15260   77.79460    2.70720    8.77030    3.82720    0.02310   -0.00190   11.89870   10.46340   11.26940   65.21850  118.37130
 8459.00000    0.15380   75.90180    2.70730    8.74000    3.82830    0.02150   -0.00060   11.52180   10.60980   11.59100   63.90360  117.75300
 8459.50000    0.15540   75.91870    2.70890    8.72520    3.82950    0.01920   -0.00030   11.42280   10.82430   11.88100   63.02520  117.13480
 8460.00000    0.15760   76.65320    2.70970    8.67940    3.83060    0.01920   -0.00260   11.42660   10.90840   11.88350   64.28990  115.91590
