~Version ---------------------------------------------------
VERS.   2.0 : CWLS log ASCII Standard -VERSION 2.0
WRAP.    NO : One line per depth step
DLM . SPACE : Column Data Section Delimiter
~Well ------------------------------------------------------
STRT .F                  174.0 : START DEPTH
STOP .F                10495.0 : STOP DEPTH
STEP .F                    0.5 : STEP
NULL .                -9999.25 : NULL VALUE
COMP .                         : COMPANY
WELL .                         : WELL
FLD  .                         : FIELD
LOC  .                         : LOCATION
PROV .                         : PROVINCE
CNTY .                         : COUNTY
STAT .                         : STATE
CTRY .                         : COUNTRY
SRVC .                         : SERVICE COMPANY
DATE .                         : DATE
UWI  .                         : UNIQUE WELL ID
API  .                         : API NUMBER
SLAT .WGS84  3.672660125498602 : SURFACE LATITUDE
SLON .WGS84 7.0958042414240055 : SURFACE LONGITUDE
DATUM.F                3544.03 : DEPTH DATUM ELEV
~Curve Information -----------------------------------------
DEPT.F     : 
TNPH.DEC   : THERMAL NEUTRON POROSITY
SGR .GAPI  : STANDARD GAMMA RAY, SPECTROSCOPY GAMMA RAY
RHOZ.G/C3  : HILT BULK DENSITY
HCAL.IN    : HILT CALIPER
PEFZ.B/E   : HILT PHOTOELECTRIC FACTOR
HDRA.G/C3  : DELTA RHO HIP TOOL
DPHZ.DEC   : DENSITY POROSITY LIMESTONE
HLLD.OHMM  : LATEROLOG DEEP RES.
HLLS.OHMM  : LATEROLOG SHALLOW RES.
RXOZ.OHMM  : FLUSHED ZONE RESISTIVITY
DTCO.US/F  : COMPRESSIONAL-WAVE INTERVAL TRANSIT TIME ACAUSTIC SLOWNESS
DTSM.US/F  : SHEAR-WAVE INTERVAL TRANSIT TIME DELTA-T
~Params ----------------------------------------------------
~Other -----------------------------------------------------
~ASCII -----------------------------------------------------
# ...
 5690.00000    0.02520   36.97650    2.89870    9.74530    3.64830    0.01420   -0.09910  273.06330   18.32590  259.10380   52.98350  100.72050
 5690.50000    0.04720   54.66620    2.84540    9.82630    3.35810    0.02030   -0.04730   74.57700   14.92720   37.48810   60.11180  105.52230
 5691.00000    0.06720   79.52150    2.74960    9.89150    3.11640    0.02020    0.01710   15.88070   13.55430   21.87810   61.28520  109.12300
 5691.50000    0.07650   90.28440    2.65300    9.92480    2.91430    0.01640    0.04330   12.55980   13.37430   15.06920   61.82700  112.12310
 5692.00000    0.07880   92.20980    2.61600    9.97400    2.87040    0.01170    0.05870   12.76980   14.55290    7.66020   61.91760  112.72070
 5692.50000    0.07550   92.22130    2.61800   10.00730    2.88800    0.00380    0.06180   14.48680   16.95710    8.79440   61.73760  111.46630
 5693.00000    0.07480   89.75620    2.62870   10.02470    2.92160    0.00230    0.05650   15.96370   21.35420    9.95820   61.10650  108.35980
 5693.50000    0.07350   84.26820    2.65690   10.04200    2.95530    0.00320    0.04530   17.95320   30.17430   10.81840   59.12200  104.08030
 5694.00000    0.06740   71.11660    2.69030   10.05940    3.08490    0.00810    0.01790   22.86770   50.03450   12.76810   54.34050   99.69810
 5694.50000    0.04620   45.46350    2.74740   10.06090    3.26250    0.01610   -0.04080   32.53960   81.60690   17.30060   53.52890   95.88920
 5695.00000    0.02920   36.16280    2.80550   10.06230    3.52010    0.02420   -0.07150   55.45110  101.66850   63.35480   53.16840   97.23780
 5695.50000    0.03110   35.93790    2.84920   10.06380    3.84180    0.02750   -0.09880   93.14320   75.40910   67.25310   53.07860   98.28570
 5696.00000    0.04260   41.92430    2.86100   10.06520    4.03540    0.02200   -0.09560   70.88940   49.03740   52.21820   53.16930   99.08310
 5696.50000    0.04860   44.08860    2.86370   10.06670    3.92500    0.01410   -0.07830   45.43870   49.52500   42.44890   53.16980   99.48100
 5697.00000    0.04670   41.95340    2.83170   10.06810    3.70270    0.01260   -0.05920   58.96610   58.82210   42.28760   53.08000   99.22690
 5697.50000    0.03570   38.86290    2.80920   10.10140    3.41630    0.02940   -0.04380   69.96310   66.75260   62.48600   52.96010   98.27330
 5698.00000    0.01960   35.29460    2.78690   10.13720    3.65790    0.03510   -0.05150   79.84510   76.33660   35.47360   52.48530   97.66970
 5698.50000    0.00590   28.38240    2.83490   10.23560    3.92750    0.03270   -0.09090   84.95970   80.72450   27.65340   52.15810   97.06610
 5699.00000    0.00550   23.38100    2.86640   10.34700    4.17890    0.02540   -0.11790   85.82100   84.18160   31.76360   52.08930   98.01370
 5699.50000    0.00840   22.67530    2.89590   10.42670    4.35140    0.01860   -0.13810   84.28940   84.59860   63.35480   52.08980  100.06250
 5700.00000    0.01380   26.03740    2.93270   10.45880    4.46400    0.01470   -0.14350   76.19880   66.95060   57.51760   52.45170  100.29860
 5700.50000    0.02790   30.35260    2.93710   10.44430    4.30560    0.00960   -0.13010   59.22200   46.20630   54.85710   53.55560  101.02690
 5701.00000    0.04190   36.81850    2.88920   10.41440    4.08320    0.00370   -0.08820   43.87210   36.96250   52.19660   54.59100  101.84910
 5701.50000    0.04870   44.95630    2.84950   10.40040    3.90880    0.00210   -0.05590   36.66960   41.33110   46.36780   55.60900  101.84320
 5702.00000    0.04960   41.39030    2.80480   10.38640    3.75040    0.00460   -0.03730   38.15700   65.50980   29.10690   55.50430  101.23670
 5702.50000    0.03540   33.28610    2.77500   10.34100    3.84810    0.00780   -0.04790   47.33270  108.27250   30.53660   55.06800  100.02960
 5703.00000    0.02670   25.42080    2.82550   10.31110    4.04170    0.00560   -0.08930   72.47650  141.15610   38.56610   53.90120   98.22190
 5703.50000    0.02380   22.81020    2.90130   10.26470    4.20330   -0.01010   -0.11330  122.58460  141.89140   65.39940   52.17290   97.61540
 5704.00000    0.02030   21.62860    2.91460   10.23480    4.31690   -0.01670   -0.12810  140.84410  119.40770   78.68730   51.27820   97.00890
 5704.50000    0.01620   21.16770    2.91070   10.20490    4.28650   -0.01180   -0.11980  143.84540  101.00320  108.48930   51.27820   96.40240
 5705.00000    0.00940   21.18870    2.90480   10.20730    4.28810   -0.00700   -0.11820  128.30340   91.60960  109.59620   51.62090   96.39640
 5705.50000    0.00520   21.44440    2.90590   10.20920    4.32170   -0.01730   -0.12050  101.47250   81.93810   94.48390   51.85930   96.99110
 5706.00000    0.00200   21.21810    2.91550   10.21120    4.38730   -0.02210   -0.13110   85.98910   87.86560   80.05050   51.95310   96.98500
 5706.50000    0.00040   19.56720    2.93080   10.19720    4.45300   -0.02040   -0.14140   81.37770   98.25030   82.28650   52.13710   96.90510
 5707.00000   -0.00030   16.24000    2.94280   10.15130    4.51860   -0.01240   -0.14950  113.37100  116.16920  106.96510   52.12990   96.27800
 5707.50000   -0.00060   14.82370    2.94600   10.04180    4.53620   -0.00670   -0.14870  137.56850  131.72450   76.78650   51.72930   95.04960
 5708.00000    0.00390   15.07940    2.90150    9.95780    4.45780   -0.01220   -0.14020  157.96040  285.44740   83.41370   50.82710   93.68570
 5708.50000    0.01120   16.76820    2.88370    9.84920    4.15540    0.00060   -0.11410  347.08560  425.41950   95.75860   50.01500   91.99280
 5709.00000    0.01980   17.74040    2.87010    9.72660    3.80500    0.01430   -0.09700  306.56520  321.83640   98.43330   49.38350   90.76500
 5709.50000    0.02180   17.51840    2.86690    9.64940    3.50260    0.02390   -0.09670  285.51960  357.27640  140.94010   48.66170   90.13730
 5710.00000    0.02210   16.52900    2.86770    9.58910    3.32820    0.02720   -0.09930  328.56860  398.53780  170.98700   47.66920   89.12910
 5710.50000    0.02110   15.35710    2.86920    9.57510    3.28150    0.02800   -0.10040  366.99600  433.77490  216.21330   47.12780   89.12310
 5711.00000    0.01820   15.17610    2.87370    9.56110    3.37950    0.02570   -0.10130  404.29610  477.12490  248.21210   47.10630   89.11710
 5711.50000    0.01490   15.43230    2.88380    9.54710    3.50910    0.02100   -0.10360  427.31360  676.76030  258.95270   47.48870   89.11110
 5712.00000    0.01170   16.21750    2.89060    9.54910    3.60670    0.02020   -0.10800  511.40730 1454.54990  281.87420   47.84960   89.10510
 5712.50000    0.00980   17.39610    2.89990    9.53500    3.65630    0.02270   -0.11740  864.39480 1975.71290  324.93100   48.21050   89.09910
 5713.00000    0.01100   19.07920    2.91040    9.48920    3.70590    0.02120   -0.12830 1472.31070 1175.93010  371.52610   48.48120   89.69370
 5713.50000    0.01200   20.28460    2.91120    9.45930    3.74220    0.01640   -0.12800 1237.72620 1011.28770  391.35990   48.48120   89.68650
 5714.00000    0.01160   20.53180    2.90480    9.42930    3.77280    0.01250   -0.12160  876.77200 1266.10190  373.66890   48.28990   89.68060
 5714.50000    0.01030   22.93710    2.90320    9.41530    3.77440    0.01340   -0.11680 1170.25370 1800.66110  360.19300   47.89670   89.07410
 5715.00000    0.00840   33.46350    2.90570    9.36910    3.77600    0.01660   -0.12140 1600.41980 2281.31840  389.73250   47.34460   89.06820
 5715.50000    0.00540   44.70640    2.90910    9.33910    3.77760    0.02150   -0.12750 2105.15700 2649.63750  431.40330   46.92560   88.46170
 5716.00000    0.00560   45.49780    2.91540    9.29380    3.77920    0.02470   -0.13260 2582.13130 1907.73950  478.56260   46.97250   87.85520
 5716.50000    0.00940   36.38020    2.92090    9.26390    3.76470    0.02480   -0.13330 2144.96040  781.53260  481.23160   47.12780   87.24870
 5717.00000    0.01360   30.66460    2.92260    9.23340    3.70240    0.01970   -0.12880 1511.76200  352.05820  446.69390   47.25060   86.64220
 5717.50000    0.01760   29.72590    2.91310    9.20350    3.59200    0.01850   -0.11930  835.05760  278.86650  389.44130   47.43450   86.03570
