~Version ---------------------------------------------------
VERS.   2.0 : CWLS log ASCII Standard -VERSION 2.0
WRAP.    NO : One line per depth step
DLM . SPACE : Column Data Section Delimiter
~Well ------------------------------------------------------
STRT .F                  174.0 : START DEPTH
STOP .F                10495.0 : STOP DEPTH
STEP .F                    0.5 : STEP
NULL .                -9999.25 : NULL VALUE
COMP .                         : COMPANY
WELL .                         : WELL
FLD  .                         : FIELD
LOC  .                         : LOCATION
PROV .                         : PROVINCE
CNTY .                         : COUNTY
STAT .                         : STATE
CTRY .                         : COUNTRY
SRVC .                         : SERVICE COMPANY
DATE .                         : DATE
UWI  .                         : UNIQUE WELL ID
API  .                         : API NUMBER
SLAT .WGS84  3.672660125498602 : SURFACE LATITUDE
SLON .WGS84 7.0958042414240055 : SURFACE LONGITUDE
DATUM.F                3544.03 : DEPTH DATUM ELEV
~Curve Information -----------------------------------------
DEPT.F     : 
TNPH.DEC   : THERMAL NEUTRON POROSITY
SGR .GAPI  : STANDARD GAMMA RAY, SPECTROSCOPY GAMMA RAY
RHOZ.G/C3  : HILT BULK DENSITY
HCAL.IN    : HILT CALIPER
PEFZ.B/E   : HILT PHOTOELECTRIC FACTOR
HDRA.G/C3  : DELTA RHO HIP TOOL
DPHZ.DEC   : DENSITY POROSITY LIMESTONE
HLLD.OHMM  : LATEROLOG DEEP RES.
HLLS.OHMM  : LATEROLOG SHALLOW RES.
RXOZ.OHMM  : FLUSHED ZONE RESISTIVITY
DTCO.US/F  : COMPRESSIONAL-WAVE INTERVAL TRANSIT TIME ACAUSTIC SLOWNESS
DTSM.US/F  : SHEAR-WAVE INTERVAL TRANSIT TIME DELTA-T
~Params ----------------------------------------------------
~Other -----------------------------------------------------
~ASCII -----------------------------------------------------
# ...
 10140.50000   -0.00390   60.05830    2.72840    7.96990    4.93980    0.00820   -0.01230 2484.06540 2600.76510  249.32860   50.68760   93.92490
 10141.00000   -0.00330   57.20250    2.73350    7.97150    4.92570    0.00910   -0.01360 2622.03740 2565.97290  254.73880   50.50150   93.91420
 10141.50000   -0.00170   56.97230    2.73460    7.97310    4.91110    0.00920   -0.01400 3361.56270 3005.78880  281.38640   50.31570   94.50750
 10142.00000    0.00050   60.33670    2.73600    7.97470    4.88110    0.00760   -0.01370 2482.69070 2236.07150  267.32800   50.14960   94.49710
 10142.50000    0.00180   63.45870    2.73600    7.97600    4.81950    0.00690   -0.01270 1683.30930 1901.11990  263.70600   50.96370   94.48830
 10143.00000    0.00210   63.71000    2.73500    7.97760    4.74140    0.00460   -0.01250 1642.54680 1649.21840  271.15540   51.32070   94.47950
 10143.50000    0.00270   58.45890    2.73130    7.97930    4.63140    0.00470   -0.01380 2239.10910 2363.03220  294.63790   51.22830   94.47070
 10144.00000    0.00370   56.55410    2.72360    7.96480    4.50530    0.00400   -0.01380 2319.81840 2612.86330  302.95000   51.26030   94.46180
 10144.50000    0.00720   59.43990    2.71450    7.96640    4.33120    0.00490   -0.01070 1296.47170 2199.54570  278.91860   51.60700   94.45300
 10145.00000    0.01100   59.93040    2.71030    7.96800    4.20520    0.00730   -0.00590  735.05920  993.88460  253.27180   52.19890   93.84360
 10145.50000    0.01200   60.42090    2.70730    7.96980    4.14260    0.00820    0.00080  640.31730  633.53080  246.41930   52.93360   93.23410
 10146.00000    0.01300   63.30380    2.70450    7.95420    4.09700    0.00750    0.00270  543.41420  526.19780  239.75940   53.62140   93.21570
 10146.50000    0.01390   64.27030    2.70330    7.94050    4.05760    0.01310    0.00390  425.32640  433.84920  223.80980   54.31270   92.61560
 10147.00000    0.01550   64.04260    2.70190    7.94240    4.00440    0.01640    0.00480  356.27900  357.70800  206.05600   54.92010   92.60660
 10147.50000    0.01870   64.05500    2.70160    7.94400    4.00640    0.01810    0.00550  398.16160  311.67830  195.02300   54.64730   92.67660
 10148.00000    0.02060   64.54550    2.70120    7.94560    3.99060    0.01730    0.00640  333.26610  275.34770  181.71250   54.10330   93.89470
 10148.50000    0.01800   65.27510    2.70170    7.96320    3.94370    0.01670    0.00760  249.82220  246.63420  148.02070   53.74010   95.71180
 10149.00000    0.01550   64.27820    2.70310    7.98080    3.90010    0.01590    0.00630  284.04680  299.33610  163.96320   55.36480   97.67810
 10149.50000    0.01260   59.52940    2.70530    7.98250    3.96650    0.01520    0.00370  435.49580  453.12360  183.51780   58.61610  100.29490
 10150.00000    0.00940   56.93780    2.70750    7.98410    4.11200    0.01690    0.00180  686.44240  745.17220  229.40320   60.78300  103.36340
 10150.50000    0.00550   57.42830    2.71100    7.98570    4.19800    0.01700    0.00000  928.82930  803.38310  277.33500   60.23900  105.38020
 10151.00000    0.00230   57.45320    2.71270    7.97130    4.28390    0.01470   -0.00170  674.59990  649.50480  284.49180   59.69510  105.99660
 10151.50000    0.00130   57.69160    2.71520    7.98060    4.34040    0.01160   -0.00360  721.60470  637.93760  296.72090   59.24150  106.33930
 10152.00000    0.00070   59.85680    2.71840    7.99040    4.40580    0.01080   -0.00380 1061.89580  917.91640  275.68380   58.78790  106.33030
 10152.50000    0.00130   58.43340    2.72100    7.99200    4.50330    0.00930   -0.00480  991.42460 1054.19510  240.37000   58.42040  106.32130
 10153.00000    0.00160   43.61290    2.72240    7.99360    4.53640    0.01190   -0.00700 1170.12950  984.20110  224.40290   58.05600  106.31230
 10153.50000    0.00230   42.38370    2.72250    7.99520    4.44220    0.01190   -0.00900 1479.61330 1105.26440  261.17470   58.18730  106.30160
 10154.00000    0.00640   46.26860    2.71840    8.01280    4.34760    0.01110   -0.00940 1459.74880 1564.88230  269.05760   58.69050  105.09160
 10154.50000    0.01190   51.06530    2.71310    8.01440    4.23710    0.01290   -0.00520  939.24580 1808.81950  229.46980   58.06570  103.88150
 10155.00000    0.01540   53.23050    2.70850    8.01600    4.11050    0.01530   -0.00010  505.16810  720.13020  215.37630   57.23370  102.07090
 10155.50000    0.01980   53.95720    2.70340    8.01770    4.06400    0.01860    0.00340  429.82580  448.02960  199.91250   56.69720   99.65970
 10156.00000    0.02240   52.05840    2.70090    8.02200    4.03310    0.02180    0.00500  454.92340  390.07060  211.40830   57.83630   99.53920
 10156.50000    0.02590   53.02740    2.69550    8.02080    4.09890    0.02270    0.00490  399.93850  385.76470  193.07430   59.04130  100.84320
 10157.00000    0.02980   53.99640    2.68470    8.02250    4.18030    0.01960    0.00490  498.79210  400.41760  195.79870   59.65010  102.63620
 10157.50000    0.04110   52.80920    2.67310    8.02410    4.22980    0.01730    0.00490  890.29610  501.86730  247.65500   60.05360  105.63030
 10158.00000    0.06280   63.58980    2.64360    8.02570    4.02330    0.01580    0.00710  994.38960  806.17070  234.39460   60.89610  109.22510
 10158.50000    0.10600  100.20470    2.61170    8.02730    3.84870    0.01240    0.01960  391.78020 1118.62040  193.23150   63.44060  115.86610
 10159.00000    0.12480  125.81480    2.58440    8.02890    3.75420    0.01880    0.06400  271.23190  357.19600  177.90340   67.75600  123.17660
 10159.50000    0.14930  129.89390    2.56930    8.04650    3.72320    0.01970    0.08830  278.11000  257.15140  182.92240   72.38710  129.24680
 10160.00000    0.16170  123.44660    2.56270    8.06420    3.69270    0.01900    0.09340  314.41270  259.86590  198.76380   77.55390  133.37530
 10160.50000    0.16320  116.99930    2.56020    8.08180    3.71050    0.01820    0.09560  341.27250  286.68720  207.21290   77.82350  135.00680
 10161.00000    0.16450  116.05140    2.55770    8.08340    3.72770    0.01910    0.09660  365.03960  316.25550  213.05860   77.64070  134.86970
 10161.50000    0.16900  118.45880    2.55500    8.08500    3.72910    0.01830    0.09690  374.32230  339.36990  213.10200   77.45820  133.63420
 10162.00000    0.17220  120.86320    2.55310    8.08660    3.69850    0.01440    0.09680  348.22090  349.09820  213.14540   77.18530  132.57660
 10162.50000    0.17730  121.83220    2.55420    8.10420    3.70000    0.01370    0.09710  310.59270  303.30540  207.26960   76.64140  131.16540
 10163.00000    0.18050  119.93030    2.56880    8.12180    3.70140    0.01540    0.09610  287.01780  257.17040  201.33910   75.91670  129.93270
 10163.50000    0.17060  116.35390    2.58780    8.12340    3.70290    0.01860    0.09260  312.92920  282.18570  193.62530   73.56550  128.09650
 10164.00000    0.14200  101.77260    2.60320    8.15710    3.70430    0.01950    0.07980  486.22620  337.78780  203.54220   70.94330  127.19230
 10164.50000    0.12960   86.59030    2.61700    8.15870    3.64180    0.02110    0.06280  723.42070  433.24920  221.03470   68.41140  125.62820
 10165.00000    0.12700   74.59390    2.63050    8.14390    3.59520    0.02200    0.04550  987.80730  579.19180  240.50610   67.68670  124.07340
 10165.50000    0.12990   86.09160    2.62920    8.14590    3.59670    0.02280    0.04420 1145.67710 1093.53410  261.71720   67.50420  122.56040
 10166.00000    0.14110  107.39790    2.58900    8.16350    3.64610    0.01730    0.06970 1062.52430 1136.75510  266.27790   67.69390  122.06220
 10166.50000    0.15290  110.76150    2.57060    8.16510    3.77560    0.01340    0.08640  644.86240  953.14290  241.95280   68.47620  124.08550
 10167.00000    0.15130  110.53670    2.56580    8.18240    3.87300    0.01030    0.09020  376.04960  491.41660  222.44530   70.25390  125.87850
 10167.50000    0.13980  106.00570    2.58270    8.18410    3.95450    0.01040    0.08210  222.41340  279.07480  204.49940   72.71100  126.03120
 10168.00000    0.13750  102.19240    2.59090    8.18560    3.90800    0.01120    0.07320  196.51080  208.89660  183.33760   73.00740  124.65970
