~Version ---------------------------------------------------
VERS.   2.0 : CWLS log ASCII Standard -VERSION 2.0
WRAP.    NO : One line per depth step
DLM . SPACE : Column Data Section Delimiter
~Well ------------------------------------------------------
STRT .F                  174.0 : START DEPTH
STOP .F                10495.0 : STOP DEPTH
STEP .F                    0.5 : STEP
NULL .                -9999.25 : NULL VALUE
COMP .                         : COMPANY
WELL .                         : WELL
FLD  .                         : FIELD
LOC  .                         : LOCATION
PROV .                         : PROVINCE
CNTY .                         : COUNTY
STAT .                         : STATE
CTRY .                         : COUNTRY
SRVC .                         : SERVICE COMPANY
DATE .                         : DATE
UWI  .                         : UNIQUE WELL ID
API  .                         : API NUMBER
SLAT .WGS84  3.672660125498602 : SURFACE LATITUDE
SLON .WGS84 7.0958042414240055 : SURFACE LONGITUDE
DATUM.F                3544.03 : DEPTH DATUM ELEV
~Curve Information -----------------------------------------
DEPT.F     : 
TNPH.DEC   : THERMAL NEUTRON POROSITY
SGR .GAPI  : STANDARD GAMMA RAY, SPECTROSCOPY GAMMA RAY
RHOZ.G/C3  : HILT BULK DENSITY
HCAL.IN    : HILT CALIPER
PEFZ.B/E   : HILT PHOTOELECTRIC FACTOR
HDRA.G/C3  : DELTA RHO HIP TOOL
DPHZ.DEC   : DENSITY POROSITY LIMESTONE
HLLD.OHMM  : LATEROLOG DEEP RES.
HLLS.OHMM  : LATEROLOG SHALLOW RES.
RXOZ.OHMM  : FLUSHED ZONE RESISTIVITY
DTCO.US/F  : COMPRESSIONAL-WAVE INTERVAL TRANSIT TIME ACAUSTIC SLOWNESS
DTSM.US/F  : SHEAR-WAVE INTERVAL TRANSIT TIME DELTA-T
~Params ----------------------------------------------------
~Other -----------------------------------------------------
~ASCII -----------------------------------------------------
# ...
 9104.50000    0.02250   10.15050    2.85820    9.34500    3.13580    0.01080   -0.09230  912.56370  587.38330  203.52620   45.41750   83.13510
 9105.00000    0.02440   10.62200    2.85470    9.34630    3.13760    0.00930   -0.08910  762.91810  471.13670  183.96250   45.41710   82.52250
 9105.50000    0.02560   10.87080    2.85530    9.34760    3.13940    0.00860   -0.08910  655.64480  439.88500  188.39740   45.50710   82.81920
 9106.00000    0.02690   11.11970    2.86120    9.34890    3.14110    0.01350   -0.09140  497.69950  409.94740  212.33740   45.68730   83.43540
 9106.50000    0.02750   10.89010    2.86360    9.35010    3.14290    0.01510   -0.09370  367.52730  335.34570  238.79010   45.95790   84.28600
 9107.00000    0.02680   10.66030    2.86350    9.35140    3.14460    0.01280   -0.09530  246.43140  226.55130  228.33980   46.22860   85.47540
 9107.50000    0.02580   10.43060    2.86210    9.35270    3.16290    0.01130   -0.09440  200.41700  154.47660  135.90100   46.49920   85.46370
 9108.00000    0.02550   10.44060    2.86130    9.35400    3.19620    0.00980   -0.09250  187.09130  130.50490   77.20150   46.76990   85.45200
 9108.50000    0.02610   11.40710    2.86140    9.35530    3.21390    0.00900   -0.09160  220.78450  129.02370   85.88840   47.04050   86.04200
 9109.00000    0.02600   11.65360    2.86220    9.35630    3.26370    0.00910   -0.09480  267.83050  134.65400  114.78530   47.22080   86.02910
 9109.50000    0.02500   10.46950    2.86480    9.35760    3.34550    0.01320   -0.09640  338.62230  158.82570  138.01110   47.31070   86.61860
 9110.00000    0.02370   10.00060    2.86790    9.35890    3.41120    0.01570   -0.09580  446.20550  206.85890  154.17300   47.02950   86.60620
 9110.50000    0.02300   10.48880    2.87230    9.36010    3.50900    0.01580   -0.09810  564.14450  266.74580  174.62210   46.67730   86.59450
 9111.00000    0.02270   10.73760    2.86640    9.36140    3.59080    0.01430   -0.10230  723.15900  312.84770  209.01540   46.68620   87.18330
 9111.50000    0.02890    9.55110    2.84000    9.34670    3.67250    0.01270   -0.10070  818.81360  335.37160  227.13210   46.88220   87.17120
 9112.00000    0.04780    8.60380    2.80640    9.28420    3.62630    0.00960   -0.07920  429.87090  173.42130  163.10540   47.38580   87.15920
 9112.50000    0.06460    7.89570    2.78090    9.26950    3.50010    0.00650   -0.04990  285.32020   87.48090   34.27090   48.10690   87.24810
 9113.00000    0.07580    8.62310    2.76720    9.27080    3.27780    0.00580   -0.03730  245.31700   73.76820   19.46110   48.70720   87.86310
 9113.50000    0.08090    9.82890    2.75530    9.25620    3.23120    0.00510   -0.03000  227.26610   73.48570   15.82450   48.84330   88.48050
 9114.00000    0.07410   10.79550    2.76650    9.25740    3.24940    0.00270   -0.02680  307.17430   87.05540   16.96030   48.72400   88.91470
 9114.50000    0.06450   11.52280    2.78500    9.24270    3.26710    0.00200   -0.03930  405.17260  113.80770   22.05430   48.41780   88.90090
 9115.00000    0.05450   12.01090    2.80340    9.24410    3.26890    0.00370   -0.05470  509.00090  147.38740   60.44950   47.92490   88.28830
 9115.50000    0.05370   11.77890    2.81790    9.22930    3.27070    0.00700   -0.06830  576.97560  183.30090   98.04060   47.37260   87.07510
 9116.00000    0.05760   11.54930    2.80910    9.23070    3.20850    0.01350   -0.06790  605.32430  204.79430  120.63660   46.64000   86.16580
 9116.50000    0.06500   11.56140    2.78900    9.21600    3.16220    0.01680   -0.05710  538.51480  180.93490   87.54760   46.80420   86.17420
 9117.00000    0.07170   11.81030    2.77240    9.20100    3.18000    0.01600   -0.03920  394.55030  133.58740   29.17260   47.45020   87.39080
 9117.50000    0.07580   11.58070    2.76300    9.20260    3.24580    0.01530   -0.03150  338.23640  110.15010   21.84310   48.08720   89.42730
 9118.00000    0.07640   10.87260    2.76450    9.18770    3.31150    0.01540   -0.03030  297.19760   97.31710   19.51400   48.74870   90.61670
 9118.50000    0.07350   11.12150    2.78320    9.18930    3.37730    0.01630   -0.03990  270.60840   92.12520   21.50290   49.38080   91.20720
 9119.00000    0.06870   12.13250    2.80080    9.19050    3.41110    0.01550   -0.06180  272.11390   89.65230   32.21200   49.56110   90.59330
 9119.50000    0.05230   13.09160    2.81420    9.15990    3.39640    0.01720   -0.07080  295.99920   90.93590   37.48680   49.37990   89.98090
 9120.00000    0.04070   13.77990    2.82490    9.14490    3.38220    0.02050   -0.07150  393.90130  116.64310   47.48430   48.65660   89.36860
 9120.50000    0.02950   13.78950    2.83190    9.11430    3.38440    0.02140   -0.07630  642.24910  164.80150   74.86980   47.48140   88.75630
 9121.00000    0.02270   14.29430    2.84520    9.10000    3.38610    0.01810   -0.08430 1174.96250  246.06590  144.89580   46.39660   88.14390
 9121.50000    0.01880   18.27620    2.86130    9.10130    3.38790    0.01590   -0.09530 1485.52320  333.55140  234.30090   46.03480   88.12970
 9122.00000    0.02010   45.94610    2.87050    9.08630    3.35770    0.01600   -0.10460 1577.51060  452.14130  248.16460   45.76320   87.51950
 9122.50000    0.02390   61.67470    2.87530    9.07190    3.26350    0.01610   -0.10590  844.28380  580.75650  199.46890   45.58210   87.50750
 9123.00000    0.02700   82.01930    2.86490    9.05700    3.21680    0.01460   -0.09700  558.35030  515.72060  193.66760   45.67200   87.58400
 9123.50000    0.02830   89.20590    2.85900    9.02630    3.20250    0.01140   -0.09090  163.69360  183.34700  168.20080   45.85230   88.20130
 9124.00000    0.02790   89.74570    2.85540    9.01170    3.18830    0.00670   -0.08900  120.87990  119.28300   62.41230   46.39830   88.67410
 9124.50000    0.02500   80.61280    2.85600    8.99730    3.20650    0.00840   -0.09290  114.40920  112.32160   52.37250   46.75500   88.48940
 9125.00000    0.02180   63.39750    2.86070    8.99860    3.24030    0.01170   -0.09650  126.01900  144.55510   76.47470   46.74700   87.84790
 9125.50000    0.01920   43.31150    2.86430    8.99990    3.27410    0.01820   -0.09940  240.95290  402.64310  228.89870   46.45060   86.83480
 9126.00000    0.01880   27.05320    2.86970    9.00120    3.32380    0.02470   -0.10460  997.14360 1368.10930  281.65440   45.98970   86.22220
 9126.50000    0.02330   19.88580    2.87480    8.98620    3.29360    0.02320   -0.10550 1880.46740 1780.71800  310.32280   45.45430   85.92550
 9127.00000    0.03000   18.45760    2.87290    8.97190    3.24740    0.02080   -0.09630 1829.56880 1699.89420  314.72310   45.30690   85.59760
 9127.50000    0.03410   18.94810    2.85890    8.97290    3.20110    0.01850   -0.08220 1388.82430 1389.95190  285.80370   45.55710   86.18620
 9128.00000    0.04100   20.87160    2.84320    8.97420    3.15450    0.01620   -0.06840  904.50600  945.69340  232.39720   46.10850   87.37310
 9128.50000    0.04540   23.27360    2.82450    8.95940    3.14020    0.01230   -0.06340  681.39300  607.89180  219.37400   46.83960   88.56260
 9129.00000    0.04820   25.67560    2.81420    8.96080    3.12600    0.01070   -0.05820  445.02930  453.81990  228.86840   48.13010   89.75200
 9129.50000    0.04580   27.59910    2.80570    8.96200    3.12780    0.01080   -0.05700  369.33620  379.50670   93.49380   50.61550   90.94150
 9130.00000    0.04030   30.00110    2.81670    8.96330    3.13170    0.01490   -0.06470  400.90450  377.13750  100.20420   52.32800   91.53150
 9130.50000    0.03490   32.88160    2.82740    8.96460    3.16340    0.01820   -0.07360  474.24660  440.02770  194.47340   51.06540   88.51560
 9131.00000    0.03230   35.28360    2.84050    8.96590    3.21460    0.01510   -0.08100  522.28860  491.66820  208.43140   46.83090   83.09850
 9131.50000    0.03320   32.90090    2.84320    8.96720    3.29600    0.01030   -0.08600  474.30030  474.30330  214.32620   43.74640   76.48010
 9132.00000    0.03870   29.56120    2.83710    8.95250    3.29660    0.00640   -0.08070  807.24150  522.64390  267.94320   43.45670   74.66660
