~Version ---------------------------------------------------
VERS.   2.0 : CWLS log ASCII Standard -VERSION 2.0
WRAP.    NO : One line per depth step
DLM . SPACE : Column Data Section Delimiter
~Well ------------------------------------------------------
STRT .F                  174.0 : START DEPTH
STOP .F                10495.0 : STOP DEPTH
STEP .F                    0.5 : STEP
NULL .                -9999.25 : NULL VALUE
COMP .                         : COMPANY
WELL .                         : WELL
FLD  .                         : FIELD
LOC  .                         : LOCATION
PROV .                         : PROVINCE
CNTY .                         : COUNTY
STAT .                         : STATE
CTRY .                         : COUNTRY
SRVC .                         : SERVICE COMPANY
DATE .                         : DATE
UWI  .                         : UNIQUE WELL ID
API  .                         : API NUMBER
SLAT .WGS84  3.672660125498602 : SURFACE LATITUDE
SLON .WGS84 7.0958042414240055 : SURFACE LONGITUDE
DATUM.F                3544.03 : DEPTH DATUM ELEV
~Curve Information -----------------------------------------
DEPT.F     : 
TNPH.DEC   : THERMAL NEUTRON POROSITY
SGR .GAPI  : STANDARD GAMMA RAY, SPECTROSCOPY GAMMA RAY
RHOZ.G/C3  : HILT BULK DENSITY
HCAL.IN    : HILT CALIPER
PEFZ.B/E   : HILT PHOTOELECTRIC FACTOR
HDRA.G/C3  : DELTA RHO HIP TOOL
DPHZ.DEC   : DENSITY POROSITY LIMESTONE
HLLD.OHMM  : LATEROLOG DEEP RES.
HLLS.OHMM  : LATEROLOG SHALLOW RES.
RXOZ.OHMM  : FLUSHED ZONE RESISTIVITY
DTCO.US/F  : COMPRESSIONAL-WAVE INTERVAL TRANSIT TIME ACAUSTIC SLOWNESS
DTSM.US/F  : SHEAR-WAVE INTERVAL TRANSIT TIME DELTA-T
~Params ----------------------------------------------------
~Other -----------------------------------------------------
~ASCII -----------------------------------------------------
# ...
 6390.00000    0.03030   51.49960    2.86530    9.22940    3.58420    0.02780   -0.09760  354.27710  336.09120  199.64180   46.60450   84.14470
 6390.50000    0.02570   47.45600    2.87840    9.23120    3.61790    0.02370   -0.10100  463.60400  546.56920  369.75380   46.51330   84.49490
 6391.00000    0.02160   38.39640    2.88270    9.23300    3.53950    0.02070   -0.10430  608.09780  660.02640  390.67040   46.51250   85.99620
 6391.50000    0.01830   28.85910    2.88490    9.23470    3.49270    0.02160   -0.10600  725.94620  749.82920  401.17960   46.42130   87.44740
 6392.00000    0.01630   24.09370    2.88720    9.23650    3.49470    0.02330   -0.10660  896.66120  851.05230  401.29040   46.42050   87.44740
 6392.50000    0.01500   20.48970    2.89220    9.22190    3.56030    0.02170   -0.10990 1249.60410 1127.74650  401.40120   46.41950   86.84680
 6393.00000    0.01440   21.11830    2.89860    9.22410    3.61250    0.01540   -0.11570 1207.12100 1279.84130  401.51210   46.40900   86.24620
 6393.50000    0.01440   25.04810    2.90080    9.22590    3.66150    0.00910   -0.11860  777.51810 1058.99990  400.21320   46.32750   86.24620
 6394.00000    0.01540   31.15560    2.89630    9.22760    3.70880    0.00830   -0.11890  616.34840  736.50980  365.06200   46.32660   85.64560
 6394.50000    0.01720   37.61300    2.89260    9.21350    3.74360    0.01000   -0.11380  640.11460  598.69660  306.43310   46.32570   85.64560
 6395.00000    0.02040   42.58760    2.88900    9.21520    3.72800    0.01330   -0.10840  664.31240  624.22770  291.17540   46.43910   85.64560
 6395.50000    0.02390   38.06620    2.88680    9.21700    3.66560    0.01330   -0.10650  615.27870  590.79570  281.73630   46.76780   85.04500
 6396.00000    0.02810   37.58850    2.88370    9.21880    3.52320    0.01420   -0.10590  416.70520  326.05980  247.35000   47.07610   85.64560
 6396.50000    0.03350   39.53310    2.87570    9.22060    3.38080    0.01430   -0.10370  211.94990  201.00420  147.55270   47.29410   86.24620
 6397.00000    0.04530   40.02760    2.85990    9.22230    3.27040    0.01350   -0.09180   78.63620   56.33400   31.80070   47.66140   86.89720
 6397.50000    0.05240   40.28330    2.84050    9.22370    3.24000    0.01600   -0.08000   45.05470   43.93200   27.81940   47.98640   87.52280
 6398.00000    0.05390   41.97220    2.82650    9.22550    3.20960    0.01440   -0.07010   39.17890   39.88940   24.52290   48.21410   88.04800
 6398.50000    0.05100   45.57180    2.82130    9.22720    3.21130    0.00970   -0.06660   36.35750   36.21880   25.47500   47.88450   88.04800
 6399.00000    0.04490   44.15560    2.82460    9.22900    3.21290    0.00900   -0.07470   39.59720   40.46690   28.82270   47.67100   88.04800
 6399.50000    0.03910   29.84120    2.83410    9.23070    3.21450    0.00990   -0.08560   52.93220   57.99280   32.64560   47.85040   88.04800
 6400.00000    0.03850   23.17020    2.84790    9.24840    3.26410    0.01350   -0.09390  103.30930  129.37210   54.14370   48.39920   88.21430
 6400.50000    0.04100   23.42450    2.85390    9.25730    3.25230    0.01800   -0.09300  137.31880  130.24060   93.32020   48.69940   89.23390
 6401.00000    0.04830   28.93250    2.84870    9.26780    3.23940    0.02050   -0.08310  126.01800  131.23200  105.60120   49.14050   90.25350
 6401.50000    0.05730   40.17300    2.83210    9.28530    3.22650    0.01810   -0.06900  111.34950  124.19520   94.46390   50.22100   91.05100
 6402.00000    0.06050   55.95180    2.81910    9.30280    3.20570    0.01340   -0.05850  101.02030  117.53570   74.94290   50.37770   90.76210
 6402.50000    0.05990   60.26560    2.81180    9.30440    3.15910    0.00950   -0.05440   92.91610  111.23330   58.31730   49.97700   90.14000
 6403.00000    0.05420   58.04750    2.80770    9.30600    3.12850    0.00560   -0.05710   85.29160  102.39720   67.58580   49.41120   89.51730
 6403.50000    0.04770   53.20170    2.80800    9.30760    3.14640    0.00410   -0.06260   90.96450   94.26290   91.29580   48.78840   88.29400
 6404.00000    0.03990   49.45180    2.82150    9.30890    3.19580    0.00500   -0.06860  145.44890  105.31200  103.77310   48.23940   87.44740
 6404.50000    0.03000   45.87040    2.84170    9.31050    3.32520    0.01060   -0.07530  198.09460  150.91180  107.06950   47.60020   86.84680
 6405.00000    0.02110   41.08110    2.86740    9.31210    3.39360    0.01470   -0.08630  265.14410  196.30270  113.14980   47.05120   86.84680
 6405.50000    0.01600   35.69380    2.88400    9.31370    3.47780    0.01400   -0.09960  687.14930  258.90210  126.36580   46.50190   86.24620
 6406.00000    0.01410   29.93200    2.89380    9.31540    3.58810    0.01090   -0.11520 1329.08460 1185.45540  273.81790   46.07590   85.64560
 6406.50000    0.01470   24.28090    2.89620    9.33290    3.63470    0.00700   -0.11550 1797.18990 1746.39480  403.06750   45.87040   85.64560
 6407.00000    0.01720   20.97900    2.88740    9.33440    3.58580    0.00140   -0.11230  877.48240 1419.51970  360.91240   46.39790   85.64560
 6407.50000    0.02170   20.27870    2.87440    9.35190    3.45310   -0.00090   -0.09960  275.24260  419.34260  196.57750   46.80540   85.64560
 6408.00000    0.02870   20.77080    2.86420    9.35370    3.26530    0.00400   -0.09320  221.36580  295.86700  124.63290   47.22170   86.24620
 6408.50000    0.03220   21.74070    2.86220    9.35510    3.17640    0.01290   -0.09070  166.89870  208.31500  119.57540   47.58840   86.84680
 6409.00000    0.03380   24.14360    2.86060    9.35670    3.21140    0.01850   -0.08910  138.52010  150.31340  122.92370   47.86510   86.84680
 6409.50000    0.03470   28.21850    2.85710    9.35830    3.26060    0.02100   -0.08850  167.23390  133.52410  151.21350   48.09000   87.44740
 6410.00000    0.03600   32.53230    2.85410    9.36000    3.34080    0.02270   -0.08760  203.35960  183.85530  183.46310   48.40010   87.48800
 6410.50000    0.03790   36.36840    2.85080    9.36150    3.39110    0.02280   -0.08630  252.66520  230.10040  186.01400   48.58100   88.04800
 6411.00000    0.04300   41.39870    2.84830    9.34710    3.43970    0.02290   -0.08380  271.35540  274.24520  196.57750   48.67170   88.04800
 6411.50000    0.04490   47.86220    2.84580    9.34870    3.42470    0.02050   -0.08060  249.24230  246.93760  175.33100   48.76230   88.04800
 6412.00000    0.04450   50.26520    2.84290    9.33420    3.37840    0.01820   -0.07680  221.01000  227.79980  137.08110   48.76280   88.04800
 6412.50000    0.04350   50.04070    2.84050    9.33600    3.34800    0.02080   -0.07590  203.49250  219.19640  133.54190   48.76320   88.04800
 6413.00000    0.04190   49.57740    2.83810    9.32170    3.33340    0.02480   -0.08010  212.15730  213.98690  178.34340   48.67340   88.04800
 6413.50000    0.03960   49.11050    2.83970    9.30730    3.39890    0.02560   -0.08460  250.46110  238.51970  220.14030   48.49340   87.44740
 6414.00000    0.03730   47.93430    2.84410    9.29300    3.44830    0.02160   -0.08820  325.68810  287.47670  259.73160   48.31340   87.44740
 6414.50000    0.03540   46.27670    2.85100    9.29460    3.48180    0.01530   -0.09110  330.84620  333.52210  258.38470   48.04320   86.84680
 6415.00000    0.03210   44.61920    2.85640    9.28030    3.45120    0.01140   -0.09370  299.95550  322.34070  247.00410   47.77300   86.84680
 6415.50000    0.02960   45.11130    2.86220    9.28190    3.45270    0.01080   -0.09610  298.18700  298.52220  245.18040   47.50270   86.24620
 6416.00000    0.02600   46.32000    2.86540    9.26750    3.48610    0.01410   -0.09870  364.12600  405.51230  273.41710   47.23250   85.94180
 6416.50000    0.02340   47.28980    2.86790    9.25300    3.53560    0.01570   -0.10020  507.33910  534.90190  291.98810   47.14270   85.97160
 6417.00000    0.02210   47.53950    2.87050    9.23850    3.53700    0.01260   -0.10190  536.29610  612.05850  308.82450   47.41740   86.59490
 6417.50000    0.02140   46.36320    2.87230    9.22450    3.53840    0.00870   -0.10220  521.83010  639.27040  320.43140   47.77970   87.44740
