~Version ---------------------------------------------------
VERS.   2.0 : CWLS log ASCII Standard -VERSION 2.0
WRAP.    NO : One line per depth step
DLM . SPACE : Column Data Section Delimiter
~Well ------------------------------------------------------
STRT .F                  174.0 : START DEPTH
STOP .F                10495.0 : STOP DEPTH
STEP .F                    0.5 : STEP
NULL .                -9999.25 : NULL VALUE
COMP .                         : COMPANY
WELL .                         : WELL
FLD  .                         : FIELD
LOC  .                         : LOCATION
PROV .                         : PROVINCE
CNTY .                         : COUNTY
STAT .                         : STATE
CTRY .                         : COUNTRY
SRVC .                         : SERVICE COMPANY
DATE .                         : DATE
UWI  .                         : UNIQUE WELL ID
API  .                         : API NUMBER
SLAT .WGS84  3.672660125498602 : SURFACE LATITUDE
SLON .WGS84 7.0958042414240055 : SURFACE LONGITUDE
DATUM.F                3544.03 : DEPTH DATUM ELEV
~Curve Information -----------------------------------------
DEPT.F     : 
TNPH.DEC   : THERMAL NEUTRON POROSITY
SGR .GAPI  : STANDARD GAMMA RAY, SPECTROSCOPY GAMMA RAY
RHOZ.G/C3  : HILT BULK DENSITY
HCAL.IN    : HILT CALIPER
PEFZ.B/E   : HILT PHOTOELECTRIC FACTOR
HDRA.G/C3  : DELTA RHO HIP TOOL
DPHZ.DEC   : DENSITY POROSITY LIMESTONE
HLLD.OHMM  : LATEROLOG DEEP RES.
HLLS.OHMM  : LATEROLOG SHALLOW RES.
RXOZ.OHMM  : FLUSHED ZONE RESISTIVITY
DTCO.US/F  : COMPRESSIONAL-WAVE INTERVAL TRANSIT TIME ACAUSTIC SLOWNESS
DTSM.US/F  : SHEAR-WAVE INTERVAL TRANSIT TIME DELTA-T
~Params ----------------------------------------------------
~Other -----------------------------------------------------
~ASCII -----------------------------------------------------
# ...
 9804.50000    0.08030   72.16080    2.71050    8.07970    3.97390    0.00470    0.00300   41.54220   55.21670  133.11740   58.68850  110.78980
 9805.00000    0.10250   84.37860    2.69750    8.08190    3.89570    0.01040    0.02000   39.16100   35.37110   35.80820   61.84940  116.18630
 9805.50000    0.10630   87.26620    2.68660    8.08370    3.88210    0.01760    0.02270   56.83640   37.93100   10.52810   62.75120  112.40200
 9806.00000    0.10150   72.92890    2.68100    8.08550    3.98110    0.01130    0.02110  124.74830   52.42890   12.08690   62.55870  108.16730
 9806.50000    0.06810   55.72080    2.68500    8.08720    4.03150    0.00660    0.01160  266.74430  164.66340   17.58920   61.61810  105.17610
 9807.00000    0.04380   52.49220    2.69790    8.07260    4.01790    0.00740    0.00670  342.77470  313.51870  229.49660   59.67710  102.82930
 9807.50000    0.04020   67.47690    2.69740    8.07440    3.87630    0.00750    0.00760  302.43360  421.42290  208.39450   58.49710  100.99690
 9808.00000    0.03830   78.49850    2.67800    8.07610    3.78280    0.00760    0.02010  422.51130  336.32020  196.36420   58.85680   99.76340
 9808.50000    0.03310   70.85980    2.67030    8.06180    3.73660    0.00840    0.02760  572.35270  356.97160  239.35050   58.20220   98.53170
 9809.00000    0.02320   49.58470    2.67570    8.06370    3.86760    0.00850    0.01970  713.77480  534.00960  246.10320   56.74720   97.29930
 9809.50000    0.01510   44.33840    2.69090    8.06540    4.04600    0.00700    0.00890  271.94970  623.86330  132.23340   54.83710   97.92200
 9810.00000    0.01410   46.26910    2.70590    8.06720    4.09580    0.00620    0.00540  184.88980  421.99850   88.61700   54.60260  100.12010
 9810.50000    0.01670   50.11360    2.71420    8.05110    3.98680    0.00470    0.01050  161.10980  184.57720  103.17470   56.01730  100.73360
 9811.00000    0.02310   58.74290    2.69710    8.02090    3.98920    0.01430    0.01020  152.49620  181.76610  136.01980   57.45670  101.06310
 9811.50000    0.03070   66.65440    2.68790    7.99090    3.99160    0.02230    0.00120  152.52750  167.48150  142.45860   57.76000  101.65460
 9812.00000    0.03450   69.30280    2.71030    7.97820    4.04200    0.03040   -0.02540  152.55880  143.38680  101.82230   57.14570  101.31780
 9812.50000    0.03710   70.99420    2.74720    7.96400    4.07650    0.02800   -0.03820  134.78270  154.11210   97.70920   56.81480  100.08470
 9813.00000    0.03420   71.01100    2.76890    7.96580    3.98290    0.02410   -0.03960  120.73100  136.51290   74.14640   56.76020   98.62290
 9813.50000    0.02640   64.56850    2.76860    7.96750    3.72930    0.02100   -0.02450  177.65300  118.66780   70.17640   56.75840   97.41290
 9814.00000    0.01520   48.31740    2.74780    7.96930    3.68000    0.01870   -0.01300  272.45220  120.03970  128.86890   56.43820   96.20290
 9814.50000    0.00970   35.89400    2.73620    7.97100    3.66950    0.01620   -0.01400  573.76330  200.85710  208.99320   55.56080   94.99280
 9815.00000    0.00620   30.16920    2.73810    7.97280    3.88790    0.01380   -0.02490  904.53770  394.25870  257.14390   54.32800   95.58460
 9815.50000    0.00550   27.31090    2.74740    7.97490    4.13480    0.01160   -0.03230 1052.89250  900.97360  260.77270   53.76890   96.77690
 9816.00000    0.00710   27.81040    2.75810    7.99230    4.15670    0.00860   -0.03360  880.29610 1003.00730  236.79480   53.94790   98.56990
 9816.50000    0.01190   39.78890    2.76350    7.99410    3.92400    0.00700   -0.03170  152.84060  295.41530  269.67200   54.57860  100.96340
 9817.00000    0.02370   60.61910    2.75000    7.97980    3.69310    0.00880   -0.01220  111.32770  123.79730  257.41890   55.84190  102.75640
 9817.50000    0.03330   74.27230    2.71550    7.98160    3.48790    0.01280    0.00210  107.38580  111.85780   76.93780   56.92440  103.94870
 9818.00000    0.03420   72.61450    2.67560    7.96740    3.41220    0.01600    0.02680  185.49760  148.20070   76.37900   57.64560  102.73870
 9818.50000    0.03070   60.19110    2.66370    7.96910    3.53250    0.01770    0.02480  247.84260  206.47490   94.03800   57.82450  101.51420
 9819.00000    0.02780   53.27010    2.67060    7.97090    3.81980    0.01770    0.01580  225.08620  233.84580  162.71460   57.73240  100.28240
 9819.50000    0.02770   54.96150    2.68930    7.97270    3.82160    0.01530    0.01260  138.94950  165.61270  243.77500   57.45950   99.10810
 9820.00000    0.03380   62.63380    2.69580    7.97440    3.66400    0.01390    0.01740  131.52070  125.67320  139.19580   57.27700   98.49850
 9820.50000    0.03350   65.99990    2.68620    7.97620    3.61840    0.01950    0.02180  139.22950  121.85610  100.77640   57.27520   98.59200
 9821.00000    0.03020   60.27510    2.66940    7.97800    3.58880    0.01880    0.02280  171.86590  142.36200  127.63290   57.18310   99.80610
 9821.50000    0.02120   49.28710    2.67770    7.96370    3.78320    0.01090    0.01600  254.74660  170.39010  178.09950   56.91020  100.87490
 9822.00000    0.01380   39.73450    2.71750    7.96550    4.20160    0.00540    0.00190  391.78460  261.48120  218.78240   56.45660  100.69740
 9822.50000    0.01160   29.46420    2.74290    7.96730    4.25200    0.00300   -0.02690  588.53610  359.30270  253.07520   55.54400   98.86340
 9823.00000    0.01120   27.80220    2.76000    7.96900    4.23840    0.00310   -0.03620  731.06500  697.27760  267.67780   54.90900   97.63170
 9823.50000    0.01340   31.41170    2.76780    7.95480    4.11290    0.00870   -0.03980  887.40680  944.99370  296.54610   54.72720   97.23420
 9824.00000    0.02420   38.60560    2.77210    7.95650    3.92330    0.00900   -0.03280  597.29680  998.86340  282.25350   54.77110   98.93850
 9824.50000    0.04710   52.49800    2.73060    7.97430    3.70170    0.00730   -0.01360   63.53130  144.54900  195.33420   55.96510  101.93010
 9825.00000    0.05740   72.84970    2.70390    7.97610    3.52810    0.00490    0.01710   40.11570   41.15070   57.95100   58.96080  106.81680
 9825.50000    0.07930   84.11050    2.67060    7.97780    3.24250    0.00580    0.03790   38.11110   38.20940   27.52290   65.29510  112.02020
 9826.00000    0.08120   79.58180    2.65120    7.99560    3.21280    0.00750    0.04200   61.14320   44.72370   28.85910   66.22160  117.78670
 9826.50000    0.04630   61.89530    2.65360    7.98130    3.47130    0.01150    0.03690  164.52930   53.52880   75.68590   64.74640  119.63690
 9827.00000    0.03130   44.68720    2.66190    7.98310    3.55370    0.01080    0.02250  331.06060  331.34520  209.51100   60.70980  111.58400
 9827.50000    0.02690   54.75190    2.67070    7.98490    3.57150    0.01400    0.01630  392.08850  436.82740  271.18770   60.14180  104.96860
 9828.00000    0.02600   65.05580    2.67800    7.98670    3.23860    0.01410    0.01730  244.42020  367.84530  206.84670   60.59190  101.95670
 9828.50000    0.02470   66.26460    2.68190    8.00440    3.04900    0.02050    0.02910  219.81900  212.72380   98.14910   59.32330  100.74670
 9829.00000    0.02070   55.75920    2.65790    8.02220    3.03480    0.02380    0.03930  311.42630  224.27220   94.37990   57.12580   99.53660
 9829.50000    0.01700   45.96740    2.66370    8.02400    3.26180    0.02620    0.03510  494.20840  292.82700  109.89740   54.35770   97.72600
 9830.00000    0.01570   44.06610    2.67730    8.02570    3.58420    0.01750    0.02010  627.24490  410.60380  146.89710   53.22900   95.91530
 9830.50000    0.01670   56.46410    2.68460    8.04350    3.71460    0.01120    0.01590  381.75490  600.86360  297.13200   53.12720   92.90350
 9831.00000    0.02350   77.45870    2.68460    8.07720    3.50900    0.00890    0.02060  200.18280  271.43660  299.85770   54.18830   92.85910
 9831.50000    0.03690   90.91750    2.68050    8.09500    3.43080    0.01770    0.02510  151.61560  130.73000  149.03120   56.22430   95.88880
 9832.00000    0.05800   93.17640    2.67910    8.11280    3.40120    0.02100    0.02480  109.52430   98.58120  131.64160   60.63300   99.52160
