~Version ---------------------------------------------------
VERS.   2.0 : CWLS log ASCII Standard -VERSION 2.0
WRAP.    NO : One line per depth step
DLM . SPACE : Column Data Section Delimiter
~Well ------------------------------------------------------
STRT .FT                910.0 : START DEPTH
STOP .FT              11772.0 : STOP DEPTH
STEP .FT                  0.5 : STEP
NULL .               -9999.25 : NULL VALUE
COMP .                        : COMPANY
WELL .                        : WELL
FLD  .                        : FIELD
LOC  .                        : LOCATION
PROV .                        : PROVINCE
CNTY .                        : COUNTY
STAT .                        : STATE
CTRY .                        : COUNTRY
SRVC .                        : SERVICE COMPANY
DATE .                        : DATE
UWI  .                        : UNIQUE WELL ID
API  .                        : API NUMBER
SLAT .WGS84 4.305101828744895 : SURFACE LATITUDE
SLON .WGS84 1.260152626523805 : SURFACE LONGITUDE
DATUM.F                   nan : DEPTH DATUM ELEV
~Curve Information -----------------------------------------
DEPT  .FT     : Depth FEET
AT10  .OHMM   : ARRAY INDUCTION TWO FOOT RESISTIVITY A10
AT20  .OHMM   : ARRAY INDUCTION TWO FOOT RESISTIVITY A20
AT30  .OHMM   : ARRAY INDUCTION TWO FOOT RESISTIVITY A30
AT60  .OHMM   : ARRAY INDUCTION TWO FOOT RESISTIVITY A60
AT90  .OHMM   : ARRAY INDUCTION TWO FOOT RESISTIVITY A90
CALR  .IN     : CALIPER FROM RESISTIVITY LOG
DPHZLS.V/V    : DENSITY POROSITY LIMESTONE
DTCO  .US/F   : DELTA-T COMPRESSIONAL
DTSM  .US/F   : DELTA-T SHEAR
GR    .GAPI   : GAMMA RAY
GRR   .GAPI   : GAMMA RAY FROM RESISTIVITY LOG
NPORLS.V/V    : NEUTRON POROSITY LIMESTONE
PEFZ  .B/E    : HRDD STANDARD RESOLUTION FORMATION PHOTOELECTRIC FACTOR
ROP   .FT/HR  : RATE OF PENETRATION
SPHILS.V/V    : SONIC POROSITY
TENR  .LB     : TENSION FROM RESISTIVITY LOG
~Params ----------------------------------------------------
~Other -----------------------------------------------------
~ASCII -----------------------------------------------------
# ...
 3619.00000    2.28790    2.48350    2.42400    2.57000    2.61940    8.93990    0.09010  103.16980  223.90460   -9999.25  137.76360    0.32940    3.97560   -9999.25   -9999.25 2868.07350
 3619.50000    2.32490    2.51130    2.50050    2.57630    2.65540    8.91460    0.07270  103.29220  220.43230   -9999.25  134.32380    0.34950    4.07800   -9999.25   -9999.25 2861.60350
 3620.00000    2.38230    2.55000    2.53970    2.58270    2.69190    8.93680    0.07340  103.63170  219.24160   -9999.25  130.82460    0.37660    3.90510   -9999.25   -9999.25 2861.60350
 3620.50000    2.33380    2.55080    2.49010    2.58900    2.71440    8.98210    0.08810  103.83140  215.13290   -9999.25  131.82540    0.39220    3.69210   -9999.25   -9999.25 2861.60350
 3621.00000    2.27390    2.53830    2.41040    2.59540    2.66190    9.02750    0.11050  104.33470  214.28920   -9999.25  133.84100    0.35780    3.46260   -9999.25   -9999.25 2861.60350
 3621.50000    2.27620    2.51740    2.38260    2.60170    2.64850    9.11060    0.11810  104.89580  216.10330   -9999.25  136.68540    0.36530    3.37790   -9999.25   -9999.25 2861.60350
 3622.00000    2.29560    2.47630    2.39700    2.60810    2.64490    9.12480    0.11590  104.80940  211.38870   -9999.25  136.61180    0.31480    3.43800   -9999.25   -9999.25 2888.54860
 3622.50000    2.31520    2.48620    2.41880    2.63160    2.68550    9.13960    0.10920  104.81470  220.45360   -9999.25  135.56960    0.34350    3.46810   -9999.25   -9999.25 2891.18260
 3623.00000    2.33310    2.51070    2.44070    2.64190    2.72680    9.12470    0.10730  105.72390  212.16970   -9999.25  135.87780    0.37170    3.44270   -9999.25   -9999.25 2893.81670
 3623.50000    2.34990    2.53530    2.46330    2.65220    2.76860    9.14030    0.10830  103.94100  207.91340   -9999.25  134.07160    0.37960    3.41760   -9999.25   -9999.25 2896.45070
 3624.00000    2.36690    2.55990    2.49010    2.66250    2.78180    9.13840    0.11110  104.10240  225.22230   -9999.25  134.16200    0.36530    3.41740   -9999.25   -9999.25 2899.08470
 3624.50000    2.38390    2.56970    2.48010    2.66670    2.79360    9.11020    0.11540  105.23640  233.78650   -9999.25  133.95140    0.38900    3.43820   -9999.25   -9999.25 2901.71880
 3625.00000    2.36480    2.53200    2.46060    2.66670    2.78470    9.07450    0.11760  105.55370  231.01670   -9999.25  139.79080    0.40520    3.46640   -9999.25   -9999.25 2904.35280
 3625.50000    2.33110    2.51330    2.44130    2.66670    2.70630    9.01940    0.12140  106.67020  230.10120   -9999.25  142.27120    0.39360    3.46200   -9999.25   -9999.25 2906.98680
 3626.00000    2.29780    2.45810    2.42210    2.66670    2.63840    8.99360    0.11770  108.21760  222.74670   -9999.25  139.97080    0.39050    3.45180   -9999.25   -9999.25 2909.62080
 3626.50000    2.27110    2.45810    2.40300    2.66670    2.63340    8.95740    0.11050  105.82850  216.20480   -9999.25  136.15180    0.39200    3.42180   -9999.25   -9999.25 2912.25490
 3627.00000    2.26590    2.43990    2.38500    2.66670    2.64500    8.91090    0.10480  105.42530  225.49430   -9999.25  134.77600    0.40780    3.39350   -9999.25   -9999.25 2914.88890
 3627.50000    2.26080    2.43990    2.36870    2.66670    2.65680    8.91560    0.10600  104.67760  221.23520   -9999.25  135.61100    0.42510    3.36520   -9999.25   -9999.25 2917.52270
 3628.00000    2.25570    2.43990    2.35260    2.66670    2.66850    8.89890    0.11020  104.34050  223.54070   -9999.25  135.46840    0.37270    3.36520   -9999.25   -9999.25 2920.15670
 3628.50000    2.25060    2.43990    2.34140    2.66670    2.68040    8.89180    0.10980  103.53030  218.12980   -9999.25  131.86140    0.35620    3.37600   -9999.25   -9999.25 2920.15670
 3629.00000    2.24550    2.43990    2.35550    2.67320    2.69220    8.91850    0.10640  104.41500  226.66500   -9999.25  128.36980    0.36410    3.37400   -9999.25   -9999.25 2920.15670
 3629.50000    2.24040    2.43990    2.36980    2.68420    2.74250    8.94520    0.10660  103.97100  220.04410   -9999.25  127.97200    0.32200    3.37000   -9999.25   -9999.25 2920.15670
 3630.00000    2.24160    2.43990    2.37950    2.69510    2.79500    8.97190    0.10920  104.22390  220.87520   -9999.25  130.09040    0.34100    3.37040   -9999.25   -9999.25 2920.15670
 3630.50000    2.24710    2.43960    2.38850    2.70610    2.84860    8.99790    0.11470  105.35970  229.85440   -9999.25  132.70380    0.37270    3.37520   -9999.25   -9999.25 2920.11720
 3631.00000    2.25270    2.43930    2.39750    2.74620    2.90320    9.01410    0.11800  107.00970  228.59340   -9999.25  134.90400    0.38060    3.37930   -9999.25   -9999.25 2920.11720
 3631.50000    2.25820    2.42110    2.40660    2.78670    2.89510    9.03710    0.12010  106.51260  226.22960   -9999.25  137.35460    0.36230    3.37930   -9999.25   -9999.25 2920.11720
 3632.00000    2.26380    2.40300    2.41560    2.80700    2.88410    9.08110    0.12200  106.61200  219.76350   -9999.25  137.87260    0.37570    3.37900   -9999.25   -9999.25 2920.11720
 3632.50000    2.26750    2.40300    2.42410    2.80670    2.78690    9.12510    0.12190  106.30910  214.60870   -9999.25  136.48220    0.37590    3.40140   -9999.25   -9999.25 2920.11720
 3633.00000    2.26670    2.40230    2.43190    2.80630    2.71010    9.18280    0.12170  105.05370  214.32650   -9999.25  134.61940    0.37910    3.42730   -9999.25   -9999.25 2920.11720
 3633.50000    2.32290    2.52680    2.48430    2.84780    2.80660    9.23630    0.11710  104.59990  217.56990   -9999.25  132.71100    0.41590    3.45330   -9999.25   -9999.25 2920.11720
 3634.00000    2.43530    2.70360    2.58370    2.96860    3.12310    9.28540    0.11110  103.98730  217.70600   -9999.25  134.43300    0.40840    3.51930   -9999.25   -9999.25 2920.11720
 3634.50000    2.55760    2.72340    2.71790    3.02070    3.17450    9.30590    0.10190  103.69410  217.86410   -9999.25  135.83460    0.41180    3.53730   -9999.25   -9999.25 2920.11720
 3635.00000    2.50760    2.66320    2.71810    2.99810    3.10030    9.31130    0.10040  103.24790  218.34370   -9999.25  135.71740    0.37890    3.53600   -9999.25   -9999.25 2920.11720
 3635.50000    2.45630    2.58520    2.64030    2.97550    3.02080    9.31090    0.10450  103.04330  218.63810   -9999.25  136.85900    0.37680    3.53480   -9999.25   -9999.25 2920.11720
 3636.00000    2.40600    2.54690    2.56470    2.95320    2.95190    9.30510    0.11050  103.48560  218.86770   -9999.25  132.72480    0.38060    3.50850   -9999.25   -9999.25 2920.11720
 3636.50000    2.36620    2.50910    2.49120    2.90940    2.90840    9.27710    0.11340  103.34040  220.30250   -9999.25  136.87760    0.37210    3.47790   -9999.25   -9999.25 2920.11720
 3637.00000    2.33500    2.50880    2.50500    2.86630    2.86560    9.27840    0.11280  103.72170  223.19750   -9999.25  135.26240    0.37450    3.38690   -9999.25   -9999.25 2920.11720
 3637.50000    2.34980    2.50850    2.52160    2.84470    2.84280    9.27030    0.11080  104.50320  226.62340   -9999.25  140.45120    0.36530    3.33700   -9999.25   -9999.25 2920.11720
 3638.00000    2.35000    2.50810    2.49430    2.82340    2.84290    9.26920    0.10290  105.17630  226.37590   -9999.25  140.45880    0.37590    3.36930   -9999.25   -9999.25 2920.11720
 3638.50000    2.35010    2.45280    2.45670    2.80220    2.85100    9.26610    0.09400  105.89660  231.69300   -9999.25  135.09000    0.38370    3.53490   -9999.25   -9999.25 2920.11720
 3639.00000    2.29370    2.45250    2.44480    2.82260    2.86680    9.26280    0.09350  105.92770  227.09610   -9999.25  128.64940    0.36440    3.62190   -9999.25   -9999.25 2920.11720
 3639.50000    2.33440    2.45220    2.49270    2.88560    2.88270    9.26740    0.10150  104.75310  228.18100   -9999.25  128.91680    0.36540    3.61660   -9999.25   -9999.25 2920.11720
 3640.00000    2.43980    2.48770    2.61130    2.95270    2.97810    9.23330    0.10670  103.22790  232.93280   -9999.25  133.76840    0.35960    3.59550   -9999.25   -9999.25 2920.11720
