~Version ---------------------------------------------------
VERS.   2.0 : CWLS log ASCII Standard -VERSION 2.0
WRAP.    NO : One line per depth step
DLM . SPACE : Column Data Section Delimiter
~Well ------------------------------------------------------
STRT .FT                910.0 : START DEPTH
STOP .FT              11772.0 : STOP DEPTH
STEP .FT                  0.5 : STEP
NULL .               -9999.25 : NULL VALUE
COMP .                        : COMPANY
WELL .                        : WELL
FLD  .                        : FIELD
LOC  .                        : LOCATION
PROV .                        : PROVINCE
CNTY .                        : COUNTY
STAT .                        : STATE
CTRY .                        : COUNTRY
SRVC .                        : SERVICE COMPANY
DATE .                        : DATE
UWI  .                        : UNIQUE WELL ID
API  .                        : API NUMBER
SLAT .WGS84 4.305101828744895 : SURFACE LATITUDE
SLON .WGS84 1.260152626523805 : SURFACE LONGITUDE
DATUM.F                   nan : DEPTH DATUM ELEV
~Curve Information -----------------------------------------
DEPT  .FT     : Depth FEET
AT10  .OHMM   : ARRAY INDUCTION TWO FOOT RESISTIVITY A10
AT20  .OHMM   : ARRAY INDUCTION TWO FOOT RESISTIVITY A20
AT30  .OHMM   : ARRAY INDUCTION TWO FOOT RESISTIVITY A30
AT60  .OHMM   : ARRAY INDUCTION TWO FOOT RESISTIVITY A60
AT90  .OHMM   : ARRAY INDUCTION TWO FOOT RESISTIVITY A90
CALR  .IN     : CALIPER FROM RESISTIVITY LOG
DPHZLS.V/V    : DENSITY POROSITY LIMESTONE
DTCO  .US/F   : DELTA-T COMPRESSIONAL
DTSM  .US/F   : DELTA-T SHEAR
GR    .GAPI   : GAMMA RAY
GRR   .GAPI   : GAMMA RAY FROM RESISTIVITY LOG
NPORLS.V/V    : NEUTRON POROSITY LIMESTONE
PEFZ  .B/E    : HRDD STANDARD RESOLUTION FORMATION PHOTOELECTRIC FACTOR
ROP   .FT/HR  : RATE OF PENETRATION
SPHILS.V/V    : SONIC POROSITY
TENR  .LB     : TENSION FROM RESISTIVITY LOG
~Params ----------------------------------------------------
~Other -----------------------------------------------------
~ASCII -----------------------------------------------------
# ...
  953.00000   -9999.25   -9999.25   -9999.25   -9999.25   -9999.25   -9999.25   -9999.25   55.70000   -9999.25   -9999.25   82.35480    0.45900   -9999.25   -9999.25    0.06090   -9999.25
  953.50000   -9999.25   -9999.25   -9999.25   -9999.25   -9999.25   -9999.25   -9999.25   55.49900   -9999.25   -9999.25   84.86600    0.49200   -9999.25   -9999.25    0.05900   -9999.25
  954.00000   -9999.25   -9999.25   -9999.25   -9999.25   -9999.25   -9999.25   -9999.25   55.50090   -9999.25   -9999.25   85.31840    0.49470   -9999.25   -9999.25    0.05860   -9999.25
  954.50000   -9999.25   -9999.25   -9999.25   -9999.25   -9999.25   -9999.25   -9999.25   55.30060   -9999.25   -9999.25   83.75600    0.47790   -9999.25   -9999.25    0.05700   -9999.25
  955.00000   -9999.25   -9999.25   -9999.25   -9999.25   -9999.25   -9999.25   -9999.25   55.29830   -9999.25   -9999.25   82.19360    0.48550   -9999.25   -9999.25    0.05820   -9999.25
  955.50000   -9999.25   -9999.25   -9999.25   -9999.25   -9999.25   -9999.25   -9999.25   55.30140   -9999.25   -9999.25   81.87600    0.48890   -9999.25   -9999.25    0.05780   -9999.25
  956.00000   -9999.25   -9999.25   -9999.25   -9999.25   -9999.25   -9999.25   -9999.25   55.39330   -9999.25   -9999.25   82.49640    0.49330   -9999.25   -9999.25    0.05780   -9999.25
  956.50000   -9999.25   -9999.25   -9999.25   -9999.25   -9999.25   -9999.25   -9999.25   57.30000   -9999.25   -9999.25   82.35960    0.52380   -9999.25   -9999.25    0.06920   -9999.25
  957.00000   -9999.25   -9999.25   -9999.25   -9999.25   -9999.25   -9999.25   -9999.25   57.70000   -9999.25   -9999.25   81.70740    0.51660   -9999.25   -9999.25    0.07160   -9999.25
  957.50000   -9999.25   -9999.25   -9999.25   -9999.25   -9999.25   -9999.25   -9999.25   58.70000   -9999.25   -9999.25   78.87680    0.47360   -9999.25   -9999.25    0.07900   -9999.25
  958.00000   -9999.25   -9999.25   -9999.25   -9999.25   -9999.25   -9999.25   -9999.25   58.10000   -9999.25   -9999.25   76.04600    0.57440   -9999.25   -9999.25    0.07900   -9999.25
  958.50000   -9999.25   -9999.25   -9999.25   -9999.25   -9999.25   -9999.25   -9999.25   64.47310   -9999.25   -9999.25   73.03020    0.63880   -9999.25   -9999.25    0.07900   -9999.25
  959.00000    3.52000    3.83320    4.55450    5.11670    5.13650    8.86590    0.01110  100.59100   -9999.25   -9999.25   74.91040    0.58750    8.04350   -9999.25    0.26160 2124.34500
  959.50000    3.52770    3.83320    4.54740    5.11060    5.14860    8.83960    0.04200  116.39040   -9999.25   -9999.25   81.61480    0.51810    6.91830   -9999.25   -9999.25 2120.83670
  960.00000    3.53540    3.83320    4.54030    5.10440    5.16080    8.81170    0.07440  108.33860   -9999.25   -9999.25   90.50120    0.50090    6.25600   -9999.25   -9999.25 2114.98950
  960.50000    3.54320    3.83320    4.53330    5.09830    5.17300    8.85690    0.13550   99.21660   -9999.25   -9999.25   97.34900    0.51050    6.36610   -9999.25   -9999.25 2109.14210
  961.00000    3.55090    3.83320    4.52620    5.09220    5.18520    9.07520    0.20750  103.51050   -9999.25   -9999.25  102.16820    0.48090    6.57280   -9999.25   -9999.25 2103.29490
  961.50000    3.55870    3.83320    4.51910    5.08610    5.19750    9.74480    0.25360  112.10240   -9999.25   -9999.25  106.31880    0.48030    6.81900   -9999.25   -9999.25 2097.44780
  962.00000    3.56650    3.83320    4.51210    5.07990    5.20980   11.55540    0.26170  122.68590   -9999.25   -9999.25  110.35520    0.50870    6.92340   -9999.25   -9999.25 2091.60030
  962.50000    3.57430    3.83320    4.50510    5.07380    5.22210   11.40410    0.23440  121.01780   -9999.25   -9999.25  114.11620    0.48980    6.35130   -9999.25   -9999.25 2085.75320
  963.00000    3.58210    3.83320    4.49800    5.06770    5.23440   10.84500    0.17650  117.46550   -9999.25   -9999.25  114.92340    0.41240    5.32490   -9999.25   -9999.25 2079.90600
  963.50000    3.58990    3.83320    4.49100    5.06160    5.24680    8.91080    0.13730  114.46410   -9999.25   -9999.25  113.96020    0.37660    4.40820   -9999.25   -9999.25 2074.05860
  964.00000    3.59770    3.83320    4.48400    5.05540    5.25920    8.87860    0.13480  112.03810   -9999.25   -9999.25  117.27700    0.37680    3.66370   -9999.25   -9999.25 2068.21140
  964.50000    3.60560    3.83320    4.47690    5.04930    5.27160    8.87370    0.14840  113.12980   -9999.25   -9999.25  118.04140    0.39570    3.21820   -9999.25   -9999.25 2062.36400
  965.00000    3.61350    3.83320    4.45440    5.04320    5.28410    8.86890    0.14910  114.53430   -9999.25   -9999.25  119.15740    0.40710    3.15850   -9999.25   -9999.25 2059.24510
  965.50000    3.62140    3.83320    4.43210    5.03710    5.29660    8.86400    0.14680  116.19640   -9999.25   -9999.25  121.36220    0.39020    3.16300   -9999.25   -9999.25 2067.03880
  966.00000    3.62930    3.83320    4.40990    5.03090    5.30910    8.85910    0.14510  116.22900   -9999.25   -9999.25  124.98920    0.42740    3.17240   -9999.25   -9999.25 2074.83250
  966.50000    3.63720    3.83320    4.38780    5.02480    5.32170    8.85510    0.14400  116.08990   -9999.25   -9999.25  122.51200    0.38000    3.18180   -9999.25   -9999.25 2082.62650
  967.00000    3.64520    3.83320    4.36580    5.01870    5.33290    8.85290    0.14420  115.83510   -9999.25   -9999.25  116.20940    0.40550    3.19120   -9999.25   -9999.25 2090.42020
  967.50000    3.65320    3.83320    4.34390    5.01260    5.27960    8.85070    0.14400  115.59640   -9999.25   -9999.25  116.85140    0.43040    3.20060   -9999.25   -9999.25 2098.21390
  968.00000    3.66110    3.83320    4.35070    5.00640    5.22680    8.84630    0.14680  115.60920   -9999.25   -9999.25  120.70820    0.39870    3.21000   -9999.25   -9999.25 2106.00780
  968.50000    3.69050    3.85290    4.39890    5.00030    5.19540    8.84630    0.15110  115.83750   -9999.25   -9999.25  123.53040    0.40620    3.21940   -9999.25   -9999.25 2113.80150
  969.00000    3.75910    3.98500    4.44760    4.99420    5.20900    8.84640    0.15440  116.26670   -9999.25   -9999.25  119.85140    0.42200    3.22880   -9999.25   -9999.25 2121.59520
  969.50000    3.83140    4.10850    4.49690    4.98810    5.22270    8.84650    0.15300  116.57380   -9999.25   -9999.25  116.29080    0.43640    3.23820   -9999.25   -9999.25 2129.38890
  970.00000    3.90500    4.21420    4.54670    4.98190    5.23640    8.84680    0.14990  115.72060   -9999.25   -9999.25  118.45200    0.39540    3.24760   -9999.25   -9999.25 2137.18290
  970.50000    3.96800    4.24440    4.59710    4.97580    5.25010    8.84710    0.14700  115.19270   -9999.25   -9999.25  121.77640    0.39520    3.25810   -9999.25   -9999.25 2144.97660
  971.00000    3.97820    4.24310    4.64800    4.96970    5.26390    8.84960    0.14860  114.60210   -9999.25   -9999.25  125.01040    0.40070    3.26910   -9999.25   -9999.25 2152.77030
  971.50000    3.95630    4.18920    4.56920    4.96360    5.27770    8.85660    0.14850  114.65350   -9999.25   -9999.25  124.82740    0.40140    3.26510   -9999.25   -9999.25 2160.56420
  972.00000    3.92670    4.13430    4.39620    4.95740    5.28190    8.85800    0.14840  114.48820   -9999.25   -9999.25  124.21460    0.39680    3.24890   -9999.25   -9999.25 2168.35790
  972.50000    3.82070    4.07930    4.22970    4.95250    5.18140    8.86320    0.14800  114.92360   -9999.25   -9999.25  123.43380    0.41050    3.23280   -9999.25   -9999.25 2176.15160
  973.00000    3.70630    4.02430    4.06950    4.95250    5.08280    8.87230    0.14960  115.31770   -9999.25   -9999.25  124.15660    0.40570    3.23380   -9999.25   -9999.25 2183.94530
  973.50000    3.63510    3.96430    4.06010    4.91320    5.00080    8.88260    0.15100  115.42140   -9999.25   -9999.25  124.96380    0.40490    3.24390   -9999.25   -9999.25 2189.52120
  974.00000    3.69650    3.93390    4.20820    4.91180    5.06970    8.89060    0.15050  115.00870   -9999.25   -9999.25  125.01880    0.37980    3.25250   -9999.25   -9999.25 2186.22530
