~Version ---------------------------------------------------
VERS.   2.0 : CWLS log ASCII Standard -VERSION 2.0
WRAP.    NO : One line per depth step
DLM . SPACE : Column Data Section Delimiter
~Well ------------------------------------------------------
STRT .FT                910.0 : START DEPTH
STOP .FT              11772.0 : STOP DEPTH
STEP .FT                  0.5 : STEP
NULL .               -9999.25 : NULL VALUE
COMP .                        : COMPANY
WELL .                        : WELL
FLD  .                        : FIELD
LOC  .                        : LOCATION
PROV .                        : PROVINCE
CNTY .                        : COUNTY
STAT .                        : STATE
CTRY .                        : COUNTRY
SRVC .                        : SERVICE COMPANY
DATE .                        : DATE
UWI  .                        : UNIQUE WELL ID
API  .                        : API NUMBER
SLAT .WGS84 4.305101828744895 : SURFACE LATITUDE
SLON .WGS84 1.260152626523805 : SURFACE LONGITUDE
DATUM.F                   nan : DEPTH DATUM ELEV
~Curve Information -----------------------------------------
DEPT  .FT     : Depth FEET
AT10  .OHMM   : ARRAY INDUCTION TWO FOOT RESISTIVITY A10
AT20  .OHMM   : ARRAY INDUCTION TWO FOOT RESISTIVITY A20
AT30  .OHMM   : ARRAY INDUCTION TWO FOOT RESISTIVITY A30
AT60  .OHMM   : ARRAY INDUCTION TWO FOOT RESISTIVITY A60
AT90  .OHMM   : ARRAY INDUCTION TWO FOOT RESISTIVITY A90
CALR  .IN     : CALIPER FROM RESISTIVITY LOG
DPHZLS.V/V    : DENSITY POROSITY LIMESTONE
DTCO  .US/F   : DELTA-T COMPRESSIONAL
DTSM  .US/F   : DELTA-T SHEAR
GR    .GAPI   : GAMMA RAY
GRR   .GAPI   : GAMMA RAY FROM RESISTIVITY LOG
NPORLS.V/V    : NEUTRON POROSITY LIMESTONE
PEFZ  .B/E    : HRDD STANDARD RESOLUTION FORMATION PHOTOELECTRIC FACTOR
ROP   .FT/HR  : RATE OF PENETRATION
SPHILS.V/V    : SONIC POROSITY
TENR  .LB     : TENSION FROM RESISTIVITY LOG
~Params ----------------------------------------------------
~Other -----------------------------------------------------
~ASCII -----------------------------------------------------
# ...
 2630.00000    2.03100    2.14400    2.46140    3.03560    3.13360    9.27130    0.12960  111.02880  111.78670   -9999.25  124.56640    0.33510    3.20630   -9999.25   -9999.25 2686.60640
 2630.50000    2.02300    2.17530    2.47990    3.05820    3.14990    9.29990    0.12880  111.83290  111.93240   -9999.25  124.41780    0.35950    3.22340   -9999.25   -9999.25 2686.60640
 2631.00000    2.02920    2.20780    2.49860    3.10380    3.14980    9.31670    0.13030  111.55180  111.93250   -9999.25  124.26900    0.37600    3.22030   -9999.25   -9999.25 2726.77030
 2631.50000    2.03540    2.22420    2.51740    3.10380    3.15340    9.32710    0.13010  110.53510  111.69870   -9999.25  124.13020    0.37850    3.21730   -9999.25   -9999.25 2726.77030
 2632.00000    2.04170    2.25740    2.53640    3.15380    3.16250    9.35530    0.13210  111.03520  111.34910   -9999.25  121.63220    0.38570    3.21420   -9999.25   -9999.25 2726.77030
 2632.50000    2.04790    2.27420    2.55540    3.40330    3.17170    9.36610    0.13050  111.14400  110.99960   -9999.25  118.62500    0.39210    3.21110   -9999.25   -9999.25 2726.77030
 2633.00000    2.05420    2.27420    2.57340    3.65280    3.18100    9.36300    0.13130  109.20980  110.65000   -9999.25  118.41520    0.37320    3.20400   -9999.25   -9999.25 2726.77030
 2633.50000    2.06040    2.27420    2.55860    3.90240    3.19020    9.36700    0.13380  110.39720  110.30050   -9999.25  122.53240    0.37830    3.18140   -9999.25   -9999.25 2719.49880
 2634.00000    2.06670    2.29110    2.54390    4.05210    3.17680    9.36790    0.13370  110.39160  109.95090   -9999.25  126.62960    0.35840    3.17200   -9999.25   -9999.25 2714.77780
 2634.50000    2.07310    2.29110    2.52920    4.14310    3.14030    9.36930    0.13420  109.78220  109.43020   -9999.25  127.33800    0.39810    3.19830   -9999.25   -9999.25 2710.05660
 2635.00000    2.07940    2.29110    2.51470    4.17390    3.09740    9.39360    0.13370  108.74960  108.84880   -9999.25  130.31780    0.39130    3.22460   -9999.25   -9999.25 2705.33570
 2635.50000    2.08570    2.29110    2.50020    4.17390    3.05190    9.43480    0.13100  108.03260  108.26740   -9999.25  129.13580    0.36870    3.25090   -9999.25   -9999.25 2700.61450
 2636.00000    2.09210    2.29110    2.48590    4.14310    3.00650    9.44700    0.12800  107.92560  107.89470   -9999.25  131.96160    0.38910    3.29120   -9999.25   -9999.25 2695.89360
 2636.50000    2.09470    2.29110    2.47160    3.99250    2.96060    9.47650    0.12350  108.14100  107.82190   -9999.25  127.24820    0.36990    3.36660   -9999.25   -9999.25 2691.17260
 2637.00000    2.09670    2.29110    2.45740    3.83840    2.93860    9.48880    0.12240  108.35040  107.94750   -9999.25  125.99580    0.37940    3.38420   -9999.25   -9999.25 2686.45140
 2637.50000    2.09860    2.29110    2.45610    3.63070    2.93850    9.49000    0.12150  107.76660  108.40370   -9999.25  122.48080    0.36820    3.34230   -9999.25   -9999.25 2681.73050
 2638.00000    2.10060    2.29110    2.47370    3.42290    2.95750    9.53150    0.13100  108.07670  108.85990   -9999.25  121.51000    0.33960    3.30040   -9999.25   -9999.25 2677.00930
 2638.50000    2.10260    2.27430    2.48970    3.21510    2.98080    9.58360    0.13050  108.58670  109.07190   -9999.25  123.21340    0.44960    3.26950   -9999.25   -9999.25 2688.42460
 2639.00000    2.10450    2.25750    2.50370    3.05990    2.99190    9.70420    0.12110  108.75380  109.07190   -9999.25  125.96960    0.43530    3.36310   -9999.25   -9999.25 2660.68210
 2639.50000    2.10650    2.24070    2.51770    2.95440    2.94390    9.75000    0.09730  108.11930  108.08240   -9999.25  125.53500    0.40780    3.49500   -9999.25   -9999.25 2632.93970
 2640.00000    2.10400    2.21320    2.45900    2.84900    2.89660    9.73970    0.08530  107.79470  107.63640   -9999.25  124.34160    0.37810    3.59830   -9999.25   -9999.25 2605.19730
 2640.50000    2.09730    2.19940    2.39540    2.74350    2.85010    9.74310    0.09960  107.79920  108.91810   -9999.25  124.68920    0.34720    3.67920   -9999.25   -9999.25 2583.00320
 2641.00000    2.09060    2.18560    2.33350    2.63810    2.80610    9.75380    0.11710  108.62030  113.24810   -9999.25  125.69020    0.37200    3.72260   -9999.25   -9999.25 2583.00320
 2641.50000    2.08400    2.17460    2.30170    2.61680    2.76300    9.74580    0.12250  112.54760  113.23170   -9999.25  127.07940    0.40040    3.69050   -9999.25   -9999.25 2583.00320
 2642.00000    2.07730    2.15830    2.30030    2.61640    2.73030    9.74280    0.12080  112.91890  112.97640   -9999.25  124.24720    0.36860    3.59450   -9999.25   -9999.25 2583.00320
 2642.50000    2.07070    2.12630    2.29890    2.61610    2.70440    9.77240    0.12240  112.77470  112.59690   -9999.25  123.84320    0.41070    3.28780   -9999.25   -9999.25 2583.00320
 2643.00000    2.06420    2.12600    2.30390    2.61570    2.68960    9.80480    0.12770  112.14560  112.21740   -9999.25  123.19360    0.47240    3.19780   -9999.25   -9999.25 2583.00320
 2643.50000    2.05760    2.09450    2.32120    2.61570    2.71030    9.87510    0.13230  112.44460  110.88830   -9999.25  125.39500    0.44840    3.17760   -9999.25   -9999.25 2583.00320
 2644.00000    2.05110    2.09430    2.33860    2.61570    2.73960    9.90450    0.13360  112.22420  108.68120   -9999.25  122.18040    0.41870    3.19940   -9999.25   -9999.25 2583.00320
 2644.50000    2.06090    2.09400    2.35610    2.61570    2.77960    9.93650    0.13450  108.36140  107.97090   -9999.25  119.04400    0.41950    3.21890   -9999.25   -9999.25 2583.00320
 2645.00000    2.08540    2.07840    2.37380    2.61570    2.80370    9.97460    0.13520  110.84590  108.97210   -9999.25  115.87360    0.42580    3.24960   -9999.25   -9999.25 2583.00320
 2645.50000    2.11030    2.07810    2.39760    2.61400    2.81430    9.99480    0.13270  110.36030  109.97320   -9999.25  115.11100    0.36960    3.34890   -9999.25   -9999.25 2583.00320
 2646.00000    2.13550    2.17220    2.42460    2.67790    2.87460    9.95340    0.13170  110.44060  110.92870   -9999.25  116.02840    0.35640    3.40130   -9999.25   -9999.25 2583.00320
 2646.50000    2.16340    2.29090    2.46920    2.80340    2.95200    9.88460    0.13080  110.72700  111.01610   -9999.25  119.61720    0.37350    3.41920   -9999.25   -9999.25 2583.00320
 2647.00000    2.23070    2.40970    2.57990    2.92900    3.11320    9.81800    0.13540  110.80430  110.69190   -9999.25  123.64720    0.35840    3.43660   -9999.25   -9999.25 2583.00320
 2647.50000    2.37480    2.51780    2.79540    3.05190    3.32440    9.75800    0.14080  110.68260  110.21770   -9999.25  127.00880    0.38500    3.46760   -9999.25   -9999.25 2583.00320
 2648.00000    2.39750    2.57400    2.80300    3.12010    3.32650    9.68590    0.15340  110.13760  109.74350   -9999.25  125.72240    0.40030    3.90590   -9999.25   -9999.25 2583.00320
 2648.50000    2.26280    2.57370    2.63620    3.00630    3.08130    9.60770    0.15210  109.30430  109.26940   -9999.25  122.51380    0.34860    4.45410   -9999.25   -9999.25 2583.00320
 2649.00000    2.22740    2.45540    2.50450    2.81220    2.95410    9.34010    0.13410  110.26180  108.79520   -9999.25  119.73600    0.33940    4.78720   -9999.25   -9999.25 2583.00320
 2649.50000    2.21850    2.33700    2.46420    2.77060    2.92220    9.32260    0.11400  107.06760  108.32100   -9999.25  119.31500    0.36290    4.87260   -9999.25   -9999.25 2583.00320
 2650.00000    2.20130    2.31950    2.48350    2.77020    2.94400    9.35990    0.10600  107.15250  107.96810   -9999.25  118.59360    0.36580    4.35480   -9999.25   -9999.25 2580.66040
 2650.50000    2.18430    2.31950    2.51280    2.81150    2.96600    9.38050    0.11350  107.31730  107.72220   -9999.25  118.45100    0.38360    3.87630   -9999.25   -9999.25 2568.94680
 2651.00000    2.20530    2.35410    2.55740    2.87460    2.98820    9.39930    0.12370  107.78530  107.47640   -9999.25  120.99740    0.40050    3.57050   -9999.25   -9999.25 2557.23290
