~Version ---------------------------------------------------
VERS.   2.0 : CWLS log ASCII Standard -VERSION 2.0
WRAP.    NO : One line per depth step
DLM . SPACE : Column Data Section Delimiter
~Well ------------------------------------------------------
STRT .FT                910.0 : START DEPTH
STOP .FT              11772.0 : STOP DEPTH
STEP .FT                  0.5 : STEP
NULL .               -9999.25 : NULL VALUE
COMP .                        : COMPANY
WELL .                        : WELL
FLD  .                        : FIELD
LOC  .                        : LOCATION
PROV .                        : PROVINCE
CNTY .                        : COUNTY
STAT .                        : STATE
CTRY .                        : COUNTRY
SRVC .                        : SERVICE COMPANY
DATE .                        : DATE
UWI  .                        : UNIQUE WELL ID
API  .                        : API NUMBER
SLAT .WGS84 4.305101828744895 : SURFACE LATITUDE
SLON .WGS84 1.260152626523805 : SURFACE LONGITUDE
DATUM.F                   nan : DEPTH DATUM ELEV
~Curve Information -----------------------------------------
DEPT  .FT     : Depth FEET
AT10  .OHMM   : ARRAY INDUCTION TWO FOOT RESISTIVITY A10
AT20  .OHMM   : ARRAY INDUCTION TWO FOOT RESISTIVITY A20
AT30  .OHMM   : ARRAY INDUCTION TWO FOOT RESISTIVITY A30
AT60  .OHMM   : ARRAY INDUCTION TWO FOOT RESISTIVITY A60
AT90  .OHMM   : ARRAY INDUCTION TWO FOOT RESISTIVITY A90
CALR  .IN     : CALIPER FROM RESISTIVITY LOG
DPHZLS.V/V    : DENSITY POROSITY LIMESTONE
DTCO  .US/F   : DELTA-T COMPRESSIONAL
DTSM  .US/F   : DELTA-T SHEAR
GR    .GAPI   : GAMMA RAY
GRR   .GAPI   : GAMMA RAY FROM RESISTIVITY LOG
NPORLS.V/V    : NEUTRON POROSITY LIMESTONE
PEFZ  .B/E    : HRDD STANDARD RESOLUTION FORMATION PHOTOELECTRIC FACTOR
ROP   .FT/HR  : RATE OF PENETRATION
SPHILS.V/V    : SONIC POROSITY
TENR  .LB     : TENSION FROM RESISTIVITY LOG
~Params ----------------------------------------------------
~Other -----------------------------------------------------
~ASCII -----------------------------------------------------
# ...
 4285.50000    1.45890    1.48570    1.62480    1.76890    1.84910    9.66360    0.17690  114.82240   -9999.25   -9999.25  126.92880    0.40820    3.28510   -9999.25   -9999.25 3290.72800
 4286.00000    1.45890    1.47890    1.61220    1.67490    1.83390    9.67420    0.18470  115.52150   -9999.25   -9999.25  123.72880    0.44240    3.22930   -9999.25   -9999.25 3290.72800
 4286.50000    1.43690    1.47200    1.59980    1.59980    1.81540    9.66970    0.19100  115.66980   -9999.25   -9999.25  122.69060    0.42220    3.18950   -9999.25   -9999.25 3290.72800
 4287.00000    1.41130    1.46520    1.58780    1.60700    1.75870    9.66810    0.19350  114.19750   -9999.25   -9999.25  118.27180    0.39540    3.17880   -9999.25   -9999.25 3290.72800
 4287.50000    1.42030    1.45840    1.57580    1.64320    1.75790    9.68220    0.18790  114.08010   -9999.25   -9999.25  117.44200    0.42590    3.14060   -9999.25   -9999.25 3290.72800
 4288.00000    1.42980    1.45290    1.56400    1.67930    1.76220    9.72150    0.18270  114.61480   -9999.25   -9999.25  114.74900    0.39520    3.13340   -9999.25   -9999.25 3290.72800
 4288.50000    1.44920    1.45290    1.55220    1.71550    1.76400    9.76070    0.17850  112.26690   -9999.25   -9999.25  111.52940    0.37560    3.17090   -9999.25   -9999.25 3290.72800
 4289.00000    1.44860    1.45290    1.54050    1.72270    1.73920    9.82350    0.17940  112.40140   -9999.25   -9999.25  110.61520    0.38840    3.27660   -9999.25   -9999.25 3290.72800
 4289.50000    1.42860    1.46370    1.52920    1.69740    1.71470    9.88290    0.17960  114.41890   -9999.25   -9999.25  116.65520    0.44140    3.38220   -9999.25   -9999.25 3290.72800
 4290.00000    1.42340    1.51890    1.51810    1.66010    1.69800    9.80190    0.17930  113.14580   -9999.25   -9999.25  118.08180    0.43300    3.39950   -9999.25   -9999.25 3290.72800
 4290.50000    1.47280    1.54160    1.50710    1.67240    1.71100    9.77730    0.17870  112.77380   -9999.25   -9999.25  120.77760    0.41720    3.29510   -9999.25   -9999.25 3291.02590
 4291.00000    1.51320    1.55310    1.54750    1.72270    1.75490    9.80780    0.17490  113.74380   -9999.25   -9999.25  120.15680    0.44800    3.18550   -9999.25   -9999.25 3291.02590
 4291.50000    1.55470    1.58800    1.59690    1.77450    1.79990    9.83960    0.17150  111.07640   -9999.25   -9999.25  122.94160    0.45700    3.07970   -9999.25    0.29900 3291.02590
 4292.00000    1.59100    1.63570    1.64780    1.78770    1.84610    9.89950    0.17570  111.23870   -9999.25   -9999.25  123.75480    0.42360    3.11330   -9999.25   -9999.25 3291.02590
 4292.50000    1.60680    1.69740    1.71200    1.81440    1.88740    9.95320    0.18250  112.54040   -9999.25   -9999.25  121.30340    0.42040    3.37360   -9999.25   -9999.25 3291.02590
 4293.00000    1.69820    1.76260    1.79950    1.86890    1.92810    9.96490    0.18310  112.72150   -9999.25   -9999.25  117.69680    0.47740    3.83930   -9999.25   -9999.25 3291.02590
 4293.50000    1.79890    1.83030    1.85060    1.93120    1.96960    9.99680    0.16520  108.20710   -9999.25   -9999.25  118.74020    0.47880    4.31770   -9999.25   -9999.25 3291.02590
 4294.00000    1.81010    1.89800    1.90320    1.98180    2.04160   10.04890    0.12730  110.09780   -9999.25   -9999.25  120.12760    0.44830    4.63710   -9999.25   -9999.25 3291.02590
 4294.50000    1.80140    1.92510    1.94250    2.03250    2.12660   10.09430    0.10480  108.20850   -9999.25   -9999.25  121.06240    0.40830    4.65240   -9999.25   -9999.25 3291.02590
 4295.00000    1.79280    1.92510    1.94220    2.04260    2.13680   10.13630    0.09870  106.81110   -9999.25   -9999.25  117.70480    0.39190    4.51040   -9999.25   -9999.25 3291.02590
 4295.50000    1.78520    1.89680    1.93670    2.02750    2.07070   10.17840    0.12400  107.00940   -9999.25   -9999.25  120.35740    0.38760    4.29370   -9999.25   -9999.25 3291.02590
 4296.00000    1.78500    1.84990    1.89320    1.98300    1.99800   10.25520    0.15210  107.16220   -9999.25   -9999.25  121.08180    0.41550    4.07750   -9999.25   -9999.25 3291.02590
 4296.50000    1.76900    1.80220    1.85060    1.93280    1.96450   10.32580    0.16540  107.76370   -9999.25   -9999.25  121.55380    0.45770    4.02580   -9999.25   -9999.25 3291.02590
 4297.00000    1.70250    1.75460    1.81690    1.89770    2.00340   10.30580    0.17110  109.66490   -9999.25   -9999.25  122.31280    0.43520    4.08400   -9999.25   -9999.25 3291.02590
 4297.50000    1.62420    1.73550    1.80170    1.86250    2.01460   10.26360    0.17490  110.80560   -9999.25   -9999.25  123.52300    0.43740    3.97780   -9999.25   -9999.25 3291.02590
 4298.00000    1.71930    1.71000    1.79550    1.84150    2.00570   10.20490    0.17720  115.60430   -9999.25   -9999.25  131.66100    0.43140    3.67460   -9999.25   -9999.25 3291.02590
 4298.50000    1.62720    1.64960    1.79530    1.81440    1.93290   10.13160    0.17620  116.13970   -9999.25   -9999.25  131.20620    0.40380    3.35270   -9999.25   -9999.25 3291.02590
 4299.00000    1.48130    1.58930    1.69400    1.73550    1.79700   10.07140    0.17530  113.23840   -9999.25   -9999.25  132.87340    0.35060    3.09040   -9999.25   -9999.25 3291.02590
 4299.50000    1.48530    1.53020    1.64340    1.71000    1.71120   10.02670    0.17470  112.77330   -9999.25   -9999.25  127.20280    0.39780    3.08430   -9999.25   -9999.25 3291.02590
 4300.00000    1.50670    1.51890    1.68710    1.71000    1.80010    9.98200    0.17200  112.43000   -9999.25   -9999.25  121.94000    0.42840    3.16150   -9999.25   -9999.25 3291.02590
 4300.50000    1.61460    1.58780    1.74270    1.76120    1.88370    9.93730    0.16860  111.83280   -9999.25   -9999.25  117.18900    0.40890    3.27690   -9999.25   -9999.25 3291.02590
 4301.00000    1.63710    1.67980    1.80200    1.82820    1.91090    9.88720    0.16480  110.90600   -9999.25   -9999.25  115.09960    0.41570    3.42950   -9999.25   -9999.25 3291.02590
 4301.50000    1.64230    1.73500    1.76280    1.86830    1.89190    9.83810    0.16710  109.58710   -9999.25   -9999.25  118.43740    0.40630    3.37670   -9999.25   -9999.25 3291.02590
 4302.00000    1.64740    1.74770    1.72160    1.93860    1.85470    9.80560    0.17180  110.64470   -9999.25   -9999.25  125.06780    0.40970    3.32250   -9999.25   -9999.25 3291.02590
 4302.50000    1.64050    1.78670    1.73700    2.10780    1.90170    9.80740    0.17540  110.74680   -9999.25   -9999.25  125.62020    0.40060    3.28910   -9999.25   -9999.25 3292.93900
 4303.00000    1.87250    2.07080    2.02900    2.29280    2.19190    9.82540    0.17540  110.34090   -9999.25   -9999.25  124.97280    0.41630    3.26090   -9999.25   -9999.25 3292.93900
 4303.50000    2.34320    2.53660    2.48520    2.69940    2.66940    9.84340    0.17280  110.63440   -9999.25   -9999.25  122.02800    0.42910    3.27080   -9999.25   -9999.25 3292.93900
 4304.00000    2.89660    2.84740    3.04410    3.13510    3.18890    9.86150    0.17050  111.57090   -9999.25   -9999.25  124.49300    0.39510    3.33870   -9999.25   -9999.25 3292.93900
 4304.50000    2.17240    2.58210    2.57610    3.13460    2.82830    9.88070    0.16910  111.44120   -9999.25   -9999.25  123.13720    0.43690    3.39620   -9999.25   -9999.25 3295.36280
 4305.00000    1.96930    2.32870    2.17480    2.71210    2.25590    9.90960    0.16710  110.49340   -9999.25   -9999.25  134.12140    0.42220    3.34750   -9999.25   -9999.25 3295.36280
 4305.50000    1.80620    2.07520    1.97460    2.38110    2.04480    9.94790    0.16540  108.33140   -9999.25   -9999.25  137.75680    0.38100    3.28440   -9999.25   -9999.25 3295.36280
 4306.00000    1.71320    1.82180    1.79680    2.05000    1.89170    9.97220    0.16300  109.13040   -9999.25   -9999.25  137.92820    0.40980    3.27540   -9999.25   -9999.25 3295.36280
 4306.50000    1.54100    1.67010    1.68350    1.75890    1.75370    9.96050    0.15710  110.93300   -9999.25   -9999.25  136.68560    0.44240    3.34580   -9999.25   -9999.25 3295.36280
