~Version ---------------------------------------------------
VERS.   2.0 : CWLS log ASCII Standard -VERSION 2.0
WRAP.    NO : One line per depth step
DLM . SPACE : Column Data Section Delimiter
~Well ------------------------------------------------------
STRT .FT                910.0 : START DEPTH
STOP .FT              11772.0 : STOP DEPTH
STEP .FT                  0.5 : STEP
NULL .               -9999.25 : NULL VALUE
COMP .                        : COMPANY
WELL .                        : WELL
FLD  .                        : FIELD
LOC  .                        : LOCATION
PROV .                        : PROVINCE
CNTY .                        : COUNTY
STAT .                        : STATE
CTRY .                        : COUNTRY
SRVC .                        : SERVICE COMPANY
DATE .                        : DATE
UWI  .                        : UNIQUE WELL ID
API  .                        : API NUMBER
SLAT .WGS84 4.305101828744895 : SURFACE LATITUDE
SLON .WGS84 1.260152626523805 : SURFACE LONGITUDE
DATUM.F                   nan : DEPTH DATUM ELEV
~Curve Information -----------------------------------------
DEPT  .FT     : Depth FEET
AT10  .OHMM   : ARRAY INDUCTION TWO FOOT RESISTIVITY A10
AT20  .OHMM   : ARRAY INDUCTION TWO FOOT RESISTIVITY A20
AT30  .OHMM   : ARRAY INDUCTION TWO FOOT RESISTIVITY A30
AT60  .OHMM   : ARRAY INDUCTION TWO FOOT RESISTIVITY A60
AT90  .OHMM   : ARRAY INDUCTION TWO FOOT RESISTIVITY A90
CALR  .IN     : CALIPER FROM RESISTIVITY LOG
DPHZLS.V/V    : DENSITY POROSITY LIMESTONE
DTCO  .US/F   : DELTA-T COMPRESSIONAL
DTSM  .US/F   : DELTA-T SHEAR
GR    .GAPI   : GAMMA RAY
GRR   .GAPI   : GAMMA RAY FROM RESISTIVITY LOG
NPORLS.V/V    : NEUTRON POROSITY LIMESTONE
PEFZ  .B/E    : HRDD STANDARD RESOLUTION FORMATION PHOTOELECTRIC FACTOR
ROP   .FT/HR  : RATE OF PENETRATION
SPHILS.V/V    : SONIC POROSITY
TENR  .LB     : TENSION FROM RESISTIVITY LOG
~Params ----------------------------------------------------
~Other -----------------------------------------------------
~ASCII -----------------------------------------------------
# ...
 1619.50000   23.28250   24.65600   19.60730   28.39810   20.13730    8.69090    0.03930   68.01920  124.79990   -9999.25   42.54880    0.04440    4.43110   -9999.25    0.12010 2197.20920
 1620.00000   43.65830   32.96320   34.35510   40.03600   32.88150    8.68200    0.03710   60.84850  119.48910   -9999.25   34.92760    0.04060    4.60280   -9999.25    0.08060 2195.71240
 1620.50000   52.77780   34.21310   39.97060   50.63810   29.90470    8.67860    0.04170   58.02890  116.69950   -9999.25   29.26880    0.04970    4.63760   -9999.25    0.07610 2194.21560
 1621.00000   52.91940   26.88400   36.97910   50.65170   21.78860    8.69070    0.04070   60.12340  117.58220   -9999.25   31.87720    0.04400    4.65710   -9999.25    0.09490 2192.71880
 1621.50000   35.76020   20.17860   27.41240   29.38060   15.02470    8.73460    0.03980   62.14820  121.27600   -9999.25   35.77840    0.04880    4.65590   -9999.25    0.11370 2191.22170
 1622.00000   22.40150   13.47320   17.45020   17.55140   11.03790    8.79810    0.04010   65.93400  129.65970   -9999.25   41.84940    0.08300    4.61330   -9999.25    0.14710 2189.72490
 1622.50000   14.19500    8.58110   10.89530   11.79970    7.91350    8.81200    0.04670   73.28970  146.17500   -9999.25   48.74340    0.12030    4.52300   -9999.25    0.20280 2188.22800
 1623.00000    9.43780    6.92760    6.89830    9.52160    5.45070    8.81460    0.05980   90.96600  179.82980   -9999.25   59.18980    0.13670    4.32610   -9999.25    0.27000 2186.73120
 1623.50000    5.05130    5.27410    4.18870    7.11700    3.75440    8.82450    0.08280   98.62580  195.16870   -9999.25   77.49460    0.21060    4.06970   -9999.25   -9999.25 2185.23440
 1624.00000    2.95750    3.62050    3.23270    4.71250    2.99970    8.94160    0.11500  102.23640  220.58680   -9999.25   97.96520    0.31800    3.74090   -9999.25   -9999.25 2183.73730
 1624.50000    2.30790    2.49590    2.74840    2.76840    2.95990    8.96390    0.13300  107.63200  240.02520   -9999.25  118.27900    0.35420    3.50390   -9999.25   -9999.25 2182.24050
 1625.00000    2.39610    2.42330    2.71990    2.72800    2.97370    8.94360    0.13670  109.66750  240.02570   -9999.25  122.78160    0.34220    3.43190   -9999.25   -9999.25 2180.74370
 1625.50000    2.48850    2.64880    2.81190    2.85750    3.07110    8.91110    0.13320  111.78770   -9999.25   -9999.25  124.41060    0.36620    3.41250   -9999.25   -9999.25 2179.24680
 1626.00000    2.55520    2.69960    2.90990    2.96680    3.16170    8.87540    0.12820  110.65580   -9999.25   -9999.25  124.35180    0.37050    3.40750   -9999.25   -9999.25 2177.75000
 1626.50000    2.55810    2.75050    3.01140    3.07600    3.21610    8.89870    0.12230  109.56990   -9999.25   -9999.25  123.89920    0.37160    3.39680   -9999.25   -9999.25 2176.25320
 1627.00000    2.53760    2.80140    3.04570    3.18860    3.31440    8.89100    0.11930  108.52260   -9999.25   -9999.25  125.27560    0.37920    3.36300   -9999.25   -9999.25 2174.75610
 1627.50000    2.59850    2.81190    3.02100    3.30930    3.41850    8.85560    0.11560  108.19060   -9999.25   -9999.25  127.61640    0.37560    3.31940   -9999.25   -9999.25 2173.25950
 1628.00000    2.68120    2.81220    2.97940    3.40930    3.52590    8.83140    0.11230  107.80300   -9999.25   -9999.25  129.91060    0.36130    3.28830   -9999.25   -9999.25 2171.76250
 1628.50000    2.69970    2.89720    2.98320    3.40970    3.57730    8.83440    0.10750  107.51690   -9999.25   -9999.25  130.09120    0.35060    3.28300   -9999.25   -9999.25 2170.26560
 1629.00000    2.71830    2.96270    3.02380    3.51270    3.57740    8.85900    0.10330  106.84320   -9999.25   -9999.25  127.81920    0.38560    3.29770   -9999.25   -9999.25 2168.76880
 1629.50000    2.73880    2.98510    3.04630    3.59220    3.59800    8.88080    0.10320  106.64620   -9999.25   -9999.25  122.93220    0.38130    3.31240   -9999.25   -9999.25 2167.27200
 1630.00000    2.75940    2.98550    3.04650    3.64630    3.62210    8.90260    0.10900  106.55010   -9999.25   -9999.25  121.63500    0.38690    3.28800   -9999.25   -9999.25 2165.77490
 1630.50000    2.77700    2.98550    3.04680    3.67340    3.67360    8.92450    0.11880  106.42200   -9999.25   -9999.25  123.39020    0.35340    3.26990   -9999.25   -9999.25 2164.27810
 1631.00000    2.77730    2.96350    3.04710    3.70070    3.74350    8.94910    0.12970  106.20600   -9999.25   -9999.25  124.50060    0.34640    3.34020   -9999.25   -9999.25 2162.78130
 1631.50000    2.80070    3.03690    3.11360    3.70070    3.81480    8.95070    0.12950  106.52660   -9999.25   -9999.25  124.06980    0.38350    3.43980   -9999.25   -9999.25 2161.28440
 1632.00000    2.83380    3.10120    3.18210    3.70070    3.88740    8.94870    0.11900  106.63840   -9999.25   -9999.25  126.20660    0.37330    3.55290   -9999.25   -9999.25 2159.78760
 1632.50000    2.87320    3.16550    3.20020    3.70070    3.96140    8.94670    0.11090  106.51110   -9999.25   -9999.25  124.83920    0.32130    3.52930   -9999.25   -9999.25 2158.29080
 1633.00000    2.91330    3.19120    3.23400    3.72820    4.03450    8.94060    0.10780  106.19670  240.08150   -9999.25  122.04460    0.37720    3.40830   -9999.25   -9999.25 2156.79370
 1633.50000    2.97550    3.16770    3.37470    3.81190    4.05140    8.91620    0.10700  105.93590  238.86930   -9999.25  119.46760    0.40010    3.28650   -9999.25   -9999.25 2155.29690
 1634.00000    3.08810    3.14430    3.53740    3.81190    4.06500    8.91220    0.09960  106.03000  236.75410   -9999.25  120.30040    0.39140    3.19260   -9999.25   -9999.25 2153.80000
 1634.50000    3.01150    3.09810    3.47460    3.87140    4.06550    8.90060    0.09950  105.71340  236.23030   -9999.25  121.23420    0.38790    3.15930   -9999.25   -9999.25 2152.30320
 1635.00000    2.96260    3.07520    3.33270    3.87560    4.07370    8.91610    0.10230  105.33770  235.12690   -9999.25  121.14080    0.32810    3.15840   -9999.25   -9999.25 2150.80640
 1635.50000    2.98580    3.07520    3.40900    3.87980    4.08190    8.94700    0.10220  105.47310  234.34630   -9999.25  121.04740    0.35390    3.15370   -9999.25   -9999.25 2149.30960
 1636.00000    3.02670    3.16770    3.46780    3.88410    4.09010    8.96510    0.09630  105.76440  234.96050   -9999.25  122.73300    0.37440    3.17350   -9999.25   -9999.25 2147.81250
 1636.50000    3.02850    3.26290    3.48870    3.88830    4.09490    8.93990    0.09410  105.84140  235.96050   -9999.25  122.77740    0.37700    3.19900   -9999.25   -9999.25 2146.31570
 1637.00000    3.03440    3.28720    3.44010    3.89250    4.08620    8.94960    0.09930  105.80050  237.62590   -9999.25  120.45020    0.37720    3.20720   -9999.25   -9999.25 2145.85160
 1637.50000    3.04030    3.28720    3.36860    3.89670    4.07750    8.95870    0.10940  105.68350  236.54830   -9999.25  121.12540    0.34670    3.27490   -9999.25   -9999.25 2149.51830
 1638.00000    3.04620    3.28720    3.35550    3.89760    4.06890    8.97870    0.11270  105.18590  233.72240   -9999.25  124.96920    0.32070    3.36770   -9999.25   -9999.25 2153.18510
 1638.50000    3.06720    3.28720    3.46770    3.88370    4.14450    8.97140    0.10470  104.97900  232.99510   -9999.25  126.90140    0.34500    3.47440   -9999.25   -9999.25 2156.85180
 1639.00000    3.10330    3.28720    3.58360    3.90840    4.29980    8.96400    0.08740  104.94150  233.98810   -9999.25  125.96760    0.37140    3.58200   -9999.25   -9999.25 2160.51860
 1639.50000    3.13740    3.28720    3.64140    3.93320    4.42600    8.91850    0.07830  104.93530  232.57750   -9999.25  122.83120    0.34450    3.68590   -9999.25   -9999.25 2164.18530
 1640.00000    3.10640    3.25790    3.51390    3.95790    4.27540    8.83790    0.09420  105.00030  232.10940   -9999.25  122.49320    0.32950    3.66890   -9999.25   -9999.25 2167.85230
 1640.50000    2.99630    3.23260    3.42660    3.98270    4.11960    8.77270    0.10970  105.70820  233.74530   -9999.25  122.86180    0.35850    3.51280   -9999.25   -9999.25 2171.51880
