~Version ---------------------------------------------------
VERS.   2.0 : CWLS log ASCII Standard -VERSION 2.0
WRAP.    NO : One line per depth step
DLM . SPACE : Column Data Section Delimiter
~Well ------------------------------------------------------
STRT .FT                910.0 : START DEPTH
STOP .FT              11772.0 : STOP DEPTH
STEP .FT                  0.5 : STEP
NULL .               -9999.25 : NULL VALUE
COMP .                        : COMPANY
WELL .                        : WELL
FLD  .                        : FIELD
LOC  .                        : LOCATION
PROV .                        : PROVINCE
CNTY .                        : COUNTY
STAT .                        : STATE
CTRY .                        : COUNTRY
SRVC .                        : SERVICE COMPANY
DATE .                        : DATE
UWI  .                        : UNIQUE WELL ID
API  .                        : API NUMBER
SLAT .WGS84 4.305101828744895 : SURFACE LATITUDE
SLON .WGS84 1.260152626523805 : SURFACE LONGITUDE
DATUM.F                   nan : DEPTH DATUM ELEV
~Curve Information -----------------------------------------
DEPT  .FT     : Depth FEET
AT10  .OHMM   : ARRAY INDUCTION TWO FOOT RESISTIVITY A10
AT20  .OHMM   : ARRAY INDUCTION TWO FOOT RESISTIVITY A20
AT30  .OHMM   : ARRAY INDUCTION TWO FOOT RESISTIVITY A30
AT60  .OHMM   : ARRAY INDUCTION TWO FOOT RESISTIVITY A60
AT90  .OHMM   : ARRAY INDUCTION TWO FOOT RESISTIVITY A90
CALR  .IN     : CALIPER FROM RESISTIVITY LOG
DPHZLS.V/V    : DENSITY POROSITY LIMESTONE
DTCO  .US/F   : DELTA-T COMPRESSIONAL
DTSM  .US/F   : DELTA-T SHEAR
GR    .GAPI   : GAMMA RAY
GRR   .GAPI   : GAMMA RAY FROM RESISTIVITY LOG
NPORLS.V/V    : NEUTRON POROSITY LIMESTONE
PEFZ  .B/E    : HRDD STANDARD RESOLUTION FORMATION PHOTOELECTRIC FACTOR
ROP   .FT/HR  : RATE OF PENETRATION
SPHILS.V/V    : SONIC POROSITY
TENR  .LB     : TENSION FROM RESISTIVITY LOG
~Params ----------------------------------------------------
~Other -----------------------------------------------------
~ASCII -----------------------------------------------------
# ...
 1297.00000   15.87290   16.57980   22.54210   24.96760   26.20950    8.69960    0.06400   65.16500  133.36050   -9999.25   36.94280    0.10080    4.18550   -9999.25    0.12890 2093.66530
 1297.50000   17.49310   18.80310   24.09620   27.40320   28.35560    8.70000    0.05820   64.39730  159.81130   -9999.25   35.79560    0.09980    4.21840   -9999.25    0.12010 2094.57030
 1298.00000   19.38970   20.28550   24.00310   28.72150   30.06250    8.71830    0.05790   64.53170  152.62500   -9999.25   34.94820    0.09340    4.27760   -9999.25    0.12030 2095.47560
 1298.50000   17.94380   19.54410   21.36280   24.35650   25.56670    8.73480    0.06000   64.78670  127.20490   -9999.25   35.69600    0.08920    4.27080   -9999.25    0.12750 2096.38060
 1299.00000   14.63390   16.77490   18.19530   20.03820   21.74050    8.73280    0.06830   66.12100  149.53920   -9999.25   42.16780    0.10730    4.23240   -9999.25    0.13430 2097.28590
 1299.50000   12.90620   14.15010   15.49740   15.71980   18.37620    8.73920    0.07060   67.33490  126.92080   -9999.25   49.90260    0.12530    4.19320   -9999.25    0.14110 2098.19090
 1300.00000   11.38250   13.00180   13.45800   14.42070   15.33510    8.74560    0.07690   67.56610  125.83020   -9999.25   55.23800    0.14290    4.23780   -9999.25    0.14370 2099.09620
 1300.50000   12.59630   16.20760   14.59480   20.75420   16.48670    8.72970    0.06890   66.85450  125.34720   -9999.25   54.77900    0.14860    4.31840   -9999.25    0.12770 2100.00120
 1301.00000   20.38960   21.98450   22.60380   33.24140   27.15080    8.70620    0.05190   63.40010  127.87220   -9999.25   50.52360    0.09520    4.40490   -9999.25    0.10720 2100.90650
 1301.50000   34.90820   45.09340   38.75150   46.06800   50.77940    8.72170    0.03210   59.87200  145.64330   -9999.25   46.43280    0.05740    4.55430   -9999.25    0.08440 2101.81150
 1302.00000   57.85570   68.03900   62.98010   80.23480   74.80280    8.72750    0.02140   56.10410  138.54960   -9999.25   44.23380    0.03620    4.71320   -9999.25    0.06010 2102.71680
 1302.50000   83.58220   86.39560   94.06100   97.07510   82.78070    8.74050    0.01960   53.64270  229.61070   -9999.25   48.23660    0.03210    4.82340   -9999.25    0.04330 2103.62180
 1303.00000  116.64790   78.31390   98.50460  115.87470   63.51040    8.75340    0.02680   53.07680  239.92230   -9999.25   55.36280    0.03790    4.86740   -9999.25    0.04120 2104.52710
 1303.50000  123.45060   56.50570   93.39170  125.06450   45.98630    8.68260    0.02830   53.38990  239.86110   -9999.25   59.69660    0.04830    4.84370   -9999.25    0.04250 2105.43240
 1304.00000  107.47180   42.46780   81.44390  104.71910   37.41800    8.64080    0.02760   53.88530  239.79980   -9999.25   58.12940    0.06220    4.77660   -9999.25    0.04370 2106.33740
 1304.50000  145.82190   47.68930   69.79950  140.77970   44.06300    8.61880    0.02070   53.70380  239.73850   -9999.25   49.91140    0.06270    4.75580   -9999.25    0.04500 2107.24270
 1305.00000  116.00770   59.17760   74.13520  113.62280   53.35370    8.62250    0.01170   53.72760  239.67720   -9999.25   43.22860    0.04050    4.76860   -9999.25    0.04490 2108.14770
 1305.50000   81.85330   52.76620   65.72500   71.80760   56.88440    8.63150    0.00540   53.52860  239.61590   -9999.25   41.21780    0.02240    4.84220   -9999.25    0.04440 2109.05300
 1306.00000   56.44230   39.82520   45.90930   57.51550   37.29350    8.67050    0.00150   55.13370  239.55460   -9999.25   41.62540    0.03010    4.90710   -9999.25    0.05900 2109.95800
 1306.50000   34.93010   27.15260   24.99340   35.55920   21.10080    8.73910    0.01830   58.96920  239.41660   -9999.25   43.38180    0.05540    4.79130   -9999.25    0.08460 2110.86330
 1307.00000   16.60340   14.88260   12.74170   23.43260    9.08180    8.79740    0.06020   64.76610  220.63380   -9999.25   52.30580    0.10800    4.58310   -9999.25    0.12550 2111.76830
 1307.50000    8.71830    6.75610    6.75700    9.88840    5.62610    8.87310    0.11770   67.60090  193.68310   -9999.25   58.81280    0.16510    4.46530   -9999.25    0.16250 2112.67360
 1308.00000    4.94180    4.29910    4.35780    6.12320    3.84810    8.94270    0.18230   89.17410  173.40320   -9999.25   69.56760    0.23790    4.85300   -9999.25    0.29940 2113.57860
 1308.50000    3.77120    3.26810    3.32410    3.71070    2.89820    8.98150    0.26840  116.33760  170.67910   -9999.25   77.47240    0.33450    5.60220   -9999.25   -9999.25 2114.48390
 1309.00000    2.86000    2.79210    2.72240    3.22530    2.52660    9.60470    0.29910  114.20200  110.05720   -9999.25   90.33140    0.43490    6.15980   -9999.25   -9999.25 2115.38890
 1309.50000    2.09510    2.31600    2.27550    2.74000    2.26060    9.31160    0.29540  106.72900  240.71990   -9999.25   96.53360    0.45140    6.07400   -9999.25   -9999.25 2116.29420
 1310.00000    1.76490    1.92790    1.90550    2.25470    2.02830    9.09440    0.20910  128.79850  240.71840   -9999.25  101.70360    0.42400    5.09420   -9999.25   -9999.25 2117.19920
 1310.50000    1.74000    1.81690    1.80910    2.04520    1.99810    9.11520    0.17240  131.05840  240.71690   -9999.25  104.64080    0.43510    4.24520   -9999.25   -9999.25 2118.10450
 1311.00000    1.80170    1.89910    1.88130    2.13990    2.09950    9.57410    0.18870  129.29510  240.71550   -9999.25  108.96600    0.46950    3.74900   -9999.25   -9999.25 2119.00980
 1311.50000    1.86990    2.00540    1.95630    2.22920    2.25780    9.57680    0.19430  125.91670  240.71400   -9999.25  112.00660    0.46510    3.78980   -9999.25   -9999.25 2119.91480
 1312.00000    1.93630    2.10580    1.99840    2.33560    2.42800    9.81300    0.19000  125.28320   -9999.25   -9999.25  114.35260    0.46960    4.18720   -9999.25   -9999.25 2120.82010
 1312.50000    1.89890    2.10560    2.02600    2.37010    2.40450   10.02760    0.18850  126.56210   -9999.25   -9999.25  114.27780    0.42980    4.74940   -9999.25   -9999.25 2121.72510
 1313.00000    1.79700    2.01580    2.03360    2.30070    2.26780    8.87560    0.23300  126.62340   -9999.25   -9999.25  112.82660    0.42210    5.34170   -9999.25   -9999.25 2122.63040
 1313.50000    1.77000    1.95030    2.03520    2.25000    2.22360    9.01300    0.25340  125.87220   -9999.25   -9999.25  111.46940    0.41730    6.19010   -9999.25   -9999.25 2123.53540
 1314.00000    1.73930    1.89780    2.03680    2.24970    2.26110    9.02060    0.23160  125.00120   -9999.25   -9999.25  109.69300    0.45100    6.27270   -9999.25   -9999.25 2124.44070
 1314.50000    1.73860    1.85600    2.03840    2.24940    2.33000    8.95730    0.18710  124.07180   -9999.25   -9999.25  109.23100    0.39300    5.60660   -9999.25   -9999.25 2125.34570
 1315.00000    1.74700    1.82850    2.04010    2.24920    2.34000    8.94880    0.15270  123.37570   -9999.25   -9999.25  109.73980    0.39310    4.67320   -9999.25   -9999.25 2126.25100
 1315.50000    1.75540    1.81490    2.04170    2.24890    2.33950    8.95300    0.15220  122.49420   -9999.25   -9999.25  111.46000    0.38850    3.99770   -9999.25   -9999.25 2127.15600
 1316.00000    1.76390    1.80130    2.04330    2.25570    2.33900    8.95260    0.15410  121.82860   -9999.25   -9999.25  111.84220    0.38720    3.66750   -9999.25   -9999.25 2128.06130
 1316.50000    1.75370    1.80110    2.03280    2.26730    2.33880    8.97720    0.15460  121.69750   -9999.25   -9999.25  111.22380    0.37800    3.43800   -9999.25   -9999.25 2128.96630
 1317.00000    1.73050    1.81430    2.00640    2.27890    2.34400    8.98260    0.15360  121.53150   -9999.25   -9999.25  110.59660    0.37420    3.42630   -9999.25   -9999.25 2129.87160
 1317.50000    1.77110    1.85470    1.98990    2.29050    2.34930    8.98800    0.15550  122.09610   -9999.25   -9999.25  107.64500    0.37730    3.51350   -9999.25   -9999.25 2130.77660
 1318.00000    1.77710    1.85460    2.00210    2.30200    2.35450    8.99340    0.15540  121.31320   -9999.25   -9999.25  104.87480    0.37490    3.51620   -9999.25   -9999.25 2131.68190
