~Version ---------------------------------------------------
VERS.   2.0 : CWLS log ASCII Standard -VERSION 2.0
WRAP.    NO : One line per depth step
DLM . SPACE : Column Data Section Delimiter
~Well ------------------------------------------------------
STRT .FT                910.0 : START DEPTH
STOP .FT              11772.0 : STOP DEPTH
STEP .FT                  0.5 : STEP
NULL .               -9999.25 : NULL VALUE
COMP .                        : COMPANY
WELL .                        : WELL
FLD  .                        : FIELD
LOC  .                        : LOCATION
PROV .                        : PROVINCE
CNTY .                        : COUNTY
STAT .                        : STATE
CTRY .                        : COUNTRY
SRVC .                        : SERVICE COMPANY
DATE .                        : DATE
UWI  .                        : UNIQUE WELL ID
API  .                        : API NUMBER
SLAT .WGS84 4.305101828744895 : SURFACE LATITUDE
SLON .WGS84 1.260152626523805 : SURFACE LONGITUDE
DATUM.F                   nan : DEPTH DATUM ELEV
~Curve Information -----------------------------------------
DEPT  .FT     : Depth FEET
AT10  .OHMM   : ARRAY INDUCTION TWO FOOT RESISTIVITY A10
AT20  .OHMM   : ARRAY INDUCTION TWO FOOT RESISTIVITY A20
AT30  .OHMM   : ARRAY INDUCTION TWO FOOT RESISTIVITY A30
AT60  .OHMM   : ARRAY INDUCTION TWO FOOT RESISTIVITY A60
AT90  .OHMM   : ARRAY INDUCTION TWO FOOT RESISTIVITY A90
CALR  .IN     : CALIPER FROM RESISTIVITY LOG
DPHZLS.V/V    : DENSITY POROSITY LIMESTONE
DTCO  .US/F   : DELTA-T COMPRESSIONAL
DTSM  .US/F   : DELTA-T SHEAR
GR    .GAPI   : GAMMA RAY
GRR   .GAPI   : GAMMA RAY FROM RESISTIVITY LOG
NPORLS.V/V    : NEUTRON POROSITY LIMESTONE
PEFZ  .B/E    : HRDD STANDARD RESOLUTION FORMATION PHOTOELECTRIC FACTOR
ROP   .FT/HR  : RATE OF PENETRATION
SPHILS.V/V    : SONIC POROSITY
TENR  .LB     : TENSION FROM RESISTIVITY LOG
~Params ----------------------------------------------------
~Other -----------------------------------------------------
~ASCII -----------------------------------------------------
# ...
 5296.00000    1.52520    1.58010    1.60360    1.79200    1.82050    9.38940    0.12920  107.59500   -9999.25   -9999.25  128.55900    0.37380    3.61420   -9999.25   -9999.25 4149.67290
 5296.50000    1.51530    1.57990    1.56240    1.76540    1.72240    9.28730    0.11190  107.40870   -9999.25   -9999.25  123.19740    0.38150    3.75200   -9999.25   -9999.25 4145.29440
 5297.00000    1.54370    1.57980    1.57680    1.71380    1.67780    9.24410    0.10140  106.26920   -9999.25   -9999.25  120.37460    0.35670    3.83940   -9999.25   -9999.25 4140.91550
 5297.50000    1.51540    1.56800    1.54750    1.66330    1.64950    9.22810    0.11440  106.18200   -9999.25   -9999.25  121.28820    0.39120    3.72800   -9999.25   -9999.25 4136.53710
 5298.00000    1.46380    1.51390    1.50160    1.60030    1.58840    9.27540    0.12940  106.32880   -9999.25   -9999.25  125.94540    0.40670    3.49620   -9999.25   -9999.25 4133.90970
 5298.50000    1.39400    1.47290    1.45690    1.53730    1.54060    9.32460    0.14510  107.01020   -9999.25   -9999.25  130.28040    0.42130    3.27670   -9999.25   -9999.25 4133.41800
 5299.00000    1.38150    1.43190    1.42530    1.49940    1.50530    9.42010    0.15020  108.95040   -9999.25   -9999.25  130.87860    0.46580    3.17130   -9999.25   -9999.25 4130.95850
 5299.50000    1.40390    1.41310    1.44390    1.49930    1.49400    9.43360    0.15180  109.28730   -9999.25   -9999.25  130.83540    0.44410    3.08990   -9999.25   -9999.25 4128.49900
 5300.00000    1.44460    1.41300    1.46290    1.55560    1.54530    9.44060    0.14960  108.98120   -9999.25   -9999.25  125.05380    0.45520    3.12390   -9999.25   -9999.25 4126.03910
 5300.50000    1.51390    1.48780    1.54770    1.63670    1.63870    9.43310    0.14690  108.88960   -9999.25   -9999.25  120.48980    0.43310    3.17250   -9999.25   -9999.25 4123.57960
 5301.00000    1.58410    1.64530    1.63740    1.71430    1.73760    9.36770    0.14020  109.15950   -9999.25   -9999.25  118.85860    0.43020    3.31370   -9999.25   -9999.25 4121.12010
 5301.50000    1.58840    1.67720    1.67390    1.76640    1.77840    9.39500    0.14780  109.26890   -9999.25   -9999.25  118.52860    0.47070    3.36660   -9999.25   -9999.25 4118.66020
 5302.00000    1.51880    1.62730    1.63070    1.75000    1.65790    9.38580    0.14610  109.53610   -9999.25   -9999.25  119.83640    0.47720    3.42910   -9999.25   -9999.25 4116.20070
 5302.50000    1.51360    1.59550    1.58350    1.72240    1.65270    9.37600    0.14400  109.00770   -9999.25   -9999.25  121.71920    0.40110    3.60830   -9999.25   -9999.25 4113.74120
 5303.00000    1.50630    1.56370    1.57370    1.69470    1.62840    9.40020    0.10880  109.34470   -9999.25   -9999.25  126.98080    0.39890    3.81610   -9999.25   -9999.25 4111.28170
 5303.50000    1.49310    1.53190    1.57200    1.66700    1.61940    9.43940    0.09840  109.86760   -9999.25   -9999.25  127.60420    0.42920    3.88350   -9999.25   -9999.25 4108.82230
 5304.00000    1.48720    1.52590    1.57600    1.66750    1.61980    9.49420    0.10380  110.25170   -9999.25   -9999.25  127.81160    0.42870    3.85100   -9999.25   -9999.25 4106.36230
 5304.50000    1.52450    1.59570    1.60350    1.70560    1.65660    9.49030    0.11220  110.01470   -9999.25   -9999.25  127.85540    0.40870    3.79850   -9999.25   -9999.25 4103.90280
 5305.00000    1.58060    1.70610    1.66950    1.77650    1.76580    9.52300    0.09710  110.10800   -9999.25   -9999.25  127.89820    0.39960    3.79960   -9999.25   -9999.25 4101.44340
 5305.50000    1.68930    1.78410    1.74480    1.87350    1.83070    9.57150    0.09050  108.84000   -9999.25   -9999.25  126.76860    0.40650    3.84030   -9999.25   -9999.25 4098.98390
 5306.00000    1.76870    1.78460    1.81130    1.90740    1.84900    9.64860    0.10580  109.18550   -9999.25   -9999.25  125.98360    0.39750    3.79140   -9999.25   -9999.25 4096.52390
 5306.50000    1.72570    1.78510    1.80440    1.90070    1.83850    9.72470    0.12000  106.39370   -9999.25   -9999.25  126.55860    0.47130    3.63710   -9999.25   -9999.25 4094.06450
 5307.00000    1.72090    1.77220    1.79750    1.88310    1.82800    9.71800    0.11920  107.25470   -9999.25   -9999.25  124.90740    0.43390    3.54930   -9999.25   -9999.25 4091.60500
 5307.50000    1.73500    1.75000    1.79070    1.86540    1.82250    9.69530    0.11440  107.32650   -9999.25   -9999.25  124.25140    0.42590    3.53930   -9999.25   -9999.25 4089.14550
 5308.00000    1.74130    1.72790    1.78380    1.84780    1.81830    9.67260    0.11600  105.96350   -9999.25   -9999.25  125.27340    0.43430    3.56040   -9999.25   -9999.25 4086.68580
 5308.50000    1.72800    1.70580    1.77620    1.83150    1.81450    9.67710    0.12360  105.64370   -9999.25   -9999.25  128.87680    0.44350    3.55730   -9999.25   -9999.25 4084.22630
 5309.00000    1.69550    1.68370    1.74450    1.80800    1.81500    9.68580    0.12650  105.80780   -9999.25   -9999.25  128.44820    0.42470    3.53000   -9999.25    0.29910 4082.05270
 5309.50000    1.66370    1.66160    1.71330    1.78460    1.76040    9.70000    0.11890  105.76970   -9999.25   -9999.25  124.10360    0.43170    3.53010   -9999.25    0.29740 4082.05270
 5310.00000    1.63240    1.63950    1.67420    1.76120    1.70750    9.67060    0.12580  105.89130   -9999.25   -9999.25  117.27260    0.43140    3.52060   -9999.25    0.29950 4082.05270
 5310.50000    1.59440    1.61730    1.63260    1.73770    1.65850    9.62800    0.13600  105.34140   -9999.25   -9999.25  119.29840    0.42710    3.53010   -9999.25   -9999.25 4082.05270
 5311.00000    1.55600    1.61260    1.59200    1.72360    1.65930    9.58940    0.14550  106.22940   -9999.25   -9999.25  124.73740    0.40960    3.56370   -9999.25   -9999.25 4082.05270
 5311.50000    1.56020    1.64230    1.60570    1.76180    1.72560    9.54010    0.14040  106.66230   -9999.25   -9999.25  126.35060    0.45190    3.57040   -9999.25   -9999.25 4082.05270
 5312.00000    1.64020    1.71720    1.70490    1.83920    1.79460    9.52010    0.14040  107.60450   -9999.25   -9999.25  124.79000    0.44790    3.67560   -9999.25   -9999.25 4082.05270
 5312.50000    1.74440    1.79200    1.81010    1.93600    1.86630    9.51170    0.14710  108.45500   -9999.25   -9999.25  126.49240    0.42720    3.79220   -9999.25   -9999.25 4082.05270
 5313.00000    1.86040    1.86680    1.91780    2.03290    2.00860    9.51600    0.14840  107.99640   -9999.25   -9999.25  125.07820    0.42730    3.88560   -9999.25   -9999.25 4082.05270
 5313.50000    1.96530    1.90950    2.01760    2.07130    2.05830    9.52470    0.13890  107.43260   -9999.25   -9999.25  123.30420    0.40420    3.81230   -9999.25   -9999.25 4082.05270
 5314.00000    1.85100    1.83200    1.97380    2.04060    1.98340    9.53480    0.13620  107.28030   -9999.25   -9999.25  123.31080    0.37550    3.72010   -9999.25   -9999.25 4082.05270
 5314.50000    1.74030    1.77800    1.81170    1.94930    1.86700    9.49580    0.13620  107.76950   -9999.25   -9999.25  123.33260    0.38380    3.63640   -9999.25   -9999.25 4082.05270
 5315.00000    1.68470    1.72410    1.74660    1.85810    1.78580    9.41770    0.13730  104.56740   -9999.25   -9999.25  128.57040    0.38080    3.56310   -9999.25   -9999.25 4082.05270
 5315.50000    1.61480    1.67010    1.68380    1.77190    1.71160    9.36240    0.13800  104.25200   -9999.25   -9999.25  128.17300    0.37270    3.47360   -9999.25   -9999.25 4082.05270
 5316.00000    1.57590    1.63300    1.61540    1.71980    1.68080    9.39810    0.14660  107.68110   -9999.25   -9999.25  133.87920    0.38850    3.31990   -9999.25   -9999.25 4082.05270
 5316.50000    1.57310    1.63270    1.61810    1.71950    1.67070    9.41980    0.15870  109.81090   -9999.25   -9999.25  132.35440    0.40500    3.13100   -9999.25   -9999.25 4082.05270
 5317.00000    1.60360    1.69380    1.66610    1.78550    1.72180    9.43380    0.16250  108.20220   -9999.25   -9999.25  127.76360    0.40940    3.08810   -9999.25   -9999.25 4082.05270
