~Version ---------------------------------------------------
VERS.   2.0 : CWLS log ASCII Standard -VERSION 2.0
WRAP.    NO : One line per depth step
DLM . SPACE : Column Data Section Delimiter
~Well ------------------------------------------------------
STRT .FT                910.0 : START DEPTH
STOP .FT              11772.0 : STOP DEPTH
STEP .FT                  0.5 : STEP
NULL .               -9999.25 : NULL VALUE
COMP .                        : COMPANY
WELL .                        : WELL
FLD  .                        : FIELD
LOC  .                        : LOCATION
PROV .                        : PROVINCE
CNTY .                        : COUNTY
STAT .                        : STATE
CTRY .                        : COUNTRY
SRVC .                        : SERVICE COMPANY
DATE .                        : DATE
UWI  .                        : UNIQUE WELL ID
API  .                        : API NUMBER
SLAT .WGS84 4.305101828744895 : SURFACE LATITUDE
SLON .WGS84 1.260152626523805 : SURFACE LONGITUDE
DATUM.F                   nan : DEPTH DATUM ELEV
~Curve Information -----------------------------------------
DEPT  .FT     : Depth FEET
AT10  .OHMM   : ARRAY INDUCTION TWO FOOT RESISTIVITY A10
AT20  .OHMM   : ARRAY INDUCTION TWO FOOT RESISTIVITY A20
AT30  .OHMM   : ARRAY INDUCTION TWO FOOT RESISTIVITY A30
AT60  .OHMM   : ARRAY INDUCTION TWO FOOT RESISTIVITY A60
AT90  .OHMM   : ARRAY INDUCTION TWO FOOT RESISTIVITY A90
CALR  .IN     : CALIPER FROM RESISTIVITY LOG
DPHZLS.V/V    : DENSITY POROSITY LIMESTONE
DTCO  .US/F   : DELTA-T COMPRESSIONAL
DTSM  .US/F   : DELTA-T SHEAR
GR    .GAPI   : GAMMA RAY
GRR   .GAPI   : GAMMA RAY FROM RESISTIVITY LOG
NPORLS.V/V    : NEUTRON POROSITY LIMESTONE
PEFZ  .B/E    : HRDD STANDARD RESOLUTION FORMATION PHOTOELECTRIC FACTOR
ROP   .FT/HR  : RATE OF PENETRATION
SPHILS.V/V    : SONIC POROSITY
TENR  .LB     : TENSION FROM RESISTIVITY LOG
~Params ----------------------------------------------------
~Other -----------------------------------------------------
~ASCII -----------------------------------------------------
# ...
 5962.50000   11.27430   11.29650   13.48390   16.70170   16.41290   -9999.25   -9999.25   -9999.25   -9999.25   77.82190   -9999.25   -9999.25   -9999.25  157.62010   -9999.25 5148.77200
 5963.00000    8.65890    9.27040    9.43020   13.03900   11.88810   -9999.25   -9999.25   -9999.25   -9999.25   76.65790   -9999.25   -9999.25   -9999.25  156.50130   -9999.25 5157.34380
 5963.50000    6.53380    7.24420    7.37110    9.66150    8.38280   -9999.25   -9999.25   -9999.25   -9999.25   75.55800   -9999.25   -9999.25   -9999.25  156.23800   -9999.25 5165.91550
 5964.00000    5.26300    5.62330    5.76160    6.23760    6.33240   -9999.25   -9999.25   -9999.25   -9999.25   74.04260   -9999.25   -9999.25   -9999.25  155.84310   -9999.25 5174.48730
 5964.50000    4.93030    5.33930    5.41740    6.05560    6.47000   -9999.25   -9999.25   -9999.25   -9999.25   75.10550   -9999.25   -9999.25   -9999.25  155.18500   -9999.25 5183.05910
 5965.00000    4.67810    5.14530    5.21680    6.47290    6.83050   -9999.25   -9999.25   -9999.25   -9999.25   76.94510   -9999.25   -9999.25   -9999.25  152.94740   -9999.25 5191.63090
 5965.50000    4.44490    4.88530    4.94820    6.61830    7.09560   -9999.25   -9999.25   -9999.25   -9999.25   78.06040   -9999.25   -9999.25   -9999.25  149.39350   -9999.25 5200.20260
 5966.00000    4.20060    4.56680    4.67130    6.42510    6.63230   -9999.25   -9999.25   -9999.25   -9999.25   79.64550   -9999.25   -9999.25   -9999.25  125.06220   -9999.25 5208.77440
 5966.50000    3.93950    4.42220    4.46700    5.54070    5.93810   -9999.25   -9999.25   -9999.25   -9999.25   84.37020   -9999.25   -9999.25   -9999.25  104.64940   -9999.25 5217.34620
 5967.00000    3.69460    4.18400    4.29830    4.67290    5.31660   -9999.25   -9999.25   -9999.25   -9999.25   87.12990   -9999.25   -9999.25   -9999.25   92.48520   -9999.25 5225.91800
 5967.50000    3.51280    3.94570    4.10160    4.43720    4.76650   -9999.25   -9999.25   -9999.25   -9999.25   89.93600   -9999.25   -9999.25   -9999.25   84.75220   -9999.25 5234.49020
 5968.00000    3.45420    3.70750    3.78540    4.10790    4.27410   -9999.25   -9999.25   -9999.25   -9999.25   92.81450   -9999.25   -9999.25   -9999.25   80.86930   -9999.25 5243.06200
 5968.50000    3.28090    3.55300    3.51470    3.77860    3.83260   -9999.25   -9999.25   -9999.25   -9999.25   99.35990   -9999.25   -9999.25   -9999.25   99.95480   -9999.25 5263.34810
 5969.00000    3.04040    3.35930    3.26750    3.44930    3.50360   -9999.25   -9999.25   -9999.25   -9999.25  106.54010   -9999.25   -9999.25   -9999.25   99.03340   -9999.25 5313.92090
 5969.50000    2.81750    3.19780    3.03770    3.34860    3.31100   -9999.25   -9999.25   -9999.25   -9999.25  113.06240   -9999.25   -9999.25   -9999.25  108.27750   -9999.25 5347.63620
 5970.00000    2.61090    3.03630    2.88190    3.23640    3.12910   -9999.25   -9999.25   -9999.25   -9999.25  115.27390   -9999.25   -9999.25   -9999.25  120.17440   -9999.25 5347.63620
 5970.50000    2.53320    2.87490    2.74780    3.12420    2.97900   -9999.25   -9999.25   -9999.25   -9999.25  114.89200   -9999.25   -9999.25   -9999.25  132.07120   -9999.25 5335.85210
 5971.00000    2.52260    2.72580    2.62000    3.01200    2.84210   -9999.25   -9999.25   -9999.25   -9999.25  114.11470   -9999.25   -9999.25   -9999.25  136.67810   -9999.25 5321.68310
 5971.50000    2.43580    2.68680    2.54800    2.89970    2.71150   -9999.25   -9999.25   -9999.25   -9999.25  110.24010   -9999.25   -9999.25   -9999.25  138.38920   -9999.25 5307.51370
 5972.00000    2.32890    2.62910    2.52330    2.81020    2.63480   -9999.25   -9999.25   -9999.25   -9999.25  112.98430   -9999.25   -9999.25   -9999.25  135.44080   -9999.25 5293.34470
 5972.50000    2.40970    2.57260    2.65120    2.77030    2.81190   -9999.25   -9999.25   -9999.25   -9999.25  114.36480   -9999.25   -9999.25   -9999.25  131.93960   -9999.25 5279.17530
 5973.00000    2.62140    2.57400    2.76110    2.77150    2.89880   -9999.25   -9999.25   -9999.25   -9999.25  115.42840   -9999.25   -9999.25   -9999.25  141.54820   -9999.25 5272.41550
 5973.50000    2.46530    2.57520    2.62040    2.77280    2.86900   -9999.25   -9999.25   -9999.25   -9999.25  118.32030   -9999.25   -9999.25   -9999.25  139.17900   -9999.25 5276.76950
 5974.00000    2.35360    2.61480    2.56150    3.13340    2.94010   -9999.25   -9999.25   -9999.25   -9999.25  120.92680   -9999.25   -9999.25   -9999.25  142.27210   -9999.25 5281.12400
 5974.50000    2.82970    3.33910    3.05280    3.97600    3.22790   -9999.25   -9999.25   -9999.25   -9999.25  120.59540   -9999.25   -9999.25   -9999.25  142.99610   -9999.25 5285.47800
 5975.00000    3.50540    4.21110    3.77660    4.81860    3.97370   -9999.25   -9999.25   -9999.25   -9999.25  119.59000   -9999.25   -9999.25   -9999.25  139.77130   -9999.25 5289.83200
 5975.50000    4.06310    4.94530    4.67220    5.67810    5.37810   -9999.25   -9999.25   -9999.25   -9999.25  115.91030   -9999.25   -9999.25   -9999.25  136.80970   -9999.25 5294.18600
 5976.00000    4.67220    5.13340    5.05800    6.84980    7.02630   -9999.25   -9999.25   -9999.25   -9999.25  113.96530   -9999.25   -9999.25   -9999.25  122.51200   -9999.25 5298.54000
 5976.50000    5.15030    5.48890    5.62610    8.02150    7.94120   -9999.25   -9999.25   -9999.25   -9999.25  111.57350   -9999.25   -9999.25   -9999.25  102.19240   -9999.25 5302.89450
 5977.00000    6.37260    6.45170    7.16210    8.78700    9.45990   -9999.25   -9999.25   -9999.25   -9999.25  109.00770   -9999.25   -9999.25   -9999.25   90.47790   -9999.25 5307.24850
 5977.50000    7.35700    7.90540    8.46730    9.31640   10.22910   -9999.25   -9999.25   -9999.25   -9999.25  102.97560   -9999.25   -9999.25   -9999.25   82.09780   -9999.25 5311.60250
 5978.00000    8.49350    8.98100    9.19660    9.84580   10.10190   -9999.25   -9999.25   -9999.25   -9999.25   95.63640   -9999.25   -9999.25   -9999.25  114.96000   -9999.25 5315.95650
 5978.50000    8.85540    9.28710    9.42070   10.37520   10.02860   -9999.25   -9999.25   -9999.25   -9999.25   84.50150   -9999.25   -9999.25   -9999.25  141.02170   -9999.25 5319.10640
 5979.00000    9.08230    9.42810    9.44600   10.68960   10.84000   -9999.25   -9999.25   -9999.25   -9999.25   75.53360   -9999.25   -9999.25   -9999.25  136.28320   -9999.25 5317.76070
 5979.50000    8.37060    9.15650    9.34610   10.77180   10.90140   -9999.25   -9999.25   -9999.25   -9999.25   71.52570   -9999.25   -9999.25   -9999.25  135.62510   -9999.25 5316.07760
 5980.00000    7.88950    8.76220    9.24930   10.77470   10.94950   -9999.25   -9999.25   -9999.25   -9999.25   66.93540   -9999.25   -9999.25   -9999.25   89.55650   -9999.25 5311.13670
 5980.50000    8.04230    8.50490    9.17350   10.77180   11.08510   -9999.25   -9999.25   -9999.25   -9999.25   65.99080   -9999.25   -9999.25   -9999.25   97.66560   -9999.25 5294.83010
 5981.00000    8.20810    8.50210    9.15400   10.76890   11.30090   -9999.25   -9999.25   -9999.25   -9999.25   66.51310   -9999.25   -9999.25   -9999.25  111.40230   -9999.25 5278.52290
 5981.50000    8.28650    8.75410    9.33150   10.76590   11.87250   -9999.25   -9999.25   -9999.25   -9999.25   66.72070   -9999.25   -9999.25   -9999.25  109.42580   -9999.25 5262.21580
 5982.00000    8.24200    8.81640    9.40200   10.76280   11.17520   -9999.25   -9999.25   -9999.25   -9999.25   65.79860   -9999.25   -9999.25   -9999.25   91.56870   -9999.25 5272.37550
 5982.50000    8.19930    8.81380    9.31300   10.75970   10.89580   -9999.25   -9999.25   -9999.25   -9999.25   65.39110   -9999.25   -9999.25   -9999.25   79.93170   -9999.25 5304.88040
 5983.00000    8.15690    8.61800    8.98320   10.29030   10.89480   -9999.25   -9999.25   -9999.25   -9999.25   64.69310   -9999.25   -9999.25   -9999.25   90.59360   -9999.25 5337.38480
 5983.50000    8.03880    8.10440    8.61180    9.76850   10.72050   -9999.25   -9999.25   -9999.25   -9999.25   65.16530   -9999.25   -9999.25   -9999.25   92.82610   -9999.25 5369.88960
