~Version ---------------------------------------------------
VERS.   2.0 : CWLS log ASCII Standard -VERSION 2.0
WRAP.    NO : One line per depth step
DLM . SPACE : Column Data Section Delimiter
~Well ------------------------------------------------------
STRT .FT                910.0 : START DEPTH
STOP .FT              11772.0 : STOP DEPTH
STEP .FT                  0.5 : STEP
NULL .               -9999.25 : NULL VALUE
COMP .                        : COMPANY
WELL .                        : WELL
FLD  .                        : FIELD
LOC  .                        : LOCATION
PROV .                        : PROVINCE
CNTY .                        : COUNTY
STAT .                        : STATE
CTRY .                        : COUNTRY
SRVC .                        : SERVICE COMPANY
DATE .                        : DATE
UWI  .                        : UNIQUE WELL ID
API  .                        : API NUMBER
SLAT .WGS84 4.305101828744895 : SURFACE LATITUDE
SLON .WGS84 1.260152626523805 : SURFACE LONGITUDE
DATUM.F                   nan : DEPTH DATUM ELEV
~Curve Information -----------------------------------------
DEPT  .FT     : Depth FEET
AT10  .OHMM   : ARRAY INDUCTION TWO FOOT RESISTIVITY A10
AT20  .OHMM   : ARRAY INDUCTION TWO FOOT RESISTIVITY A20
AT30  .OHMM   : ARRAY INDUCTION TWO FOOT RESISTIVITY A30
AT60  .OHMM   : ARRAY INDUCTION TWO FOOT RESISTIVITY A60
AT90  .OHMM   : ARRAY INDUCTION TWO FOOT RESISTIVITY A90
CALR  .IN     : CALIPER FROM RESISTIVITY LOG
DPHZLS.V/V    : DENSITY POROSITY LIMESTONE
DTCO  .US/F   : DELTA-T COMPRESSIONAL
DTSM  .US/F   : DELTA-T SHEAR
GR    .GAPI   : GAMMA RAY
GRR   .GAPI   : GAMMA RAY FROM RESISTIVITY LOG
NPORLS.V/V    : NEUTRON POROSITY LIMESTONE
PEFZ  .B/E    : HRDD STANDARD RESOLUTION FORMATION PHOTOELECTRIC FACTOR
ROP   .FT/HR  : RATE OF PENETRATION
SPHILS.V/V    : SONIC POROSITY
TENR  .LB     : TENSION FROM RESISTIVITY LOG
~Params ----------------------------------------------------
~Other -----------------------------------------------------
~ASCII -----------------------------------------------------
# ...
 4952.00000    1.54530    1.62900    1.66110    1.79350    1.77750    9.97170    0.15470  110.22870   -9999.25   -9999.25  139.29520    0.43950    3.21600   -9999.25   -9999.25 3856.96750
 4952.50000    1.66930    1.71540    1.75370    1.97450    1.90510    9.93950    0.16060  110.46730   -9999.25   -9999.25  138.60460    0.42070    3.15140   -9999.25   -9999.25 3859.84130
 4953.00000    1.79220    1.77990    1.88340    2.01680    2.06830    9.89160    0.16790  109.26380   -9999.25   -9999.25  132.93100    0.48220    3.08870   -9999.25   -9999.25 3862.71530
 4953.50000    1.77570    1.80630    1.93660    2.01190    2.07970    9.79460    0.16790  108.03400   -9999.25   -9999.25  131.17540    0.50530    3.13850   -9999.25   -9999.25 3865.58910
 4954.00000    1.80860    1.83930    1.93490    2.00700    2.07410    9.71340    0.13390  106.38320   -9999.25   -9999.25  128.35780    0.46310    3.33950   -9999.25   -9999.25 3868.46290
 4954.50000    1.85660    1.87050    1.92920    2.00310    2.08160    9.63190    0.09980  105.62720   -9999.25   -9999.25  127.01140    0.38550    3.61440   -9999.25   -9999.25 3871.33690
 4955.00000    1.85660    1.90170    1.92360    2.03270    2.08910    9.52100    0.09800  105.54640   -9999.25   -9999.25  125.27020    0.36530    3.73990   -9999.25   -9999.25 3874.21070
 4955.50000    1.85650    1.91560    1.94050    2.04750    2.09660    9.50500    0.11950  108.80440   -9999.25   -9999.25  122.95140    0.38930    3.64010   -9999.25   -9999.25 3875.12430
 4956.00000    1.85650    1.88730    1.96160    2.04730    2.08540    9.54380    0.14870  105.24140   -9999.25   -9999.25  123.28700    0.38040    3.38910   -9999.25   -9999.25 3842.42260
 4956.50000    1.79220    1.84560    1.93760    2.02100    2.03890    9.58250    0.15750  105.90350   -9999.25   -9999.25  123.41040    0.37600    3.22870   -9999.25   -9999.25 3845.06180
 4957.00000    1.73290    1.80490    1.90860    2.00250    2.02020    9.64290    0.15390  106.98650   -9999.25   -9999.25  126.49940    0.40000    3.26390   -9999.25   -9999.25 3847.98000
 4957.50000    1.68210    1.80470    1.88000    1.98390    2.02570    9.64350    0.14380  107.05040   -9999.25   -9999.25  127.32720    0.46420    3.35510   -9999.25   -9999.25 3850.89820
 4958.00000    1.69030    1.80450    1.85190    1.96540    2.03120    9.66550    0.13360  106.44980   -9999.25   -9999.25  130.77920    0.45730    3.50670   -9999.25   -9999.25 3853.81640
 4958.50000    1.70530    1.80430    1.82410    1.94680    2.03670    9.70640    0.13510  105.94850   -9999.25   -9999.25  132.51120    0.42540    3.65220   -9999.25   -9999.25 3856.73460
 4959.00000    1.69570    1.79080    1.79680    1.92830    2.04230    9.76450    0.14100  107.09820   -9999.25   -9999.25  129.14580    0.40470    3.69370   -9999.25   -9999.25 3859.65260
 4959.50000    1.68620    1.77760    1.77000    1.92810    2.04780    9.84390    0.14650  109.24330   -9999.25   -9999.25  125.62220    0.48050    3.64630   -9999.25   -9999.25 3862.57080
 4960.00000    1.68000    1.76430    1.75620    1.94220    2.05340    9.90950    0.15030  109.08600   -9999.25   -9999.25  126.99580    0.47320    3.53470   -9999.25   -9999.25 3865.48900
 4960.50000    1.67490    1.76410    1.74490    1.97110    2.05880    9.97560    0.15620  108.92740   -9999.25   -9999.25  134.26240    0.47250    3.42300   -9999.25   -9999.25 3868.40720
 4961.00000    1.67310    1.80370    1.78150    2.00050    2.05880   10.05140    0.15240  107.90500   -9999.25   -9999.25  135.97500    0.46160    3.36550   -9999.25   -9999.25 3871.32520
 4961.50000    1.74030    1.87170    1.85690    2.03030    2.05880   10.15560    0.14360  109.61760   -9999.25   -9999.25  136.42700    0.47680    3.44170   -9999.25   -9999.25 3874.24340
 4962.00000    1.84510    1.92790    1.95160    2.06060    2.05880   10.28490    0.14180  109.72540   -9999.25   -9999.25  133.25860    0.45550    3.60090   -9999.25   -9999.25 3877.16160
 4962.50000    1.81930    1.95660    1.94440    2.07590    2.04570   10.43460    0.14360  108.25390   -9999.25   -9999.25  130.94200    0.47170    3.76000   -9999.25   -9999.25 3880.07980
 4963.00000    1.77500    1.95660    1.90990    2.07590    2.02270   10.35430    0.14520  109.31650   -9999.25   -9999.25  129.60040    0.44710    3.94990   -9999.25   -9999.25 3882.99800
 4963.50000    1.73510    1.90690    1.88870    2.07590    2.02650   10.40050    0.14750  109.95720   -9999.25   -9999.25  129.73060    0.42630    3.81610   -9999.25   -9999.25 3885.91630
 4964.00000    1.78400    1.87210    1.91380    2.04590    2.04330   10.43460    0.14670  108.25030   -9999.25   -9999.25  130.21140    0.39930    3.53020   -9999.25   -9999.25 3888.83450
 4964.50000    1.84420    1.84420    1.97870    2.01580    2.10270   10.40950    0.14430  104.96210   -9999.25   -9999.25  129.64040    0.41200    3.35320   -9999.25   -9999.25 3891.75240
 4965.00000    1.92200    1.85790    2.02000    1.98580    2.14030   10.37200    0.13980  107.50800   -9999.25   -9999.25  129.04120    0.43870    3.21160   -9999.25   -9999.25 3894.67070
 4965.50000    1.81380    1.89960    1.90660    1.98580    2.05480   10.37220    0.14060  106.82820   -9999.25   -9999.25  127.09680    0.41710    3.17740   -9999.25   -9999.25 3897.58890
 4966.00000    1.69130    1.87170    1.79000    2.00050    1.89830   10.41350    0.15070  107.34180   -9999.25   -9999.25  125.56220    0.47830    3.14790   -9999.25   -9999.25 3900.50710
 4966.50000    1.66980    1.80370    1.75370    2.00050    1.81930   10.46280    0.15530  109.41020   -9999.25   -9999.25  125.35460    0.51810    3.11580   -9999.25   -9999.25 3903.42530
 4967.00000    1.72140    1.80370    1.79580    1.98870    1.94470   10.49190    0.16060  108.17800   -9999.25   -9999.25  127.68800    0.48210    3.09580   -9999.25   -9999.25 3906.34350
 4967.50000    1.77470    1.82770    1.88000    1.98580    2.01580   10.50460    0.15940  107.32780   -9999.25   -9999.25  133.34320    0.43730    3.06370   -9999.25   -9999.25 3909.26170
 4968.00000    1.81920    1.89960    1.90930    1.98580    1.99040   10.51630    0.15360  106.83460   -9999.25   -9999.25  129.95060    0.40720    3.05820   -9999.25   -9999.25 3912.17970
 4968.50000    1.84190    1.84420    1.90160    1.97490    1.95650   10.53510    0.14710  106.57630   -9999.25   -9999.25  128.47380    0.42610    3.08480   -9999.25   -9999.25 3914.31250
 4969.00000    1.75180    1.79040    1.88380    1.96400    1.92320   10.54610    0.14780  109.94700   -9999.25   -9999.25  126.84580    0.39550    3.16540   -9999.25   -9999.25 3910.85840
 4969.50000    1.69370    1.76410    1.86610    1.95310    1.90470   10.53310    0.15350  108.79300   -9999.25   -9999.25  127.69660    0.41370    3.27170   -9999.25   -9999.25 3906.91630
 4970.00000    1.75760    1.76410    1.84860    1.94220    1.90040   10.50290    0.15940  108.74300   -9999.25   -9999.25  127.99560    0.42710    3.37810   -9999.25   -9999.25 3902.97410
 4970.50000    1.77710    1.76410    1.83280    1.94220    1.89440   10.46320    0.16120  109.73500   -9999.25   -9999.25  125.70980    0.45470    3.57520   -9999.25   -9999.25 3899.03170
 4971.00000    1.74640    1.76410    1.81730    1.94220    1.88120   10.42840    0.15240  109.88310   -9999.25   -9999.25  125.95460    0.44380    3.79300   -9999.25   -9999.25 3895.08960
 4971.50000    1.71720    1.80370    1.80190    1.94220    1.86640   10.34140    0.13920  110.11720   -9999.25   -9999.25  128.11180    0.40730    3.94970   -9999.25   -9999.25 3891.14750
 4972.00000    1.67850    1.77720    1.76380    1.94220    1.83990   10.29930    0.12410  110.64030   -9999.25   -9999.25  131.36900    0.39840    3.99950   -9999.25   -9999.25 3887.20510
 4972.50000    1.61010    1.70000    1.69970    1.87700    1.81390   10.34340    0.11940  110.98860   -9999.25   -9999.25  135.35860    0.41650    3.88370   -9999.25   -9999.25 3883.26290
 4973.00000    1.58350    1.68750    1.65110    1.81590    1.78660   10.31960    0.12560  110.16690   -9999.25   -9999.25  134.06600    0.43150    3.74280   -9999.25   -9999.25 3879.32080
