~Version ---------------------------------------------------
VERS.   2.0 : CWLS log ASCII Standard -VERSION 2.0
WRAP.    NO : One line per depth step
DLM . SPACE : Column Data Section Delimiter
~Well ------------------------------------------------------
STRT .FT                910.0 : START DEPTH
STOP .FT              11772.0 : STOP DEPTH
STEP .FT                  0.5 : STEP
NULL .               -9999.25 : NULL VALUE
COMP .                        : COMPANY
WELL .                        : WELL
FLD  .                        : FIELD
LOC  .                        : LOCATION
PROV .                        : PROVINCE
CNTY .                        : COUNTY
STAT .                        : STATE
CTRY .                        : COUNTRY
SRVC .                        : SERVICE COMPANY
DATE .                        : DATE
UWI  .                        : UNIQUE WELL ID
API  .                        : API NUMBER
SLAT .WGS84 4.305101828744895 : SURFACE LATITUDE
SLON .WGS84 1.260152626523805 : SURFACE LONGITUDE
DATUM.F                   nan : DEPTH DATUM ELEV
~Curve Information -----------------------------------------
DEPT  .FT     : Depth FEET
AT10  .OHMM   : ARRAY INDUCTION TWO FOOT RESISTIVITY A10
AT20  .OHMM   : ARRAY INDUCTION TWO FOOT RESISTIVITY A20
AT30  .OHMM   : ARRAY INDUCTION TWO FOOT RESISTIVITY A30
AT60  .OHMM   : ARRAY INDUCTION TWO FOOT RESISTIVITY A60
AT90  .OHMM   : ARRAY INDUCTION TWO FOOT RESISTIVITY A90
CALR  .IN     : CALIPER FROM RESISTIVITY LOG
DPHZLS.V/V    : DENSITY POROSITY LIMESTONE
DTCO  .US/F   : DELTA-T COMPRESSIONAL
DTSM  .US/F   : DELTA-T SHEAR
GR    .GAPI   : GAMMA RAY
GRR   .GAPI   : GAMMA RAY FROM RESISTIVITY LOG
NPORLS.V/V    : NEUTRON POROSITY LIMESTONE
PEFZ  .B/E    : HRDD STANDARD RESOLUTION FORMATION PHOTOELECTRIC FACTOR
ROP   .FT/HR  : RATE OF PENETRATION
SPHILS.V/V    : SONIC POROSITY
TENR  .LB     : TENSION FROM RESISTIVITY LOG
~Params ----------------------------------------------------
~Other -----------------------------------------------------
~ASCII -----------------------------------------------------
# ...
 5618.50000    1.59580    1.63210    1.65130    1.68740    1.76950    9.39300    0.14430  106.43470   -9999.25   -9999.25  109.35840    0.36990    3.47790  253.63330   -9999.25 4549.29350
 5619.00000    1.49880    1.56930    1.59300    1.63400    1.66970    9.52670    0.13940  106.99180   -9999.25   -9999.25  113.82000    0.37110    3.55890  241.06760   -9999.25 4604.05910
 5619.50000    1.42050    1.50650    1.49960    1.58060    1.56870    9.99040    0.13910  104.98050   -9999.25   -9999.25  118.31160    0.35770    3.45490  233.62630   -9999.25 4614.06590
 5620.00000    1.39620    1.46120    1.45710    1.52720    1.51420    9.86280    0.14430  105.11590   -9999.25   -9999.25  123.63400    0.37760    3.29550  233.06460   -9999.25 4603.83350
 5620.50000    1.38370    1.45130    1.43630    1.50600    1.49540    9.57990    0.14960  105.96800   -9999.25   -9999.25  130.45120    0.36920    3.16950  238.74700   -9999.25 4580.28030
 5621.00000    1.38310    1.45160    1.46040    1.51760    1.52770    9.58790    0.14910  107.01290   -9999.25   -9999.25  136.31280    0.37790    3.13370  208.20990   -9999.25 4556.72750
 5621.50000    1.41550    1.45200    1.50410    1.51790    1.60210    9.60960    0.14510  108.02680   -9999.25   -9999.25  137.47540    0.39400    3.10020  180.17790   -9999.25 4533.17430
 5622.00000    1.46840    1.46300    1.53780    1.55240    1.60350    9.62230    0.14510  108.75730   -9999.25   -9999.25  135.16160    0.43390    3.05830  167.91660   -9999.25 4509.62110
 5622.50000    1.45850    1.47430    1.52310    1.56430    1.60380    9.63930    0.15490  108.75980   -9999.25   -9999.25  131.06680    0.46520    2.99490  164.35610   -9999.25 4499.69380
 5623.00000    1.45770    1.49660    1.50860    1.61670    1.62160    9.62860    0.16390  108.62890   -9999.25   74.21740  130.04440    0.42260    2.93820  187.92720   -9999.25 4498.67720
 5623.50000    1.53180    1.56580    1.59050    1.66760    1.67870    9.61930    0.16180  108.98460   -9999.25   74.59560  128.35000    0.44820    3.00740  240.99420   -9999.25 4528.26860
 5624.00000    1.60890    1.63650    1.68840    1.72360    1.74380    9.57730    0.14930  107.52490   -9999.25   73.33400  127.38500    0.42960    3.12770  247.35380   -9999.25 4557.85940
 5624.50000    1.57670    1.62480    1.65640    1.73670    1.72140    9.59410    0.13720  106.92920   -9999.25   75.43670  126.94220    0.40330    3.26230  253.80830   -9999.25 4563.77780
 5625.00000    1.51980    1.60120    1.62500    1.72590    1.68600    9.64630    0.13370  106.65430   -9999.25   73.08870  127.91900    0.40360    3.32150  251.02480   -9999.25 4563.77780
 5625.50000    1.48210    1.56640    1.59420    1.69830    1.65140    9.71120    0.13820  106.59840   -9999.25   72.41000  129.01520    0.41790    3.30210  219.69770   -9999.25 4563.77780
 5626.00000    1.45010    1.55530    1.57010    1.67070    1.64050    9.80720    0.14810  106.73280   -9999.25   72.83360  129.04020    0.40700    3.30790  229.65570   -9999.25 4563.77780
 5626.50000    1.44700    1.53650    1.55510    1.64300    1.64350    9.90580    0.15370  106.73410   -9999.25   71.10620  126.96040    0.43000    3.45310  228.73000   -9999.25 4563.77780
 5627.00000    1.52750    1.53300    1.58940    1.62650    1.66690    9.98440    0.13910  106.14810   -9999.25   70.86230  123.43020    0.45500    3.77810  226.42010   -9999.25 4563.77780
 5627.50000    1.62390    1.64900    1.70520    1.74890    1.76620    9.99370    0.10980  106.04330   -9999.25   70.96550  119.32260    0.43820    3.90160  238.35050   -9999.25 4557.08150
 5628.00000    1.77700    1.73940    1.82950    1.85920    2.02090    9.72190    0.09380  106.53310   -9999.25   71.73600  123.41600    0.40770    3.73380  253.17230   -9999.25 4556.06930
 5628.50000    1.66150    1.73970    1.75940    1.84580    1.91140    9.92150    0.11960  106.70840   -9999.25   72.01690  127.14320    0.47880    3.57240  247.83690   -9999.25 4554.94970
 5629.00000    1.48900    1.61150    1.61980    1.70920    1.70650    9.98610    0.14550  106.86670   -9999.25   73.27950  126.95400    0.48190    3.68300  238.48090   -9999.25 4553.93750
 5629.50000    1.43290    1.48220    1.49130    1.58620    1.59780    9.78170    0.15230  107.17340   -9999.25   72.79350  121.08620    0.45490    3.76710  245.71940   -9999.25 4553.52980
 5630.00000    1.41400    1.38400    1.47840    1.49030    1.55570    9.73360    0.13760  107.32950   -9999.25   70.63840  122.77040    0.43620    3.60740  251.51860   -9999.25 4552.31590
 5630.50000    1.42180    1.41470    1.46990    1.53460    1.57270    9.64530    0.13350  107.46670   -9999.25   69.81240  127.36460    0.41750    3.51090  252.23800   -9999.25 4577.24760
 5631.00000    1.45770    1.48810    1.51020    1.60380    1.61230    9.62800    0.13800  106.27640   -9999.25   71.18330  133.38960    0.39490    3.39230  257.22230   -9999.25 4587.21830
 5631.50000    1.49620    1.54010    1.55290    1.62720    1.65290    9.67570    0.13000  103.98340   -9999.25   74.77670  129.93620    0.41520    3.37090  251.88710   -9999.25 4597.18950
 5632.00000    1.54060    1.59220    1.59670    1.66310    1.69460    9.70220    0.11450  105.29190   -9999.25   75.67870  128.86820    0.41000    3.40010  245.94350   -9999.25 4607.16020
 5632.50000    1.58630    1.60220    1.63930    1.66250    1.71250    9.56630    0.09150  105.45930   -9999.25   76.60360  124.76060    0.36360    3.50800  247.39420   -9999.25 4617.13130
 5633.00000    1.60060    1.60160    1.66340    1.66200    1.71020    9.40560    0.07390  105.97600   -9999.25   76.94590  125.57760    0.32840    3.55930  245.70940   -9999.25 4627.10250
 5633.50000    1.54450    1.55050    1.59280    1.66140    1.63460    9.41690    0.07180  106.15740   -9999.25   76.18620  125.21080    0.36980    3.43690  200.85170   -9999.25 4637.07320
 5634.00000    1.42740    1.47290    1.48940    1.58430    1.49320    9.46160    0.09460  106.25890   -9999.25   77.10050  126.86580    0.35520    3.28700   83.91590   -9999.25 4647.04440
 5634.50000    1.35310    1.39530    1.39760    1.49700    1.44420    9.46350    0.11280  106.83340   -9999.25   74.93380  128.30020    0.36140    3.15740   68.61230   -9999.25 4657.01560
 5635.00000    1.34270    1.37940    1.41890    1.49650    1.47040    9.57460    0.13690  107.64890   -9999.25   73.75450  124.34360    0.38150    3.12820   69.11770   -9999.25 4666.98630
 5635.50000    1.37860    1.42360    1.45560    1.52740    1.49710    9.55240    0.14680  107.35220   -9999.25   76.85680  121.87240    0.40680    3.33390   62.01350   -9999.25 4676.95750
 5636.00000    1.43630    1.46330    1.49090    1.57760    1.53880    9.58650    0.14530  106.69390   -9999.25   81.76850  122.35540    0.43960    3.59800  136.22880   -9999.25 4686.92820
 5636.50000    1.47380    1.49510    1.52710    1.62780    1.60500    9.61840    0.13420  106.15330   -9999.25   86.08130  125.61560    0.44550    3.79410  179.58110   -9999.25 4695.24660
 5637.00000    1.50560    1.53960    1.56430    1.65780    1.68530    9.57320    0.12150  106.13030   -9999.25   85.56970  127.68820    0.35730    3.78070  171.58910   -9999.25 4696.93850
 5637.50000    1.52310    1.52760    1.58630    1.65720    1.65770    9.52570    0.12650  106.47290   -9999.25   85.84230  126.82140    0.37420    3.53940  161.59910   -9999.25 4656.31690
 5638.00000    1.46440    1.47170    1.53750    1.63540    1.61240    9.50440    0.14140  106.62450   -9999.25   87.12990  126.57380    0.39420    3.27440  152.29670   -9999.25 4636.51030
 5638.50000    1.42040    1.46020    1.49010    1.61970    1.58410    9.60430    0.15890  107.49590   -9999.25   88.46250  121.89920    0.35470    3.05350  149.78820   -9999.25 4616.70360
 5639.00000    1.46090    1.51990    1.52390    1.63120    1.62900    9.71470    0.15850  108.16120   -9999.25   89.92380  119.21320    0.38960    2.94560  152.01590   -9999.25 4596.89700
 5639.50000    1.56700    1.60160    1.65280    1.78230    1.76280    9.74890    0.15000  107.43020   -9999.25   90.80960  118.54440    0.42810    3.06220  158.09990   -9999.25 4577.09080
