~Version ---------------------------------------------------
VERS.   2.0 : CWLS log ASCII Standard -VERSION 2.0
WRAP.    NO : One line per depth step
DLM . SPACE : Column Data Section Delimiter
~Well ------------------------------------------------------
STRT .FT                910.0 : START DEPTH
STOP .FT              11772.0 : STOP DEPTH
STEP .FT                  0.5 : STEP
NULL .               -9999.25 : NULL VALUE
COMP .                        : COMPANY
WELL .                        : WELL
FLD  .                        : FIELD
LOC  .                        : LOCATION
PROV .                        : PROVINCE
CNTY .                        : COUNTY
STAT .                        : STATE
CTRY .                        : COUNTRY
SRVC .                        : SERVICE COMPANY
DATE .                        : DATE
UWI  .                        : UNIQUE WELL ID
API  .                        : API NUMBER
SLAT .WGS84 4.305101828744895 : SURFACE LATITUDE
SLON .WGS84 1.260152626523805 : SURFACE LONGITUDE
DATUM.F                   nan : DEPTH DATUM ELEV
~Curve Information -----------------------------------------
DEPT  .FT     : Depth FEET
AT10  .OHMM   : ARRAY INDUCTION TWO FOOT RESISTIVITY A10
AT20  .OHMM   : ARRAY INDUCTION TWO FOOT RESISTIVITY A20
AT30  .OHMM   : ARRAY INDUCTION TWO FOOT RESISTIVITY A30
AT60  .OHMM   : ARRAY INDUCTION TWO FOOT RESISTIVITY A60
AT90  .OHMM   : ARRAY INDUCTION TWO FOOT RESISTIVITY A90
CALR  .IN     : CALIPER FROM RESISTIVITY LOG
DPHZLS.V/V    : DENSITY POROSITY LIMESTONE
DTCO  .US/F   : DELTA-T COMPRESSIONAL
DTSM  .US/F   : DELTA-T SHEAR
GR    .GAPI   : GAMMA RAY
GRR   .GAPI   : GAMMA RAY FROM RESISTIVITY LOG
NPORLS.V/V    : NEUTRON POROSITY LIMESTONE
PEFZ  .B/E    : HRDD STANDARD RESOLUTION FORMATION PHOTOELECTRIC FACTOR
ROP   .FT/HR  : RATE OF PENETRATION
SPHILS.V/V    : SONIC POROSITY
TENR  .LB     : TENSION FROM RESISTIVITY LOG
~Params ----------------------------------------------------
~Other -----------------------------------------------------
~ASCII -----------------------------------------------------
# ...
 3296.50000    2.63130    2.69580    2.84310    3.13300    3.24940    8.67120    0.11540  105.44020  221.98680   -9999.25  132.94580    0.37630    3.45310   -9999.25   -9999.25 2809.11670
 3297.00000    2.62430    2.69660    2.81710    3.13270    3.25400    8.66470    0.12090  105.71050  224.43090   -9999.25  129.85020    0.36840    3.48340   -9999.25   -9999.25 2809.11670
 3297.50000    2.61490    2.71740    2.79430    3.13240    3.25860    8.72010    0.12340  104.53010  225.08080   -9999.25  129.80980    0.35810    3.48680   -9999.25   -9999.25 2804.32620
 3298.00000    2.64520    2.74370    2.77390    3.13210    3.26320    8.75180    0.11560  105.23400  225.74890   -9999.25  131.27240    0.37850    3.48250   -9999.25   -9999.25 2804.32620
 3298.50000    2.67580    2.80830    2.81780    3.13180    3.28410    8.77440    0.11010  102.83040  226.69730   -9999.25  131.47780    0.32720    3.47560   -9999.25   -9999.25 2804.32620
 3299.00000    2.71530    2.87280    2.90310    3.13150    3.33160    8.79970    0.10840  104.75470  232.58520   -9999.25  129.68040    0.35080    3.46010   -9999.25   -9999.25 2804.32620
 3299.50000    2.75990    2.90790    2.97350    3.13120    3.37980    8.84640    0.11520  103.42790  231.62550   -9999.25  126.57400    0.38180    3.48390   -9999.25   -9999.25 2804.32620
 3300.00000    2.80530    2.99600    3.02630    3.17140    3.42870    8.89310    0.11780  103.72070  228.67120   -9999.25  127.15040    0.41340    3.56530   -9999.25   -9999.25 2799.53960
 3300.50000    2.82630    3.03980    2.98380    3.22160    3.41830    8.93080    0.11960  103.67750  224.09080   -9999.25  129.95040    0.40820    3.64220   -9999.25   -9999.25 2799.53960
 3301.00000    2.77300    3.03880    2.95070    3.27190    3.34610    8.92640    0.12020  103.78440  224.50790   -9999.25  132.81960    0.38390    3.69390   -9999.25   -9999.25 2799.53960
 3301.50000    2.73600    3.01560    2.92510    3.24690    3.26290    8.92140    0.11750  103.89010  227.48900   -9999.25  133.79540    0.39440    3.72720   -9999.25   -9999.25 2799.53960
 3302.00000    2.71010    2.94860    2.89970    3.15130    3.18180    8.93740    0.11170  103.44300  229.28480   -9999.25  131.03840    0.38740    3.70620   -9999.25   -9999.25 2799.53960
 3302.50000    2.68450    2.90430    2.86710    3.10430    3.15910    8.95370    0.10540  102.65710  231.26750   -9999.25  128.69960    0.36610    3.65090   -9999.25   -9999.25 2856.83760
 3303.00000    2.71770    2.88210    2.82880    3.10320    3.16300    8.97000    0.10310  102.09710  233.16530   -9999.25  124.27660    0.38410    3.67080   -9999.25   -9999.25 2856.83760
 3303.50000    2.76940    2.88130    2.85810    3.14850    3.23930    9.00400    0.11110  102.49180  231.58650   -9999.25  124.61700    0.36580    3.72560   -9999.25   -9999.25 2856.83760
 3304.00000    2.82640    2.90180    2.94370    3.26620    3.31750    9.05010    0.11840  101.15150  227.34440   -9999.25  124.92260    0.36900    3.77390   -9999.25   -9999.25 2856.83760
 3304.50000    2.84770    2.96600    3.05110    3.36330    3.39760    9.05870    0.12300  100.71860  224.09780   -9999.25  124.89380    0.37840    3.80470   -9999.25   -9999.25 2861.76000
 3305.00000    2.85450    3.03170    3.12220    3.41240    3.47960    9.04280    0.11690  104.96190  222.88690   -9999.25  126.29060    0.37660    3.83090   -9999.25   -9999.25 2861.76000
 3305.50000    2.86130    3.03080    3.13180    3.43670    3.56400    9.10410    0.11540  105.06470  222.75470   -9999.25  127.83420    0.38130    3.81350   -9999.25   -9999.25 2861.76000
 3306.00000    2.84470    3.00760    3.12900    3.36040    3.52230    9.14550    0.11400  105.74720  223.51640   -9999.25  128.75120    0.37070    3.82170   -9999.25   -9999.25 2861.76000
 3306.50000    2.75080    2.89760    3.06740    3.28570    3.37230    9.18570    0.11040  105.90340  224.85610   -9999.25  129.55600    0.37720    3.83530   -9999.25   -9999.25 2861.76000
 3307.00000    2.72240    2.81230    3.01070    3.26050    3.33200    9.20590    0.10480  105.80660  226.92260   -9999.25  130.12100    0.38960    3.83500   -9999.25   -9999.25 2866.68630
 3307.50000    2.72530    2.79070    2.96110    3.25960    3.42980    9.23130    0.11270  104.69460  228.73160   -9999.25  130.66200    0.35950    3.75810   -9999.25   -9999.25 2866.68630
 3308.00000    2.73170    2.78970    2.91240    3.25870    3.54650    9.26190    0.13150  104.33190  230.84950   -9999.25  131.17120    0.36370    3.73360   -9999.25   -9999.25 2866.68630
 3308.50000    2.73800    2.83050    2.92940    3.25770    3.42510    9.32990    0.14670  103.83260  230.83490   -9999.25  131.71440    0.38040    3.88750   -9999.25   -9999.25 2866.68630
 3309.00000    2.74050    2.89320    2.96270    3.23270    3.33030    9.37330    0.13880  103.57900  230.26230   -9999.25  134.83360    0.40420    4.04140   -9999.25   -9999.25 2866.68630
 3309.50000    2.74010    2.95730    2.99900    3.23170    3.33900    9.29540    0.11910  103.06080  225.04630   -9999.25  134.49020    0.41750    4.11500   -9999.25   -9999.25 2871.60860
 3310.00000    2.80910    2.97640    3.04170    3.33150    3.43490    9.29190    0.10200  103.03830  221.64050   -9999.25  130.65980    0.39520    4.09720   -9999.25   -9999.25 2871.60860
 3310.50000    2.98260    3.04240    3.10520    3.47130    3.64060    9.30520    0.09880  102.91250  218.35750   -9999.25  126.52460    0.40520    4.03990   -9999.25   -9999.25 2871.60860
 3311.00000    3.02290    3.10970    3.15550    3.52670    3.68220    9.31250    0.09600  102.53770  219.31930   -9999.25  122.71680    0.40940    3.98260   -9999.25   -9999.25 2871.60860
 3311.50000    2.93490    3.13200    3.15430    3.38210    3.55960    9.32340    0.09190  101.89500  220.38380   -9999.25  122.26440    0.38380    3.92540   -9999.25   -9999.25 2871.60860
 3312.00000    2.84410    3.10800    3.10320    3.17760    3.42570    9.32420    0.08650   99.42510  219.50200   -9999.25  122.33440    0.38130    3.85820   -9999.25   -9999.25 2823.84670
 3312.50000    2.76870    3.01630    3.05280    3.17670    3.31830    9.29530    0.09450   98.38350  221.23390   -9999.25  122.61520    0.36850    3.78060   -9999.25   -9999.25 2823.84670
 3313.00000    2.73360    2.92760    2.99490    3.19950    3.30070    9.24090    0.10180   99.50550  223.18130   -9999.25  123.11860    0.37320    3.66710   -9999.25   -9999.25 2823.84670
 3313.50000    2.78850    2.90510    2.96480    3.22840    3.35830    9.20360    0.11100  101.97090  225.27970   -9999.25  124.20680    0.36660    3.61930   -9999.25   -9999.25 2823.84670
 3314.00000    2.85150    2.90420    2.98550    3.27750    3.45750    9.13350    0.11250  103.17810  228.53970   -9999.25  124.45460    0.38220    3.58340   -9999.25   -9999.25 2823.84670
 3314.50000    2.84720    2.90340    3.04510    3.32660    3.52780    9.07140    0.10890  104.05760  229.64640   -9999.25  122.66540    0.40830    3.56200   -9999.25   -9999.25 2830.43990
 3315.00000    2.84280    2.94580    3.06020    3.36570    3.44940    9.03230    0.10190  103.38810  231.23180   -9999.25  122.58340    0.38170    3.58030   -9999.25   -9999.25 2830.43990
 3315.50000    2.83840    3.01110    3.05530    3.36460    3.32150    9.01970    0.09510  102.38020  234.36660   -9999.25  123.45680    0.33510    3.64680   -9999.25   -9999.25 2830.43990
 3316.00000    2.83410    3.01020    3.05050    3.29010    3.32140    9.01860    0.09060  104.22170  234.04370   -9999.25  124.70700    0.36720    3.65480   -9999.25   -9999.25 2830.43990
 3316.50000    2.83350    3.00930    3.04560    3.29010    3.31130    9.01780    0.08930  104.67690  231.49770   -9999.25  124.22380    0.37730    3.63510   -9999.25   -9999.25 2830.43990
 3317.00000    2.83620    3.00840    3.04080    3.29010    3.29380    9.01740    0.09340  104.54640  229.88660   -9999.25  122.53380    0.41020    3.54570   -9999.25   -9999.25 2837.03320
 3317.50000    2.83890    3.00740    3.03600    3.29010    3.27630    9.01710    0.10890  104.77840  231.37840   -9999.25  125.26600    0.42190    3.64190   -9999.25   -9999.25 2837.03320
