~Version ---------------------------------------------------
VERS.   2.0 : CWLS log ASCII Standard -VERSION 2.0
WRAP.    NO : One line per depth step
DLM . SPACE : Column Data Section Delimiter
~Well ------------------------------------------------------
STRT .FT                910.0 : START DEPTH
STOP .FT              11772.0 : STOP DEPTH
STEP .FT                  0.5 : STEP
NULL .               -9999.25 : NULL VALUE
COMP .                        : COMPANY
WELL .                        : WELL
FLD  .                        : FIELD
LOC  .                        : LOCATION
PROV .                        : PROVINCE
CNTY .                        : COUNTY
STAT .                        : STATE
CTRY .                        : COUNTRY
SRVC .                        : SERVICE COMPANY
DATE .                        : DATE
UWI  .                        : UNIQUE WELL ID
API  .                        : API NUMBER
SLAT .WGS84 4.305101828744895 : SURFACE LATITUDE
SLON .WGS84 1.260152626523805 : SURFACE LONGITUDE
DATUM.F                   nan : DEPTH DATUM ELEV
~Curve Information -----------------------------------------
DEPT  .FT     : Depth FEET
AT10  .OHMM   : ARRAY INDUCTION TWO FOOT RESISTIVITY A10
AT20  .OHMM   : ARRAY INDUCTION TWO FOOT RESISTIVITY A20
AT30  .OHMM   : ARRAY INDUCTION TWO FOOT RESISTIVITY A30
AT60  .OHMM   : ARRAY INDUCTION TWO FOOT RESISTIVITY A60
AT90  .OHMM   : ARRAY INDUCTION TWO FOOT RESISTIVITY A90
CALR  .IN     : CALIPER FROM RESISTIVITY LOG
DPHZLS.V/V    : DENSITY POROSITY LIMESTONE
DTCO  .US/F   : DELTA-T COMPRESSIONAL
DTSM  .US/F   : DELTA-T SHEAR
GR    .GAPI   : GAMMA RAY
GRR   .GAPI   : GAMMA RAY FROM RESISTIVITY LOG
NPORLS.V/V    : NEUTRON POROSITY LIMESTONE
PEFZ  .B/E    : HRDD STANDARD RESOLUTION FORMATION PHOTOELECTRIC FACTOR
ROP   .FT/HR  : RATE OF PENETRATION
SPHILS.V/V    : SONIC POROSITY
TENR  .LB     : TENSION FROM RESISTIVITY LOG
~Params ----------------------------------------------------
~Other -----------------------------------------------------
~ASCII -----------------------------------------------------
# ...
 4629.50000    1.60960    1.73820    1.69930    1.89440    1.85450    9.06240    0.13000  107.73340   -9999.25   -9999.25  131.04660    0.32840    3.16450   -9999.25   -9999.25 3560.71240
 4630.00000    1.57890    1.73820    1.70410    1.89960    1.82630    9.07510    0.13760  107.96550   -9999.25   -9999.25  130.55360    0.31030    3.19200   -9999.25   -9999.25 3560.71240
 4630.50000    1.60450    1.75110    1.71460    1.89960    1.80650    9.09200    0.14230  108.71590   -9999.25   -9999.25  127.45160    0.32320    3.22040   -9999.25   -9999.25 3560.71240
 4631.00000    1.63050    1.77720    1.72840    1.94220    1.82970    9.15150    0.14040  109.62310   -9999.25   -9999.25  124.08080    0.36370    3.30050   -9999.25   -9999.25 3560.71240
 4631.50000    1.66120    1.80370    1.74680    1.94220    1.91240    9.15840    0.14380  109.91820   -9999.25   -9999.25  123.87580    0.35970    3.37450   -9999.25   -9999.25 3560.71240
 4632.00000    1.71280    1.80370    1.77540    1.94220    2.05000    9.16120    0.14680  109.61400   -9999.25   -9999.25  127.47920    0.35740    3.37470   -9999.25   -9999.25 3560.71240
 4632.50000    1.66370    1.71860    1.73970    1.87170    1.87570    9.24200    0.15090  110.22940   -9999.25   -9999.25  131.41500    0.36340    3.30400   -9999.25   -9999.25 3560.71240
 4633.00000    1.55610    1.65050    1.68600    1.78820    1.76110    9.28990    0.15050  110.48830   -9999.25   -9999.25  131.07160    0.37870    3.22410   -9999.25   -9999.25 3560.71240
 4633.50000    1.53390    1.65050    1.65870    1.73820    1.78770    9.30100    0.14810  110.24770   -9999.25   -9999.25  126.77520    0.36080    3.20000   -9999.25   -9999.25 3560.71240
 4634.00000    1.63270    1.70000    1.67460    1.75110    1.84380    9.49770    0.14350  109.61800   -9999.25   -9999.25  124.39300    0.39680    3.22430   -9999.25   -9999.25 3560.71240
 4634.50000    1.65650    1.75110    1.69880    1.80610    1.85060    9.20220    0.14250  109.24830   -9999.25   -9999.25  122.73740    0.38970    3.25890   -9999.25   -9999.25 3560.71240
 4635.00000    1.63770    1.75110    1.72480    1.83060    1.84540    9.23430    0.14530  109.09820   -9999.25   -9999.25  125.42660    0.34360    3.30920   -9999.25   -9999.25 3560.71240
 4635.50000    1.61920    1.70050    1.74140    1.81710    1.83870    9.28390    0.14800  109.07340   -9999.25   -9999.25  126.77940    0.33940    3.36210   -9999.25   -9999.25 3560.71240
 4636.00000    1.60260    1.66270    1.74690    1.78650    1.83200    9.25430    0.14640  109.02910   -9999.25   -9999.25  127.74020    0.39440    3.41500   -9999.25   -9999.25 3560.74880
 4636.50000    1.60950    1.65050    1.75230    1.78000    1.82540    9.22030    0.14230  108.78780   -9999.25   -9999.25  130.64160    0.40380    3.44890   -9999.25   -9999.25 3560.74880
 4637.00000    1.61630    1.65050    1.75280    1.77340    1.81870    9.25270    0.13940  107.64810   -9999.25   -9999.25  131.26700    0.40260    3.45960   -9999.25   -9999.25 3560.74880
 4637.50000    1.62320    1.65050    1.75330    1.76690    1.81540    9.23890    0.13940  107.69870   -9999.25   -9999.25  130.11500    0.43040    3.42660   -9999.25   -9999.25 3560.74880
 4638.00000    1.62650    1.65050    1.75380    1.76040    1.81590    9.22310    0.13400  108.09250   -9999.25   -9999.25  124.14580    0.39740    3.38520   -9999.25   -9999.25 3560.74880
 4638.50000    1.62690    1.65050    1.75430    1.75380    1.81640    9.19200    0.13210  108.97390   -9999.25   -9999.25  123.20460    0.40900    3.36830   -9999.25   -9999.25 3560.74880
 4639.00000    1.61360    1.65050    1.75050    1.74730    1.81690    9.16340    0.13290  109.50790   -9999.25   -9999.25  123.17480    0.38330    3.36650   -9999.25   -9999.25 3560.74880
 4639.50000    1.57990    1.65050    1.72000    1.74080    1.80670    9.13470    0.14070  109.32120   -9999.25   -9999.25  127.71800    0.39070    3.36470   -9999.25   -9999.25 3560.74880
 4640.00000    1.54680    1.63830    1.69420    1.73820    1.78630    9.15080    0.14340  109.39550   -9999.25   -9999.25  128.43140    0.40840    3.34500   -9999.25   -9999.25 3560.74880
 4640.50000    1.56060    1.63830    1.69950    1.73820    1.78960    9.16830    0.13820  108.68860   -9999.25   -9999.25  128.45220    0.43170    3.30780   -9999.25   -9999.25 3560.74880
 4641.00000    1.64340    1.63830    1.74820    1.80710    1.83780    9.21700    0.13020  108.51770   -9999.25   -9999.25  124.74200    0.41150    3.29690   -9999.25   -9999.25 3560.74880
 4641.50000    1.73060    1.72540    1.81780    1.88190    1.92970    9.28590    0.12100  107.85800   -9999.25   -9999.25  121.62200    0.38650    3.33400   -9999.25   -9999.25 3560.74880
 4642.00000    1.79700    1.77720    1.89010    1.95660    2.01350    9.33730    0.11790  107.52230   -9999.25   -9999.25  120.54760    0.38870    3.37110   -9999.25   -9999.25 3560.74880
 4642.50000    1.80430    1.84420    1.92190    1.97110    2.00740    9.33170    0.12400  107.14820   -9999.25   -9999.25  122.93280    0.38700    3.41910   -9999.25   -9999.25 3560.74880
 4643.00000    1.79790    1.88560    1.90240    1.98580    1.97290    9.30570    0.13050  107.00130   -9999.25   -9999.25  123.56840    0.37510    3.49560   -9999.25   -9999.25 3560.74880
 4643.50000    1.77750    1.88560    1.86910    2.01540    1.93890    9.28840    0.13090  106.82370   -9999.25   -9999.25  119.55080    0.33650    3.52310   -9999.25   -9999.25 3560.74880
 4644.00000    1.75220    1.88560    1.84220    2.02040    1.90590    9.29310    0.12680  105.91810   -9999.25   -9999.25  119.36700    0.39930    3.54790   -9999.25   -9999.25 3560.74880
 4644.50000    1.77030    1.88560    1.84370    2.02530    1.93150    9.27520    0.12820  107.09380   -9999.25   -9999.25  121.35940    0.39480    3.54180   -9999.25   -9999.25 3560.74880
 4645.00000    1.81610    1.88560    1.88450    2.03030    2.04200    9.25730    0.13190  107.61270   -9999.25   -9999.25  127.94780    0.37650    3.55140   -9999.25   -9999.25 3560.74880
 4645.50000    1.76470    1.84420    1.86780    2.00050    1.98740    9.25480    0.13910  108.97010   -9999.25   -9999.25  126.92040    0.39030    3.55380   -9999.25   -9999.25 3560.74880
 4646.00000    1.67890    1.79110    1.78230    1.91670    1.88020    9.31740    0.14600  109.91930   -9999.25   -9999.25  125.51000    0.41510    3.50550   -9999.25   -9999.25 3560.74880
 4646.50000    1.60850    1.72820    1.70080    1.85290    1.77880    9.32630    0.14840  110.01120   -9999.25   -9999.25  123.24800    0.43360    3.40450   -9999.25   -9999.25 3553.41920
 4647.00000    1.56200    1.66530    1.62290    1.78920    1.72400    9.30910    0.14940  109.88020   -9999.25   -9999.25  123.71380    0.44790    3.37620   -9999.25   -9999.25 3546.08980
 4647.50000    1.51660    1.60230    1.59780    1.72540    1.70370    9.27500    0.14720  109.84330   -9999.25   -9999.25  128.70560    0.43550    3.35410   -9999.25   -9999.25 3538.76050
 4648.00000    1.51640    1.60230    1.63290    1.72540    1.77490    9.24100    0.14220  109.76550   -9999.25   -9999.25  123.43740    0.41790    3.33590   -9999.25   -9999.25 3531.43090
 4648.50000    1.62410    1.60230    1.65480    1.72540    1.76570    9.18930    0.13350  109.48510   -9999.25   -9999.25  122.99560    0.39670    3.33620   -9999.25   -9999.25 3527.55620
 4649.00000    1.58270    1.61420    1.65380    1.73650    1.74660    9.18000    0.13270  109.13300   -9999.25   -9999.25  119.01640    0.38680    3.32650   -9999.25   -9999.25 3528.86280
 4649.50000    1.53270    1.61420    1.64660    1.79180    1.73250    9.18440    0.13530  109.30890   -9999.25   -9999.25  120.21500    0.34390    3.40540   -9999.25   -9999.25 3530.16970
 4650.00000    1.62340    1.66960    1.69310    1.84720    1.79570    9.22200    0.14000  108.66090   -9999.25   -9999.25  121.44420    0.38390    3.53440   -9999.25   -9999.25 3531.47660
 4650.50000    1.71960    1.76540    1.81330    1.90260    1.91550    9.23600    0.13680  107.99240   -9999.25   -9999.25  122.47000    0.41830    3.69900   -9999.25   -9999.25 3532.78320
