~Version ---------------------------------------------------
VERS.   2.0 : CWLS log ASCII Standard -VERSION 2.0
WRAP.    NO : One line per depth step
DLM . SPACE : Column Data Section Delimiter
~Well ------------------------------------------------------
STRT .FT                910.0 : START DEPTH
STOP .FT              11772.0 : STOP DEPTH
STEP .FT                  0.5 : STEP
NULL .               -9999.25 : NULL VALUE
COMP .                        : COMPANY
WELL .                        : WELL
FLD  .                        : FIELD
LOC  .                        : LOCATION
PROV .                        : PROVINCE
CNTY .                        : COUNTY
STAT .                        : STATE
CTRY .                        : COUNTRY
SRVC .                        : SERVICE COMPANY
DATE .                        : DATE
UWI  .                        : UNIQUE WELL ID
API  .                        : API NUMBER
SLAT .WGS84 4.305101828744895 : SURFACE LATITUDE
SLON .WGS84 1.260152626523805 : SURFACE LONGITUDE
DATUM.F                   nan : DEPTH DATUM ELEV
~Curve Information -----------------------------------------
DEPT  .FT     : Depth FEET
AT10  .OHMM   : ARRAY INDUCTION TWO FOOT RESISTIVITY A10
AT20  .OHMM   : ARRAY INDUCTION TWO FOOT RESISTIVITY A20
AT30  .OHMM   : ARRAY INDUCTION TWO FOOT RESISTIVITY A30
AT60  .OHMM   : ARRAY INDUCTION TWO FOOT RESISTIVITY A60
AT90  .OHMM   : ARRAY INDUCTION TWO FOOT RESISTIVITY A90
CALR  .IN     : CALIPER FROM RESISTIVITY LOG
DPHZLS.V/V    : DENSITY POROSITY LIMESTONE
DTCO  .US/F   : DELTA-T COMPRESSIONAL
DTSM  .US/F   : DELTA-T SHEAR
GR    .GAPI   : GAMMA RAY
GRR   .GAPI   : GAMMA RAY FROM RESISTIVITY LOG
NPORLS.V/V    : NEUTRON POROSITY LIMESTONE
PEFZ  .B/E    : HRDD STANDARD RESOLUTION FORMATION PHOTOELECTRIC FACTOR
ROP   .FT/HR  : RATE OF PENETRATION
SPHILS.V/V    : SONIC POROSITY
TENR  .LB     : TENSION FROM RESISTIVITY LOG
~Params ----------------------------------------------------
~Other -----------------------------------------------------
~ASCII -----------------------------------------------------
# ...
 2286.00000    2.02350    2.22080    2.36040    2.65630    2.82300    8.71230    0.14950  104.22220  236.83090   -9999.25  107.70940    0.29640    2.84940   -9999.25   -9999.25 2463.42090
 2286.50000    2.02100    2.17090    2.27500    2.59570    2.76160    8.71840    0.15360  105.02790  239.00360   -9999.25  112.30380    0.30280    2.90270   -9999.25   -9999.25 2463.42090
 2287.00000    1.97390    2.12090    2.22440    2.54250    2.62130    8.69900    0.15880  105.47940  239.51590   -9999.25  110.49320    0.31570    2.97240   -9999.25   -9999.25 2463.42090
 2287.50000    1.89910    2.09510    2.18590    2.48390    2.53520    8.71610    0.15950  106.27030  239.57510   -9999.25  108.39880    0.32620    3.03700   -9999.25   -9999.25 2463.42090
 2288.00000    1.89590    2.09470    2.17330    2.42890    2.49040    8.69870    0.15880  107.31300  239.63430   -9999.25  109.68700    0.34180    3.13100   -9999.25   -9999.25 2463.42090
 2288.50000    1.92160    2.09430    2.20300    2.39280    2.55600    8.70260    0.15660  107.38460  239.69350   -9999.25  111.33500    0.31580    3.20350   -9999.25   -9999.25 2469.87430
 2289.00000    1.94790    2.09380    2.23860    2.50100    2.62770    8.71460    0.15190  107.10860   -9999.25   -9999.25  110.14020    0.29420    3.27160   -9999.25   -9999.25 2469.87430
 2289.50000    1.99820    2.09340    2.26430    2.63350    2.68400    8.72780    0.14500  107.10820   -9999.25   -9999.25  105.33160    0.31060    3.22130   -9999.25   -9999.25 2469.87430
 2290.00000    2.01990    2.09340    2.35820    2.63320    2.73330    8.74170    0.14030  107.25030   -9999.25   -9999.25  103.73460    0.31010    3.13450   -9999.25   -9999.25 2469.87430
 2290.50000    1.99610    2.09160    2.33750    2.60250    2.73980    8.75570    0.14090  107.41790   -9999.25   -9999.25  103.51380    0.30270    3.08000   -9999.25   -9999.25 2469.87430
 2291.00000    1.97350    2.09080    2.28280    2.55400    2.64590    8.76900    0.14710  107.24760   -9999.25   -9999.25  109.76840    0.30770    3.00520   -9999.25   -9999.25 2469.87430
 2291.50000    1.95720    2.09010    2.26420    2.51500    2.59950    8.77410    0.14980  107.58290   -9999.25   -9999.25  110.79440    0.30210    2.99070   -9999.25   -9999.25 2469.87430
 2292.00000    1.94750    2.08950    2.28260    2.51410    2.60460    8.78310    0.15020  108.11490   -9999.25   -9999.25  111.43340    0.31790    2.96160   -9999.25   -9999.25 2469.87430
 2292.50000    1.94730    2.05790    2.25050    2.50650    2.62320    8.80320    0.14790  108.61650   -9999.25   -9999.25  111.23600    0.32200    2.92470   -9999.25   -9999.25 2469.87430
 2293.00000    1.94710    2.05560    2.19480    2.49450    2.64200    8.80580    0.14790  108.90420   -9999.25   -9999.25  113.32540    0.28810    2.92230   -9999.25   -9999.25 2448.09860
 2293.50000    1.94700    2.05220    2.18380    2.48240    2.66040    8.78110    0.15090  109.83960   -9999.25   -9999.25  115.04340    0.28380    2.92070   -9999.25   -9999.25 2448.09860
 2294.00000    1.94680    2.04870    2.17290    2.47040    2.63840    8.75930    0.15560  109.66170   -9999.25   -9999.25  114.85060    0.28750    2.91310   -9999.25   -9999.25 2448.09860
 2294.50000    1.94660    2.04520    2.17280    2.45830    2.61660    8.74370    0.15260  109.63250   -9999.25   -9999.25  112.62060    0.30560    2.92280   -9999.25   -9999.25 2448.09860
 2295.00000    1.94640    2.04180    2.18350    2.44630    2.59500    8.73430    0.14840  109.58910   -9999.25   -9999.25  108.50480    0.31470    2.95750   -9999.25   -9999.25 2448.09860
 2295.50000    1.94630    2.03830    2.19420    2.43420    2.58180    8.72920    0.14990  109.28270   -9999.25   -9999.25  109.76540    0.33250    2.97160   -9999.25   -9999.25 2448.09860
 2296.00000    1.94610    2.03490    2.19840    2.42220    2.57280    8.72130    0.15550  109.10820   -9999.25   -9999.25  110.94040    0.33170    2.98570   -9999.25   -9999.25 2448.09860
 2296.50000    1.94490    2.03140    2.19840    2.41010    2.56400    8.70610    0.16270  109.26750   -9999.25   -9999.25  112.85020    0.33060    2.99990   -9999.25   -9999.25 2448.09860
 2297.00000    1.93540    2.02800    2.20190    2.39810    2.55510    8.71430    0.16490  109.40900   -9999.25   -9999.25  112.48100    0.34240    3.01400   -9999.25   -9999.25 2448.09860
 2297.50000    1.92600    2.02450    2.20580    2.39370    2.54970    8.70540    0.16560  108.98930   -9999.25   -9999.25  109.81160    0.35330    3.02780   -9999.25   -9999.25 2448.09860
 2298.00000    1.91480    2.02100    2.20970    2.39080    2.54620    8.70630    0.16230  109.26250   -9999.25   -9999.25  106.94160    0.33740    3.03330   -9999.25   -9999.25 2448.09860
 2298.50000    1.89690    2.00280    2.21360    2.38790    2.54280    8.71850    0.16010  109.40930   -9999.25   -9999.25  108.44680    0.32170    3.03220   -9999.25   -9999.25 2448.09860
 2299.00000    1.86410    1.99420    2.15100    2.38500    2.53930    8.74830    0.15960  109.39380   -9999.25   -9999.25  110.66280    0.32080    3.04520   -9999.25   -9999.25 2448.09860
 2299.50000    1.83050    1.98550    2.08250    2.38210    2.53590    8.76800    0.16100  109.33960   -9999.25   -9999.25  111.46500    0.30290    3.00820   -9999.25   -9999.25 2448.09860
 2300.00000    1.81660    1.97690    2.07540    2.37930    2.53240    8.79660    0.16060  109.62010   -9999.25   -9999.25  111.74860    0.29890    2.94830   -9999.25   -9999.25 2448.10860
 2300.50000    1.81970    1.96820    2.05840    2.37640    2.51150    8.81990    0.15780  109.93670   -9999.25   -9999.25  112.04740    0.29740    2.90460   -9999.25   -9999.25 2448.10860
 2301.00000    1.80700    1.95960    2.03440    2.37350    2.47960    8.82090    0.15340  109.79930   -9999.25   -9999.25  112.44480    0.32060    2.86750   -9999.25   -9999.25 2448.10860
 2301.50000    1.79430    1.95090    2.03210    2.37060    2.44820    8.80970    0.15320  109.85940   -9999.25   -9999.25  113.36800    0.34360    2.86740   -9999.25   -9999.25 2448.10860
 2302.00000    1.78180    1.94580    2.03690    2.36770    2.44240    8.79960    0.15620  111.08290   -9999.25   -9999.25  115.79480    0.35860    2.89680   -9999.25   -9999.25 2448.10860
 2302.50000    1.77660    1.94630    2.05660    2.36480    2.43900    8.77390    0.15680  112.05880   -9999.25   -9999.25  118.38840    0.34730    2.92940   -9999.25   -9999.25 2448.10860
 2303.00000    1.78610    1.91820    2.07650    2.36190    2.43550    8.76490    0.15520  111.77450   -9999.25   -9999.25  113.77320    0.32560    2.93340   -9999.25   -9999.25 2448.10860
 2303.50000    1.79570    1.89050    2.09660    2.35900    2.43700    8.75020    0.15300  110.17040   -9999.25   -9999.25  109.64520    0.33830    2.91180   -9999.25   -9999.25 2448.10860
 2304.00000    1.80530    1.87700    2.11680    2.35610    2.45160    8.73560    0.15430  110.93740   -9999.25   -9999.25  109.40240    0.32920    2.92920   -9999.25   -9999.25 2448.10860
 2304.50000    1.81500    1.87790    2.13730    2.35320    2.46620    8.72650    0.15660  110.98170   -9999.25   -9999.25  109.99820    0.30160    2.95600   -9999.25   -9999.25 2448.10860
 2305.00000    1.82470    1.87930    2.15270    2.35030    2.53550    8.72520    0.15770  110.49870   -9999.25   -9999.25  112.25300    0.33140    2.99470   -9999.25   -9999.25 2448.10860
 2305.50000    1.83450    1.88080    2.13970    2.34740    2.56620    8.71830    0.15970  110.39620   -9999.25   -9999.25  116.67180    0.35100    3.02730   -9999.25   -9999.25 2448.10860
 2306.00000    1.84430    1.88220    2.12680    2.34450    2.55190    8.70660    0.16200  110.42880   -9999.25   -9999.25  116.30940    0.40340    3.04110   -9999.25   -9999.25 2448.10860
 2306.50000    1.85410    1.88370    2.11400    2.34160    2.53030    8.70970    0.16190  110.45720   -9999.25   -9999.25  114.99120    0.38960    2.99450   -9999.25   -9999.25 2448.10860
 2307.00000    1.84560    1.88510    2.11000    2.33870    2.50880    8.71450    0.15870  109.95250   -9999.25   -9999.25  108.79480    0.38650    3.00290   -9999.25   -9999.25 2448.10860
