~Version ---------------------------------------------------
VERS.   2.0 : CWLS log ASCII Standard -VERSION 2.0
WRAP.    NO : One line per depth step
DLM . SPACE : Column Data Section Delimiter
~Well ------------------------------------------------------
STRT .FT                910.0 : START DEPTH
STOP .FT              11772.0 : STOP DEPTH
STEP .FT                  0.5 : STEP
NULL .               -9999.25 : NULL VALUE
COMP .                        : COMPANY
WELL .                        : WELL
FLD  .                        : FIELD
LOC  .                        : LOCATION
PROV .                        : PROVINCE
CNTY .                        : COUNTY
STAT .                        : STATE
CTRY .                        : COUNTRY
SRVC .                        : SERVICE COMPANY
DATE .                        : DATE
UWI  .                        : UNIQUE WELL ID
API  .                        : API NUMBER
SLAT .WGS84 4.305101828744895 : SURFACE LATITUDE
SLON .WGS84 1.260152626523805 : SURFACE LONGITUDE
DATUM.F                   nan : DEPTH DATUM ELEV
~Curve Information -----------------------------------------
DEPT  .FT     : Depth FEET
AT10  .OHMM   : ARRAY INDUCTION TWO FOOT RESISTIVITY A10
AT20  .OHMM   : ARRAY INDUCTION TWO FOOT RESISTIVITY A20
AT30  .OHMM   : ARRAY INDUCTION TWO FOOT RESISTIVITY A30
AT60  .OHMM   : ARRAY INDUCTION TWO FOOT RESISTIVITY A60
AT90  .OHMM   : ARRAY INDUCTION TWO FOOT RESISTIVITY A90
CALR  .IN     : CALIPER FROM RESISTIVITY LOG
DPHZLS.V/V    : DENSITY POROSITY LIMESTONE
DTCO  .US/F   : DELTA-T COMPRESSIONAL
DTSM  .US/F   : DELTA-T SHEAR
GR    .GAPI   : GAMMA RAY
GRR   .GAPI   : GAMMA RAY FROM RESISTIVITY LOG
NPORLS.V/V    : NEUTRON POROSITY LIMESTONE
PEFZ  .B/E    : HRDD STANDARD RESOLUTION FORMATION PHOTOELECTRIC FACTOR
ROP   .FT/HR  : RATE OF PENETRATION
SPHILS.V/V    : SONIC POROSITY
TENR  .LB     : TENSION FROM RESISTIVITY LOG
~Params ----------------------------------------------------
~Other -----------------------------------------------------
~ASCII -----------------------------------------------------
# ...
 3963.00000    2.11340    2.34710    2.28660    2.52520    2.66170    9.00550    0.14060  102.72080  229.51950   -9999.25  107.51380    0.31800    3.21470   -9999.25   -9999.25 3189.84030
 3963.50000    2.11790    2.36470    2.30160    2.54650    2.68820    9.00590    0.14680  104.00860  226.33820   -9999.25  107.39320    0.32560    3.20540   -9999.25   -9999.25 3189.84030
 3964.00000    2.12470    2.36470    2.31680    2.58490    2.71490    9.00980    0.14350  104.17230  228.48120   -9999.25  113.56880    0.33260    3.15840   -9999.25   -9999.25 3189.84030
 3964.50000    2.13160    2.36470    2.30940    2.60440    2.74190    9.00220    0.13530  104.36240  228.47860   -9999.25  119.40160    0.31870    3.11900   -9999.25   -9999.25 3189.84030
 3965.00000    2.13850    2.36570    2.29190    2.62410    2.75660    8.96500    0.12210  101.99790  226.74570   -9999.25  119.90480    0.29200    3.08930   -9999.25   -9999.25 3189.84030
 3965.50000    2.14550    2.36610    2.27450    2.62440    2.76670    8.92680    0.11320  102.24420  226.76540   -9999.25  113.80420    0.34410    3.10110   -9999.25   -9999.25 3189.84030
 3966.00000    2.15240    2.31440    2.25880    2.62480    2.73810    8.94500    0.10920  102.30280  228.33150   -9999.25  107.85220    0.33380    3.11570   -9999.25   -9999.25 3189.84030
 3966.50000    2.15940    2.28060    2.26510    2.60570    2.69650    8.95720    0.10760  102.38270  227.27630   -9999.25  106.13680    0.34400    3.11970   -9999.25   -9999.25 3189.84030
 3967.00000    2.13810    2.26410    2.27140    2.58690    2.70980    8.85800    0.11240  102.62020  227.77840   -9999.25  107.45980    0.32850    3.12220   -9999.25   -9999.25 3189.84030
 3967.50000    2.09900    2.26440    2.28980    2.54920    2.71420    8.83790    0.12210  102.41870  228.40890   -9999.25  107.18140    0.31390    3.14960   -9999.25   -9999.25 3189.84030
 3968.00000    2.10520    2.26470    2.33300    2.53070    2.74670    8.84000    0.13230  102.29710  229.05070   -9999.25  105.11380    0.32140    3.18300   -9999.25   -9999.25 3189.84030
 3968.50000    2.20730    2.29870    2.37680    2.58780    2.79910    8.83730    0.13560  102.21780  229.41570   -9999.25  104.81520    0.35070    3.19170   -9999.25   -9999.25 3189.84030
 3969.00000    2.25620    2.36730    2.41420    2.66600    2.88410    8.83810    0.13520  102.01420  228.46930   -9999.25  106.27640    0.33680    3.20030   -9999.25   -9999.25 3189.84030
 3969.50000    2.29030    2.45070    2.45230    2.75670    2.94850    8.82810    0.13480  101.89490  226.48280   -9999.25  109.02120    0.31710    3.21400   -9999.25   -9999.25 3189.84030
 3970.00000    2.32780    2.53410    2.50620    2.93340    3.00310    8.81190    0.13520  101.87790  224.54850   -9999.25  107.91300    0.32550    3.25520   -9999.25   -9999.25 3189.84030
 3970.50000    2.38940    2.61750    2.60310    3.11010    3.13290    8.79250    0.13170  101.59950  222.68180   -9999.25  106.92160    0.33760    3.28940   -9999.25   -9999.25 3189.84030
 3971.00000    2.57070    2.73150    2.83980    3.28680    3.27940    8.78720    0.12700  101.24780  221.20720   -9999.25  106.02160    0.33560    3.28890   -9999.25   -9999.25 3189.84030
 3971.50000    2.82150    3.32230    3.22220    3.46350    3.62910    8.79560    0.12540  102.18350  220.40420   -9999.25  103.97020    0.30220    3.26640   -9999.25   -9999.25 3189.84030
 3972.00000    3.27590    3.91300    3.68480    4.25960    4.14600    8.78110    0.12700  102.65200  219.79500   -9999.25  101.90280    0.31690    3.23810   -9999.25   -9999.25 3189.84030
 3972.50000    3.80330    4.50380    4.29030    5.00380    4.89690    8.78620    0.13070  101.89040  220.23140   -9999.25   99.89080    0.33550    3.21260   -9999.25   -9999.25 3189.84030
 3973.00000    4.29280    5.09460    5.09110    5.74810    5.84350    8.80750    0.12430  101.37230  222.00240   -9999.25  103.77740    0.33300    3.23110   -9999.25   -9999.25 3189.84030
 3973.50000    4.81620    5.45230    5.64250    6.18310    6.73280    8.79940    0.12060  101.84230  222.92750   -9999.25  107.03540    0.32120    3.22200   -9999.25   -9999.25 3189.84030
 3974.00000    4.24160    4.99120    4.88180    5.74560    5.69720    8.70910    0.11800  102.25860  222.74170   -9999.25  107.91520    0.31220    3.22590   -9999.25   -9999.25 3189.84030
 3974.50000    3.44170    4.52990    4.22360    5.31450    4.63180    8.68710    0.12250  102.66880  221.74800   -9999.25  105.90420    0.31620    3.24350   -9999.25   -9999.25 3189.84030
 3975.00000    3.13640    4.06860    3.70230    4.88350    4.16330    8.67260    0.12570  102.11490  221.95030   -9999.25  102.97460    0.34720    3.26110   -9999.25   -9999.25 3168.21260
 3975.50000    2.85820    3.60730    3.26340    4.45240    3.74840    8.64260    0.12930  100.81370  223.19470   -9999.25  102.84900    0.34970    3.32060   -9999.25   -9999.25 3168.21260
 3976.00000    2.60470    3.14600    2.88390    4.02130    3.39860    8.62750    0.13070  100.12060  223.92150   -9999.25  103.50220    0.33120    3.33300   -9999.25   -9999.25 3168.21260
 3976.50000    2.44680    2.68470    2.64120    3.59020    3.21720    8.66410    0.12590  100.94090  224.33370   -9999.25  103.96520    0.35310    3.32770   -9999.25   -9999.25 3168.21260
 3977.00000    2.37420    2.37310    2.50200    3.15920    3.04550    8.68530    0.12180  101.72620  222.70220   -9999.25  104.46120    0.35100    3.30540   -9999.25   -9999.25 3168.21260
 3977.50000    2.31610    2.35700    2.53610    2.81460    2.99820    8.65370    0.12190  101.88930  222.71940   -9999.25  104.53500    0.34910    3.31870   -9999.25   -9999.25 3168.21260
 3978.00000    2.29400    2.35840    2.54210    2.81630    3.01060    8.61080    0.12160  101.81270  223.95390   -9999.25  104.65600    0.36090    3.37960   -9999.25   -9999.25 3168.21260
 3978.50000    2.26400    2.35990    2.52160    2.77680    3.05800    8.56490    0.11890  102.31730  224.97760   -9999.25  104.53220    0.35530    3.42630   -9999.25   -9999.25 3168.21260
 3979.00000    2.26090    2.35090    2.50120    2.73770    3.06570    8.59770    0.11230  106.26210  226.34980   -9999.25  106.75620    0.32400    3.40400   -9999.25   -9999.25 3168.21260
 3979.50000    2.21170    2.32600    2.40420    2.64020    2.99230    8.63450    0.11510  106.32240  226.42630   -9999.25  107.18800    0.31860    3.32630   -9999.25   -9999.25 3145.85670
 3980.00000    2.12650    2.30100    2.30440    2.59290    2.80030    8.64040    0.12190  106.23980  227.43430   -9999.25  110.00840    0.33610    3.29110   -9999.25   -9999.25 3145.85670
 3980.50000    2.04450    2.24400    2.21980    2.54560    2.66580    8.64310    0.12450  106.18970  226.52410   -9999.25  110.35240    0.34340    3.26700   -9999.25   -9999.25 3145.85670
 3981.00000    2.01450    2.23780    2.22270    2.54480    2.65680    8.65120    0.11840  105.83860  227.16510   -9999.25  112.31540    0.33420    3.24200   -9999.25   -9999.25 3145.85670
 3981.50000    2.10290    2.23160    2.26620    2.54400    2.66040    8.67110    0.11460  105.70710  228.04860   -9999.25  113.13200    0.36100    3.24600   -9999.25   -9999.25 3145.85670
 3982.00000    2.11300    2.22640    2.28370    2.54330    2.68580    8.68750    0.11350  105.65020  229.30660   -9999.25  113.24620    0.36400    3.27740   -9999.25   -9999.25 3145.85670
 3982.50000    2.12440    2.22580    2.28810    2.53720    2.71090    8.68970    0.12090  105.12790  230.73360   -9999.25  111.08060    0.30660    3.31760   -9999.25   -9999.25 3145.85670
 3983.00000    2.15150    2.22500    2.28860    2.52970    2.71390    8.71310    0.12680  105.45140  230.19580   -9999.25  110.01640    0.32800    3.33930   -9999.25   -9999.25 3145.85670
 3983.50000    2.17890    2.25750    2.28850    2.52220    2.67970    8.77250    0.13260  104.58350  233.99160   -9999.25  115.50920    0.35020    3.34970   -9999.25   -9999.25 3145.85670
 3984.00000    2.21920    2.29050    2.30300    2.68480    2.71810    8.78070    0.13080  105.14400  235.69160   -9999.25  117.65500    0.36270    3.29830   -9999.25   -9999.25 3145.85670
