~Version ---------------------------------------------------
VERS.   2.0 : CWLS log ASCII Standard -VERSION 2.0
WRAP.    NO : One line per depth step
DLM . SPACE : Column Data Section Delimiter
~Well ------------------------------------------------------
STRT .FT                910.0 : START DEPTH
STOP .FT              11772.0 : STOP DEPTH
STEP .FT                  0.5 : STEP
NULL .               -9999.25 : NULL VALUE
COMP .                        : COMPANY
WELL .                        : WELL
FLD  .                        : FIELD
LOC  .                        : LOCATION
PROV .                        : PROVINCE
CNTY .                        : COUNTY
STAT .                        : STATE
CTRY .                        : COUNTRY
SRVC .                        : SERVICE COMPANY
DATE .                        : DATE
UWI  .                        : UNIQUE WELL ID
API  .                        : API NUMBER
SLAT .WGS84 4.305101828744895 : SURFACE LATITUDE
SLON .WGS84 1.260152626523805 : SURFACE LONGITUDE
DATUM.F                   nan : DEPTH DATUM ELEV
~Curve Information -----------------------------------------
DEPT  .FT     : Depth FEET
AT10  .OHMM   : ARRAY INDUCTION TWO FOOT RESISTIVITY A10
AT20  .OHMM   : ARRAY INDUCTION TWO FOOT RESISTIVITY A20
AT30  .OHMM   : ARRAY INDUCTION TWO FOOT RESISTIVITY A30
AT60  .OHMM   : ARRAY INDUCTION TWO FOOT RESISTIVITY A60
AT90  .OHMM   : ARRAY INDUCTION TWO FOOT RESISTIVITY A90
CALR  .IN     : CALIPER FROM RESISTIVITY LOG
DPHZLS.V/V    : DENSITY POROSITY LIMESTONE
DTCO  .US/F   : DELTA-T COMPRESSIONAL
DTSM  .US/F   : DELTA-T SHEAR
GR    .GAPI   : GAMMA RAY
GRR   .GAPI   : GAMMA RAY FROM RESISTIVITY LOG
NPORLS.V/V    : NEUTRON POROSITY LIMESTONE
PEFZ  .B/E    : HRDD STANDARD RESOLUTION FORMATION PHOTOELECTRIC FACTOR
ROP   .FT/HR  : RATE OF PENETRATION
SPHILS.V/V    : SONIC POROSITY
TENR  .LB     : TENSION FROM RESISTIVITY LOG
~Params ----------------------------------------------------
~Other -----------------------------------------------------
~ASCII -----------------------------------------------------
# ...
 1963.50000    2.33570    2.42740    2.59440    2.92950    3.13300    8.64770    0.12060  110.73780   -9999.25   -9999.25  123.23480    0.38110    3.44130   -9999.25   -9999.25 2330.87890
 1964.00000    2.30080    2.40190    2.56790    2.92860    3.07080    8.64430    0.12090  110.75850   -9999.25   -9999.25  126.35480    0.40790    3.34190   -9999.25   -9999.25 2332.90630
 1964.50000    2.30060    2.39190    2.54400    2.92780    3.08030    8.63670    0.12230  111.14080   -9999.25   -9999.25  127.50580    0.40930    3.30360   -9999.25   -9999.25 2334.93330
 1965.00000    2.34640    2.39510    2.56650    2.92700    3.08420    8.63290    0.11920  111.67130   -9999.25   -9999.25  126.18080    0.37920    3.32490   -9999.25   -9999.25 2336.96040
 1965.50000    2.36700    2.39920    2.58930    2.92610    3.06490    8.64670    0.11930  111.85090   -9999.25   -9999.25  122.85940    0.41110    3.34180   -9999.25   -9999.25 2338.98750
 1966.00000    2.38770    2.40320    2.61220    2.92530    3.04570    8.65920    0.12120  111.89610   -9999.25   -9999.25  122.62660    0.38100    3.36040   -9999.25   -9999.25 2341.01490
 1966.50000    2.38710    2.40720    2.63530    2.92450    3.02660    8.65280    0.12660  111.59450   -9999.25   -9999.25  122.89640    0.37180    3.35320   -9999.25   -9999.25 2343.04200
 1967.00000    2.37050    2.41120    2.65870    2.92360    3.02340    8.64470    0.13090  111.87840   -9999.25   -9999.25  129.79640    0.39590    3.30940   -9999.25   -9999.25 2345.06910
 1967.50000    2.36020    2.41520    2.67960    2.92290    3.02330    8.65200    0.13280  111.94090   -9999.25   -9999.25  131.39640    0.38000    3.27550   -9999.25   -9999.25 2347.09620
 1968.00000    2.35550    2.41930    2.69900    2.92100    3.02310    8.69140    0.13160  111.88610   -9999.25   -9999.25  133.32240    0.38960    3.25590   -9999.25   -9999.25 2349.12330
 1968.50000    2.35080    2.42330    2.67350    2.91920    3.02290    8.70690    0.13110  112.58340   -9999.25   -9999.25  130.85920    0.32670    3.24840   -9999.25   -9999.25 2351.15040
 1969.00000    2.34610    2.42730    2.62700    2.91730    3.02270    8.72170    0.12930  112.36400   -9999.25   -9999.25  129.76680    0.36730    3.24960   -9999.25   -9999.25 2353.17770
 1969.50000    2.28090    2.43270    2.58140    2.91540    2.99260    8.73660    0.12540  112.16890   -9999.25   -9999.25  127.98360    0.41650    3.26360   -9999.25   -9999.25 2355.20480
 1970.00000    2.31450    2.44350    2.57310    2.91360    3.01710    8.75090    0.11800  111.32210   -9999.25   -9999.25  126.30620    0.41170    3.32480   -9999.25   -9999.25 2357.23190
 1970.50000    2.34480    2.45420    2.61920    2.91170    3.07900    8.75130    0.11180  110.31820   -9999.25   -9999.25  124.80040    0.43110    3.41860   -9999.25   -9999.25 2359.25930
 1971.00000    2.34510    2.46500    2.67160    2.90990    3.13010    8.73960    0.10950  110.92310   -9999.25   -9999.25  129.37500    0.39330    3.46940   -9999.25   -9999.25 2361.28640
 1971.50000    2.33480    2.44720    2.72320    2.90800    3.11390    8.73330    0.11620  111.15760   -9999.25   -9999.25  132.03380    0.36640    3.52630   -9999.25   -9999.25 2363.31350
 1972.00000    2.29740    2.42230    2.66210    2.90610    3.09670    8.72320    0.12350  111.57980   -9999.25   -9999.25  133.85660    0.45690    3.44530   -9999.25   -9999.25 2365.34060
 1972.50000    2.24720    2.39740    2.60240    2.90430    3.08460    8.69570    0.12850  111.96360   -9999.25   -9999.25  130.79880    0.39660    3.40000   -9999.25   -9999.25 2367.36790
 1973.00000    2.23550    2.35990    2.55260    2.90240    3.07260    8.67960    0.13090  112.12950   -9999.25   -9999.25  129.39260    0.38580    3.34470   -9999.25   -9999.25 2369.39500
 1973.50000    2.22390    2.30810    2.53930    2.90050    3.06570    8.66820    0.13590  112.47220   -9999.25   -9999.25  129.44940    0.36460    3.30440   -9999.25   -9999.25 2371.42210
 1974.00000    2.21670    2.29420    2.62580    2.89870    3.06520    8.65690    0.13680  112.62410   -9999.25   -9999.25  128.94420    0.39330    3.30560   -9999.25   -9999.25 2373.44920
 1974.50000    2.22030    2.29940    2.50270    2.89680    3.06460    8.65300    0.13620  113.00140   -9999.25   -9999.25  126.53780    0.43130    3.33410   -9999.25   -9999.25 2375.47630
 1975.00000    2.22380    2.30460    2.50420    2.89500    3.06400    8.64400    0.13480  121.44590   -9999.25   -9999.25  127.11640    0.40910    3.38210   -9999.25   -9999.25 2377.50370
 1975.50000    2.22740    2.30980    2.53680    2.89310    3.06350    8.64160    0.13340  121.73470   -9999.25   -9999.25  128.62460    0.39640    3.46020   -9999.25   -9999.25 2379.53080
 1976.00000    2.23990    2.31500    2.55910    2.89120    3.06290    8.64110    0.13050  123.19230   -9999.25   -9999.25  129.22360    0.39270    3.49490   -9999.25   -9999.25 2381.55790
 1976.50000    2.27230    2.32020    2.57210    2.88940    3.06180    8.65280    0.12570  113.19600   -9999.25   -9999.25  129.86160    0.42400    3.49080   -9999.25   -9999.25 2383.58500
 1977.00000    2.30530    2.32540    2.58510    2.88750    3.06030    8.67110    0.12220  112.96150   -9999.25   -9999.25  125.18720    0.41000    3.49580   -9999.25   -9999.25 2385.61230
 1977.50000    2.32430    2.33060    2.59830    2.88560    3.05890    8.70380    0.12760  113.38350   -9999.25   -9999.25  128.32660    0.39320    3.50630   -9999.25   -9999.25 2387.63940
 1978.00000    2.32110    2.33580    2.60640    2.88380    3.05750    8.75310    0.13470  113.80990   -9999.25   -9999.25  124.53540    0.43860    3.51680   -9999.25   -9999.25 2389.66650
 1978.50000    2.31780    2.34100    2.60430    2.88230    3.05600    8.76140    0.13080  113.69370   -9999.25   -9999.25  130.49840    0.41710    3.51930   -9999.25   -9999.25 2391.69360
 1979.00000    2.31460    2.34620    2.60220    2.88230    3.05460    8.76960    0.12280  113.46540   -9999.25   -9999.25  130.30840    0.47540    3.47510   -9999.25   -9999.25 2393.72070
 1979.50000    2.31140    2.35150    2.60000    2.88230    3.05320    8.75210    0.11640  113.89920   -9999.25   -9999.25  129.27260    0.47130    3.44880   -9999.25   -9999.25 2395.74780
 1980.00000    2.30810    2.35670    2.59790    2.88230    3.05170    8.76390    0.11860  113.30910   -9999.25   -9999.25  128.65000    0.45980    3.42920   -9999.25   -9999.25 2397.77510
 1980.50000    2.30490    2.36190    2.60770    2.88230    3.05030    8.77630    0.12400  112.89150   -9999.25   -9999.25  126.87420    0.40630    3.42410   -9999.25   -9999.25 2399.80220
 1981.00000    2.30170    2.36710    2.62770    2.88230    3.04890    8.77050    0.12910  112.61330   -9999.25   -9999.25  127.36140    0.41560    3.46100   -9999.25   -9999.25 2401.82930
 1981.50000    2.29850    2.37230    2.64790    2.88230    3.04750    8.71260    0.12730  112.38700   -9999.25   -9999.25  126.21640    0.40450    3.49230   -9999.25   -9999.25 2403.85670
 1982.00000    2.29530    2.37750    2.61930    2.88230    3.04820    8.66660    0.11860  111.96870   -9999.25   -9999.25  124.81300    0.40590    3.49010   -9999.25   -9999.25 2405.88380
 1982.50000    2.29210    2.38270    2.56090    2.88230    3.04950    8.69250    0.11320  111.67680   -9999.25   -9999.25  125.20700    0.40640    3.40470   -9999.25   -9999.25 2407.91090
 1983.00000    2.28890    2.38790    2.58290    2.88230    3.05080    8.69960    0.11130  111.72340   -9999.25   -9999.25  128.77880    0.37250    3.34900   -9999.25   -9999.25 2409.93800
 1983.50000    2.28750    2.39310    2.57650    2.88230    3.05210    8.69190    0.11500  111.36460   -9999.25   -9999.25  134.54560    0.36520    3.30250   -9999.25   -9999.25 2411.96510
 1984.00000    2.28750    2.39100    2.57010    2.88230    3.05340    8.68990    0.11940  111.75050   -9999.25   -9999.25  135.95500    0.34760    3.31170   -9999.25   -9999.25 2413.99220
 1984.50000    2.28740    2.38890    2.56370    2.88230    3.05490    8.69430    0.12550  111.88010   -9999.25   -9999.25  133.01180    0.36680    3.33880   -9999.25   -9999.25 2414.82470
