~Version ---------------------------------------------------
VERS.   2.0 : CWLS log ASCII Standard -VERSION 2.0
WRAP.    NO : One line per depth step
DLM . SPACE : Column Data Section Delimiter
~Well ------------------------------------------------------
STRT .FT                910.0 : START DEPTH
STOP .FT              11772.0 : STOP DEPTH
STEP .FT                  0.5 : STEP
NULL .               -9999.25 : NULL VALUE
COMP .                        : COMPANY
WELL .                        : WELL
FLD  .                        : FIELD
LOC  .                        : LOCATION
PROV .                        : PROVINCE
CNTY .                        : COUNTY
STAT .                        : STATE
CTRY .                        : COUNTRY
SRVC .                        : SERVICE COMPANY
DATE .                        : DATE
UWI  .                        : UNIQUE WELL ID
API  .                        : API NUMBER
SLAT .WGS84 4.305101828744895 : SURFACE LATITUDE
SLON .WGS84 1.260152626523805 : SURFACE LONGITUDE
DATUM.F                   nan : DEPTH DATUM ELEV
~Curve Information -----------------------------------------
DEPT  .FT     : Depth FEET
AT10  .OHMM   : ARRAY INDUCTION TWO FOOT RESISTIVITY A10
AT20  .OHMM   : ARRAY INDUCTION TWO FOOT RESISTIVITY A20
AT30  .OHMM   : ARRAY INDUCTION TWO FOOT RESISTIVITY A30
AT60  .OHMM   : ARRAY INDUCTION TWO FOOT RESISTIVITY A60
AT90  .OHMM   : ARRAY INDUCTION TWO FOOT RESISTIVITY A90
CALR  .IN     : CALIPER FROM RESISTIVITY LOG
DPHZLS.V/V    : DENSITY POROSITY LIMESTONE
DTCO  .US/F   : DELTA-T COMPRESSIONAL
DTSM  .US/F   : DELTA-T SHEAR
GR    .GAPI   : GAMMA RAY
GRR   .GAPI   : GAMMA RAY FROM RESISTIVITY LOG
NPORLS.V/V    : NEUTRON POROSITY LIMESTONE
PEFZ  .B/E    : HRDD STANDARD RESOLUTION FORMATION PHOTOELECTRIC FACTOR
ROP   .FT/HR  : RATE OF PENETRATION
SPHILS.V/V    : SONIC POROSITY
TENR  .LB     : TENSION FROM RESISTIVITY LOG
~Params ----------------------------------------------------
~Other -----------------------------------------------------
~ASCII -----------------------------------------------------
# ...
 2952.50000    2.29100    2.45480    2.39950    2.65460    2.76850    8.81610    0.12990  110.30390   -9999.25   -9999.25  122.23440    0.37660    3.25460   -9999.25   -9999.25 2682.02560
 2953.00000    2.30840    2.47300    2.43830    2.71210    2.83460    8.81500    0.11940  109.34570   -9999.25   -9999.25  126.43400    0.37580    3.30410   -9999.25   -9999.25 2681.83640
 2953.50000    2.32520    2.49130    2.47740    2.76950    2.89540    8.81580    0.11440  107.85190   -9999.25   -9999.25  129.07800    0.38600    3.29040   -9999.25   -9999.25 2681.64720
 2954.00000    2.35510    2.49130    2.51650    2.82480    2.95760    8.83280    0.11520  107.98070   -9999.25   -9999.25  129.41120    0.34840    3.25570   -9999.25   -9999.25 2681.45800
 2954.50000    2.39690    2.49130    2.55610    2.86690    3.02100    8.88450    0.12070  108.47440   -9999.25   -9999.25  128.94640    0.36400    3.16440   -9999.25   -9999.25 2681.26880
 2955.00000    2.43950    2.49130    2.58710    2.90430    3.07710    8.93440    0.12280  107.52000   -9999.25   -9999.25  125.39440    0.37700    3.13670   -9999.25   -9999.25 2681.07960
 2955.50000    2.44030    2.49130    2.61450    2.93110    3.06420    8.90490    0.12370  105.40220  239.81350   -9999.25  120.55280    0.35510    3.18200   -9999.25   -9999.25 2680.89040
 2956.00000    2.43970    2.49130    2.64220    2.95800    3.05130    8.87260    0.12570  107.59050  238.55930   -9999.25  117.14560    0.36930    3.22060   -9999.25   -9999.25 2680.70090
 2956.50000    2.43520    2.49670    2.67020    2.98480    3.03850    8.83470    0.12550  106.50420  237.09830   -9999.25  113.86000    0.39680    3.24760   -9999.25   -9999.25 2680.51170
 2957.00000    2.42800    2.52340    2.69160    3.01170    3.02570    8.81640    0.12490  106.84420  236.13460   -9999.25  114.18420    0.42110    3.23070   -9999.25   -9999.25 2680.32250
 2957.50000    2.42090    2.55010    2.71110    3.03850    3.01300    8.80910    0.11490  104.71770  234.59260   -9999.25  115.85720    0.42390    3.17080   -9999.25   -9999.25 2680.13330
 2958.00000    2.42000    2.56610    2.68840    3.06530    3.06720    8.79670    0.10260  106.30940  233.61570   -9999.25  117.64080    0.37360    3.18520   -9999.25   -9999.25 2679.94410
 2958.50000    2.41940    2.56610    2.65930    3.08680    3.13520    8.77420    0.09530  106.81730  234.06770   -9999.25  118.79760    0.36970    3.21740   -9999.25   -9999.25 2679.75490
 2959.00000    2.41240    2.55840    2.63050    3.04790    3.16440    8.75160    0.09930  107.08830  234.90420   -9999.25  117.53340    0.37610    3.28780   -9999.25   -9999.25 2679.56540
 2959.50000    2.34760    2.51990    2.60200    2.90580    3.04670    8.75730    0.11210  107.44230  235.14910   -9999.25  116.33680    0.38170    3.28780   -9999.25   -9999.25 2679.37620
 2960.00000    2.17340    2.48150    2.57380    2.84240    2.92580    8.76790    0.12340  107.64440  237.63440   -9999.25  115.81420    0.36590    3.26850   -9999.25   -9999.25 2679.18700
 2960.50000    2.08460    2.44310    2.52660    2.77900    2.85400    8.77980    0.12860  107.68430  238.91420   -9999.25  112.98100    0.38630    3.18760   -9999.25   -9999.25 2678.99780
 2961.00000    2.21950    2.38170    2.46320    2.74080    2.80860    8.79880    0.13080  108.12210  239.99270   -9999.25  113.79020    0.40670    3.10680   -9999.25   -9999.25 2678.80860
 2961.50000    2.19620    2.29480    2.42750    2.74040    2.80430    8.78940    0.13130  108.42460  240.08240   -9999.25  120.39500    0.34960    2.96230   -9999.25   -9999.25 2678.61940
 2962.00000    2.14520    2.22750    2.40230    2.73990    2.77710    8.82560    0.13350  107.70770  240.08010   -9999.25  128.76040    0.36260    2.90990   -9999.25   -9999.25 2678.43020
 2962.50000    2.10850    2.16220    2.40150    2.69920    2.73380    8.83950    0.12850  107.54790   -9999.25   -9999.25  128.02200    0.35150    2.91410   -9999.25   -9999.25 2678.24070
 2963.00000    2.09830    2.12310    2.40080    2.63950    2.68200    8.84670    0.12460  108.11840   -9999.25   -9999.25  124.97140    0.34340    2.92430   -9999.25   -9999.25 2678.05150
 2963.50000    2.09530    2.08780    2.31180    2.54090    2.62570    8.86140    0.12440  108.90210   -9999.25   -9999.25  123.94300    0.36270    2.93890   -9999.25   -9999.25 2677.86230
 2964.00000    1.99190    2.05240    2.20740    2.44230    2.49740    8.86730    0.13630  110.13100   -9999.25   -9999.25  125.04360    0.37240    2.95480   -9999.25   -9999.25 2677.67310
 2964.50000    1.83080    2.01710    2.12700    2.34370    2.37540    8.86100    0.15170  111.55570   -9999.25   -9999.25  126.26520    0.36420    2.96720   -9999.25   -9999.25 2677.48390
 2965.00000    1.83070    1.98180    2.06720    2.29180    2.28280    8.85460    0.16240  112.43230   -9999.25   -9999.25  124.77040    0.40230    2.96840   -9999.25   -9999.25 2677.29470
 2965.50000    1.83060    1.94650    2.05390    2.25780    2.28930    8.83540    0.16960  113.20260   -9999.25   -9999.25  128.56740    0.43040    2.96370   -9999.25   -9999.25 2677.10550
 2966.00000    1.82640    1.91120    2.05380    2.20780    2.29650    8.82500    0.17180  115.51600   -9999.25   -9999.25  130.32340    0.43970    2.96640   -9999.25   -9999.25 2676.91600
 2966.50000    1.81410    1.87580    2.03450    2.18040    2.26630    8.82600    0.17320  117.48260   -9999.25   -9999.25  135.28560    0.44810    2.97060   -9999.25   -9999.25 2676.72680
 2967.00000    1.78690    1.83420    2.01310    2.15320    2.19680    8.78630    0.17410  115.13730   -9999.25   -9999.25  135.47900    0.41880    2.97470   -9999.25   -9999.25 2676.53760
 2967.50000    1.76050    1.82020    1.99190    2.12630    2.17250    8.78480    0.17260  114.64070   -9999.25   -9999.25  131.56900    0.41040    3.01190   -9999.25   -9999.25 2676.34840
 2968.00000    1.74130    1.81980    1.97100    2.12590    2.17980    8.78430    0.16930  114.69890   -9999.25   -9999.25  127.01700    0.38580    3.04820   -9999.25   -9999.25 2676.15920
 2968.50000    1.74520    1.81950    1.99640    2.12550    2.22020    8.77790    0.16040  113.56620   -9999.25   -9999.25  126.92660    0.38910    3.04860   -9999.25   -9999.25 2675.97000
 2969.00000    1.79350    1.83260    2.03040    2.12510    2.26150    8.77590    0.15170  112.42680   -9999.25   -9999.25  126.55340    0.36210    3.04740   -9999.25   -9999.25 2675.78050
 2969.50000    1.82510    1.85960    2.06490    2.14190    2.30360    8.77960    0.14990  109.70220   -9999.25   -9999.25  128.54140    0.33900    3.04620   -9999.25   -9999.25 2675.62920
 2970.00000    1.80810    1.87340    2.03200    2.17020    2.35700    8.78970    0.15040  108.97860   -9999.25   -9999.25  128.70980    0.35940    3.06060   -9999.25   -9999.25 2675.62920
 2970.50000    1.81080    1.90850    2.01510    2.19860    2.35240    8.79670    0.15110  108.30190   -9999.25   -9999.25  128.39600    0.40990    3.08130   -9999.25   -9999.25 2675.62920
 2971.00000    1.82370    1.94360    2.01200    2.22690    2.33500    8.79890    0.14700  109.08680   -9999.25   -9999.25  126.50080    0.38000    3.10230   -9999.25   -9999.25 2675.62920
 2971.50000    1.85790    1.97880    2.03240    2.25520    2.33510    8.80630    0.13840  108.71040   -9999.25   -9999.25  126.29860    0.35000    3.12790   -9999.25   -9999.25 2675.62920
 2972.00000    1.92770    2.01390    2.09010    2.35550    2.41030    8.80740    0.13080  108.35780   -9999.25   -9999.25  127.09780    0.36050    3.17750   -9999.25   -9999.25 2675.62920
 2972.50000    2.00670    2.04900    2.15830    2.47910    2.55350    8.81610    0.12390  108.27320   -9999.25   -9999.25  127.99820    0.35990    3.15570   -9999.25   -9999.25 2675.62920
 2973.00000    2.04830    2.14250    2.17460    2.57800    2.62580    8.83680    0.11990  108.06580   -9999.25   -9999.25  130.68220    0.32500    3.13520   -9999.25   -9999.25 2675.62920
 2973.50000    2.07730    2.28000    2.19070    2.57850    2.61540    8.84840    0.11980  107.63710   -9999.25   -9999.25  126.52200    0.34810    3.12550   -9999.25   -9999.25 2647.25510
