~Version ---------------------------------------------------
VERS.   2.0 : CWLS log ASCII Standard -VERSION 2.0
WRAP.    NO : One line per depth step
DLM . SPACE : Column Data Section Delimiter
~Well ------------------------------------------------------
STRT .F                 845.0 : START DEPTH
STOP .F                8968.0 : STOP DEPTH
STEP .F                   0.5 : STEP
NULL .               -9999.25 : NULL VALUE
COMP .                        : COMPANY
WELL .                        : WELL
FLD  .                        : FIELD
LOC  .                        : LOCATION
PROV .                        : PROVINCE
CNTY .                        : COUNTY
STAT .                        : STATE
CTRY .                        : COUNTRY
SRVC .                        : SERVICE COMPANY
DATE .                        : DATE
UWI  .                        : UNIQUE WELL ID
API  .                        : API NUMBER
SLAT .WGS84 5.106284331781502 : SURFACE LATITUDE
SLON .WGS84 2.553414967040709 : SURFACE LONGITUDE
DATUM.F                   nan : DEPTH DATUM ELEV
~Curve Information -----------------------------------------
DEPT   .F     : 1 MEASURED DEPTH
GRR    .GAPI  : GAMMA RAY FROM RESISTIVITY LOG
ILD    .OHMM  : INDUCTION DEEP RESISTIVITY
CILD   .MMHO  : INDUCTION DEEP CONDUCTIVITY
SFLA   .OHMM  : SPHERICALLY FOCUSED LOG RESISTIVITY AVERAGED OVER 2.5 FT
SPR    .MV    : SPONTANEOUS POTENTIAL FROM RESISTIVITY LOG
SFLU   .OHMM  : SHALLOW FOCUSED RESISTIVITY (UNAVERAGED)
ILM    .OHMM  : INDUCTION MEDIUM RESISTIVITY
NPHI_LS.DEC   : NEUTRON POROSITY LIMESTONE
DPHI_LS.DEC   : DENSITY POROSITY LIMESTONE
CALD   .IN    : CALIPER FROM DENSITY LOG
RHOB   .G/C3  : BULK DENSITY
DRHO   .G/C3  : BULK DENSITY CORRECTION
DT     .US/F  : DELTA-T (INTERVAL TRANSIT TIME)
DTCO   .US/F  : DELTA-T COMPRESSIONAL
DTSM   .US/F  : DELTA-T SHEAR
~Params ----------------------------------------------------
~Other -----------------------------------------------------
~ASCII -----------------------------------------------------
# ...
 8113.00000   66.49970    9.75880   -9999.25   -9999.25  -24.34380   10.62440   10.17690    0.13550    0.08260   10.02500    2.56330    0.00340   -9999.25   -9999.25   -9999.25
 8113.50000   68.18320    9.75700   -9999.25   -9999.25  -23.65250   10.92380   10.30850    0.13920    0.08950   10.05460    2.54780    0.00660   -9999.25   -9999.25   -9999.25
 8114.00000   69.15940    9.75950   -9999.25   -9999.25  -22.94980   10.69720   10.29920    0.13880    0.08960   10.08430    2.55180    0.00950   -9999.25   -9999.25   -9999.25
 8114.50000   70.26350    9.87030   -9999.25   -9999.25  -22.33340   10.43010   10.29000    0.13550    0.08240   10.11390    2.56460    0.01250   -9999.25   -9999.25   -9999.25
 8115.00000   70.37870    9.95690   -9999.25   -9999.25  -21.71700   10.48420   10.28070    0.13220    0.07810   10.14360    2.57170    0.01540   -9999.25   -9999.25   -9999.25
 8115.50000   70.15710   10.04420   -9999.25   -9999.25  -21.28710   10.69000   10.27150    0.13190    0.07910   10.17330    2.56990    0.01910   -9999.25   -9999.25   -9999.25
 8116.00000   70.62080   10.13230   -9999.25   -9999.25  -20.72560   10.89980   10.35850    0.14050    0.08070   10.20540    2.56980    0.02330   -9999.25   -9999.25   -9999.25
 8116.50000   72.23120   10.22120   -9999.25   -9999.25  -19.93650   11.05480   10.44940    0.14880    0.07960   10.24770    2.57230    0.02750   -9999.25   -9999.25   -9999.25
 8117.00000   73.16410   10.31090   -9999.25   -9999.25  -19.90330   11.05480   10.54110    0.14900    0.07650   10.25090    2.57640    0.03110   -9999.25   -9999.25   -9999.25
 8117.50000   71.30920   10.40130   -9999.25   -9999.25  -18.92870   11.05480   10.63350    0.14690    0.07510   10.27460    2.57970    0.02860   -9999.25   -9999.25   -9999.25
 8118.00000   70.34640   10.49260   -9999.25   -9999.25  -17.49010   11.13720   10.72680    0.14850    0.08110   10.30030    2.56650    0.02600   -9999.25   -9999.25   -9999.25
 8118.50000   69.41100   10.53170   -9999.25   -9999.25  -17.15610   11.23580   10.76270    0.15230    0.09240   10.32600    2.54520    0.02350   -9999.25   -9999.25   -9999.25
 8119.00000   69.61150   10.54880   -9999.25   -9999.25  -17.51940   11.06740   10.78090    0.15620    0.09690   10.35170    2.54080    0.02290   -9999.25   -9999.25   -9999.25
 8119.50000   69.85270   10.58870   -9999.25   -9999.25  -17.03730   10.96260   10.82170    0.15770    0.09290   10.37430    2.54710    0.02420   -9999.25   -9999.25   -9999.25
 8120.00000   70.61250   10.62870   -9999.25   -9999.25  -16.14180   11.06220   10.86260    0.15550    0.08640   10.39400    2.55720    0.02550   -9999.25   -9999.25   -9999.25
 8120.50000   71.58720   10.64160   -9999.25   -9999.25  -16.17370   11.14400   10.87500    0.15190    0.08020   10.41310    2.56980    0.02690   -9999.25   -9999.25   -9999.25
 8121.00000   71.76880   10.63900   -9999.25   -9999.25  -16.20550   11.29650   10.87500    0.15270    0.07910   10.43440    2.57210    0.02820   -9999.25   -9999.25   -9999.25
 8121.50000   71.73310   10.56610   -9999.25   -9999.25  -16.23740   11.48490   10.80050    0.15650    0.08070   10.45610    2.56740    0.02950   -9999.25   -9999.25   -9999.25
 8122.00000   72.24770   10.53890   -9999.25   -9999.25  -16.22560   11.48450   10.77010    0.16300    0.08300   10.47370    2.56410    0.03080   -9999.25   -9999.25   -9999.25
 8122.50000   73.45450   10.36990   -9999.25   -9999.25  -16.10980   11.12220   10.62640    0.16810    0.08630   10.49090    2.55930    0.04120   -9999.25   -9999.25   -9999.25
 8123.00000   74.90520   10.12830   -9999.25   -9999.25  -16.30400   10.81730   10.37880    0.17340    0.09290   10.51190    2.54120    0.05670   -9999.25   -9999.25   -9999.25
 8123.50000   77.08850    9.89240   -9999.25   -9999.25  -16.39240   10.65970   10.13690    0.17910    0.11030   10.53580    2.51420    0.06600   -9999.25   -9999.25   -9999.25
 8124.00000   79.83100    9.75010   -9999.25   -9999.25  -16.06670   10.56450    9.96610    0.17840    0.11970   10.55970    2.49870    0.07610   -9999.25   -9999.25   -9999.25
 8124.50000   81.77200    9.85560   -9999.25   -9999.25  -15.55080   10.59210   10.10700    0.17540    0.11310   10.58360    2.52220    0.08460   -9999.25   -9999.25   -9999.25
 8125.00000   81.78540   10.09920   -9999.25   -9999.25  -15.42660   10.63060   10.35530    0.17280    0.09750   10.60750    2.55510    0.08420   -9999.25   -9999.25   -9999.25
 8125.50000   81.05530   10.34890   -9999.25   -9999.25  -15.53100   10.88800   10.60970    0.17020    0.08170   10.63150    2.57400    0.07480   -9999.25   -9999.25   -9999.25
 8126.00000   81.31740   10.60480   -9999.25   -9999.25  -15.43290   11.16430   10.86320    0.16490    0.07750   10.65540    2.57430    0.06110   -9999.25   -9999.25   -9999.25
 8126.50000   81.76930   10.69950   -9999.25   -9999.25  -15.24440   11.16430   10.93700    0.16070    0.07880   10.67910    2.57300    0.04450   -9999.25   -9999.25   -9999.25
 8127.00000   80.73470   10.78860   -9999.25   -9999.25  -15.44990   11.19960   11.03160    0.15670    0.07980   10.69310    2.57190    0.03590   -9999.25   -9999.25   -9999.25
 8127.50000   76.71860   10.93180   -9999.25   -9999.25  -15.69430   11.33830   11.18760    0.15140    0.07950   10.70530    2.57200    0.03000   -9999.25   -9999.25   -9999.25
 8128.00000   72.96790   11.07730   -9999.25   -9999.25  -15.93860   11.62600   11.32290    0.15050    0.08050   10.71720    2.56730    0.02650   -9999.25   -9999.25   -9999.25
 8128.50000   69.88640   11.14620   -9999.25   -9999.25  -16.12130   11.96810   11.39320    0.14920    0.08520   10.72920    2.56130    0.02460   -9999.25   -9999.25   -9999.25
 8129.00000   69.30370   11.21550   -9999.25   -9999.25  -16.11310   12.30110   11.46390    0.14820    0.08340   10.74110    2.56590    0.02590   -9999.25   -9999.25   -9999.25
 8129.50000   70.46840   11.28520   -9999.25   -9999.25  -16.10480   12.30110   11.53510    0.14780    0.07470   10.75290    2.58080    0.02970   -9999.25   -9999.25   -9999.25
 8130.00000   73.74830   11.35530   -9999.25   -9999.25  -16.23580   12.23300   11.60680    0.14770    0.06800   10.76350    2.59320    0.03010   -9999.25   -9999.25   -9999.25
 8130.50000   77.52470   11.38640   -9999.25   -9999.25  -16.36890   12.09510   11.63620    0.14590    0.07080   10.78990    2.58620    0.02910   -9999.25   -9999.25   -9999.25
 8131.00000   80.80850   11.38640   -9999.25   -9999.25  -16.50200   11.95880   11.63620    0.14120    0.07900   10.85030    2.57230    0.03030   -9999.25   -9999.25   -9999.25
 8131.50000   82.19010   11.30700   -9999.25   -9999.25  -16.65720   11.82410   11.58300    0.14050    0.08650   10.91070    2.55960    0.03540   -9999.25   -9999.25   -9999.25
 8132.00000   84.17150   11.04870   -9999.25   -9999.25  -16.85450   11.69040   11.31830    0.14890    0.09740   10.97110    2.54350    0.04580   -9999.25   -9999.25   -9999.25
 8132.50000   86.67020   10.79620   -9999.25   -9999.25  -17.01310   11.54970   11.05970    0.16350    0.10350   11.03150    2.52970    0.06240   -9999.25   -9999.25   -9999.25
 8133.00000   86.71070   10.63920   -9999.25   -9999.25  -17.20860   11.39910   10.87260    0.17200    0.10160   11.09190    2.53130    0.08110   -9999.25   -9999.25   -9999.25
 8133.50000   84.03030   10.63850   -9999.25   -9999.25  -17.04080   11.38640   10.87260    0.16920    0.09210   11.15230    2.54530    0.10170   -9999.25   -9999.25   -9999.25
 8134.00000   78.96460   10.59150   -9999.25   -9999.25  -16.69600   11.38540   10.82480    0.16640    0.08420   11.21270    2.56170    0.12110   -9999.25   -9999.25   -9999.25
 8134.50000   75.91620   10.54480   -9999.25   -9999.25  -16.36640   11.38380   10.77690    0.16470    0.08940   11.24040    2.56120    0.12920   -9999.25   -9999.25   -9999.25
 8135.00000   77.91810   10.41460   -9999.25   -9999.25  -16.15710   11.30880   10.65330    0.16540    0.10030   11.32180    2.54380    0.13120   -9999.25   -9999.25   -9999.25
 8135.50000   80.85680   10.19830   -9999.25   -9999.25  -16.00820   11.17330   10.52370    0.17450    0.10880   11.43350    2.52480    0.13280   -9999.25   -9999.25   -9999.25
