~Version ---------------------------------------------------
VERS.   2.0 : CWLS log ASCII Standard -VERSION 2.0
WRAP.    NO : One line per depth step
DLM . SPACE : Column Data Section Delimiter
~Well ------------------------------------------------------
STRT .F                 845.0 : START DEPTH
STOP .F                8968.0 : STOP DEPTH
STEP .F                   0.5 : STEP
NULL .               -9999.25 : NULL VALUE
COMP .                        : COMPANY
WELL .                        : WELL
FLD  .                        : FIELD
LOC  .                        : LOCATION
PROV .                        : PROVINCE
CNTY .                        : COUNTY
STAT .                        : STATE
CTRY .                        : COUNTRY
SRVC .                        : SERVICE COMPANY
DATE .                        : DATE
UWI  .                        : UNIQUE WELL ID
API  .                        : API NUMBER
SLAT .WGS84 5.106284331781502 : SURFACE LATITUDE
SLON .WGS84 2.553414967040709 : SURFACE LONGITUDE
DATUM.F                   nan : DEPTH DATUM ELEV
~Curve Information -----------------------------------------
DEPT   .F     : 1 MEASURED DEPTH
GRR    .GAPI  : GAMMA RAY FROM RESISTIVITY LOG
ILD    .OHMM  : INDUCTION DEEP RESISTIVITY
CILD   .MMHO  : INDUCTION DEEP CONDUCTIVITY
SFLA   .OHMM  : SPHERICALLY FOCUSED LOG RESISTIVITY AVERAGED OVER 2.5 FT
SPR    .MV    : SPONTANEOUS POTENTIAL FROM RESISTIVITY LOG
SFLU   .OHMM  : SHALLOW FOCUSED RESISTIVITY (UNAVERAGED)
ILM    .OHMM  : INDUCTION MEDIUM RESISTIVITY
NPHI_LS.DEC   : NEUTRON POROSITY LIMESTONE
DPHI_LS.DEC   : DENSITY POROSITY LIMESTONE
CALD   .IN    : CALIPER FROM DENSITY LOG
RHOB   .G/C3  : BULK DENSITY
DRHO   .G/C3  : BULK DENSITY CORRECTION
DT     .US/F  : DELTA-T (INTERVAL TRANSIT TIME)
DTCO   .US/F  : DELTA-T COMPRESSIONAL
DTSM   .US/F  : DELTA-T SHEAR
~Params ----------------------------------------------------
~Other -----------------------------------------------------
~ASCII -----------------------------------------------------
# ...
 8918.00000   -9999.25    8.25670   -9999.25   -9999.25  -53.56260    9.55710    8.87090    0.22400    0.06210   -9999.25    2.60060    0.00750   74.35150   76.23750  135.34270
 8918.50000   -9999.25    8.10270   -9999.25   -9999.25  -53.12410    9.41950    8.91240    0.22420    0.06190   -9999.25    2.60020    0.01210   75.06120   76.21990  133.80390
 8919.00000   -9999.25    7.95160   -9999.25   -9999.25  -52.68570    9.23640    8.91240    0.22200    0.06040   -9999.25    2.60320    0.01790   75.29030   76.14060  133.91890
 8919.50000   -9999.25    7.85020   -9999.25   -9999.25  -52.24730    9.05390    8.91240    0.22120    0.05850   -9999.25    2.60820    0.02730   74.73130   76.06130  135.23100
 8920.00000   -9999.25    7.80240   -9999.25   -9999.25  -52.96070    8.87420    8.91090    0.22190    0.05480   -9999.25    2.61350    0.03920   73.64970   76.30060  137.25120
 8920.50000   -9999.25    7.70590   -9999.25   -9999.25  -53.78250    8.69800    8.90820    0.22330    0.05300   -9999.25    2.61730    0.05110   73.45700   76.60770  139.27140
 8921.00000   -9999.25    7.60050   -9999.25   -9999.25  -54.43760    8.52530    8.88810    0.22510    0.05330   -9999.25    2.61540    0.05220   73.87440   76.84550  141.08380
 8921.50000   -9999.25    7.43420   -9999.25   -9999.25  -54.73740    8.35610    8.71870    0.22730    0.05850   -9999.25    2.60830    0.04510   74.70490   77.02380  142.68670
 8922.00000   -9999.25    7.24280   -9999.25   -9999.25  -54.75610    8.11010    8.45320    0.22730    0.06430   -9999.25    2.59720    0.03330   75.86720   77.49850  144.28960
 8922.50000   -9999.25    7.06830   -9999.25   -9999.25  -54.75680    7.80620    8.11160   -9999.25    0.06230   -9999.25    2.59850    0.02710   76.93090   78.22440  145.69550
 8923.00000   -9999.25    7.10260   -9999.25   -9999.25  -54.28710    7.66910    7.78390   -9999.25    0.05770   -9999.25    2.60860    0.01900   77.82880   78.95030  145.52470
 8923.50000   -9999.25    7.16500   -9999.25   -9999.25  -53.50690    7.75080    7.66020   -9999.25    0.05640   -9999.25    2.61150    0.01020   78.63260   79.67620  144.64660
 8924.00000   -9999.25    7.39980   -9999.25   -9999.25  -52.05240    7.85090    7.69820   -9999.25    0.05630   -9999.25    2.61140    0.00260   78.91230   80.15110  143.59520
 8924.50000   -9999.25    7.75120   -9999.25   -9999.25  -50.57350    8.16610    8.00090   -9999.25    0.05570   -9999.25    2.61280   -0.00320   78.93190   80.23330  142.29570
 8925.00000   -9999.25    8.12630   -9999.25   -9999.25  -49.48840    9.07040    8.38790   -9999.25    0.05150   -9999.25    2.62080   -0.00330   78.69450   79.88340  139.24790
 8925.50000   -9999.25    8.70010   -9999.25   -9999.25  -48.40320   10.07480    9.24610   -9999.25    0.04330   -9999.25    2.63130   -0.00340   77.06680   78.99730  136.21990
 8926.00000   -9999.25    9.77960   -9999.25   -9999.25  -45.90640   13.19830   10.39440   -9999.25    0.03940   -9999.25    2.64030   -0.00380   75.15400   77.13890  132.48230
 8926.50000   -9999.25   10.99310   -9999.25   -9999.25  -45.45360   17.14980   11.64970   -9999.25    0.04020   -9999.25    2.64160   -0.00560   73.16070   75.08400  126.15800
 8927.00000   -9999.25   12.00620   -9999.25   -9999.25  -45.26000   21.98060   12.83020   -9999.25    0.04300   -9999.25    2.63480   -0.00740   70.92650   72.85590  122.77010
 8927.50000   -9999.25   12.58020   -9999.25   -9999.25  -44.87870   21.59960   12.81950   -9999.25    0.04670   -9999.25    2.62790   -0.00920   68.49130   70.62780  119.38210
 8928.00000   -9999.25   12.46670   -9999.25   -9999.25  -44.83990   16.79030   12.60800   -9999.25    0.04740   -9999.25    2.62570   -0.01070   67.55980   69.27510  118.49610
 8928.50000   -9999.25   12.09320   -9999.25   -9999.25  -44.90280   13.50540   12.40400   -9999.25    0.04750   -9999.25    2.62610   -0.01160   67.70450   69.36120  120.14350
 8929.00000   -9999.25   11.73090   -9999.25   -9999.25  -44.91910   12.92810   12.20330   -9999.25    0.04610   -9999.25    2.62860   -0.01130   68.09260   70.15900  121.66730
 8929.50000   -9999.25   11.37950   -9999.25   -9999.25  -44.86530   12.69730   12.00590   -9999.25    0.04540   -9999.25    2.62920   -0.01030   68.76480   70.91940  123.19110
 8930.00000   -9999.25   11.03850   -9999.25   -9999.25  -45.10780   12.49950   11.81170   -9999.25    0.04860   -9999.25    2.62380   -0.00940   69.43700   71.67980  124.45820
 8930.50000   -9999.25   10.93950   -9999.25   -9999.25  -45.35030   12.02170   11.69410   -9999.25    0.05280   -9999.25    2.61550   -0.00860   70.10920   72.30370  125.62650
 8931.00000   -9999.25   11.26830   -9999.25   -9999.25  -45.65980   11.25290   11.72930   -9999.25    0.05540   -9999.25    2.61280   -0.00860   70.78140   72.43790  126.39900
 8931.50000   -9999.25   11.71820   -9999.25   -9999.25  -46.00070   10.85570   12.10370   -9999.25   -9999.25   -9999.25    2.61360   -0.00910   71.21100   73.01890  127.39130
 8932.00000   -9999.25   12.22150   -9999.25   -9999.25  -46.34150   11.72360   12.58300   -9999.25   -9999.25   -9999.25    2.61680   -0.00980   71.41400   73.65600  126.53870
 8932.50000   -9999.25   12.74650   -9999.25   -9999.25  -46.68880   14.62630   13.12520   -9999.25   -9999.25   -9999.25    2.61950   -0.01060   71.09130   73.56470  124.62670
 8933.00000   -9999.25   13.38390   -9999.25   -9999.25  -47.01710   18.24760   13.82340   -9999.25   -9999.25   -9999.25    2.61980   -0.01110   69.43390   72.07400  121.42650
 8933.50000   -9999.25   14.09580   -9999.25   -9999.25  -47.29720   21.53370   14.55880   -9999.25   -9999.25   -9999.25    2.61900   -0.00910   67.77660   70.13790  118.10320
 8934.00000   -9999.25   14.86260   -9999.25   -9999.25  -47.46530   22.58910   16.17780   -9999.25   -9999.25   -9999.25    2.61790   -0.00560   66.11940   68.15820  115.49000
 8934.50000   -9999.25   15.78510   -9999.25   -9999.25  -47.61390   22.38490   18.62520   -9999.25   -9999.25   -9999.25    2.61710   -0.00200   64.46750   66.17850  113.39530
 8935.00000   -9999.25   16.65480   -9999.25   -9999.25  -47.76250   20.97920   18.23090   -9999.25   -9999.25   -9999.25    2.61310    0.00040   62.81560   65.52500  112.28450
 8935.50000   -9999.25   16.17900   -9999.25   -9999.25  -47.87070   19.66180   17.15560   -9999.25   -9999.25   -9999.25    2.60460    0.00270   62.35520   65.53090  110.80680
 8936.00000   -9999.25   15.41450   -9999.25   -9999.25  -47.65830   18.43350   16.04570   -9999.25   -9999.25   -9999.25    2.60060    0.00470   63.33930   65.80870  112.49710
 8936.50000   -9999.25   14.59980   -9999.25   -9999.25  -47.35610   17.27780   15.09230   -9999.25   -9999.25   -9999.25    2.59740    0.00620   64.65620   66.38770  114.41460
 8937.00000   -9999.25   13.82820   -9999.25   -9999.25  -46.90120   16.38920   14.29470   -9999.25   -9999.25   -9999.25    2.59330    0.00640   65.74110   66.96870  114.16010
 8937.50000   -9999.25   13.09740   -9999.25   -9999.25  -46.61490   15.28510   13.53930   -9999.25   -9999.25   -9999.25   -9999.25   -9999.25   65.98590   67.80190  114.30240
 8938.00000   -9999.25   12.44180   -9999.25   -9999.25  -46.33450   14.24440   12.82380   -9999.25   -9999.25   -9999.25   -9999.25   -9999.25   66.12930   68.63500  116.83220
 8938.50000   -9999.25   11.98160   -9999.25   -9999.25  -46.21060   13.26380   12.32140   -9999.25   -9999.25   -9999.25   -9999.25   -9999.25   66.50370   69.27800  119.83610
 8939.00000   -9999.25   11.53840   -9999.25   -9999.25  -46.21220   12.91650   11.86730   -9999.25   -9999.25   -9999.25   -9999.25   -9999.25   66.87810   69.72610  120.55860
 8939.50000   -9999.25   11.11160   -9999.25   -9999.25  -46.12180   12.88580   11.43000   -9999.25   -9999.25   -9999.25   -9999.25   -9999.25   67.25260   70.08990  119.69310
 8940.00000   -9999.25   10.71440   -9999.25   -9999.25  -46.14700   13.14330   11.00870   -9999.25   -9999.25   -9999.25   -9999.25   -9999.25   67.68270   70.54650  119.51450
 8940.50000   -9999.25   10.52730   -9999.25   -9999.25  -46.19460   12.90650   10.77660   -9999.25   -9999.25   -9999.25   -9999.25   -9999.25   68.12620   70.85200  120.87540
