~Version ---------------------------------------------------
VERS.   2.0 : CWLS log ASCII Standard -VERSION 2.0
WRAP.    NO : One line per depth step
DLM . SPACE : Column Data Section Delimiter
~Well ------------------------------------------------------
STRT .F                 845.0 : START DEPTH
STOP .F                8968.0 : STOP DEPTH
STEP .F                   0.5 : STEP
NULL .               -9999.25 : NULL VALUE
COMP .                        : COMPANY
WELL .                        : WELL
FLD  .                        : FIELD
LOC  .                        : LOCATION
PROV .                        : PROVINCE
CNTY .                        : COUNTY
STAT .                        : STATE
CTRY .                        : COUNTRY
SRVC .                        : SERVICE COMPANY
DATE .                        : DATE
UWI  .                        : UNIQUE WELL ID
API  .                        : API NUMBER
SLAT .WGS84 5.106284331781502 : SURFACE LATITUDE
SLON .WGS84 2.553414967040709 : SURFACE LONGITUDE
DATUM.F                   nan : DEPTH DATUM ELEV
~Curve Information -----------------------------------------
DEPT   .F     : 1 MEASURED DEPTH
GRR    .GAPI  : GAMMA RAY FROM RESISTIVITY LOG
ILD    .OHMM  : INDUCTION DEEP RESISTIVITY
CILD   .MMHO  : INDUCTION DEEP CONDUCTIVITY
SFLA   .OHMM  : SPHERICALLY FOCUSED LOG RESISTIVITY AVERAGED OVER 2.5 FT
SPR    .MV    : SPONTANEOUS POTENTIAL FROM RESISTIVITY LOG
SFLU   .OHMM  : SHALLOW FOCUSED RESISTIVITY (UNAVERAGED)
ILM    .OHMM  : INDUCTION MEDIUM RESISTIVITY
NPHI_LS.DEC   : NEUTRON POROSITY LIMESTONE
DPHI_LS.DEC   : DENSITY POROSITY LIMESTONE
CALD   .IN    : CALIPER FROM DENSITY LOG
RHOB   .G/C3  : BULK DENSITY
DRHO   .G/C3  : BULK DENSITY CORRECTION
DT     .US/F  : DELTA-T (INTERVAL TRANSIT TIME)
DTCO   .US/F  : DELTA-T COMPRESSIONAL
DTSM   .US/F  : DELTA-T SHEAR
~Params ----------------------------------------------------
~Other -----------------------------------------------------
~ASCII -----------------------------------------------------
# ...
 8435.00000  101.15430    9.23760   -9999.25   -9999.25   -5.13510   10.00470    9.51680    0.21440    0.11210   10.53470    2.51760    0.16220   71.62790   75.45930  139.85560
 8435.50000  102.23130    9.19640   -9999.25   -9999.25   -4.87250    9.97020    9.50480    0.21320    0.09670   10.51730    2.53870    0.15820   71.80590   75.52110  137.71770
 8436.00000  102.89260    9.17870   -9999.25   -9999.25   -4.60990    9.93590    9.49290    0.21070    0.09150   10.50370    2.55220    0.15090   72.19630   75.60160  137.39070
 8436.50000  101.81430    9.17870   -9999.25   -9999.25   -4.34730    9.90170    9.48100    0.20900    0.09160   10.51790    2.55380    0.14310   71.97680   75.43250  138.88720
 8437.00000  100.85760    9.17870   -9999.25   -9999.25   -4.26840    9.86750    9.46910    0.21400    0.10030   10.49890    2.54250    0.13550   71.42300   75.43440  140.57850
 8437.50000  101.11180    9.17690   -9999.25   -9999.25   -4.27010    9.83350    9.45720    0.22160    0.11000   10.47180    2.52040    0.12970   71.14050   75.43640  140.72210
 8438.00000  102.24230    9.15960   -9999.25   -9999.25   -4.31990    9.79970    9.44530    0.22440    0.11530   10.45600    2.51350    0.12310   71.84140   75.43950  139.98070
 8438.50000  103.75140    9.14220   -9999.25   -9999.25   -4.53940    9.76590    9.43340    0.22410    0.11480   10.45690    2.51440    0.11570   72.74460   75.44640  138.77610
 8439.00000  105.71760    9.12490   -9999.25   -9999.25   -4.75890    9.73220    9.42160    0.22030    0.10700   10.45780    2.52610    0.11390   73.06350   75.44830  137.70000
 8439.50000  109.11410    9.10760   -9999.25   -9999.25   -4.97850    9.69870    9.40970    0.22310    0.09930   10.45710    2.53520    0.11210   72.98650   75.45020  136.95240
 8440.00000  111.26140    9.09030   -9999.25   -9999.25   -5.19800    9.66530    9.39790    0.22780    0.10100   10.45620    2.53100    0.11630   72.63710   75.63160  138.95930
 8440.50000  107.74220    9.06870   -9999.25   -9999.25   -5.41750    9.63200    9.38610    0.23120    0.10620   10.45530    2.52450    0.12190   72.28760   75.80160  141.78740
 8441.00000  104.02730    9.04320   -9999.25   -9999.25   -5.46550    9.62520    9.38300    0.23090    0.10670   10.45440    2.52540    0.12850   72.09900   75.69760  144.82930
 8441.50000  102.13190    9.01780   -9999.25   -9999.25   -5.46550    9.62530    9.38720    0.23110    0.10130   10.45440    2.53430    0.13500   72.39300   75.68580  145.15590
 8442.00000  102.97510    8.99240   -9999.25   -9999.25   -5.45820    9.65250    9.40920    0.24000    0.10020   10.48060    2.53460    0.13430   72.94050   75.66820  145.01360
 8442.50000  105.27700    8.99100   -9999.25   -9999.25   -5.44710    9.67970    9.43120    0.23980    0.10020   10.49180    2.53530    0.12530   72.94050   75.49750  144.61630
 8443.00000  107.57890    8.99020   -9999.25   -9999.25   -5.43610    9.70690    9.45330    0.23440    0.09780   10.48320    2.54480    0.12370   72.41730   75.50730  144.02080
 8443.50000  109.47980    8.98940   -9999.25   -9999.25   -5.42500    9.75550    9.47540    0.22910    0.08980   10.46880    2.55500    0.12210   72.10730   75.20720  142.36600
 8444.00000  109.07770    8.96180   -9999.25   -9999.25   -5.41400    9.81340    9.49760    0.22650    0.08920   10.39850    2.54580    0.12050   72.18080   74.93880  140.58630
 8444.50000  106.54370    8.93090   -9999.25   -9999.25   -5.40300    9.87160    9.51980    0.22740    0.09860   10.32440    2.53580    0.11950   72.56300   74.97560  138.80650
 8445.00000  104.22440    8.90010   -9999.25   -9999.25   -5.39190    9.93020    9.54210    0.22770    0.09960   10.30950    2.54290    0.12440   72.49310   75.22260  138.86720
 8445.50000  102.40450    8.87060   -9999.25   -9999.25   -5.38090    9.98920    9.55580    0.22480    0.08910   10.33430    2.55420    0.12690   72.27080   75.42610  140.50060
 8446.00000  102.14740    8.84130   -9999.25   -9999.25   -5.36980   10.04850    9.50970    0.22090    0.08570   10.36420    2.55930    0.11750   72.18510   75.56360  142.74110
 8446.50000  103.66440    8.81200   -9999.25   -9999.25   -5.35880   10.01630    9.46380    0.22230    0.09060   10.39410    2.54920    0.10990   72.50930   75.55350  142.95360
 8447.00000  104.30190    8.81330   -9999.25   -9999.25   -5.34780    9.86340    9.43730    0.22720    0.09560   10.41770    2.54270    0.11010   73.55130   75.50610  143.09550
 8447.50000  103.84150    8.83450   -9999.25   -9999.25   -5.33670    9.77500    9.41420    0.23050    0.09820   10.40190    2.53930    0.11040   74.56720   75.60000  143.14830
 8448.00000  103.44320    8.85580   -9999.25   -9999.25   -5.32570    9.68740    9.39130    0.23220    0.09770   10.34380    2.54090    0.11470   74.33320   75.63520  142.65940
 8448.50000  104.07870    8.87170   -9999.25   -9999.25   -5.31460    9.76320    9.36830    0.23240    0.09330   10.30950    2.54540    0.11930   73.38800   75.67030  141.48940
 8449.00000  104.74640    8.86770   -9999.25   -9999.25   -5.30360    9.77150    9.34550    0.23140    0.09130   10.31740    2.55080    0.12770   73.12040   75.73270  140.32110
 8449.50000  105.19970    8.86370   -9999.25   -9999.25   -5.29250    9.76710    9.33920    0.23120    0.09470   10.32670    2.54600    0.13610   73.12810   75.72690  139.15570
 8450.00000  103.85750    8.86090   -9999.25   -9999.25   -5.28150    9.75540    9.33640    0.23430    0.10460   10.33610    2.52770    0.14160   73.13360   75.71860  137.99030
 8450.50000  102.88270    8.86120   -9999.25   -9999.25   -5.27050    9.69280    9.33300    0.23590    0.11000   10.34540    2.51970    0.14520   73.13870   75.71040  137.61600
 8451.00000  105.15410    8.86150   -9999.25   -9999.25   -5.25940    9.60200    9.32600    0.22900    0.10020   10.34520    2.53280    0.14900   73.14180   75.70220  139.08960
 8451.50000  107.35800    8.86180   -9999.25   -9999.25   -5.24840    9.59180    9.31900    0.21980    0.08270   10.32340    2.55660    0.15280   73.14380   75.69400  140.93370
 8452.00000  109.56190    8.86240   -9999.25   -9999.25   -5.23730    9.71760    9.31200    0.21710    0.08260   10.27010    2.56100    0.14770   73.98540   75.69160  142.93790
 8452.50000  109.06350    8.86320   -9999.25   -9999.25   -5.22630    9.73230    9.30500    0.22300    0.09720   10.25150    2.54120    0.13590   75.05710   75.63830  144.39270
 8453.00000  106.59340    8.86400   -9999.25   -9999.25   -5.21530    9.67820    9.29800    0.22840    0.10530   10.32240    2.52690    0.12890   75.05910   75.47090  141.12310
 8453.50000  105.45390    8.86480   -9999.25   -9999.25   -5.20420    9.67390    9.29100    0.22900    0.10080   10.34420    2.53140    0.12710   74.05660   75.30360  136.40600
 8454.00000  108.39410    8.86470   -9999.25   -9999.25   -5.17510    9.67480    9.28400    0.23070    0.09580   10.30350    2.54170    0.12680   72.98940   75.47380  135.93170
 8454.50000  112.10760    8.86210   -9999.25   -9999.25   -5.12730    9.66580    9.27700    0.23260    0.10920   10.28600    2.52680    0.12790   73.16560   75.71310  139.21620
 8455.00000  113.35330    8.85950   -9999.25   -9999.25   -5.07940    9.65370    9.27000    0.22930    0.12730   10.34760    2.49540    0.12940   74.20200   75.88770  142.54510
 8455.50000  110.86000    8.85690   -9999.25   -9999.25   -5.03160    9.64160    9.26310    0.22470    0.13470   10.42450    2.47330    0.13310   74.22010   76.06220  145.50910
 8456.00000  107.72530    8.85400   -9999.25   -9999.25   -4.98380    9.62950    9.25610    0.22110    0.12380   10.45130    2.49310    0.13740   73.55700   76.12890  147.55690
 8456.50000  104.77480    8.84990   -9999.25   -9999.25   -4.93590    9.61750    9.24920    0.21740    0.10150   10.40630    2.52510    0.14150   72.89250   76.09980  149.26240
 8457.00000  102.51800    8.84590   -9999.25   -9999.25   -4.88810    9.60550    9.24220    0.21660    0.08560   10.33810    2.55720    0.14530   72.74090   76.39710  146.95720
 8457.50000  101.89330    8.84190   -9999.25   -9999.25   -4.84020    9.59350    9.23530    0.21670    0.08100   10.32440    2.56750    0.14930   73.21260   76.49840  144.83470
