~Version ---------------------------------------------------
VERS.   2.0 : CWLS log ASCII Standard -VERSION 2.0
WRAP.    NO : One line per depth step
DLM . SPACE : Column Data Section Delimiter
~Well ------------------------------------------------------
STRT .F                 845.0 : START DEPTH
STOP .F                8968.0 : STOP DEPTH
STEP .F                   0.5 : STEP
NULL .               -9999.25 : NULL VALUE
COMP .                        : COMPANY
WELL .                        : WELL
FLD  .                        : FIELD
LOC  .                        : LOCATION
PROV .                        : PROVINCE
CNTY .                        : COUNTY
STAT .                        : STATE
CTRY .                        : COUNTRY
SRVC .                        : SERVICE COMPANY
DATE .                        : DATE
UWI  .                        : UNIQUE WELL ID
API  .                        : API NUMBER
SLAT .WGS84 5.106284331781502 : SURFACE LATITUDE
SLON .WGS84 2.553414967040709 : SURFACE LONGITUDE
DATUM.F                   nan : DEPTH DATUM ELEV
~Curve Information -----------------------------------------
DEPT   .F     : 1 MEASURED DEPTH
GRR    .GAPI  : GAMMA RAY FROM RESISTIVITY LOG
ILD    .OHMM  : INDUCTION DEEP RESISTIVITY
CILD   .MMHO  : INDUCTION DEEP CONDUCTIVITY
SFLA   .OHMM  : SPHERICALLY FOCUSED LOG RESISTIVITY AVERAGED OVER 2.5 FT
SPR    .MV    : SPONTANEOUS POTENTIAL FROM RESISTIVITY LOG
SFLU   .OHMM  : SHALLOW FOCUSED RESISTIVITY (UNAVERAGED)
ILM    .OHMM  : INDUCTION MEDIUM RESISTIVITY
NPHI_LS.DEC   : NEUTRON POROSITY LIMESTONE
DPHI_LS.DEC   : DENSITY POROSITY LIMESTONE
CALD   .IN    : CALIPER FROM DENSITY LOG
RHOB   .G/C3  : BULK DENSITY
DRHO   .G/C3  : BULK DENSITY CORRECTION
DT     .US/F  : DELTA-T (INTERVAL TRANSIT TIME)
DTCO   .US/F  : DELTA-T COMPRESSIONAL
DTSM   .US/F  : DELTA-T SHEAR
~Params ----------------------------------------------------
~Other -----------------------------------------------------
~ASCII -----------------------------------------------------
# ...
 6664.00000   61.57840    4.90820   -9999.25   -9999.25  -12.90100    4.44360    4.53200    0.18560    0.10710   12.43450    2.52340    0.00990   -9999.25   -9999.25   -9999.25
 6664.50000   65.55590    5.06550   -9999.25   -9999.25  -11.97800    4.43950    4.57290    0.19120    0.10370   12.46390    2.52990    0.01640   -9999.25   -9999.25   -9999.25
 6665.00000   70.12150    5.22790   -9999.25   -9999.25  -11.05500    4.46350    4.76770    0.19630    0.10150   12.48800    2.53150    0.02510   -9999.25   -9999.25   -9999.25
 6665.50000   75.35550    5.39540   -9999.25   -9999.25  -10.27680    4.58870    5.03180    0.20480    0.10490   12.51050    2.52920    0.02710   -9999.25   -9999.25   -9999.25
 6666.00000   78.23290    5.56830   -9999.25   -9999.25   -9.10010    4.92900    5.31050    0.21230    0.10620   12.54300    2.52670    0.02490   -9999.25   -9999.25   -9999.25
 6666.50000   77.71700    5.75870   -9999.25   -9999.25   -7.90380    5.31980    5.54430    0.21000    0.10730   12.56720    2.52480    0.02170   -9999.25   -9999.25   -9999.25
 6667.00000   76.55670    5.95730   -9999.25   -9999.25   -7.37810    5.74160    5.74320    0.20760    0.11400   12.59130    2.51330    0.01710   -9999.25   -9999.25   -9999.25
 6667.50000   76.60000    6.16270   -9999.25   -9999.25   -6.29020    6.09280    5.94130    0.21130    0.13020   12.64770    2.48960    0.01090   -9999.25   -9999.25   -9999.25
 6668.00000   78.67730    6.37520   -9999.25   -9999.25   -5.20230    6.27670    6.14620    0.21980    0.14270   12.70290    2.47100    0.01220   -9999.25   -9999.25   -9999.25
 6668.50000   81.32760    6.59510   -9999.25   -9999.25   -4.35900    6.46610    6.31070    0.22210    0.14420   12.75750    2.46120    0.01960   -9999.25   -9999.25   -9999.25
 6669.00000   82.23780    6.82250   -9999.25   -9999.25   -3.69850    6.66120    6.37470    0.22100    0.14230   12.82070    2.46220    0.02770   -9999.25   -9999.25   -9999.25
 6669.50000   82.36680    6.94270   -9999.25   -9999.25   -3.07070    6.81160    6.43930    0.21980    0.13880   12.87780    2.46860    0.03780   -9999.25   -9999.25   -9999.25
 6670.00000   81.23640    6.93050   -9999.25   -9999.25   -2.58480    6.80480    6.50450    0.22130    0.13190   12.87800    2.47920    0.04040   -9999.25   -9999.25   -9999.25
 6670.50000   79.93140    6.91830   -9999.25   -9999.25   -2.09900    6.80170    6.57040    0.22200    0.12630   12.87820    2.48860    0.04160   -9999.25   -9999.25   -9999.25
 6671.00000   78.67130    6.90620   -9999.25   -9999.25   -1.61310    6.74720    6.60420    0.21730    0.12390   12.87150    2.49660    0.03780   -9999.25   -9999.25   -9999.25
 6671.50000   76.10690    6.89410   -9999.25   -9999.25   -1.12730    6.58410    6.60210    0.21270    0.12340   12.86130    2.49600    0.03520   -9999.25   -9999.25   -9999.25
 6672.00000   75.12170    6.88190   -9999.25   -9999.25   -0.64140    6.35610    6.57910    0.21440    0.12790   13.20570    2.49270    0.03790   -9999.25   -9999.25   -9999.25
 6672.50000   75.92610    6.81010   -9999.25   -9999.25   -0.40100    6.13610    6.48480    0.22060    0.13720   13.85120    2.47790    0.04250   -9999.25   -9999.25   -9999.25
 6673.00000   77.33510    6.72870   -9999.25   -9999.25   -0.44100    5.92370    6.39190    0.22570    0.14260   14.62620    2.46690    0.05380   -9999.25   -9999.25   -9999.25
 6673.50000   78.54550    6.64830   -9999.25   -9999.25   -0.48100    5.71860    6.30030    0.22720    0.14030   14.39530    2.46450    0.06870   -9999.25   -9999.25   -9999.25
 6674.00000   78.67740    6.56880   -9999.25   -9999.25   -0.52100    5.70350    6.21010    0.22780    0.13440   13.66720    2.47140    0.08360   -9999.25   -9999.25   -9999.25
 6674.50000   78.38910    6.48690   -9999.25   -9999.25   -0.28660    5.75550    6.14620    0.22630    0.12790   13.18170    2.48640    0.09850   -9999.25   -9999.25   -9999.25
 6675.00000   78.07470    6.40280   -9999.25   -9999.25    0.90510    5.80810    6.11280    0.22220    0.12260   13.02290    2.49470    0.10130   -9999.25   -9999.25   -9999.25
 6675.50000   78.04340    6.33650   -9999.25   -9999.25    3.57100    5.86110    6.10190    0.21700    0.12030   12.94760    2.49860    0.09340   -9999.25   -9999.25   -9999.25
 6676.00000   78.05120    6.31210   -9999.25   -9999.25    6.23700    5.91460    6.10180    0.21290    0.10990   12.87870    2.50820    0.08220   -9999.25   -9999.25   -9999.25
 6676.50000   78.01370    6.28790   -9999.25   -9999.25    7.93010    5.97910    6.10100    0.20940    0.09440   12.87880    2.53320    0.06920   -9999.25   -9999.25   -9999.25
 6677.00000   77.23040    6.28230   -9999.25   -9999.25    8.83600    6.04120    6.10020    0.20650    0.09050   12.89220    2.55630    0.05770   -9999.25   -9999.25   -9999.25
 6677.50000   76.54390    6.28230   -9999.25   -9999.25    9.74200    6.01430    6.09950    0.20230    0.10120   12.90650    2.54510    0.04590   -9999.25   -9999.25   -9999.25
 6678.00000   77.48150    6.28230   -9999.25   -9999.25   10.78070    5.98760    6.09940    0.19500    0.11180   12.92110    2.52330    0.03810   -9999.25   -9999.25   -9999.25
 6678.50000   79.39270    6.28230   -9999.25   -9999.25   12.33260    5.96100    6.09960    0.19330    0.12220   12.93700    2.50280    0.03960   -9999.25   -9999.25   -9999.25
 6679.00000   80.95320    6.28240   -9999.25   -9999.25   12.70260    5.93450    6.09970    0.19400    0.12400   12.96080    2.49770    0.04680   -9999.25   -9999.25   -9999.25
 6679.50000   81.51930    6.28250   -9999.25   -9999.25   12.59130    5.90810    6.09990    0.19720    0.12580   12.98170    2.49430    0.06110   -9999.25   -9999.25   -9999.25
 6680.00000   82.58620    6.28250   -9999.25   -9999.25   12.11390    5.88180    6.10010    0.20400    0.13450   13.06300    2.48110    0.07760   -9999.25   -9999.25   -9999.25
 6680.50000   83.81700    6.28220   -9999.25   -9999.25   11.64090    5.85570    6.07110    0.21030    0.14350   13.17970    2.46590    0.09400   -9999.25   -9999.25   -9999.25
 6681.00000   85.78340    6.28130   -9999.25   -9999.25   11.14400    5.82960    6.04200    0.21420    0.15220   13.22410    2.44960    0.11570   -9999.25   -9999.25   -9999.25
 6681.50000   87.04980    6.28050   -9999.25   -9999.25   10.46300    5.80010    6.01310    0.22370    0.16490   13.26100    2.43150    0.12740   -9999.25   -9999.25   -9999.25
 6682.00000   87.78190    6.27960   -9999.25   -9999.25    9.97320    5.76200    5.98440    0.23700    0.17930   13.37310    2.40300    0.12750   -9999.25   -9999.25   -9999.25
 6682.50000   88.49390    6.27880   -9999.25   -9999.25    9.92440    5.72420    5.95570    0.25150    0.18990   13.50530    2.38330    0.12310   -9999.25   -9999.25   -9999.25
 6683.00000   89.27570    6.27790   -9999.25   -9999.25    9.87570    5.69260    5.92720    0.25960    0.19480   13.65020    2.37580    0.11000   -9999.25   -9999.25   -9999.25
 6683.50000   88.45260    6.27680   -9999.25   -9999.25    9.82690    5.67620    5.95130    0.26450    0.19350   13.67930    2.37930    0.09270   -9999.25   -9999.25   -9999.25
 6684.00000   86.18990    6.27570   -9999.25   -9999.25   10.15830    5.65990    5.98040    0.26880    0.18410   13.73110    2.39220    0.07690   -9999.25   -9999.25   -9999.25
 6684.50000   85.12370    6.27450   -9999.25   -9999.25   10.43960    5.64370    5.99560    0.26920    0.17410   13.78490    2.41190    0.06240   -9999.25   -9999.25   -9999.25
 6685.00000   85.16430    6.27340   -9999.25   -9999.25   10.52600    5.69270    6.01080    0.25660    0.16150   13.68970    2.43370    0.05640   -9999.25   -9999.25   -9999.25
 6685.50000   85.36060    6.27310   -9999.25   -9999.25   10.69990    5.80440    6.02610    0.23930    0.13700   13.51760    2.47310    0.06470   -9999.25   -9999.25   -9999.25
 6686.00000   84.55530    6.27080   -9999.25   -9999.25   11.33410    5.98160    6.03420    0.22170    0.11770   13.36590    2.50560    0.07470   -9999.25   -9999.25   -9999.25
 6686.50000   83.49290    6.26450   -9999.25   -9999.25   12.10280    6.23010    6.03420    0.21190    0.12290   13.27630    2.49390    0.08340   -9999.25   -9999.25   -9999.25
