~Version ---------------------------------------------------
VERS.   2.0 : CWLS log ASCII Standard -VERSION 2.0
WRAP.    NO : One line per depth step
DLM . SPACE : Column Data Section Delimiter
~Well ------------------------------------------------------
STRT .F                 845.0 : START DEPTH
STOP .F                8968.0 : STOP DEPTH
STEP .F                   0.5 : STEP
NULL .               -9999.25 : NULL VALUE
COMP .                        : COMPANY
WELL .                        : WELL
FLD  .                        : FIELD
LOC  .                        : LOCATION
PROV .                        : PROVINCE
CNTY .                        : COUNTY
STAT .                        : STATE
CTRY .                        : COUNTRY
SRVC .                        : SERVICE COMPANY
DATE .                        : DATE
UWI  .                        : UNIQUE WELL ID
API  .                        : API NUMBER
SLAT .WGS84 5.106284331781502 : SURFACE LATITUDE
SLON .WGS84 2.553414967040709 : SURFACE LONGITUDE
DATUM.F                   nan : DEPTH DATUM ELEV
~Curve Information -----------------------------------------
DEPT   .F     : 1 MEASURED DEPTH
GRR    .GAPI  : GAMMA RAY FROM RESISTIVITY LOG
ILD    .OHMM  : INDUCTION DEEP RESISTIVITY
CILD   .MMHO  : INDUCTION DEEP CONDUCTIVITY
SFLA   .OHMM  : SPHERICALLY FOCUSED LOG RESISTIVITY AVERAGED OVER 2.5 FT
SPR    .MV    : SPONTANEOUS POTENTIAL FROM RESISTIVITY LOG
SFLU   .OHMM  : SHALLOW FOCUSED RESISTIVITY (UNAVERAGED)
ILM    .OHMM  : INDUCTION MEDIUM RESISTIVITY
NPHI_LS.DEC   : NEUTRON POROSITY LIMESTONE
DPHI_LS.DEC   : DENSITY POROSITY LIMESTONE
CALD   .IN    : CALIPER FROM DENSITY LOG
RHOB   .G/C3  : BULK DENSITY
DRHO   .G/C3  : BULK DENSITY CORRECTION
DT     .US/F  : DELTA-T (INTERVAL TRANSIT TIME)
DTCO   .US/F  : DELTA-T COMPRESSIONAL
DTSM   .US/F  : DELTA-T SHEAR
~Params ----------------------------------------------------
~Other -----------------------------------------------------
~ASCII -----------------------------------------------------
# ...
 7147.00000   25.38410    7.37390   -9999.25   -9999.25  -91.00820   34.62340   11.90600    0.07010    0.08130    8.89430    2.56790    0.00470   -9999.25   -9999.25   -9999.25
 7147.50000   28.69830    6.34520   -9999.25   -9999.25  -91.62190   34.87680   10.39160    0.07990    0.08440    8.92790    2.56200    0.00340   -9999.25   -9999.25   -9999.25
 7148.00000   34.57780    5.29410   -9999.25   -9999.25  -91.03720   30.56330    8.33470    0.09530    0.10710    8.99780    2.54630    0.00200   -9999.25   -9999.25   -9999.25
 7148.50000   40.72640    4.41720   -9999.25   -9999.25  -89.18720   19.05550    6.53210    0.11970    0.13590    9.06910    2.47790    0.00140   -9999.25   -9999.25   -9999.25
 7149.00000   47.06700    3.98840   -9999.25   -9999.25  -86.84050   11.70750    5.23210    0.14360    0.13700    9.14040    2.47250    0.00200   -9999.25   -9999.25   -9999.25
 7149.50000   52.02440    3.65090   -9999.25   -9999.25  -83.49310    7.82330    4.68630    0.14650    0.13620    9.21170    2.47810    0.00340   -9999.25   -9999.25   -9999.25
 7150.00000   48.15900    3.34190   -9999.25   -9999.25  -79.36760    7.60530    4.23470    0.14690    0.13510    9.26950    2.47950    0.00550   -9999.25   -9999.25   -9999.25
 7150.50000   42.50970    3.11130   -9999.25   -9999.25  -78.91140    9.33750    4.02590    0.13890    0.15120    9.29970    2.45610    0.00760   -9999.25   -9999.25   -9999.25
 7151.00000   40.57040    2.98310   -9999.25   -9999.25  -80.72010   11.46420    3.82750    0.13130    0.15650    9.35480    2.43660    0.00880   -9999.25   -9999.25   -9999.25
 7151.50000   44.59720    2.98150   -9999.25   -9999.25  -82.52870   11.51650    3.64570    0.13290    0.15140    9.47350    2.43740    0.00980   -9999.25   -9999.25   -9999.25
 7152.00000   52.80570    3.01810   -9999.25   -9999.25  -83.12150    9.35690    3.52910    0.14670    0.13150    9.64170    2.46900    0.01160   -9999.25   -9999.25   -9999.25
 7152.50000   62.02620    3.07970   -9999.25   -9999.25  -79.76740    6.30170    3.45410    0.16050    0.11640    9.84270    2.51160    0.01410   -9999.25   -9999.25   -9999.25
 7153.00000   69.43500    3.20370   -9999.25   -9999.25  -75.41410    4.96530    3.47800    0.17400    0.12010    9.90800    2.50500    0.01650   -9999.25   -9999.25   -9999.25
 7153.50000   68.16370    3.33800   -9999.25   -9999.25  -71.06070    4.28650    3.62560    0.17920    0.12670    9.95200    2.49310    0.01710   -9999.25   -9999.25   -9999.25
 7154.00000   60.05920    3.57100   -9999.25   -9999.25  -66.70740    3.84810    3.84260    0.16380    0.12680    9.99680    2.48800    0.01760   -9999.25   -9999.25   -9999.25
 7154.50000   51.58130    3.82030   -9999.25   -9999.25  -66.34760    4.32980    4.17110    0.14090    0.11980   10.04150    2.49680    0.01750   -9999.25   -9999.25   -9999.25
 7155.00000   45.86520    4.08700   -9999.25   -9999.25  -66.83700    5.36270    4.52770    0.12500    0.10310   10.07360    2.51750    0.01510   -9999.25   -9999.25   -9999.25
 7155.50000   48.59780    4.37230   -9999.25   -9999.25  -67.69070    6.81560    4.86640    0.12210    0.09370   10.04080    2.54190    0.01380   -9999.25   -9999.25   -9999.25
 7156.00000   53.96810    4.65730   -9999.25   -9999.25  -68.24990    8.29690    4.90090    0.13350    0.09340    9.98880    2.54730    0.00910   -9999.25   -9999.25   -9999.25
 7156.50000   67.52520    4.83370   -9999.25   -9999.25  -68.04510    7.66850    4.93560    0.14610    0.09660    9.98880    2.54440    0.00180   -9999.25   -9999.25   -9999.25
 7157.00000   69.96620    4.91360   -9999.25   -9999.25  -66.33820    6.63500    4.97050    0.15400    0.10000    9.98890    2.53880    0.00060   -9999.25   -9999.25   -9999.25
 7157.50000   68.55010    4.90510   -9999.25   -9999.25  -63.65290    5.74470    5.00570    0.15480    0.10240    9.99340    2.53330    0.00060   -9999.25   -9999.25   -9999.25
 7158.00000   62.20280    4.88340   -9999.25   -9999.25  -60.96760    5.47050    5.01270    0.14530    0.10290    9.99790    2.53250    0.00010   -9999.25   -9999.25   -9999.25
 7158.50000   53.00900    4.83800   -9999.25   -9999.25  -61.07060    5.53750    4.96000    0.13360    0.10040   10.00230    2.53400   -0.00160   -9999.25   -9999.25   -9999.25
 7159.00000   46.31990    4.75230   -9999.25   -9999.25  -64.12860    5.97990    4.91890    0.12500    0.09590   10.00680    2.54070   -0.00320   -9999.25   -9999.25   -9999.25
 7159.50000   44.72430    4.73280   -9999.25   -9999.25  -67.18650    6.45770    4.94570    0.11650    0.08830    9.99190    2.54900   -0.00490   -9999.25   -9999.25   -9999.25
 7160.00000   45.98070    4.88310   -9999.25   -9999.25  -70.24450    6.69260    5.05390    0.11000    0.08020    9.97520    2.56350   -0.00440   -9999.25   -9999.25   -9999.25
 7160.50000   49.12780    5.06700   -9999.25   -9999.25  -72.88380    6.78800    5.21960    0.10960    0.08080   10.05130    2.56980   -0.00300   -9999.25   -9999.25   -9999.25
 7161.00000   52.65100    5.25780   -9999.25   -9999.25  -73.20280    6.85340    5.39080    0.12170    0.08720   10.15780    2.55860   -0.00360   -9999.25   -9999.25   -9999.25
 7161.50000   58.44980    5.45580   -9999.25   -9999.25  -71.65920    6.67750    5.56760    0.13730    0.09690   10.26440    2.54250   -0.00110   -9999.25   -9999.25   -9999.25
 7162.00000   62.77540    5.59420   -9999.25   -9999.25  -69.00710    6.32260    5.70390    0.15030    0.10940   10.37050    2.52340    0.00960   -9999.25   -9999.25   -9999.25
 7162.50000   61.48690    5.57240   -9999.25   -9999.25  -66.52000    5.98650    5.70650    0.14180    0.11640   10.47640    2.50780    0.02520   -9999.25   -9999.25   -9999.25
 7163.00000   55.96630    5.50670   -9999.25   -9999.25  -64.59000    5.77910    5.38110    0.12720    0.12120   10.58230    2.50040    0.03700   -9999.25   -9999.25   -9999.25
 7163.50000   49.71680    5.29830   -9999.25   -9999.25  -65.02640    6.92910    5.06970    0.11890    0.12270   10.67560    2.50030    0.03670   -9999.25   -9999.25   -9999.25
 7164.00000   44.97010    5.06700   -9999.25   -9999.25  -67.66960    7.69250    4.84300    0.12720    0.11570   10.74830    2.51090    0.03120   -9999.25   -9999.25   -9999.25
 7164.50000   44.75390    4.84630   -9999.25   -9999.25  -70.41830    7.13980    4.72990    0.13680    0.10940   10.79640    2.52080    0.01950   -9999.25   -9999.25   -9999.25
 7165.00000   46.22980    4.74910   -9999.25   -9999.25  -72.24210    5.94880    4.62070    0.13930    0.10770   10.84440    2.52360    0.00530   -9999.25   -9999.25   -9999.25
 7165.50000   49.08490    4.67240   -9999.25   -9999.25  -72.89290    5.37440    4.51410    0.13460    0.10250   10.88710    2.53300   -0.00310   -9999.25   -9999.25   -9999.25
 7166.00000   52.15080    4.70360   -9999.25   -9999.25  -71.93350    5.35230    4.49330    0.13250    0.09210   10.92900    2.54720   -0.00540   -9999.25   -9999.25   -9999.25
 7166.50000   55.09040    4.76300   -9999.25   -9999.25  -70.45940    5.32170    4.57360    0.13920    0.08810   10.99990    2.55640   -0.00760   -9999.25   -9999.25   -9999.25
 7167.00000   56.81090    4.84750   -9999.25   -9999.25  -68.98530    5.22400    4.68070    0.14890    0.09050   11.05070    2.55230   -0.00950   -9999.25   -9999.25   -9999.25
 7167.50000   59.13170    4.94250   -9999.25   -9999.25  -66.63020    4.89890    4.79020    0.15560    0.09360   11.11050    2.54570   -0.01150   -9999.25   -9999.25   -9999.25
 7168.00000   60.43630    5.06720   -9999.25   -9999.25  -63.70410    4.73620    4.90240    0.15680    0.09770   11.18580    2.54000   -0.01160   -9999.25   -9999.25   -9999.25
 7168.50000   60.61460    5.20030   -9999.25   -9999.25  -61.51760    5.06770    5.00960    0.15670    0.10160   11.22280    2.53420   -0.01140   -9999.25   -9999.25   -9999.25
 7169.00000   60.64150    5.33970   -9999.25   -9999.25  -60.10620    5.31970    5.10960    0.15660    0.10460   11.23830    2.52930   -0.00960   -9999.25   -9999.25   -9999.25
 7169.50000   60.66840    5.48290   -9999.25   -9999.25  -58.69470    5.12640    5.21160    0.15650    0.10430   11.27090    2.52880   -0.00870   -9999.25   -9999.25   -9999.25
