~Version ---------------------------------------------------
VERS.   2.0 : CWLS log ASCII Standard -VERSION 2.0
WRAP.    NO : One line per depth step
DLM . SPACE : Column Data Section Delimiter
~Well ------------------------------------------------------
STRT .F                 845.0 : START DEPTH
STOP .F                8968.0 : STOP DEPTH
STEP .F                   0.5 : STEP
NULL .               -9999.25 : NULL VALUE
COMP .                        : COMPANY
WELL .                        : WELL
FLD  .                        : FIELD
LOC  .                        : LOCATION
PROV .                        : PROVINCE
CNTY .                        : COUNTY
STAT .                        : STATE
CTRY .                        : COUNTRY
SRVC .                        : SERVICE COMPANY
DATE .                        : DATE
UWI  .                        : UNIQUE WELL ID
API  .                        : API NUMBER
SLAT .WGS84 5.106284331781502 : SURFACE LATITUDE
SLON .WGS84 2.553414967040709 : SURFACE LONGITUDE
DATUM.F                   nan : DEPTH DATUM ELEV
~Curve Information -----------------------------------------
DEPT   .F     : 1 MEASURED DEPTH
GRR    .GAPI  : GAMMA RAY FROM RESISTIVITY LOG
ILD    .OHMM  : INDUCTION DEEP RESISTIVITY
CILD   .MMHO  : INDUCTION DEEP CONDUCTIVITY
SFLA   .OHMM  : SPHERICALLY FOCUSED LOG RESISTIVITY AVERAGED OVER 2.5 FT
SPR    .MV    : SPONTANEOUS POTENTIAL FROM RESISTIVITY LOG
SFLU   .OHMM  : SHALLOW FOCUSED RESISTIVITY (UNAVERAGED)
ILM    .OHMM  : INDUCTION MEDIUM RESISTIVITY
NPHI_LS.DEC   : NEUTRON POROSITY LIMESTONE
DPHI_LS.DEC   : DENSITY POROSITY LIMESTONE
CALD   .IN    : CALIPER FROM DENSITY LOG
RHOB   .G/C3  : BULK DENSITY
DRHO   .G/C3  : BULK DENSITY CORRECTION
DT     .US/F  : DELTA-T (INTERVAL TRANSIT TIME)
DTCO   .US/F  : DELTA-T COMPRESSIONAL
DTSM   .US/F  : DELTA-T SHEAR
~Params ----------------------------------------------------
~Other -----------------------------------------------------
~ASCII -----------------------------------------------------
# ...
 7469.00000   91.35930    6.86270   -9999.25   -9999.25  -33.76170    7.20460    7.03390    0.25090    0.15550   12.06340    2.44490    0.13990   -9999.25   -9999.25   -9999.25
 7469.50000   92.66630    6.82360   -9999.25   -9999.25  -34.10310    7.12860    6.96190    0.25350    0.14500   12.04320    2.45600    0.14490   -9999.25   -9999.25   -9999.25
 7470.00000   94.64420    6.78450   -9999.25   -9999.25  -34.44440    7.21290    6.92740    0.25610    0.12180   12.00330    2.49130    0.14980   -9999.25   -9999.25   -9999.25
 7470.50000   96.54680    6.76890   -9999.25   -9999.25  -34.78570    7.20600    6.94300    0.26050    0.10730   11.97180    2.52380    0.15320   -9999.25   -9999.25   -9999.25
 7471.00000   97.66660    6.75370   -9999.25   -9999.25  -35.45390    7.08910    6.94740    0.27140    0.11130   11.97080    2.51930    0.14930   -9999.25   -9999.25   -9999.25
 7471.50000   96.51340    6.73850   -9999.25   -9999.25  -35.45910    7.06220    6.91520    0.27670    0.12170   11.97800    2.49990    0.13670   -9999.25   -9999.25   -9999.25
 7472.00000   93.41380    6.72330   -9999.25   -9999.25  -34.58460    7.06550    6.87940    0.27750    0.13740   11.98720    2.48500    0.11230   -9999.25   -9999.25   -9999.25
 7472.50000   90.39400    6.70810   -9999.25   -9999.25  -33.71000    7.06870    6.85400    0.27750    0.14290   11.99640    2.46220    0.10050   -9999.25   -9999.25   -9999.25
 7473.00000   91.30140    6.69300   -9999.25   -9999.25  -32.81570    7.01460    6.86630    0.28390    0.14630   12.00560    2.45840    0.08920   -9999.25   -9999.25   -9999.25
 7473.50000   94.28400    6.67790   -9999.25   -9999.25  -31.54640    6.78540    6.87870    0.29480    0.15180   12.01480    2.44800    0.07350   -9999.25   -9999.25   -9999.25
 7474.00000   97.26670    6.68070   -9999.25   -9999.25  -30.51590    6.51570    6.89100    0.30610    0.16040   12.02400    2.43680    0.07040   -9999.25   -9999.25   -9999.25
 7474.50000   98.17250    6.68720   -9999.25   -9999.25  -29.48550    6.49550    6.90340    0.31160    0.16980   12.03320    2.41850    0.07460   -9999.25   -9999.25   -9999.25
 7475.00000   97.09120    6.71150   -9999.25   -9999.25  -28.45500    6.50150    6.92210    0.30970    0.17620   12.02100    2.40710    0.08790   -9999.25   -9999.25   -9999.25
 7475.50000   95.51490    6.74140   -9999.25   -9999.25  -27.80420    6.53220    6.96680    0.30030    0.17110   11.99410    2.41720    0.10120   -9999.25   -9999.25   -9999.25
 7476.00000   94.10940    6.77090   -9999.25   -9999.25  -27.71030    6.71390    6.99760    0.27890    0.15130   11.96920    2.44470    0.11550   -9999.25   -9999.25   -9999.25
 7476.50000   93.07940    6.77710   -9999.25   -9999.25  -27.20600    7.01500    7.02860    0.25480    0.12850   11.94300    2.47500    0.12020   -9999.25   -9999.25   -9999.25
 7477.00000   92.78750    6.78330   -9999.25   -9999.25  -27.11100    7.32960    7.05970    0.24490    0.12020   11.82190    2.50270    0.11850   -9999.25   -9999.25   -9999.25
 7477.50000   92.79510    6.78940   -9999.25   -9999.25  -26.94890    7.65820    7.09100    0.23920    0.12100   11.75970    2.49690    0.11380   -9999.25   -9999.25   -9999.25
 7478.00000   93.08150    6.79560   -9999.25   -9999.25  -26.86920    7.70290    7.07590    0.25580    0.13680   11.70960    2.47390    0.10900   -9999.25   -9999.25   -9999.25
 7478.50000   94.10400    6.80180   -9999.25   -9999.25  -26.97180    7.26330    7.05000    0.27320    0.16040   11.65450    2.43840    0.10710   -9999.25   -9999.25   -9999.25
 7479.00000   94.34310    6.84420   -9999.25   -9999.25  -27.07440    6.84890    7.07730    0.27180    0.16680   11.52980    2.42090    0.10240   -9999.25   -9999.25   -9999.25
 7479.50000   92.60150    6.92510   -9999.25   -9999.25  -27.63920    6.64360    7.15610    0.24550    0.14780   11.22390    2.44930    0.10040   -9999.25   -9999.25   -9999.25
 7480.00000   90.36500    7.06090   -9999.25   -9999.25  -28.35530    6.96270    7.26450    0.20840    0.13220   10.85370    2.48440    0.11100   -9999.25   -9999.25   -9999.25
 7480.50000   90.65170    7.23420   -9999.25   -9999.25  -29.05480    7.83280    7.44560    0.19600    0.15380   10.59200    2.44310    0.10790   -9999.25   -9999.25   -9999.25
 7481.00000   92.43220    7.41180   -9999.25   -9999.25  -29.23720    8.81160    7.63130    0.19190    0.19170   10.67170    2.38500    0.10270   -9999.25   -9999.25   -9999.25
 7481.50000   94.21700    7.59370   -9999.25   -9999.25  -29.41960    9.47800    7.82150    0.19740    0.19800   10.90150    2.36630    0.11430   -9999.25   -9999.25   -9999.25
 7482.00000   96.00190    7.78010   -9999.25   -9999.25  -29.60210    9.06000    8.00000    0.20640    0.18080   11.11770    2.39230    0.12190   -9999.25   -9999.25   -9999.25
 7482.50000   96.42300    7.80680   -9999.25   -9999.25  -29.78450    8.89200    8.06380    0.21500    0.16740   11.23470    2.42280    0.12170   -9999.25   -9999.25   -9999.25
 7483.00000   95.07750    7.73130   -9999.25   -9999.25  -29.96700    8.75360    8.11600    0.23180    0.16370   11.32980    2.42640    0.11980   -9999.25   -9999.25   -9999.25
 7483.50000   94.89380    7.48820   -9999.25   -9999.25  -30.15250    8.33320    7.87830    0.24660    0.15890   11.47720    2.43760    0.11820   -9999.25   -9999.25   -9999.25
 7484.00000   96.39650    6.96200   -9999.25   -9999.25  -30.41740    7.78320    7.42730    0.27230    0.15300   11.62450    2.44650    0.11640   -9999.25   -9999.25   -9999.25
 7484.50000   98.19080    6.49470   -9999.25   -9999.25  -30.48760    6.97350    7.00210    0.29730    0.15880   11.77180    2.42350    0.11460   -9999.25   -9999.25   -9999.25
 7485.00000   99.04840    6.08800   -9999.25   -9999.25  -30.46770    6.38920    6.60130    0.30850    0.18760   11.92620    2.37610    0.11290   -9999.25   -9999.25   -9999.25
 7485.50000   97.65550    5.88100   -9999.25   -9999.25  -30.40700    5.90480    6.33900    0.32010    0.23460   12.08270    2.29850    0.10330   -9999.25   -9999.25   -9999.25
 7486.00000   94.57910    5.77220   -9999.25   -9999.25  -30.19120    5.79940    6.09780    0.32660    0.27470   12.23930    2.23490    0.10040   -9999.25   -9999.25   -9999.25
 7486.50000   91.50260    5.66800   -9999.25   -9999.25  -29.97540    5.80200    5.89690    0.32720    0.28660   12.39580    2.22150    0.09880   -9999.25   -9999.25   -9999.25
 7487.00000   89.92310    5.63410   -9999.25   -9999.25  -29.66150    5.84130    5.80600    0.32770    0.27660   12.50620    2.23490    0.11070   -9999.25   -9999.25   -9999.25
 7487.50000   89.91250    5.61450   -9999.25   -9999.25  -29.11990    5.88090    5.73760    0.32800    0.27700   12.50280    2.23360    0.11080   -9999.25   -9999.25   -9999.25
 7488.00000   91.98180    5.61570   -9999.25   -9999.25  -29.52680    5.92070    5.70290    0.32280    0.28040   12.49230    2.23530    0.10900   -9999.25   -9999.25   -9999.25
 7488.50000   92.23800    5.64950   -9999.25   -9999.25  -29.71920    5.96190    5.73730    0.31460    0.25070   12.36250    2.27950    0.10710   -9999.25   -9999.25   -9999.25
 7489.00000   91.07640    5.70690   -9999.25   -9999.25  -29.53970    6.00690    5.80020    0.30810    0.21770   12.27760    2.33350    0.10710   -9999.25   -9999.25   -9999.25
 7489.50000   90.84780    5.79780   -9999.25   -9999.25  -29.77510    6.07390    5.89260    0.31040    0.18010   12.16530    2.38490    0.10550   -9999.25   -9999.25   -9999.25
 7490.00000   95.57820    5.85950   -9999.25   -9999.25  -29.49520    6.14700    5.95070    0.31620    0.16630   12.00530    2.42230    0.09600   -9999.25   -9999.25   -9999.25
 7490.50000   99.81990    5.90000   -9999.25   -9999.25  -29.21530    6.23520    5.99850    0.31410    0.15250   11.99070    2.44500    0.08440   -9999.25   -9999.25   -9999.25
 7491.00000   99.67110    6.02190   -9999.25   -9999.25  -28.93540    6.32460    6.13380    0.29860    0.14770   12.00950    2.45220    0.07850   -9999.25   -9999.25   -9999.25
 7491.50000   99.68140    6.14620   -9999.25   -9999.25  -28.65550    6.44610    6.29270    0.28830    0.14470   12.06400    2.45770    0.07150   -9999.25   -9999.25   -9999.25
