~Version ---------------------------------------------------
VERS.   2.0 : CWLS log ASCII Standard -VERSION 2.0
WRAP.    NO : One line per depth step
DLM . SPACE : Column Data Section Delimiter
~Well ------------------------------------------------------
STRT .F                 845.0 : START DEPTH
STOP .F                8968.0 : STOP DEPTH
STEP .F                   0.5 : STEP
NULL .               -9999.25 : NULL VALUE
COMP .                        : COMPANY
WELL .                        : WELL
FLD  .                        : FIELD
LOC  .                        : LOCATION
PROV .                        : PROVINCE
CNTY .                        : COUNTY
STAT .                        : STATE
CTRY .                        : COUNTRY
SRVC .                        : SERVICE COMPANY
DATE .                        : DATE
UWI  .                        : UNIQUE WELL ID
API  .                        : API NUMBER
SLAT .WGS84 5.106284331781502 : SURFACE LATITUDE
SLON .WGS84 2.553414967040709 : SURFACE LONGITUDE
DATUM.F                   nan : DEPTH DATUM ELEV
~Curve Information -----------------------------------------
DEPT   .F     : 1 MEASURED DEPTH
GRR    .GAPI  : GAMMA RAY FROM RESISTIVITY LOG
ILD    .OHMM  : INDUCTION DEEP RESISTIVITY
CILD   .MMHO  : INDUCTION DEEP CONDUCTIVITY
SFLA   .OHMM  : SPHERICALLY FOCUSED LOG RESISTIVITY AVERAGED OVER 2.5 FT
SPR    .MV    : SPONTANEOUS POTENTIAL FROM RESISTIVITY LOG
SFLU   .OHMM  : SHALLOW FOCUSED RESISTIVITY (UNAVERAGED)
ILM    .OHMM  : INDUCTION MEDIUM RESISTIVITY
NPHI_LS.DEC   : NEUTRON POROSITY LIMESTONE
DPHI_LS.DEC   : DENSITY POROSITY LIMESTONE
CALD   .IN    : CALIPER FROM DENSITY LOG
RHOB   .G/C3  : BULK DENSITY
DRHO   .G/C3  : BULK DENSITY CORRECTION
DT     .US/F  : DELTA-T (INTERVAL TRANSIT TIME)
DTCO   .US/F  : DELTA-T COMPRESSIONAL
DTSM   .US/F  : DELTA-T SHEAR
~Params ----------------------------------------------------
~Other -----------------------------------------------------
~ASCII -----------------------------------------------------
# ...
 7952.00000   78.46370   10.07130   -9999.25   -9999.25  -13.55400   10.57590   11.11100    0.14380    0.06480   10.44250    2.59550   -0.00320   -9999.25   -9999.25   -9999.25
 7952.50000   79.77600    9.69160   -9999.25   -9999.25  -12.95810   10.01340   10.65860    0.14810    0.06390   10.45760    2.59750   -0.00320   -9999.25   -9999.25   -9999.25
 7953.00000   80.90720    9.64190   -9999.25   -9999.25  -12.42450    9.94410   10.32330    0.15000    0.06350   10.47470    2.59750   -0.00370   -9999.25   -9999.25   -9999.25
 7953.50000   81.23920    9.64190   -9999.25   -9999.25  -11.93620   10.25490   10.23820    0.14650    0.06330   10.49180    2.59750   -0.00400   -9999.25   -9999.25   -9999.25
 7954.00000   80.96920    9.66970   -9999.25   -9999.25  -11.32910   10.57540   10.15390    0.14320    0.06390   10.50850    2.59600   -0.00290   -9999.25   -9999.25   -9999.25
 7954.50000   80.12300    9.71620   -9999.25   -9999.25  -10.72200   10.90590   10.07020    0.14140    0.06750   10.52010    2.59070   -0.00030   -9999.25   -9999.25   -9999.25
 7955.00000   80.77200    9.73650   -9999.25   -9999.25  -10.35650   10.81670   10.04360    0.14540    0.07150   10.53170    2.58540    0.00480   -9999.25   -9999.25   -9999.25
 7955.50000   83.48670    9.73650   -9999.25   -9999.25  -10.58330   10.54200   10.06520    0.15170    0.07610   10.53900    2.57710    0.01000   -9999.25   -9999.25   -9999.25
 7956.00000   86.65890    9.73650   -9999.25   -9999.25  -10.68650   10.27430   10.18340    0.15910    0.07970   10.54520    2.57120    0.01510   -9999.25   -9999.25   -9999.25
 7956.50000   87.79280    9.76860   -9999.25   -9999.25  -11.07980   10.01330   10.30300    0.16800    0.08300   10.55140    2.56400    0.01960   -9999.25   -9999.25   -9999.25
 7957.00000   84.62590    9.99490   -9999.25   -9999.25  -11.57790    9.92720   10.42410    0.17380    0.08690   10.55770    2.55900    0.01980   -9999.25   -9999.25   -9999.25
 7957.50000   81.25750   10.27470   -9999.25   -9999.25  -12.12650   10.15250   10.54650    0.17300    0.09130   10.55560    2.55030    0.01660   -9999.25   -9999.25   -9999.25
 7958.00000   78.23880   10.56250   -9999.25   -9999.25  -12.67510   10.79350   10.83180    0.15810    0.09070   10.54810    2.55060    0.01430   -9999.25   -9999.25   -9999.25
 7958.50000   75.32870   10.85820   -9999.25   -9999.25  -13.22370   11.59960   11.13510    0.14820    0.08990   10.54060    2.55450    0.01780   -9999.25   -9999.25   -9999.25
 7959.00000   75.23690   11.11720   -9999.25   -9999.25  -13.05320   12.46590   11.37690    0.15230    0.09510   10.53000    2.54190    0.01950   -9999.25   -9999.25   -9999.25
 7959.50000   78.44650   11.30050   -9999.25   -9999.25  -13.09130   12.74300   11.56000    0.15890    0.11040   10.51920    2.52230    0.01630   -9999.25   -9999.25   -9999.25
 7960.00000   81.99290   11.46230   -9999.25   -9999.25  -13.12420   12.43810   11.72580    0.16550    0.11610   10.50520    2.50450    0.01300   -9999.25   -9999.25   -9999.25
 7960.50000   81.05710   11.48170   -9999.25   -9999.25  -13.10750   12.28960   11.74330    0.15970    0.10290   10.48860    2.53040    0.01140   -9999.25   -9999.25   -9999.25
 7961.00000   77.59830   11.70430   -9999.25   -9999.25  -13.09080   12.59770   11.98680    0.14850    0.08810   10.46820    2.55560    0.00830   -9999.25   -9999.25   -9999.25
 7961.50000   74.68400   12.23420   -9999.25   -9999.25  -13.11560   13.19110   12.71610    0.13780    0.07790   10.40760    2.57470    0.00520   -9999.25   -9999.25   -9999.25
 7962.00000   70.93310   13.07440   -9999.25   -9999.25  -13.30920   14.99320   13.58940    0.12620    0.06120   10.34760    2.59970    0.00860   -9999.25   -9999.25   -9999.25
 7962.50000   67.26350   13.97230   -9999.25   -9999.25  -13.50280   17.04330   14.52270    0.12040    0.04720   10.32980    2.62920    0.01540   -9999.25   -9999.25   -9999.25
 7963.00000   65.90600   14.69370   -9999.25   -9999.25  -13.81000   17.60580   15.08490    0.12090    0.04020   10.31210    2.64150    0.01410   -9999.25   -9999.25   -9999.25
 7963.50000   63.72420   15.29580   -9999.25   -9999.25  -14.26330   17.80190   15.79590    0.11340    0.03820   10.29430    2.64360    0.01190   -9999.25   -9999.25   -9999.25
 7964.00000   59.10720   16.26400   -9999.25   -9999.25  -14.71670   17.93300   17.04500    0.09360    0.03970   10.27650    2.63350    0.01210   -9999.25   -9999.25   -9999.25
 7964.50000   53.26960   17.66690   -9999.25   -9999.25  -15.42150   19.37680   18.58170    0.07310    0.05990   10.26240    2.60620    0.02240   -9999.25   -9999.25   -9999.25
 7965.00000   48.86770   18.67000   -9999.25   -9999.25  -16.86900   21.63370   19.91770    0.06490    0.08880   10.28640    2.53600    0.03310   -9999.25   -9999.25   -9999.25
 7965.50000   45.36450   19.63970   -9999.25   -9999.25  -18.88290   23.90460   20.52370    0.05750    0.13750   10.31680    2.47250    0.04400   -9999.25   -9999.25   -9999.25
 7966.00000   46.80960   19.70660   -9999.25   -9999.25  -21.33030   25.85260   21.00490    0.05390    0.15740   10.58300    2.43670    0.07860   -9999.25   -9999.25   -9999.25
 7966.50000   50.57160   19.60590   -9999.25   -9999.25  -23.77760   27.21440   20.89670    0.05510    0.13580   10.84820    2.47290    0.11800   -9999.25   -9999.25   -9999.25
 7967.00000   54.76560   19.05360   -9999.25   -9999.25  -25.86290   26.03570   19.84700    0.06010    0.11440   10.99680    2.50590    0.14740   -9999.25   -9999.25   -9999.25
 7967.50000   59.34300   18.28900   -9999.25   -9999.25  -27.61540   23.66080   18.42070    0.08020    0.10940   10.89710    2.52030    0.16220   -9999.25   -9999.25   -9999.25
 7968.00000   64.11490   15.62890   -9999.25   -9999.25  -29.45960   20.17320   17.09690    0.10530    0.12600   10.80080    2.49260    0.17130   -9999.25   -9999.25   -9999.25
 7968.50000   68.89960   13.93050   -9999.25   -9999.25  -31.27050   16.62780   15.86830    0.13230    0.14420   10.83210    2.44870    0.17980   -9999.25   -9999.25   -9999.25
 7969.00000   73.69150   13.62760   -9999.25   -9999.25  -32.56900   13.80430   14.93700    0.16190    0.16480   10.88630    2.43510    0.18960   -9999.25   -9999.25   -9999.25
 7969.50000   73.08380   13.47330   -9999.25   -9999.25  -33.86760   13.80430   14.82380    0.17270    0.19270   10.99470    2.39370    0.19280   -9999.25   -9999.25   -9999.25
 7970.00000   63.79470   13.15840   -9999.25   -9999.25  -35.16610   13.93480   14.88700    0.14760    0.22070   11.10360    2.30530    0.19590   -9999.25   -9999.25   -9999.25
 7970.50000   52.85780   12.70960   -9999.25   -9999.25  -36.49140   15.17970   14.95040    0.10340    0.25080   11.21240    2.27820    0.19750   -9999.25   -9999.25   -9999.25
 7971.00000   44.18010   12.17510   -9999.25   -9999.25  -39.15780   17.73920   14.37520    0.07880    0.23830   11.30930    2.29610    0.19840   -9999.25   -9999.25   -9999.25
 7971.50000   41.13690   11.19310   -9999.25   -9999.25  -42.21180   20.34900   12.68490    0.06380    0.22030   11.24590    2.32900    0.19870   -9999.25   -9999.25   -9999.25
 7972.00000   42.71820    9.77560   -9999.25   -9999.25  -47.57320   18.73390   10.81110    0.07500    0.19230   11.05610    2.36670    0.18890   -9999.25   -9999.25   -9999.25
 7972.50000   45.97000    8.48530   -9999.25   -9999.25  -51.79530   15.74560    9.13860    0.09870    0.16750   10.86590    2.41470    0.15330   -9999.25   -9999.25   -9999.25
 7973.00000   47.13130    7.50260   -9999.25   -9999.25  -52.75840   12.11460    7.99990    0.11560    0.15220   10.67490    2.44480    0.12810   -9999.25   -9999.25   -9999.25
 7973.50000   46.36960    6.71510   -9999.25   -9999.25  -53.72150    9.66560    7.26320    0.12000    0.14950   10.39750    2.44940    0.09480   -9999.25   -9999.25   -9999.25
 7974.00000   46.51680    6.01030   -9999.25   -9999.25  -53.82540    8.33880    6.59430    0.11660    0.14080   10.20030    2.45560    0.07500   -9999.25   -9999.25   -9999.25
 7974.50000   48.51150    5.90270   -9999.25   -9999.25  -52.19390    8.67960    6.21060    0.10990    0.12460   10.10140    2.48880    0.04800   -9999.25   -9999.25   -9999.25
