~Version ---------------------------------------------------
VERS.   2.0 : CWLS log ASCII Standard -VERSION 2.0
WRAP.    NO : One line per depth step
DLM . SPACE : Column Data Section Delimiter
~Well ------------------------------------------------------
STRT .F                 845.0 : START DEPTH
STOP .F                8968.0 : STOP DEPTH
STEP .F                   0.5 : STEP
NULL .               -9999.25 : NULL VALUE
COMP .                        : COMPANY
WELL .                        : WELL
FLD  .                        : FIELD
LOC  .                        : LOCATION
PROV .                        : PROVINCE
CNTY .                        : COUNTY
STAT .                        : STATE
CTRY .                        : COUNTRY
SRVC .                        : SERVICE COMPANY
DATE .                        : DATE
UWI  .                        : UNIQUE WELL ID
API  .                        : API NUMBER
SLAT .WGS84 5.106284331781502 : SURFACE LATITUDE
SLON .WGS84 2.553414967040709 : SURFACE LONGITUDE
DATUM.F                   nan : DEPTH DATUM ELEV
~Curve Information -----------------------------------------
DEPT   .F     : 1 MEASURED DEPTH
GRR    .GAPI  : GAMMA RAY FROM RESISTIVITY LOG
ILD    .OHMM  : INDUCTION DEEP RESISTIVITY
CILD   .MMHO  : INDUCTION DEEP CONDUCTIVITY
SFLA   .OHMM  : SPHERICALLY FOCUSED LOG RESISTIVITY AVERAGED OVER 2.5 FT
SPR    .MV    : SPONTANEOUS POTENTIAL FROM RESISTIVITY LOG
SFLU   .OHMM  : SHALLOW FOCUSED RESISTIVITY (UNAVERAGED)
ILM    .OHMM  : INDUCTION MEDIUM RESISTIVITY
NPHI_LS.DEC   : NEUTRON POROSITY LIMESTONE
DPHI_LS.DEC   : DENSITY POROSITY LIMESTONE
CALD   .IN    : CALIPER FROM DENSITY LOG
RHOB   .G/C3  : BULK DENSITY
DRHO   .G/C3  : BULK DENSITY CORRECTION
DT     .US/F  : DELTA-T (INTERVAL TRANSIT TIME)
DTCO   .US/F  : DELTA-T COMPRESSIONAL
DTSM   .US/F  : DELTA-T SHEAR
~Params ----------------------------------------------------
~Other -----------------------------------------------------
~ASCII -----------------------------------------------------
# ...
 7791.00000   59.81170    9.30890   -9999.25   -9999.25  -17.82890   11.93310    8.91770    0.21750    0.11980   13.42120    2.49990    0.15620   -9999.25   -9999.25   -9999.25
 7791.50000   57.45880    9.94620   -9999.25   -9999.25  -17.97630   11.88510    9.52820    0.20320    0.11230   13.28670    2.51530    0.17220   -9999.25   -9999.25   -9999.25
 7792.00000   57.39680   10.62710   -9999.25   -9999.25  -18.12380   11.81990   10.18050    0.18850    0.10240   13.21580    2.52800    0.17620   -9999.25   -9999.25   -9999.25
 7792.50000   58.73810   11.27260   -9999.25   -9999.25  -18.48020   11.86870   10.87740    0.17960    0.09310   13.19200    2.54650    0.17130   -9999.25   -9999.25   -9999.25
 7793.00000   60.26070   11.36970   -9999.25   -9999.25  -18.97090   12.36490   11.08850    0.18040    0.08370   13.16820    2.56330    0.16210   -9999.25   -9999.25   -9999.25
 7793.50000   63.08310   11.29390   -9999.25   -9999.25  -19.48250   12.88180   11.01600    0.18670    0.08460   13.06400    2.54990    0.15800   -9999.25   -9999.25   -9999.25
 7794.00000   63.85370   11.00050   -9999.25   -9999.25  -19.99400   12.43720   10.57290    0.19080    0.11970   12.84610    2.49220    0.15230   -9999.25   -9999.25   -9999.25
 7794.50000   64.28300   10.58110   -9999.25   -9999.25  -20.50560   11.41470    9.93830    0.19650    0.16350   12.76360    2.40230    0.14600   -9999.25   -9999.25   -9999.25
 7795.00000   64.30570   10.17760   -9999.25   -9999.25  -21.01720   10.47620    9.34180    0.20500    0.18940   13.00660    2.37620    0.14740   -9999.25   -9999.25   -9999.25
 7795.50000   65.09840    9.78950   -9999.25   -9999.25  -21.52880    9.61490    8.89020    0.21460    0.19260   13.22450    2.40860    0.15210   -9999.25   -9999.25   -9999.25
 7796.00000   67.89130    9.41630   -9999.25   -9999.25  -22.04030    8.82440    8.82240    0.21890    0.16960   13.03250    2.44540    0.15180   -9999.25   -9999.25   -9999.25
 7796.50000   72.65070    9.05720   -9999.25   -9999.25  -22.13030    8.55810    8.77490    0.21660    0.14760   13.06050    2.46930    0.14800   -9999.25   -9999.25   -9999.25
 7797.00000   74.92670    8.93830   -9999.25   -9999.25  -22.14120    8.49220    8.72940    0.21350    0.14230   13.13260    2.44990    0.14360   -9999.25   -9999.25   -9999.25
 7797.50000   75.75220    8.91500   -9999.25   -9999.25  -22.13810    8.49220    8.69800    0.21350    0.15400   13.17950    2.43640    0.14090   -9999.25   -9999.25   -9999.25
 7798.00000   76.44040    8.91090   -9999.25   -9999.25  -22.13500    8.76700    8.69230    0.21290    0.16390   13.13750    2.40480    0.14520   -9999.25   -9999.25   -9999.25
 7798.50000   73.09300    8.85740   -9999.25   -9999.25  -22.13190    9.14230    8.64010    0.20660    0.18740   13.03680    2.36200    0.15230   -9999.25   -9999.25   -9999.25
 7799.00000   70.92890    8.80730   -9999.25   -9999.25  -22.13330    9.53360    8.59170    0.19770    0.20970   13.04630    2.30620    0.15010   -9999.25   -9999.25   -9999.25
 7799.50000   69.73230    8.76110   -9999.25   -9999.25  -22.13540    9.63560    8.54650    0.19840    0.24750   13.09940    2.21900    0.13620   -9999.25   -9999.25   -9999.25
 7800.00000   69.39090    8.70000   -9999.25   -9999.25  -22.13740    8.97680    8.48520    0.23650    0.29810   12.96600    2.08130    0.09680   -9999.25   -9999.25   -9999.25
 7800.50000   69.04940    8.51600   -9999.25   -9999.25  -22.34660    7.83700    8.24810    0.27680    0.38890   12.88600    2.04990    0.06900   -9999.25   -9999.25   -9999.25
 7801.00000   69.41920    8.20280   -9999.25   -9999.25  -22.77030    6.84190    7.94460    0.29160    0.36580   12.85790    2.14750    0.05400   -9999.25   -9999.25   -9999.25
 7801.50000   69.59990    7.90100   -9999.25   -9999.25  -23.29240    6.59840    7.67440    0.27160    0.30100   12.61580    2.26710    0.04990   -9999.25   -9999.25   -9999.25
 7802.00000   69.46480    7.79770   -9999.25   -9999.25  -23.66680    7.10320    7.57250    0.20770    0.23620   12.07920    2.37880    0.04490   -9999.25   -9999.25   -9999.25
 7802.50000   69.11250    7.72650   -9999.25   -9999.25  -23.66280    8.27320    7.44110    0.16990    0.23520   11.56210    2.25970    0.03300   -9999.25   -9999.25   -9999.25
 7803.00000   69.25350    7.66890   -9999.25   -9999.25  -23.54530    8.25030    7.31200    0.18560    0.29590   11.46330    2.12210    0.03090   -9999.25   -9999.25   -9999.25
 7803.50000   69.57890    7.67560   -9999.25   -9999.25  -23.39230    7.23260    7.29490    0.23940    0.36310   11.82540    2.06430    0.04470   -9999.25   -9999.25   -9999.25
 7804.00000   68.97360    7.88000   -9999.25   -9999.25  -23.23930    6.82420    7.48730    0.25910    0.36740   12.05880    2.18030    0.07150   -9999.25   -9999.25   -9999.25
 7804.50000   68.01070    8.53050   -9999.25   -9999.25  -23.08630    7.05370    8.11340    0.21310    0.25310   11.97220    2.32590    0.11680   -9999.25   -9999.25   -9999.25
 7805.00000   69.17480    9.23470   -9999.25   -9999.25  -22.93330    7.53800    8.78420    0.18650    0.19700   11.68690    2.41590    0.13780   -9999.25   -9999.25   -9999.25
 7805.50000   72.13180    9.86820   -9999.25   -9999.25  -22.38080    8.62190    9.51050    0.17580    0.16000   11.31720    2.44070    0.14960   -9999.25   -9999.25   -9999.25
 7806.00000   75.08830   10.28520   -9999.25   -9999.25  -21.64030   10.20030    9.94680    0.17220    0.15020   11.28740    2.45810    0.14020   -9999.25   -9999.25   -9999.25
 7806.50000   73.94890   10.71970   -9999.25   -9999.25  -20.89980   11.07840   10.36710    0.15850    0.13260   11.26950    2.49990    0.12560   -9999.25   -9999.25   -9999.25
 7807.00000   71.91610   11.17260   -9999.25   -9999.25  -20.15930   11.60530   10.80520    0.14800    0.10600   11.16640    2.54070    0.10910   -9999.25   -9999.25   -9999.25
 7807.50000   70.74890   11.57240   -9999.25   -9999.25  -20.15200   12.15710   11.25500    0.13580    0.08000   11.06330    2.57550    0.08640   -9999.25   -9999.25   -9999.25
 7808.00000   72.16200   11.84910   -9999.25   -9999.25  -20.52420   12.73530   11.52410    0.13270    0.06890   11.02530    2.58700    0.06420   -9999.25   -9999.25   -9999.25
 7808.50000   73.95080   12.13240   -9999.25   -9999.25  -21.11510   13.14920   11.79960    0.13280    0.07250   11.00390    2.58060    0.04660   -9999.25   -9999.25   -9999.25
 7809.00000   74.50970   12.42250   -9999.25   -9999.25  -21.70590   13.17650   12.08170    0.13790    0.07760   10.98800    2.57280    0.03770   -9999.25   -9999.25   -9999.25
 7809.50000   71.97590   12.71950   -9999.25   -9999.25  -22.29680   13.30650   12.37060    0.13290    0.07810   10.98260    2.57510    0.02660   -9999.25   -9999.25   -9999.25
 7810.00000   68.16460   12.99350   -9999.25   -9999.25  -22.88760   13.67700   12.65180    0.11620    0.06570   11.02340    2.59310    0.02130   -9999.25   -9999.25   -9999.25
 7810.50000   64.09740   13.23030   -9999.25   -9999.25  -24.50110   14.90120   12.84740    0.10330    0.05440   11.23840    2.61120    0.01630   -9999.25   -9999.25   -9999.25
 7811.00000   63.44730   13.47150   -9999.25   -9999.25  -25.15970   16.23490   13.03380    0.09980    0.06060   11.25900    2.60060    0.01750   -9999.25   -9999.25   -9999.25
 7811.50000   64.44950   13.53610   -9999.25   -9999.25  -25.90580   16.60040   13.06230    0.10920    0.12460   11.35400    2.52640    0.02590   -9999.25   -9999.25   -9999.25
 7812.00000   68.68830   13.35160   -9999.25   -9999.25  -26.94550   15.24570   12.66540    0.14200    0.19620   11.50430    2.42180    0.04160   -9999.25   -9999.25   -9999.25
 7812.50000   73.60140   12.85430   -9999.25   -9999.25  -28.09240   12.53660   11.24720    0.18480    0.26680   12.04370    2.25300    0.07770   -9999.25   -9999.25   -9999.25
 7813.00000   76.02930   11.67940   -9999.25   -9999.25  -29.23930   10.30900    9.99150    0.22680    0.25210   12.55200    2.26520    0.12140   -9999.25   -9999.25   -9999.25
 7813.50000   77.70300   10.31170   -9999.25   -9999.25  -30.81050    8.47710    8.94890    0.26090    0.23710   13.22470    2.29140    0.15970   -9999.25   -9999.25   -9999.25
