~Version ---------------------------------------------------
VERS.   2.0 : CWLS log ASCII Standard -VERSION 2.0
WRAP.    NO : One line per depth step
DLM . SPACE : Column Data Section Delimiter
~Well ------------------------------------------------------
STRT .F                 845.0 : START DEPTH
STOP .F                8968.0 : STOP DEPTH
STEP .F                   0.5 : STEP
NULL .               -9999.25 : NULL VALUE
COMP .                        : COMPANY
WELL .                        : WELL
FLD  .                        : FIELD
LOC  .                        : LOCATION
PROV .                        : PROVINCE
CNTY .                        : COUNTY
STAT .                        : STATE
CTRY .                        : COUNTRY
SRVC .                        : SERVICE COMPANY
DATE .                        : DATE
UWI  .                        : UNIQUE WELL ID
API  .                        : API NUMBER
SLAT .WGS84 5.106284331781502 : SURFACE LATITUDE
SLON .WGS84 2.553414967040709 : SURFACE LONGITUDE
DATUM.F                   nan : DEPTH DATUM ELEV
~Curve Information -----------------------------------------
DEPT   .F     : 1 MEASURED DEPTH
GRR    .GAPI  : GAMMA RAY FROM RESISTIVITY LOG
ILD    .OHMM  : INDUCTION DEEP RESISTIVITY
CILD   .MMHO  : INDUCTION DEEP CONDUCTIVITY
SFLA   .OHMM  : SPHERICALLY FOCUSED LOG RESISTIVITY AVERAGED OVER 2.5 FT
SPR    .MV    : SPONTANEOUS POTENTIAL FROM RESISTIVITY LOG
SFLU   .OHMM  : SHALLOW FOCUSED RESISTIVITY (UNAVERAGED)
ILM    .OHMM  : INDUCTION MEDIUM RESISTIVITY
NPHI_LS.DEC   : NEUTRON POROSITY LIMESTONE
DPHI_LS.DEC   : DENSITY POROSITY LIMESTONE
CALD   .IN    : CALIPER FROM DENSITY LOG
RHOB   .G/C3  : BULK DENSITY
DRHO   .G/C3  : BULK DENSITY CORRECTION
DT     .US/F  : DELTA-T (INTERVAL TRANSIT TIME)
DTCO   .US/F  : DELTA-T COMPRESSIONAL
DTSM   .US/F  : DELTA-T SHEAR
~Params ----------------------------------------------------
~Other -----------------------------------------------------
~ASCII -----------------------------------------------------
# ...
 7630.00000   80.02710    8.14690   -9999.25   -9999.25  -30.10290    4.52540    6.85770    0.26830    0.18940   11.46920    2.40300    0.06580   -9999.25   -9999.25   -9999.25
 7630.50000   72.81570    9.21890   -9999.25   -9999.25  -29.20400    5.65030    8.09800    0.23970    0.20810   11.52320    2.35310    0.06300   -9999.25   -9999.25   -9999.25
 7631.00000   68.15300   10.43200   -9999.25   -9999.25  -28.92870    6.91380    9.11710    0.22760    0.24540   11.53400    2.28780    0.05240   -9999.25   -9999.25   -9999.25
 7631.50000   66.11730   11.80470   -9999.25   -9999.25  -28.65350    8.00180    9.79550    0.22540    0.29330   11.41870    2.19960    0.04680   -9999.25   -9999.25   -9999.25
 7632.00000   66.48440   12.04390   -9999.25   -9999.25  -28.56260    9.02250    9.68250    0.25980    0.34110   11.12530    2.11490    0.04430   -9999.25   -9999.25   -9999.25
 7632.50000   67.81110   12.07920   -9999.25   -9999.25  -29.73990    9.88190    9.57090    0.30980    0.37120   10.98070    2.10520    0.06390   -9999.25   -9999.25   -9999.25
 7633.00000   68.39100   12.01510   -9999.25   -9999.25  -30.77010    9.88190    9.51130    0.32410    0.34470   11.17250    2.15550    0.08790   -9999.25   -9999.25   -9999.25
 7633.50000   69.20630   11.94450   -9999.25   -9999.25  -32.60480    9.67860    9.13110    0.31620    0.30530   11.53230    2.20710    0.11640   -9999.25   -9999.25   -9999.25
 7634.00000   70.37170   11.80350   -9999.25   -9999.25  -34.10980    8.94800    8.68510    0.29830    0.25910   12.08220    2.25870    0.14690   -9999.25   -9999.25   -9999.25
 7634.50000   71.89460   11.30500   -9999.25   -9999.25  -35.61480    8.61740    8.26090    0.20460    0.21980   12.49160    2.29860    0.17260   -9999.25   -9999.25   -9999.25
 7635.00000   71.69550   10.74820   -9999.25   -9999.25  -36.54140    8.61040    8.17630    0.17610    0.21580   12.55440    2.33860    0.18320   -9999.25   -9999.25   -9999.25
 7635.50000   70.69120    9.58870   -9999.25   -9999.25  -36.43110    8.41890    8.14480    0.18260    0.23810   12.87500    2.30040    0.17490   -9999.25   -9999.25   -9999.25
 7636.00000   69.56440    8.60560   -9999.25   -9999.25  -36.57730    7.83900    8.08620    0.21570    0.28140   13.04490    2.20000    0.14550   -9999.25   -9999.25   -9999.25
 7636.50000   67.69920    8.60170   -9999.25   -9999.25  -36.80060    7.29900    7.88030    0.30450    0.32960   12.55570    2.12460    0.11180   -9999.25   -9999.25   -9999.25
 7637.00000   65.69920    8.72440   -9999.25   -9999.25  -37.91070    6.79610    7.29450    0.31700    0.33330   11.81160    2.15920    0.08990   -9999.25   -9999.25   -9999.25
 7637.50000   62.37530    8.90820   -9999.25   -9999.25  -39.53530    6.46350    7.09290    0.31780    0.27570   11.06640    2.22160    0.08910   -9999.25   -9999.25   -9999.25
 7638.00000   59.58800    9.23270   -9999.25   -9999.25  -41.00680    6.49980    7.90750    0.23150    0.21630   10.54560    2.32310    0.09410   -9999.25   -9999.25   -9999.25
 7638.50000   58.68330    9.97260   -9999.25   -9999.25  -42.47750    8.33710    9.27380    0.16970    0.23160   10.38180    2.32410    0.09170   -9999.25   -9999.25   -9999.25
 7639.00000   59.74450   10.77170   -9999.25   -9999.25  -41.90280   11.08030   10.26790    0.16240    0.25700   10.36540    2.27070    0.08110   -9999.25   -9999.25   -9999.25
 7639.50000   61.66340   11.79160   -9999.25   -9999.25  -40.72190   14.39350   11.10770    0.14490    0.21710   10.34690    2.30380    0.09420   -9999.25   -9999.25   -9999.25
 7640.00000   65.19250   12.90960   -9999.25   -9999.25  -39.54100   17.69920   12.08990    0.12330    0.12230   10.38090    2.42200    0.12920   -9999.25   -9999.25   -9999.25
 7640.50000   73.61130   12.95210   -9999.25   -9999.25  -38.36010   20.16500   11.90240    0.11570    0.08110   10.76010    2.54460    0.16560   -9999.25   -9999.25   -9999.25
 7641.00000   79.55310   11.13090   -9999.25   -9999.25  -37.17920   18.73550    9.91410    0.15750    0.08380   11.20900    2.56720    0.18640   -9999.25   -9999.25   -9999.25
 7641.50000   85.49480    9.22670   -9999.25   -9999.25  -35.99840   12.02180    7.63400    0.21310    0.09910   11.65800    2.53400    0.20800   -9999.25   -9999.25   -9999.25
 7642.00000   91.43650    8.04360   -9999.25   -9999.25  -35.25120    7.53210    5.36680    0.28350    0.12560   11.99830    2.49550    0.22660   -9999.25   -9999.25   -9999.25
 7642.50000   94.88290    7.48500   -9999.25   -9999.25  -35.23930    4.79900    4.77940    0.36300    0.17070   11.82000    2.40940    0.20900   -9999.25   -9999.25   -9999.25
 7643.00000   94.48850    7.53480   -9999.25   -9999.25  -36.17860    4.38650    4.74630    0.38890    0.20460   11.82440    2.35410    0.17820   -9999.25   -9999.25   -9999.25
 7643.50000   90.15460    7.70480   -9999.25   -9999.25  -37.39040    4.41990    5.61320    0.37430    0.24160   11.82130    2.29570    0.15120   -9999.25   -9999.25   -9999.25
 7644.00000   85.60080    7.94210   -9999.25   -9999.25  -38.60220    6.15520    7.38830    0.32880    0.26930   11.62120    2.24940    0.12800   -9999.25   -9999.25   -9999.25
 7644.50000   78.18800    8.18670   -9999.25   -9999.25  -39.81400    8.85360    9.72470    0.21970    0.25410   11.23950    2.25590    0.10510   -9999.25   -9999.25   -9999.25
 7645.00000   72.57390    8.43880   -9999.25   -9999.25  -41.87560   12.50910    9.87260    0.16780    0.22430   10.99280    2.31500    0.11410   -9999.25   -9999.25   -9999.25
 7645.50000   69.39210    8.69870   -9999.25   -9999.25  -44.35590   16.92420    9.16290    0.14830    0.21060   11.00470    2.36900    0.12460   -9999.25   -9999.25   -9999.25
 7646.00000   72.25060    8.82960   -9999.25   -9999.25  -46.83610   16.06070    7.37650    0.19740    0.22010   11.33880    2.33760    0.12050   -9999.25   -9999.25   -9999.25
 7646.50000   77.47180    8.80520   -9999.25   -9999.25  -49.31640   13.44490    6.12220    0.25280    0.25280   11.73350    2.27090    0.11630   -9999.25   -9999.25   -9999.25
 7647.00000   82.69300    8.65170   -9999.25   -9999.25  -49.73320   10.64320    5.19510    0.31170    0.26910   12.18580    2.24450    0.11940   -9999.25   -9999.25   -9999.25
 7647.50000   82.74980    8.09920   -9999.25   -9999.25  -48.36870    7.62950    4.76780    0.34580    0.26880   12.56990    2.24610    0.12220   -9999.25   -9999.25   -9999.25
 7648.00000   80.56990    7.58210   -9999.25   -9999.25  -47.00420    5.46920    4.68270    0.37100    0.25450   12.64920    2.28530    0.12220   -9999.25   -9999.25   -9999.25
 7648.50000   83.36570    7.09790   -9999.25   -9999.25  -46.76700    4.78140    4.67090    0.36960    0.22110   12.57850    2.32330    0.12220   -9999.25   -9999.25   -9999.25
 7649.00000   85.06350    6.92540   -9999.25   -9999.25  -47.00120    4.74090    5.01490    0.36150    0.20030   12.43570    2.36120    0.12320   -9999.25   -9999.25   -9999.25
 7649.50000   85.28040    6.92560   -9999.25   -9999.25  -47.51040    5.21250    5.64020    0.35340    0.21480   12.37710    2.33570    0.12250   -9999.25   -9999.25   -9999.25
 7650.00000   88.87020    6.92580   -9999.25   -9999.25  -48.01960    5.84020    6.34340    0.35120    0.26210   12.32470    2.25180    0.11710   -9999.25   -9999.25   -9999.25
 7650.50000   93.33910    6.92590   -9999.25   -9999.25  -48.52880    6.54350    6.73310    0.35850    0.28060   12.27230    2.22720    0.11430   -9999.25   -9999.25   -9999.25
 7651.00000   95.51210    7.04110   -9999.25   -9999.25  -49.03800    7.33160    6.93850    0.36900    0.26270   12.26050    2.25170    0.12840   -9999.25   -9999.25   -9999.25
 7651.50000   93.91510    8.08960   -9999.25   -9999.25  -49.51930    7.73480    6.88570    0.37880    0.26110   12.39350    2.26240    0.14010   -9999.25   -9999.25   -9999.25
 7652.00000   90.83040    8.69920   -9999.25   -9999.25  -48.93850    7.75530    6.46130    0.38590    0.27480   12.69510    2.24060    0.13480   -9999.25   -9999.25   -9999.25
 7652.50000   89.38630    8.59250   -9999.25   -9999.25  -47.25060    7.12180    6.10780    0.39020    0.26900   12.99400    2.23590    0.13070   -9999.25   -9999.25   -9999.25
