~Version ---------------------------------------------------
VERS.   2.0 : CWLS log ASCII Standard -VERSION 2.0
WRAP.    NO : One line per depth step
DLM . SPACE : Column Data Section Delimiter
~Well ------------------------------------------------------
STRT .F                 845.0 : START DEPTH
STOP .F                8968.0 : STOP DEPTH
STEP .F                   0.5 : STEP
NULL .               -9999.25 : NULL VALUE
COMP .                        : COMPANY
WELL .                        : WELL
FLD  .                        : FIELD
LOC  .                        : LOCATION
PROV .                        : PROVINCE
CNTY .                        : COUNTY
STAT .                        : STATE
CTRY .                        : COUNTRY
SRVC .                        : SERVICE COMPANY
DATE .                        : DATE
UWI  .                        : UNIQUE WELL ID
API  .                        : API NUMBER
SLAT .WGS84 5.106284331781502 : SURFACE LATITUDE
SLON .WGS84 2.553414967040709 : SURFACE LONGITUDE
DATUM.F                   nan : DEPTH DATUM ELEV
~Curve Information -----------------------------------------
DEPT   .F     : 1 MEASURED DEPTH
GRR    .GAPI  : GAMMA RAY FROM RESISTIVITY LOG
ILD    .OHMM  : INDUCTION DEEP RESISTIVITY
CILD   .MMHO  : INDUCTION DEEP CONDUCTIVITY
SFLA   .OHMM  : SPHERICALLY FOCUSED LOG RESISTIVITY AVERAGED OVER 2.5 FT
SPR    .MV    : SPONTANEOUS POTENTIAL FROM RESISTIVITY LOG
SFLU   .OHMM  : SHALLOW FOCUSED RESISTIVITY (UNAVERAGED)
ILM    .OHMM  : INDUCTION MEDIUM RESISTIVITY
NPHI_LS.DEC   : NEUTRON POROSITY LIMESTONE
DPHI_LS.DEC   : DENSITY POROSITY LIMESTONE
CALD   .IN    : CALIPER FROM DENSITY LOG
RHOB   .G/C3  : BULK DENSITY
DRHO   .G/C3  : BULK DENSITY CORRECTION
DT     .US/F  : DELTA-T (INTERVAL TRANSIT TIME)
DTCO   .US/F  : DELTA-T COMPRESSIONAL
DTSM   .US/F  : DELTA-T SHEAR
~Params ----------------------------------------------------
~Other -----------------------------------------------------
~ASCII -----------------------------------------------------
# ...
 8596.00000  104.25450    6.99610   -9999.25   -9999.25   -6.47360    7.63460    7.27230    0.24370    0.10070   11.96890    2.53360    0.12700   77.89100   78.40840  145.61900
 8596.50000  103.21110    6.99350   -9999.25   -9999.25  -21.77730    7.64400    7.26000    0.24800    0.10010   11.92560    2.53610    0.11300   81.05060   78.54110  144.56470
 8597.00000  103.59320    6.99100   -9999.25   -9999.25  -41.71580    7.68320    7.25410    0.25360    0.09490   11.88230    2.54440    0.10570   80.34390   78.62270  149.06880
 8597.50000  104.24760    6.98840   -9999.25   -9999.25  -57.57300    7.72270    7.25150    0.25780    0.08680   11.83900    2.55720    0.10520   79.33030   78.48440  154.28920
 8598.00000  105.58000    6.98590   -9999.25   -9999.25  -59.88580    7.76240    7.25190    0.25680    0.08430   11.81060    2.56480    0.10480   79.52820   78.32940  154.15860
 8598.50000  107.77060    6.98330   -9999.25   -9999.25  -61.63470    7.71870    7.25590    0.25030    0.08390   11.80660    2.56310    0.10870   76.03450   78.26880  149.46400
 8599.00000  109.88520    6.98080   -9999.25   -9999.25  -62.06030    7.64840    7.25990    0.24300    0.08350   11.80260    2.56340    0.11250   77.23630   78.61750  146.40130
 8599.50000  111.17970    6.97820   -9999.25   -9999.25  -62.40030    7.61520    7.26390    0.23530    0.08220   11.79930    2.56650    0.11580   76.37260   79.46810  145.47120
 8600.00000  108.84740    6.99610   -9999.25   -9999.25  -61.80570    7.61250    7.26790    0.22790    0.08110   11.79610    2.56580    0.11900   76.48650   79.48190  147.77390
 8600.50000  103.37420    7.02220   -9999.25   -9999.25  -61.21120    7.66150    7.27190    0.22460    0.08150   11.77890    2.56490    0.12230   77.34550   79.06620  151.56340
 8601.00000   98.13600    7.04580   -9999.25   -9999.25  -60.71260    7.69710    7.27590    0.22330    0.08420   11.73900    2.56200    0.12510   77.36400   78.65050  152.24680
 8601.50000   94.96840    7.04580   -9999.25   -9999.25  -60.79100    7.71530    7.28000    0.22330    0.08850   11.69910    2.55580    0.12710   77.15980   78.23470  150.47300
 8602.00000   95.36970    7.04580   -9999.25   -9999.25  -60.86950    7.73360    7.28400    0.22680    0.09140   11.71030    2.55300    0.12910   75.52280   78.05750  147.49040
 8602.50000   97.22060    7.04580   -9999.25   -9999.25  -60.94790    7.75190    7.28800    0.22970    0.08560   11.73250    2.55930    0.12920   75.77220   78.81300  144.50780
 8603.00000  101.76740    7.04580   -9999.25   -9999.25  -61.02630    7.77030    7.29200    0.22950    0.08070   11.76220    2.56660    0.12790   76.35490   79.49490  144.46870
 8603.50000  105.01120    7.04580   -9999.25   -9999.25  -61.07050    7.78870    7.29600    0.22930    0.07860   11.79260    2.57400    0.12570   76.52440   77.16140  149.86260
 8604.00000  107.30510    7.04550   -9999.25   -9999.25  -60.92670    7.80710    7.30010    0.22480    0.07990   11.80790    2.56810    0.12980   75.92780   77.63430  150.34220
 8604.50000  107.30820    7.03970   -9999.25   -9999.25  -60.78290    7.82560    7.30410    0.21520    0.09090   11.79320    2.54880    0.14000   75.08550   78.48430  148.07370
 8605.00000  105.70340    7.00820   -9999.25   -9999.25  -60.94290    7.83570    7.30810    0.21570    0.09890   11.79100    2.53840    0.14580   74.97950   78.64710  145.27440
 8605.50000  103.85890    6.97680   -9999.25   -9999.25  -61.18310    7.83220    7.30550    0.21670    0.09540   11.89350    2.54440    0.15190   75.34130   78.55300  144.44190
 8606.00000  100.91970    6.94030   -9999.25   -9999.25  -61.42330    7.82170    7.30220    0.21940    0.08800   12.04950    2.55590    0.15440   75.47260   78.39950  145.64420
 8606.50000   98.48980    6.90230   -9999.25   -9999.25  -61.66350    7.80620    7.29880    0.22240    0.08960   12.14750    2.55250    0.14970   74.97860   78.38950  147.34000
 8607.00000   96.14640    6.93200   -9999.25   -9999.25  -61.90370    7.79070    7.35100    0.23210    0.11050   12.26350    2.51630    0.13240   72.07950   78.90100  147.52270
 8607.50000   96.87360    7.01190   -9999.25   -9999.25  -61.93610    7.77520    7.42430    0.24640    0.16610   12.37660    2.43100    0.11080   73.97860   79.54430  147.52060
 8608.00000  100.73990    7.15310   -9999.25   -9999.25  -61.93610    7.75970    7.49830    0.25590    0.19780   12.33580    2.36540    0.10040   76.79610   79.72790  147.90370
 8608.50000  106.54080    7.29980   -9999.25   -9999.25  -61.72320    7.74430    7.57310    0.24880    0.17270   -9999.25    2.40630    0.09820   76.69950   79.23540  147.02680
 8609.00000  109.90740    7.44950   -9999.25   -9999.25  -61.44230    7.78550    7.71770    0.23930    0.13500   -9999.25    2.46740    0.09680   77.93140   78.59260  142.99790
 8609.50000  110.00700    7.60220   -9999.25   -9999.25  -61.16130    8.00800    7.88440    0.22940    0.10110   -9999.25    2.52290    0.09670   80.71320   77.94970  139.94180
 8610.00000  109.83140    7.75810   -9999.25   -9999.25  -60.88040    8.28600    8.05470    0.21880    0.08520   -9999.25    2.55600    0.09670   80.86160   77.41470  139.51990
 8610.50000  109.83110    7.83990   -9999.25   -9999.25  -60.59940    8.58020    8.22870    0.20820    0.08070   -9999.25    2.57110    0.09660   78.36730   77.42120  139.50590
 8611.00000  108.88060    7.89560   -9999.25   -9999.25  -60.31850    8.88490    8.40640    0.20030    0.08150   -9999.25    2.56830    0.10360   75.87300   77.42820  137.08420
 8611.50000  103.50870    7.95160   -9999.25   -9999.25  -60.03750    9.43910    8.58800    0.19010    0.08720   -9999.25    2.55930    0.11480   73.71610   77.43600  133.45870
 8612.00000   96.34200    7.95180   -9999.25   -9999.25  -60.14460   10.07770    8.62110    0.18270    0.09490   -9999.25    2.54770    0.13070   71.80750   77.58300  129.09750
 8612.50000   90.36720    7.88190   -9999.25   -9999.25  -60.34010   10.22560    8.41230    0.18700    0.10170   -9999.25    2.53190    0.15180   68.10650   78.01490  123.87660
 8613.00000   92.01980    7.72390   -9999.25   -9999.25  -60.69370    9.53870    8.13980    0.20920    0.11950   -9999.25    2.51060    0.16330   68.64750   78.68230  117.43290
 8613.50000   94.84960    7.43390   -9999.25   -9999.25  -61.07790    8.64940    7.87610    0.23640    0.13630   -9999.25    2.48340    0.16440   70.43940   79.61000  109.26660
 8614.00000   97.67950    7.15470   -9999.25   -9999.25  -61.46210    7.84310    7.62090    0.24930    0.13110   -9999.25    2.47730    0.16120   72.24320   80.47710  107.07130
 8614.50000   97.07220    7.04780   -9999.25   -9999.25  -61.84630    7.62450    7.37400    0.24110    0.11660   -9999.25    2.49980    0.15310   74.29310   81.03950  112.85010
 8615.00000   94.29110    6.94840   -9999.25   -9999.25  -62.23050    7.62690    7.21730    0.22890    0.09900   -9999.25    2.52710    0.14440   75.60940   81.67760  119.48720
 8615.50000   91.26310    6.85860   -9999.25   -9999.25  -62.31480    7.56880    7.12190    0.22500    0.08720   -9999.25    2.54890    0.13520   76.86110   83.86990  128.87480
 8616.00000   92.96260    6.79740   -9999.25   -9999.25  -62.18040    7.49110    7.02770    0.23800    0.08540   -9999.25    2.55810    0.12280   75.16980   83.52970  137.02070
 8616.50000   96.21680    6.73670   -9999.25   -9999.25  -62.03310    7.34870    6.93470    0.25680    0.08480   -9999.25    2.56140    0.10850   75.17760   82.70880  140.51660
 8617.00000   98.88650    6.67660   -9999.25   -9999.25  -61.88580    7.10820    6.84300    0.26380    0.08320   -9999.25    2.56400    0.10000   75.58170   81.98180  142.11520
 8617.50000   99.97260    6.61690   -9999.25   -9999.25  -61.73840    7.04510    6.76510    0.25660    0.08120   -9999.25    2.56650    0.09650   77.28030   82.55640  142.96480
 8618.00000  100.12220    6.56880   -9999.25   -9999.25  -61.59110    7.00950    6.71490    0.24890    0.07980   -9999.25    2.56860    0.09740   78.59710   82.75450  143.69500
 8618.50000  100.30350    6.52230   -9999.25   -9999.25  -61.44370    7.00750    6.66740    0.24460    0.07790   -9999.25    2.57260    0.10300   78.09020   82.73960  144.74360
