~Version ---------------------------------------------------
VERS.   2.0 : CWLS log ASCII Standard -VERSION 2.0
WRAP.    NO : One line per depth step
DLM . SPACE : Column Data Section Delimiter
~Well ------------------------------------------------------
STRT .F                 845.0 : START DEPTH
STOP .F                8968.0 : STOP DEPTH
STEP .F                   0.5 : STEP
NULL .               -9999.25 : NULL VALUE
COMP .                        : COMPANY
WELL .                        : WELL
FLD  .                        : FIELD
LOC  .                        : LOCATION
PROV .                        : PROVINCE
CNTY .                        : COUNTY
STAT .                        : STATE
CTRY .                        : COUNTRY
SRVC .                        : SERVICE COMPANY
DATE .                        : DATE
UWI  .                        : UNIQUE WELL ID
API  .                        : API NUMBER
SLAT .WGS84 5.106284331781502 : SURFACE LATITUDE
SLON .WGS84 2.553414967040709 : SURFACE LONGITUDE
DATUM.F                   nan : DEPTH DATUM ELEV
~Curve Information -----------------------------------------
DEPT   .F     : 1 MEASURED DEPTH
GRR    .GAPI  : GAMMA RAY FROM RESISTIVITY LOG
ILD    .OHMM  : INDUCTION DEEP RESISTIVITY
CILD   .MMHO  : INDUCTION DEEP CONDUCTIVITY
SFLA   .OHMM  : SPHERICALLY FOCUSED LOG RESISTIVITY AVERAGED OVER 2.5 FT
SPR    .MV    : SPONTANEOUS POTENTIAL FROM RESISTIVITY LOG
SFLU   .OHMM  : SHALLOW FOCUSED RESISTIVITY (UNAVERAGED)
ILM    .OHMM  : INDUCTION MEDIUM RESISTIVITY
NPHI_LS.DEC   : NEUTRON POROSITY LIMESTONE
DPHI_LS.DEC   : DENSITY POROSITY LIMESTONE
CALD   .IN    : CALIPER FROM DENSITY LOG
RHOB   .G/C3  : BULK DENSITY
DRHO   .G/C3  : BULK DENSITY CORRECTION
DT     .US/F  : DELTA-T (INTERVAL TRANSIT TIME)
DTCO   .US/F  : DELTA-T COMPRESSIONAL
DTSM   .US/F  : DELTA-T SHEAR
~Params ----------------------------------------------------
~Other -----------------------------------------------------
~ASCII -----------------------------------------------------
# ...
 8757.00000   71.30360   14.81780   -9999.25   -9999.25  -66.02250   17.28470   15.15840    0.12590    0.05520   -9999.25    2.61270    0.00910   64.58070   66.95780  110.80200
 8757.50000   74.14470   14.61180   -9999.25   -9999.25  -65.84950   16.99400   14.94770    0.13170    0.05280   -9999.25    2.61630    0.01140   65.12320   67.24420  111.07950
 8758.00000   76.98590   14.44970   -9999.25   -9999.25  -65.75780   16.94250   14.76730    0.14010    0.05210   -9999.25    2.61590    0.01070   65.57970   67.43340  111.35700
 8758.50000   78.84720   14.44970   -9999.25   -9999.25  -65.66620   16.71340   14.76730    0.13990    0.05410   -9999.25    2.61320    0.00780   66.44680   67.62250  111.52730
 8759.00000   76.75390   14.76150   -9999.25   -9999.25  -65.57460   16.23800   15.13390    0.13330    0.05890   -9999.25    2.60590    0.00490   66.48710   67.76050  111.19970
 8759.50000   73.84130   15.15350   -9999.25   -9999.25  -65.48300   16.75570   15.50260    0.12200    0.06290   -9999.25    2.59850    0.00200   66.00610   67.73060  110.80500
 8760.00000   67.99400   15.17200   -9999.25   -9999.25  -65.39140   17.81910   15.50560    0.11170    0.06260   -9999.25    2.59640   -0.00030   65.14200   67.34200  110.44930
 8760.50000   68.53670   15.16580   -9999.25   -9999.25  -65.29970   18.77980   15.49910    0.11410    0.06160   -9999.25    2.60270   -0.00260   64.27790   66.95350  109.71590
 8761.00000   70.79250   15.16010   -9999.25   -9999.25  -65.20810   18.58530   15.55150    0.12320    0.06100   -9999.25    2.60430   -0.00500   63.63580   66.71440  108.98240
 8761.50000   70.96010   15.22110   -9999.25   -9999.25  -65.16780   17.85400   15.80600    0.12720    0.06060   -9999.25    2.60300   -0.00800   63.82100   66.78020  108.37470
 8762.00000   68.32240   15.28230   -9999.25   -9999.25  -65.18370   17.15150   15.95180    0.12180    0.06020   -9999.25    2.60330   -0.01190   64.41460   66.95890  108.85720
 8762.50000   67.94960   15.34370   -9999.25   -9999.25  -65.19970   17.08120   16.03720    0.11590    0.06010   -9999.25    2.60380   -0.01500   65.00810   67.09390  109.81290
 8763.00000   69.70470   15.40540   -9999.25   -9999.25  -65.21570   18.24400   15.93040    0.11660    0.06110   -9999.25    2.60400   -0.01560   65.10440   66.89820  110.19080
 8763.50000   71.78690   15.46730   -9999.25   -9999.25  -64.88570   19.40270   15.85170    0.12180    0.06330   -9999.25    2.59910   -0.01620   64.25900   66.70510  109.88520
 8764.00000   73.38230   15.45380   -9999.25   -9999.25  -64.53640   18.58040   15.80180    0.12620    0.06880   -9999.25    2.59160   -0.01560   64.15660   66.81910  108.93450
 8764.50000   72.64100   15.40610   -9999.25   -9999.25  -64.18720   17.38200   15.75200    0.12310    0.07290   -9999.25    2.58310   -0.01490   64.26190   67.18300  108.78620
 8765.00000   70.56590   15.35840   -9999.25   -9999.25  -63.83790   17.21240   15.70240    0.11990    0.07100   -9999.25    2.58590   -0.01320   64.54160   67.44850  110.20090
 8765.50000   70.18090   15.31100   -9999.25   -9999.25  -63.48870   17.61010   15.65300    0.12170    0.06560   -9999.25    2.59440   -0.00810   64.73110   67.47940  111.04980
 8766.00000   73.15800   15.26360   -9999.25   -9999.25  -63.13940   18.19770   15.60370    0.13630    0.06010   -9999.25    2.60340   -0.00280   64.66570   67.30210  110.16150
 8766.50000   77.30010   15.21650   -9999.25   -9999.25  -62.79020   17.56370   15.55460    0.13950    0.05720   -9999.25    2.60940   -0.00090   64.68590   67.15280  109.41350
 8767.00000   77.11320   15.16940   -9999.25   -9999.25  -62.44100   17.27560   15.50570    0.13860    0.05870   -9999.25    2.60660   -0.00050   64.70140   67.24320  111.02750
 8767.50000   74.03950   15.12260   -9999.25   -9999.25  -62.09690   17.16540   15.45690    0.13340    0.06060   -9999.25    2.60320   -0.00020   64.62720   67.74510  112.18380
 8768.00000   71.33810   15.07580   -9999.25   -9999.25  -61.76780   18.57220   15.40820    0.12790    0.06260   -9999.25    2.60010   -0.00150   64.30890   68.17250  111.57880
 8768.50000   71.39040   14.97570   -9999.25   -9999.25  -61.43860   19.75140   15.31560    0.12830    0.06460   -9999.25    2.59690   -0.00310   64.47360   67.94180  110.83010
 8769.00000   73.44960   14.80440   -9999.25   -9999.25  -61.41730   19.53210   15.14010    0.13320    0.06650   -9999.25    2.59420   -0.00610   64.73750   67.62750  110.09480
 8769.50000   75.38830   14.75990   -9999.25   -9999.25  -61.42430   18.91690   15.08370    0.13700    0.06650   -9999.25    2.59270   -0.00790   64.97430   67.31330  110.22300
 8770.00000   73.62930   14.79020   -9999.25   -9999.25  -61.43130   17.78030   15.11830    0.13170    0.06530   -9999.25    2.59450   -0.00700   65.16440   67.12730  111.55150
 8770.50000   70.74910   14.89410   -9999.25   -9999.25  -61.43820   17.72570   15.22440    0.12600    0.06400   -9999.25    2.59750   -0.00610   65.35460   67.12890  112.34480
 8771.00000   70.74090   15.00900   -9999.25   -9999.25  -61.44520   18.19190   15.34260    0.12800    0.06230   -9999.25    2.59840   -0.00250   65.55830   67.21110  111.88250
 8771.50000   70.59620   15.12570   -9999.25   -9999.25  -61.45210   18.17060   15.46190    0.13580    0.06020   -9999.25    2.60250    0.00170   65.63470   67.30220  110.08480
 8772.00000   68.47070   15.31310   -9999.25   -9999.25  -61.45910   18.04610   15.67500    0.13670    0.05730   -9999.25    2.60550    0.00710   65.47700   67.33020  108.82880
 8772.50000   66.08620   15.60580   -9999.25   -9999.25  -61.90020   17.93170   15.97470    0.12910    0.05550   -9999.25    2.61160    0.00960   65.30050   67.11560  110.44020
 8773.00000   65.66190   15.79620   -9999.25   -9999.25  -62.56290   18.44270   16.14270    0.11610    0.05580   -9999.25    2.61190    0.01200   65.12390   66.79710  110.93910
 8773.50000   67.16150   15.73050   -9999.25   -9999.25  -63.41820   20.19340   16.07870    0.11080    0.05890   -9999.25    2.60760    0.01140   64.89580   66.47860  109.44170
 8774.00000   72.09340   15.63410   -9999.25   -9999.25  -64.21540   20.81070   15.98010    0.11720    0.06230   -9999.25    2.59970    0.01090   64.61280   66.16000  107.72320
 8774.50000   72.21200   15.53830   -9999.25   -9999.25  -64.35190   19.82960   15.88210    0.12410    0.06710   -9999.25    2.59370    0.01030   64.39310   65.84150  107.41460
 8775.00000   69.22830   15.44310   -9999.25   -9999.25  -64.48850   18.88120   15.78470    0.12750    0.06840   -9999.25    2.59220    0.00980   64.17340   65.81980  107.56000
 8775.50000   68.95130   15.34840   -9999.25   -9999.25  -64.62500   18.62910   15.68790    0.12310    0.06690   -9999.25    2.59320    0.00920   64.11640   65.88920  108.49610
 8776.00000   71.15460   15.33860   -9999.25   -9999.25  -64.76160   18.98620   15.67510    0.12110    0.06180   -9999.25    2.59660    0.00810   64.35300   66.24570  111.97480
 8776.50000   72.70140   15.33860   -9999.25   -9999.25  -64.89820   18.98620   15.67510    0.12450    0.06060   -9999.25    2.60380    0.00710   65.21630   66.60230  110.74880
 8777.00000   72.14140   15.47680   -9999.25   -9999.25  -64.99130   18.75310   15.82490    0.12880    0.06030   -9999.25    2.60430    0.00690   65.49490   66.95880  108.63080
 8777.50000   69.93730   15.64210   -9999.25   -9999.25  -64.99130   18.62160   16.08620    0.12570    0.06120   -9999.25    2.60310    0.00730   65.34700   67.31540  108.15770
 8778.00000   67.26460   15.80920   -9999.25   -9999.25  -64.99130   18.95260   16.36360    0.11870    0.05710   -9999.25    2.60650    0.00870   65.25670   67.35690  108.62550
 8778.50000   66.82470   15.94530   -9999.25   -9999.25  -65.07890   20.53080   16.64580    0.10970    0.05350   -9999.25    2.61480    0.01160   65.16640   66.72590  109.26630
 8779.00000   68.58590   15.94530   -9999.25   -9999.25  -65.18040   22.27180   16.78090    0.10980    0.05330   -9999.25    2.61630    0.01440   64.61480   65.97590  109.82560
 8779.50000   70.37560   15.94660   -9999.25   -9999.25  -65.28200   21.93140   16.73550    0.11790    0.05560   -9999.25    2.61370    0.01120   64.09150   65.79140  110.38500
