~Version ---------------------------------------------------
VERS.   2.0 : CWLS log ASCII Standard -VERSION 2.0
WRAP.    NO : One line per depth step
DLM . SPACE : Column Data Section Delimiter
~Well ------------------------------------------------------
STRT .F                 845.0 : START DEPTH
STOP .F                8968.0 : STOP DEPTH
STEP .F                   0.5 : STEP
NULL .               -9999.25 : NULL VALUE
COMP .                        : COMPANY
WELL .                        : WELL
FLD  .                        : FIELD
LOC  .                        : LOCATION
PROV .                        : PROVINCE
CNTY .                        : COUNTY
STAT .                        : STATE
CTRY .                        : COUNTRY
SRVC .                        : SERVICE COMPANY
DATE .                        : DATE
UWI  .                        : UNIQUE WELL ID
API  .                        : API NUMBER
SLAT .WGS84 5.106284331781502 : SURFACE LATITUDE
SLON .WGS84 2.553414967040709 : SURFACE LONGITUDE
DATUM.F                   nan : DEPTH DATUM ELEV
~Curve Information -----------------------------------------
DEPT   .F     : 1 MEASURED DEPTH
GRR    .GAPI  : GAMMA RAY FROM RESISTIVITY LOG
ILD    .OHMM  : INDUCTION DEEP RESISTIVITY
CILD   .MMHO  : INDUCTION DEEP CONDUCTIVITY
SFLA   .OHMM  : SPHERICALLY FOCUSED LOG RESISTIVITY AVERAGED OVER 2.5 FT
SPR    .MV    : SPONTANEOUS POTENTIAL FROM RESISTIVITY LOG
SFLU   .OHMM  : SHALLOW FOCUSED RESISTIVITY (UNAVERAGED)
ILM    .OHMM  : INDUCTION MEDIUM RESISTIVITY
NPHI_LS.DEC   : NEUTRON POROSITY LIMESTONE
DPHI_LS.DEC   : DENSITY POROSITY LIMESTONE
CALD   .IN    : CALIPER FROM DENSITY LOG
RHOB   .G/C3  : BULK DENSITY
DRHO   .G/C3  : BULK DENSITY CORRECTION
DT     .US/F  : DELTA-T (INTERVAL TRANSIT TIME)
DTCO   .US/F  : DELTA-T COMPRESSIONAL
DTSM   .US/F  : DELTA-T SHEAR
~Params ----------------------------------------------------
~Other -----------------------------------------------------
~ASCII -----------------------------------------------------
# ...
 6503.00000   82.51920    5.20380   -9999.25   -9999.25   13.39600    4.87320    5.11650    0.21690    0.13670   12.99360    2.46940    0.11060   -9999.25   -9999.25   -9999.25
 6503.50000   78.10100    5.42060   -9999.25   -9999.25   16.37510    5.12960    5.26920    0.20840    0.11510   13.06820    2.50010    0.12410   -9999.25   -9999.25   -9999.25
 6504.00000   75.40940    5.60970   -9999.25   -9999.25   18.28730    5.36620    5.41100    0.19630    0.09270   13.21280    2.54230    0.12440   -9999.25   -9999.25   -9999.25
 6504.50000   72.75720    5.76020   -9999.25   -9999.25   19.41110    5.57750    5.55670    0.18820    0.08050   13.18850    2.56870    0.11230   -9999.25   -9999.25   -9999.25
 6505.00000   71.87770    5.91470   -9999.25   -9999.25   20.28320    5.80930    5.70630    0.19000    0.08670   13.04120    2.55920    0.09580   -9999.25   -9999.25   -9999.25
 6505.50000   71.10770    6.07350   -9999.25   -9999.25   21.12920    6.08040    5.84820    0.19320    0.09960   12.89400    2.54140    0.08020   -9999.25   -9999.25   -9999.25
 6506.00000   71.52740    6.13570   -9999.25   -9999.25   20.68610    6.36420    5.84500    0.20450    0.10650   12.83350    2.52640    0.08800   -9999.25   -9999.25   -9999.25
 6506.50000   73.14590    5.99920   -9999.25   -9999.25   20.24290    6.22350    5.66260    0.22150    0.11560   12.86480    2.50860    0.10210   -9999.25   -9999.25   -9999.25
 6507.00000   75.30000    5.75200   -9999.25   -9999.25   19.79980    5.75070    5.39090    0.23980    0.13280   13.08260    2.48490    0.10650   -9999.25   -9999.25   -9999.25
 6507.50000   79.32610    5.51500   -9999.25   -9999.25   18.82540    5.31380    5.13220    0.25840    0.14830   13.30040    2.46050    0.10130   -9999.25   -9999.25   -9999.25
 6508.00000   81.60210    5.28770   -9999.25   -9999.25   16.56590    4.91010    4.88590    0.27550    0.14960   13.47640    2.44790    0.09770   -9999.25   -9999.25   -9999.25
 6508.50000   81.42780    5.06980   -9999.25   -9999.25   14.75550    4.53710    4.76430    0.28090    0.14680   13.46480    2.45320    0.09520   -9999.25   -9999.25   -9999.25
 6509.00000   80.87330    4.93550   -9999.25   -9999.25   13.33470    4.38470    4.72280    0.27820    0.14440   13.30360    2.46020    0.09540   -9999.25   -9999.25   -9999.25
 6509.50000   80.67270    4.84970   -9999.25   -9999.25   12.91650    4.33700    4.70370    0.27020    0.14160   13.12300    2.46410    0.09640   -9999.25   -9999.25   -9999.25
 6510.00000   81.01040    4.80860   -9999.25   -9999.25   12.49830    4.41210    4.70220    0.26230    0.13960   12.97730    2.46750    0.09760   -9999.25   -9999.25   -9999.25
 6510.50000   81.41000    4.81950   -9999.25   -9999.25   12.21800    4.48890    4.70060    0.25550    0.13880   12.84630    2.46950    0.11890   -9999.25   -9999.25   -9999.25
 6511.00000   79.95600    4.86330   -9999.25   -9999.25   13.44310    4.56720    4.74150    0.25090    0.13730   12.73140    2.47200    0.11080   -9999.25   -9999.25   -9999.25
 6511.50000   76.50680    4.93820   -9999.25   -9999.25   15.26370    4.64680    4.82480    0.24130    0.12950   12.61190    2.48540    0.09720   -9999.25   -9999.25   -9999.25
 6512.00000   74.01810    5.18610   -9999.25   -9999.25   17.38740    4.72790    4.97530    0.21420    0.11460   12.35660    2.50770    0.06990   -9999.25   -9999.25   -9999.25
 6512.50000   71.70980    5.54420   -9999.25   -9999.25   20.14300    5.08540    5.31850    0.19150    0.09660   11.97150    2.54080    0.04260   -9999.25   -9999.25   -9999.25
 6513.00000   72.35680    5.92700   -9999.25   -9999.25   22.68370    5.52770    5.68550    0.17360    0.08940   11.57390    2.55060    0.01610   -9999.25   -9999.25   -9999.25
 6513.50000   73.83340    6.33630   -9999.25   -9999.25   24.64010    5.97030    6.08720    0.16370    0.08770   11.31610    2.55660    0.00030   -9999.25   -9999.25   -9999.25
 6514.00000   74.99130    6.77380   -9999.25   -9999.25   26.09710    6.44650    6.52840    0.15470    0.08830   11.27380    2.55620   -0.00920   -9999.25   -9999.25   -9999.25
 6514.50000   73.79430    6.92250   -9999.25   -9999.25   27.77950    6.96060    6.69970    0.14850    0.08990   11.17170    2.55340   -0.01020   -9999.25   -9999.25   -9999.25
 6515.00000   71.76040    6.97970   -9999.25   -9999.25   29.46180    7.04770    6.67200    0.15130    0.09160   11.19050    2.55070   -0.00930   -9999.25   -9999.25   -9999.25
 6515.50000   70.32240    6.97970   -9999.25   -9999.25   31.14410    6.99610    6.64930    0.16270    0.09250   11.20670    2.54920   -0.00490   -9999.25   -9999.25   -9999.25
 6516.00000   71.93250    6.95260   -9999.25   -9999.25   30.41380    6.69980    6.60820    0.17130    0.09560   11.21860    2.54690    0.00110   -9999.25   -9999.25   -9999.25
 6516.50000   75.46300    6.87270   -9999.25   -9999.25   29.63790    6.35710    6.46160    0.18370    0.09980   11.22340    2.53460    0.01310   -9999.25   -9999.25   -9999.25
 6517.00000   78.99350    6.61480   -9999.25   -9999.25   28.84210    6.03190    6.31830    0.19220    0.11500   11.26780    2.51610    0.02980   -9999.25   -9999.25   -9999.25
 6517.50000   79.13990    6.25900   -9999.25   -9999.25   27.04240    5.72360    6.03300    0.20230    0.14590   11.50720    2.47710    0.05140   -9999.25   -9999.25   -9999.25
 6518.00000   78.12990    5.92240   -9999.25   -9999.25   25.18890    5.44830    5.70850    0.21790    0.17020   11.74650    2.43370    0.08340   -9999.25   -9999.25   -9999.25
 6518.50000   78.62210    5.60390   -9999.25   -9999.25   23.27800    5.18630    5.40140    0.23290    0.18640   12.08420    2.38800    0.11960   -9999.25   -9999.25   -9999.25
 6519.00000   79.41840    5.30250   -9999.25   -9999.25   21.22570    4.93680    5.11090    0.25010    0.18250   12.34250    2.39260    0.14130   -9999.25   -9999.25   -9999.25
 6519.50000   80.42610    5.01730   -9999.25   -9999.25   19.39840    4.75200    4.86140    0.26840    0.17620   12.42030    2.40160    0.15630   -9999.25   -9999.25   -9999.25
 6520.00000   81.15570    4.88020   -9999.25   -9999.25   18.57910    4.66900    4.76260    0.28530    0.17250   12.49810    2.41040    0.16900   -9999.25   -9999.25   -9999.25
 6520.50000   81.18630    4.86950   -9999.25   -9999.25   19.14230    4.65620    4.75870    0.29680    0.16890   12.54390    2.41960    0.16320   -9999.25   -9999.25   -9999.25
 6521.00000   80.36590    4.95030   -9999.25   -9999.25   19.79880    4.68060    4.77560    0.29790    0.16240   12.54390    2.42840    0.15200   -9999.25   -9999.25   -9999.25
 6521.50000   77.42960    5.21960   -9999.25   -9999.25   20.45530    4.78610    5.03560    0.28500    0.15340   12.34120    2.44550    0.13910   -9999.25   -9999.25   -9999.25
 6522.00000   75.01950    5.50370   -9999.25   -9999.25   22.75590    4.90310    5.30970    0.24270    0.12820   11.95460    2.49310    0.11110   -9999.25   -9999.25   -9999.25
 6522.50000   72.68420    5.80320   -9999.25   -9999.25   25.19200    5.20830    5.59870    0.20360    0.08970   11.17990    2.54850    0.08120   -9999.25   -9999.25   -9999.25
 6523.00000   71.02300    6.11900   -9999.25   -9999.25   27.38520    5.80620    5.90350    0.17010    0.07160   10.65220    2.58700    0.05120   -9999.25   -9999.25   -9999.25
 6523.50000   70.51910    6.40770   -9999.25   -9999.25   29.56510    6.47270    6.22480    0.15530    0.06650   10.48560    2.59340    0.02190   -9999.25   -9999.25   -9999.25
 6524.00000   72.93830    6.56180   -9999.25   -9999.25   31.07120    7.21580    6.39120    0.14670    0.06630   10.48560    2.59360    0.00570   -9999.25   -9999.25   -9999.25
 6524.50000   75.63460    6.71960   -9999.25   -9999.25   32.35510    7.78380    6.54440    0.14510    0.06680   10.48600    2.59320   -0.00320   -9999.25   -9999.25   -9999.25
 6525.00000   76.95890    6.88110   -9999.25   -9999.25   33.04550    7.82550    6.70130    0.14660    0.06870   10.48700    2.58960   -0.00600   -9999.25   -9999.25   -9999.25
 6525.50000   74.28090    7.04660   -9999.25   -9999.25   33.19990    7.83200    6.86200    0.14830    0.07380   10.48840    2.58180   -0.00870   -9999.25   -9999.25   -9999.25
