~Version ---------------------------------------------------
VERS.   2.0 : CWLS log ASCII Standard -VERSION 2.0
WRAP.    NO : One line per depth step
DLM . SPACE : Column Data Section Delimiter
~Well ------------------------------------------------------
STRT .F                 845.0 : START DEPTH
STOP .F                8968.0 : STOP DEPTH
STEP .F                   0.5 : STEP
NULL .               -9999.25 : NULL VALUE
COMP .                        : COMPANY
WELL .                        : WELL
FLD  .                        : FIELD
LOC  .                        : LOCATION
PROV .                        : PROVINCE
CNTY .                        : COUNTY
STAT .                        : STATE
CTRY .                        : COUNTRY
SRVC .                        : SERVICE COMPANY
DATE .                        : DATE
UWI  .                        : UNIQUE WELL ID
API  .                        : API NUMBER
SLAT .WGS84 5.106284331781502 : SURFACE LATITUDE
SLON .WGS84 2.553414967040709 : SURFACE LONGITUDE
DATUM.F                   nan : DEPTH DATUM ELEV
~Curve Information -----------------------------------------
DEPT   .F     : 1 MEASURED DEPTH
GRR    .GAPI  : GAMMA RAY FROM RESISTIVITY LOG
ILD    .OHMM  : INDUCTION DEEP RESISTIVITY
CILD   .MMHO  : INDUCTION DEEP CONDUCTIVITY
SFLA   .OHMM  : SPHERICALLY FOCUSED LOG RESISTIVITY AVERAGED OVER 2.5 FT
SPR    .MV    : SPONTANEOUS POTENTIAL FROM RESISTIVITY LOG
SFLU   .OHMM  : SHALLOW FOCUSED RESISTIVITY (UNAVERAGED)
ILM    .OHMM  : INDUCTION MEDIUM RESISTIVITY
NPHI_LS.DEC   : NEUTRON POROSITY LIMESTONE
DPHI_LS.DEC   : DENSITY POROSITY LIMESTONE
CALD   .IN    : CALIPER FROM DENSITY LOG
RHOB   .G/C3  : BULK DENSITY
DRHO   .G/C3  : BULK DENSITY CORRECTION
DT     .US/F  : DELTA-T (INTERVAL TRANSIT TIME)
DTCO   .US/F  : DELTA-T COMPRESSIONAL
DTSM   .US/F  : DELTA-T SHEAR
~Params ----------------------------------------------------
~Other -----------------------------------------------------
~ASCII -----------------------------------------------------
# ...
 7308.00000   87.25580    8.17180   -9999.25   -9999.25  -34.86610    7.86870    7.98880    0.22080    0.10090   11.21590    2.52930    0.04850   -9999.25   -9999.25   -9999.25
 7308.50000   86.57690    8.34450   -9999.25   -9999.25  -34.25980    7.87590    8.15760    0.21780    0.09780   11.19790    2.53730    0.06060   -9999.25   -9999.25   -9999.25
 7309.00000   86.28050    8.51940   -9999.25   -9999.25  -34.20280    7.92740    8.33010    0.21930    0.09180   11.17840    2.54600    0.07270   -9999.25   -9999.25   -9999.25
 7309.50000   86.21090    8.55950   -9999.25   -9999.25  -34.14590    7.98670    8.38260    0.22080    0.08620   11.16960    2.55630    0.07660   -9999.25   -9999.25   -9999.25
 7310.00000   86.16330    8.59990   -9999.25   -9999.25  -34.08890    8.05850    8.42210    0.22030    0.08250   11.16080    2.56180    0.07240   -9999.25   -9999.25   -9999.25
 7310.50000   86.10210    8.64050   -9999.25   -9999.25  -34.03200    8.14350    8.46180    0.21710    0.08060   11.15200    2.56870    0.06140   -9999.25   -9999.25   -9999.25
 7311.00000   86.39080    8.68120   -9999.25   -9999.25  -34.15850    8.22930    8.50170    0.21280    0.07920   11.14320    2.57140    0.05180   -9999.25   -9999.25   -9999.25
 7311.50000   86.93310    8.72220   -9999.25   -9999.25  -34.19780    8.31050    8.54180    0.20700    0.07970   11.13380    2.57010    0.04860   -9999.25   -9999.25   -9999.25
 7312.00000   87.80590    8.76330   -9999.25   -9999.25  -34.24240    8.31690    8.58210    0.20090    0.08870   11.12390    2.55650    0.05540   -9999.25   -9999.25   -9999.25
 7312.50000   88.89400    8.80460   -9999.25   -9999.25  -34.39290    8.30490    8.62250    0.19980    0.10290   11.11390    2.52990    0.06290   -9999.25   -9999.25   -9999.25
 7313.00000   89.57340    8.82880   -9999.25   -9999.25  -34.54380    8.16370    8.56250    0.20410    0.11210   11.11340    2.51740    0.07180   -9999.25   -9999.25   -9999.25
 7313.50000   89.58830    8.77250   -9999.25   -9999.25  -34.70420    8.01660    8.39370    0.21110    0.11200   11.11540    2.51480    0.08220   -9999.25   -9999.25   -9999.25
 7314.00000   89.38320    8.59510   -9999.25   -9999.25  -35.07970    7.87220    8.22830    0.21930    0.10880   11.16410    2.51820    0.08660   -9999.25   -9999.25   -9999.25
 7314.50000   89.09020    8.41680   -9999.25   -9999.25  -35.48370    7.79210    8.06600    0.22500    0.10490   11.19420    2.52660    0.07820   -9999.25   -9999.25   -9999.25
 7315.00000   88.34370    8.31830   -9999.25   -9999.25  -35.70310    7.79210    8.00990    0.22510    0.09990   11.21860    2.53390    0.07490   -9999.25   -9999.25   -9999.25
 7315.50000   87.50620    8.27930   -9999.25   -9999.25  -35.78240    7.79450    8.00150    0.22520    0.10260   11.22030    2.53310    0.07970   -9999.25   -9999.25   -9999.25
 7316.00000   86.66880    8.24240   -9999.25   -9999.25  -35.86160    7.79720    8.00150    0.22670    0.11420   11.22130    2.51700    0.08560   -9999.25   -9999.25   -9999.25
 7316.50000   86.13980    8.20770   -9999.25   -9999.25  -35.93600    7.79990    8.00150    0.22790    0.12590   11.22240    2.49220    0.09150   -9999.25   -9999.25   -9999.25
 7317.00000   85.90330    8.18750   -9999.25   -9999.25  -36.07600    7.80250    8.00150    0.22410    0.12210   11.22340    2.49520    0.09620   -9999.25   -9999.25   -9999.25
 7317.50000   86.09200    8.21800   -9999.25   -9999.25  -36.51260    7.80520    8.00150    0.22070    0.11060   11.20240    2.51230    0.10050   -9999.25   -9999.25   -9999.25
 7318.00000   86.94430    8.23460   -9999.25   -9999.25  -36.62540    7.80790    8.00150    0.21960    0.10050   11.17810    2.52730    0.10650   -9999.25   -9999.25   -9999.25
 7318.50000   88.04580    8.25120   -9999.25   -9999.25  -36.41700    7.81060    8.00190    0.22430    0.10880   11.15380    2.52260    0.11310   -9999.25   -9999.25   -9999.25
 7319.00000   88.61010    8.26790   -9999.25   -9999.25  -36.20870    7.81320    8.00280    0.23550    0.12250   11.14930    2.49810    0.11970   -9999.25   -9999.25   -9999.25
 7319.50000   87.95380    8.28460   -9999.25   -9999.25  -36.00030    7.81590    8.00370    0.24590    0.13220   11.16940    2.48240    0.12500   -9999.25   -9999.25   -9999.25
 7320.00000   89.59340    8.30140   -9999.25   -9999.25  -35.67770    7.81860    8.00450    0.24070    0.12310   11.19390    2.49810    0.12670   -9999.25   -9999.25   -9999.25
 7320.50000   91.80490    8.31660   -9999.25   -9999.25  -35.32990    7.82120    8.00560    0.23170    0.10710   11.21580    2.52440    0.12240   -9999.25   -9999.25   -9999.25
 7321.00000   93.43430    8.28840   -9999.25   -9999.25  -34.98200    7.82390    8.00670    0.23400    0.09120   11.22200    2.55290    0.11100   -9999.25   -9999.25   -9999.25
 7321.50000   94.66740    8.26550   -9999.25   -9999.25  -34.63420    7.82660    8.01300    0.24100    0.08590   11.22110    2.56130    0.08690   -9999.25   -9999.25   -9999.25
 7322.00000   95.36300    8.24790   -9999.25   -9999.25  -34.28640    7.82930    8.02500    0.24530    0.08780   11.22020    2.55220    0.07080   -9999.25   -9999.25   -9999.25
 7322.50000   94.72240    8.23050   -9999.25   -9999.25  -33.93850    7.83200    8.03710    0.24070    0.09180   11.21930    2.54660    0.05820   -9999.25   -9999.25   -9999.25
 7323.00000   92.65070    8.21300   -9999.25   -9999.25  -33.59070    7.83460    8.02060    0.23460    0.09740   11.21840    2.53700    0.05540   -9999.25   -9999.25   -9999.25
 7323.50000   88.67040    8.19560   -9999.25   -9999.25  -33.35000    7.83730    8.02120    0.22420    0.10040   11.20350    2.53150    0.05810   -9999.25   -9999.25   -9999.25
 7324.00000   85.84740    8.18340   -9999.25   -9999.25  -33.26080    7.84000    8.01810    0.22150    0.10460   11.18440    2.52310    0.06720   -9999.25   -9999.25   -9999.25
 7324.50000   86.52100    8.18060   -9999.25   -9999.25  -33.53260    7.84270    8.01490    0.22110    0.10900   11.17380    2.51890    0.07630   -9999.25   -9999.25   -9999.25
 7325.00000   88.25640    8.17770   -9999.25   -9999.25  -34.01140    7.84540    8.01170    0.22080    0.10890   11.17710    2.52150    0.08460   -9999.25   -9999.25   -9999.25
 7325.50000   89.99180    8.17490   -9999.25   -9999.25  -34.49020    7.84800    8.00850    0.22160    0.10500   11.18280    2.52920    0.09190   -9999.25   -9999.25   -9999.25
 7326.00000   90.83110    8.17210   -9999.25   -9999.25  -34.96890    7.85070    8.00530    0.22700    0.10640   11.19400    2.51940    0.09400   -9999.25   -9999.25   -9999.25
 7326.50000   90.70320    8.16920   -9999.25   -9999.25  -35.37820    7.85340    8.00210    0.23270    0.11400   11.20510    2.50840    0.09240   -9999.25   -9999.25   -9999.25
 7327.00000   90.18420    8.16640   -9999.25   -9999.25  -35.60650    7.85610    7.99890    0.23090    0.11740   11.20830    2.50580    0.09260   -9999.25   -9999.25   -9999.25
 7327.50000   89.61140    8.16350   -9999.25   -9999.25  -35.83470    7.85880    7.99570    0.22610    0.11400   11.21120    2.51170    0.09340   -9999.25   -9999.25   -9999.25
 7328.00000   88.28130    8.16410   -9999.25   -9999.25  -36.71370    7.86150    7.99600    0.22440    0.11020   11.21410    2.51770    0.09460   -9999.25   -9999.25   -9999.25
 7328.50000   86.94700    8.17790   -9999.25   -9999.25  -37.75450    7.86420    8.00910    0.22780    0.10660   11.21690    2.52430    0.09450   -9999.25   -9999.25   -9999.25
 7329.00000   85.73350    8.20060   -9999.25   -9999.25  -38.79530    7.85790    8.03100    0.23260    0.10310   11.21980    2.53060    0.09220   -9999.25   -9999.25   -9999.25
 7329.50000   85.34470    8.22340   -9999.25   -9999.25  -38.34290    7.82120    8.05300    0.23720    0.10030   11.22270    2.53500    0.09010   -9999.25   -9999.25   -9999.25
 7330.00000   86.59040    8.24620   -9999.25   -9999.25  -37.68470    7.80620    8.06140    0.23770    0.10030   11.19970    2.53440    0.08820   -9999.25   -9999.25   -9999.25
 7330.50000   88.23730    8.26910   -9999.25   -9999.25  -36.94360    7.81350    8.06610    0.23620    0.10100   11.17700    2.53270    0.08630   -9999.25   -9999.25   -9999.25
