~Version ---------------------------------------------------
VERS.   2.0 : CWLS log ASCII Standard -VERSION 2.0
WRAP.    NO : One line per depth step
DLM . SPACE : Column Data Section Delimiter
~Well ------------------------------------------------------
STRT .F                 845.0 : START DEPTH
STOP .F                8968.0 : STOP DEPTH
STEP .F                   0.5 : STEP
NULL .               -9999.25 : NULL VALUE
COMP .                        : COMPANY
WELL .                        : WELL
FLD  .                        : FIELD
LOC  .                        : LOCATION
PROV .                        : PROVINCE
CNTY .                        : COUNTY
STAT .                        : STATE
CTRY .                        : COUNTRY
SRVC .                        : SERVICE COMPANY
DATE .                        : DATE
UWI  .                        : UNIQUE WELL ID
API  .                        : API NUMBER
SLAT .WGS84 5.106284331781502 : SURFACE LATITUDE
SLON .WGS84 2.553414967040709 : SURFACE LONGITUDE
DATUM.F                   nan : DEPTH DATUM ELEV
~Curve Information -----------------------------------------
DEPT   .F     : 1 MEASURED DEPTH
GRR    .GAPI  : GAMMA RAY FROM RESISTIVITY LOG
ILD    .OHMM  : INDUCTION DEEP RESISTIVITY
CILD   .MMHO  : INDUCTION DEEP CONDUCTIVITY
SFLA   .OHMM  : SPHERICALLY FOCUSED LOG RESISTIVITY AVERAGED OVER 2.5 FT
SPR    .MV    : SPONTANEOUS POTENTIAL FROM RESISTIVITY LOG
SFLU   .OHMM  : SHALLOW FOCUSED RESISTIVITY (UNAVERAGED)
ILM    .OHMM  : INDUCTION MEDIUM RESISTIVITY
NPHI_LS.DEC   : NEUTRON POROSITY LIMESTONE
DPHI_LS.DEC   : DENSITY POROSITY LIMESTONE
CALD   .IN    : CALIPER FROM DENSITY LOG
RHOB   .G/C3  : BULK DENSITY
DRHO   .G/C3  : BULK DENSITY CORRECTION
DT     .US/F  : DELTA-T (INTERVAL TRANSIT TIME)
DTCO   .US/F  : DELTA-T COMPRESSIONAL
DTSM   .US/F  : DELTA-T SHEAR
~Params ----------------------------------------------------
~Other -----------------------------------------------------
~ASCII -----------------------------------------------------
# ...
 8274.00000   89.03680    9.17290   -9999.25   -9999.25  -11.95480    9.81910    9.47920    0.19420    0.12710   11.03250    2.48560    0.10370   -9999.25   -9999.25   -9999.25
 8274.50000   89.90910    9.25780   -9999.25   -9999.25  -11.83800    9.86280    9.48900    0.20010    0.11990   11.03250    2.50280    0.09500   -9999.25   -9999.25   -9999.25
 8275.00000   87.82610    9.34350   -9999.25   -9999.25  -11.92080    9.90670    9.55620    0.19770    0.10770   11.03240    2.52560    0.07580   -9999.25   -9999.25   -9999.25
 8275.50000   85.00820    9.38890   -9999.25   -9999.25  -11.83370    9.95080    9.59530    0.18670    0.09750   10.93840    2.53960    0.05640   -9999.25   -9999.25   -9999.25
 8276.00000   80.76510    9.38350   -9999.25   -9999.25  -11.74100   10.05970    9.59200    0.18820    0.09280   10.81080    2.54730    0.04010   -9999.25   -9999.25   -9999.25
 8276.50000   80.11890    9.44100   -9999.25   -9999.25  -11.62940   10.20360    9.65070    0.20240    0.09970   10.71850    2.53290    0.02430   -9999.25   -9999.25   -9999.25
 8277.00000   81.48270    9.52090   -9999.25   -9999.25  -11.52290   10.40970    9.73540    0.20260    0.10770   10.66190    2.52410    0.01590   -9999.25   -9999.25   -9999.25
 8277.50000   80.96460    9.74430   -9999.25   -9999.25  -11.50700   10.61990   10.08190    0.18870    0.10070   10.61920    2.53570    0.01270   -9999.25   -9999.25   -9999.25
 8278.00000   79.57660   10.15300   -9999.25   -9999.25  -11.43020   11.13400   10.47400    0.16820    0.08690   10.58680    2.55470    0.01100   -9999.25   -9999.25   -9999.25
 8278.50000   79.60790   10.49240   -9999.25   -9999.25  -11.19750   11.92540   10.72310    0.16110    0.09370   10.55750    2.54310    0.01090   -9999.25   -9999.25   -9999.25
 8279.00000   83.07070   10.33560   -9999.25   -9999.25  -10.96490   12.24620   10.67870    0.17700    0.11440   10.52820    2.50630    0.01220   -9999.25   -9999.25   -9999.25
 8279.50000   86.53350    9.80570   -9999.25   -9999.25  -10.73480   11.32800   10.29140    0.19480    0.13150   10.49660    2.48000    0.01790   -9999.25   -9999.25   -9999.25
 8280.00000   89.99620    9.40240   -9999.25   -9999.25  -10.69130   10.43510    9.96610    0.20770    0.12310   10.46490    2.50900    0.03380   -9999.25   -9999.25   -9999.25
 8280.50000   90.34820    9.39070   -9999.25   -9999.25  -10.66910   10.30920    9.71090    0.20610    0.10100   10.43310    2.53310    0.04920   -9999.25   -9999.25   -9999.25
 8281.00000   88.30180    9.38070   -9999.25   -9999.25  -10.81540   10.23810    9.77400    0.20080    0.09380   10.40140    2.54610    0.05410   -9999.25   -9999.25   -9999.25
 8281.50000   86.31180    9.38430   -9999.25   -9999.25  -10.83010   10.22880    9.82780    0.19230    0.09390   10.38170    2.54510    0.05550   -9999.25   -9999.25   -9999.25
 8282.00000   83.99860    9.49220   -9999.25   -9999.25  -10.84980   10.24790    9.87960    0.17860    0.09430   10.34340    2.54670    0.04180   -9999.25   -9999.25   -9999.25
 8282.50000   80.73280    9.60140   -9999.25   -9999.25  -10.88510   10.30210    9.93160    0.16470    0.08710   10.29200    2.56290    0.02770   -9999.25   -9999.25   -9999.25
 8283.00000   76.02140    9.71170   -9999.25   -9999.25  -10.91740   10.37940    9.98390    0.15820    0.07680   10.17810    2.58360    0.01350   -9999.25   -9999.25   -9999.25
 8283.50000   72.26070    9.82340   -9999.25   -9999.25  -10.71640   10.67970   10.04720    0.15490    0.06650   10.07270    2.59810    0.00110   -9999.25   -9999.25   -9999.25
 8284.00000   73.11700    9.93630   -9999.25   -9999.25  -10.10170   10.90170   10.16280    0.15400    0.06100   10.04760    2.60170   -0.00100   -9999.25   -9999.25   -9999.25
 8284.50000   75.19650    9.95050   -9999.25   -9999.25   -9.71960   10.82520   10.17120    0.15160    0.06240   10.02240    2.59510   -0.00270   -9999.25   -9999.25   -9999.25
 8285.00000   77.22760    9.89670   -9999.25   -9999.25   -9.51050   10.57270   10.11550    0.15180    0.06940    9.99730    2.58310    0.00130   -9999.25   -9999.25   -9999.25
 8285.50000   79.22900    9.86770   -9999.25   -9999.25   -9.30140   10.32600   10.08460    0.15400    0.07710    9.97220    2.57110    0.00290   -9999.25   -9999.25   -9999.25
 8286.00000   81.71320    9.84110   -9999.25   -9999.25   -9.19770   10.28330   10.05740    0.15710    0.08190    9.96440    2.56470    0.00420   -9999.25   -9999.25   -9999.25
 8286.50000   81.90550    9.81460   -9999.25   -9999.25   -9.47460   10.28330   10.03030    0.15970    0.08430    9.96570    2.56230    0.00260   -9999.25   -9999.25   -9999.25
 8287.00000   81.17570    9.78820   -9999.25   -9999.25   -9.90100   10.28330   10.00330    0.16010    0.08430    9.94010    2.56300    0.00170   -9999.25   -9999.25   -9999.25
 8287.50000   80.05720    9.76180   -9999.25   -9999.25  -10.13450   10.28330    9.97640    0.15880    0.08290    9.87270    2.56600    0.00120   -9999.25   -9999.25   -9999.25
 8288.00000   80.33430    9.73560   -9999.25   -9999.25  -10.35420   10.28330    9.94950    0.15280    0.07290    9.80000    2.58240    0.00170   -9999.25   -9999.25   -9999.25
 8288.50000   81.21910    9.70930   -9999.25   -9999.25  -10.53830   10.28330    9.92270    0.14880    0.06120    9.77990    2.60170    0.00230   -9999.25   -9999.25   -9999.25
 8289.00000   81.83670    9.70200   -9999.25   -9999.25  -10.54630   10.28330    9.91490    0.15020    0.05510    9.79410    2.61270    0.00300   -9999.25   -9999.25   -9999.25
 8289.50000   81.93780    9.70200   -9999.25   -9999.25   -9.98890   10.28330    9.91490    0.15350    0.05470    9.80120    2.61320    0.00310   -9999.25   -9999.25   -9999.25
 8290.00000   80.95370    9.70620   -9999.25   -9999.25   -9.43040   10.30300    9.98420    0.15290    0.05700    9.79970    2.60890    0.00290   -9999.25   -9999.25   -9999.25
 8290.50000   79.72070    9.71920   -9999.25   -9999.25   -8.87190   10.58740   10.19840    0.14880    0.05960    9.79730    2.60370    0.00280   -9999.25   -9999.25   -9999.25
 8291.00000   77.69200    9.73230   -9999.25   -9999.25   -8.31340   10.91140   10.41720    0.14600    0.06120    9.79630    2.59950    0.00180   -9999.25   -9999.25   -9999.25
 8291.50000   77.14940    9.74530   -9999.25   -9999.25   -7.99570   11.22230   10.54670    0.14660    0.06350    9.78520    2.59690    0.00080   -9999.25   -9999.25   -9999.25
 8292.00000   78.98070    9.75840   -9999.25   -9999.25   -8.43930   11.00640   10.47950    0.15020    0.06400    9.77740    2.59590    0.00090   -9999.25   -9999.25   -9999.25
 8292.50000   80.81200    9.77140   -9999.25   -9999.25   -8.64830   10.67770   10.28640    0.15390    0.06370    9.77800    2.59610    0.00100   -9999.25   -9999.25   -9999.25
 8293.00000   81.94000    9.78450   -9999.25   -9999.25   -8.59140   10.37970   10.12100    0.15820    0.06140    9.77860    2.60040    0.00110   -9999.25   -9999.25   -9999.25
 8293.50000   81.81260    9.79760   -9999.25   -9999.25   -8.53450   10.32100   10.05410    0.16530    0.06010    9.79320    2.60450    0.00190   -9999.25   -9999.25   -9999.25
 8294.00000   80.95480    9.79660   -9999.25   -9999.25   -8.47760   10.31170   10.02750    0.16650    0.06060    9.81030    2.60340    0.00080   -9999.25   -9999.25   -9999.25
 8294.50000   79.51670    9.79560   -9999.25   -9999.25   -8.42070   10.38520   10.01850    0.16180    0.06400    9.81890    2.59670    0.00060   -9999.25   -9999.25   -9999.25
 8295.00000   78.96040    9.79070   -9999.25   -9999.25   -8.32900   10.45930   10.00940    0.15710    0.06840    9.81710    2.59140    0.00000   -9999.25   -9999.25   -9999.25
 8295.50000   79.56870    9.78420   -9999.25   -9999.25   -8.21290   10.53390   10.00040    0.15910    0.07770    9.81520    2.57880    0.00280   -9999.25   -9999.25   -9999.25
 8296.00000   82.07190    9.77780   -9999.25   -9999.25   -8.16470   10.54770    9.99180    0.16980    0.08900    9.81340    2.56370    0.00620   -9999.25   -9999.25   -9999.25
 8296.50000   85.75450    9.77130   -9999.25   -9999.25   -8.15510   10.42060    9.98510    0.17880    0.09460    9.81310    2.54530    0.01180   -9999.25   -9999.25   -9999.25
