~Version ---------------------------------------------------
VERS.   2.0 : CWLS log ASCII Standard -VERSION 2.0
WRAP.    NO : One line per depth step
DLM . SPACE : Column Data Section Delimiter
~Well ------------------------------------------------------
STRT .F                 845.0 : START DEPTH
STOP .F                8968.0 : STOP DEPTH
STEP .F                   0.5 : STEP
NULL .               -9999.25 : NULL VALUE
COMP .                        : COMPANY
WELL .                        : WELL
FLD  .                        : FIELD
LOC  .                        : LOCATION
PROV .                        : PROVINCE
CNTY .                        : COUNTY
STAT .                        : STATE
CTRY .                        : COUNTRY
SRVC .                        : SERVICE COMPANY
DATE .                        : DATE
UWI  .                        : UNIQUE WELL ID
API  .                        : API NUMBER
SLAT .WGS84 5.106284331781502 : SURFACE LATITUDE
SLON .WGS84 2.553414967040709 : SURFACE LONGITUDE
DATUM.F                   nan : DEPTH DATUM ELEV
~Curve Information -----------------------------------------
DEPT   .F     : 1 MEASURED DEPTH
GRR    .GAPI  : GAMMA RAY FROM RESISTIVITY LOG
ILD    .OHMM  : INDUCTION DEEP RESISTIVITY
CILD   .MMHO  : INDUCTION DEEP CONDUCTIVITY
SFLA   .OHMM  : SPHERICALLY FOCUSED LOG RESISTIVITY AVERAGED OVER 2.5 FT
SPR    .MV    : SPONTANEOUS POTENTIAL FROM RESISTIVITY LOG
SFLU   .OHMM  : SHALLOW FOCUSED RESISTIVITY (UNAVERAGED)
ILM    .OHMM  : INDUCTION MEDIUM RESISTIVITY
NPHI_LS.DEC   : NEUTRON POROSITY LIMESTONE
DPHI_LS.DEC   : DENSITY POROSITY LIMESTONE
CALD   .IN    : CALIPER FROM DENSITY LOG
RHOB   .G/C3  : BULK DENSITY
DRHO   .G/C3  : BULK DENSITY CORRECTION
DT     .US/F  : DELTA-T (INTERVAL TRANSIT TIME)
DTCO   .US/F  : DELTA-T COMPRESSIONAL
DTSM   .US/F  : DELTA-T SHEAR
~Params ----------------------------------------------------
~Other -----------------------------------------------------
~ASCII -----------------------------------------------------
# ...
 6986.00000   52.60470    9.48900   -9999.25   -9999.25  -63.66740    5.78930   10.20920    0.15660    0.18210   11.47770    2.36740    0.02970   -9999.25   -9999.25   -9999.25
 6986.50000   43.43740   11.11520   -9999.25   -9999.25  -61.08020    7.98980   10.29920    0.11740    0.13130   10.67870    2.46840    0.03240   -9999.25   -9999.25   -9999.25
 6987.00000   37.76670   11.11000   -9999.25   -9999.25  -60.16250   11.02670    9.84170    0.08350    0.11660   10.26820    2.51180    0.03600   -9999.25   -9999.25   -9999.25
 6987.50000   40.52230   10.63060   -9999.25   -9999.25  -60.21390   14.33620    9.28700    0.08390    0.14280   10.01390    2.48530    0.02550   -9999.25   -9999.25   -9999.25
 6988.00000   47.62220    9.70290   -9999.25   -9999.25  -60.51950   16.30660    8.76370    0.11390    0.20520   10.00150    2.42100    0.01210   -9999.25   -9999.25   -9999.25
 6988.50000   58.78740    9.00990   -9999.25   -9999.25  -61.28600   13.31650    8.21290    0.16110    0.25870   10.14260    2.30930    0.00440   -9999.25   -9999.25   -9999.25
 6989.00000   64.74890    8.49380   -9999.25   -9999.25  -61.98980   10.25010    7.41500    0.20840    0.29880   10.35160    2.17190    0.00020   -9999.25   -9999.25   -9999.25
 6989.50000   68.42400    8.00720   -9999.25   -9999.25  -62.55300    7.88990    6.69470    0.27370    0.41060   10.69400    2.06030   -0.00390   -9999.25   -9999.25   -9999.25
 6990.00000   70.53500    7.54850   -9999.25   -9999.25  -62.22900    6.07310    5.83530    0.33080    0.45240   11.72080    1.94090   -0.00540   -9999.25   -9999.25   -9999.25
 6990.50000   71.07880    7.05910   -9999.25   -9999.25  -60.97820    5.49770    5.94090    0.29340    0.37660   11.97520    2.04050   -0.00300   -9999.25   -9999.25   -9999.25
 6991.00000   67.90830    6.84520   -9999.25   -9999.25  -59.57320    5.58710    6.35300    0.25590    0.30400   11.58850    2.14020    0.00320   -9999.25   -9999.25   -9999.25
 6991.50000   64.22920    6.82210   -9999.25   -9999.25  -57.92800    5.99710    6.58150    0.20210    0.23140   11.24640    2.27500    0.01060   -9999.25   -9999.25   -9999.25
 6992.00000   63.54140    6.86910   -9999.25   -9999.25  -55.97140    6.88390    6.58270    0.18090    0.16930   10.94980    2.40670    0.01450   -9999.25   -9999.25   -9999.25
 6992.50000   65.32640    6.91650   -9999.25   -9999.25  -54.01470    7.65480    6.58390    0.17860    0.14380   10.90590    2.46390    0.01320   -9999.25   -9999.25   -9999.25
 6993.00000   66.86950    6.89990   -9999.25   -9999.25  -53.04300    7.49470    6.58510    0.20710    0.15400   11.02520    2.45360    0.01160   -9999.25   -9999.25   -9999.25
 6993.50000   63.78900    6.77020   -9999.25   -9999.25  -51.89550    6.69420    6.57160    0.20090    0.16040   11.14460    2.42890    0.00990   -9999.25   -9999.25   -9999.25
 6994.00000   58.61250    6.64280   -9999.25   -9999.25  -52.19300    6.01360    6.44230    0.18920    0.15370   11.22160    2.43290    0.00820   -9999.25   -9999.25   -9999.25
 6994.50000   54.56080    6.58630   -9999.25   -9999.25  -54.17820    6.01360    6.31560    0.17820    0.15440   11.20440    2.45610    0.00580   -9999.25   -9999.25   -9999.25
 6995.00000   53.46310    6.62020   -9999.25   -9999.25  -56.16340    5.99870    6.20290    0.18540    0.18510   11.18970    2.41920    0.00200   -9999.25   -9999.25   -9999.25
 6995.50000   54.29100    6.73430   -9999.25   -9999.25  -57.61220    5.89330    6.10000    0.20740    0.21910   11.17510    2.36390   -0.00360   -9999.25   -9999.25   -9999.25
 6996.00000   55.67570    6.79000   -9999.25   -9999.25  -58.70930    5.84090    5.98850    0.22310    0.20050   11.17010    2.32410   -0.00420   -9999.25   -9999.25   -9999.25
 6996.50000   56.25980    6.51730   -9999.25   -9999.25  -60.54810    6.08990    5.85940    0.18180    0.16460   11.16910    2.36560    0.01100   -9999.25   -9999.25   -9999.25
 6997.00000   52.21680    6.21910   -9999.25   -9999.25  -62.01020    6.42000    5.72670    0.12930    0.13360   11.16810    2.46760    0.03510   -9999.25   -9999.25   -9999.25
 6997.50000   47.61280    5.93450   -9999.25   -9999.25  -63.47230    6.76800    5.54870    0.13770    0.14660   11.27190    2.46060    0.05740   -9999.25   -9999.25   -9999.25
 6998.00000   43.72720    5.66300   -9999.25   -9999.25  -66.76140    6.82340    5.14570    0.18410    0.18360   11.43930    2.40880    0.06300   -9999.25   -9999.25   -9999.25
 6998.50000   44.13660    5.38130   -9999.25   -9999.25  -68.50410    5.88740    4.77200    0.18440    0.16880   11.64160    2.38100    0.06600   -9999.25   -9999.25   -9999.25
 6999.00000   45.35960    5.10060   -9999.25   -9999.25  -69.62650    4.85310    4.42030    0.16850    0.13830   11.71390    2.44170    0.07210   -9999.25   -9999.25   -9999.25
 6999.50000   45.34470    4.81460   -9999.25   -9999.25  -70.01990    4.42030    4.03440    0.15260    0.11670   11.70950    2.50060    0.07830   -9999.25   -9999.25   -9999.25
 7000.00000   43.68930    4.34040   -9999.25   -9999.25  -69.81290    4.02600    3.77280    0.14440    0.13600   11.80390    2.49580    0.10680   -9999.25   -9999.25   -9999.25
 7000.50000   42.14120    3.98790   -9999.25   -9999.25  -69.57680    3.86560    3.77590    0.13800    0.15580   11.90920    2.44500    0.14490   -9999.25   -9999.25   -9999.25
 7001.00000   41.56270    3.93730   -9999.25   -9999.25  -69.91290    3.91980    3.83770    0.13630    0.16060   12.09660    2.43220    0.19360   -9999.25   -9999.25   -9999.25
 7001.50000   41.13960    4.12750   -9999.25   -9999.25  -71.02060    4.29930    3.93060    0.13460    0.15130   12.39570    2.44600    0.24470   -9999.25   -9999.25   -9999.25
 7002.00000   40.92380    4.44540   -9999.25   -9999.25  -72.22430    4.93900    4.08980    0.13400    0.14700   12.42930    2.45390    0.22850   -9999.25   -9999.25   -9999.25
 7002.50000   40.86420    4.78770   -9999.25   -9999.25  -73.29370    5.67370    4.44380    0.13640    0.14250   12.40780    2.45980    0.18390   -9999.25   -9999.25   -9999.25
 7003.00000   41.64050    5.08130   -9999.25   -9999.25  -74.11120    6.01530    4.82840    0.14270    0.13360   12.17350    2.47750    0.13520   -9999.25   -9999.25   -9999.25
 7003.50000   45.62490    5.30880   -9999.25   -9999.25  -74.92870    6.27290    4.92960    0.16310    0.12980   12.04430    2.48150    0.09270   -9999.25   -9999.25   -9999.25
 7004.00000   55.38300    5.54650   -9999.25   -9999.25  -74.97510    5.92640    4.69170    0.21980    0.17390   12.02000    2.41720    0.05400   -9999.25   -9999.25   -9999.25
 7004.50000   66.81480    5.79480   -9999.25   -9999.25  -74.90990    5.38310    4.46400    0.27770    0.22300   12.04510    2.31490    0.03430   -9999.25   -9999.25   -9999.25
 7005.00000   78.35070    5.99940   -9999.25   -9999.25  -74.53750    4.88950    4.39920    0.37610    0.25010   12.38620    2.27390    0.04200   -9999.25   -9999.25   -9999.25
 7005.50000   85.47960    6.04480   -9999.25   -9999.25  -73.50510    4.82360    4.52120    0.38190    0.25310   12.84820    2.28670    0.05220   -9999.25   -9999.25   -9999.25
 7006.00000   90.34470    6.01400   -9999.25   -9999.25  -71.19650    4.92520    4.70410    0.38470    0.23220   13.30310    2.31530    0.06390   -9999.25   -9999.25   -9999.25
 7006.50000   94.25420    6.01940   -9999.25   -9999.25  -68.88800    5.05860    4.89440    0.37770    0.21670   13.38260    2.33640    0.06520   -9999.25   -9999.25   -9999.25
 7007.00000   95.27590    5.92560   -9999.25   -9999.25  -66.84130    5.12340    4.91320    0.36650    0.22280   13.37970    2.32490    0.05960   -9999.25   -9999.25   -9999.25
 7007.50000   95.06830    5.74380   -9999.25   -9999.25  -66.08200    4.98930    4.56560    0.37210    0.23190   13.36830    2.31150    0.05800   -9999.25   -9999.25   -9999.25
 7008.00000   94.45260    5.44580   -9999.25   -9999.25  -65.64450    4.77640    4.08360    0.38690    0.23920   13.44010    2.30020    0.06270   -9999.25   -9999.25   -9999.25
 7008.50000   93.65080    5.16320   -9999.25   -9999.25  -65.20700    4.59240    3.87290    0.40160    0.24630   13.63430    2.28680    0.06980   -9999.25   -9999.25   -9999.25
