~Version ---------------------------------------------------
VERS.   2.0 : CWLS log ASCII Standard -VERSION 2.0
WRAP.    NO : One line per depth step
DLM . SPACE : Column Data Section Delimiter
~Well ------------------------------------------------------
STRT .F                 845.0 : START DEPTH
STOP .F                8968.0 : STOP DEPTH
STEP .F                   0.5 : STEP
NULL .               -9999.25 : NULL VALUE
COMP .                        : COMPANY
WELL .                        : WELL
FLD  .                        : FIELD
LOC  .                        : LOCATION
PROV .                        : PROVINCE
CNTY .                        : COUNTY
STAT .                        : STATE
CTRY .                        : COUNTRY
SRVC .                        : SERVICE COMPANY
DATE .                        : DATE
UWI  .                        : UNIQUE WELL ID
API  .                        : API NUMBER
SLAT .WGS84 5.106284331781502 : SURFACE LATITUDE
SLON .WGS84 2.553414967040709 : SURFACE LONGITUDE
DATUM.F                   nan : DEPTH DATUM ELEV
~Curve Information -----------------------------------------
DEPT   .F     : 1 MEASURED DEPTH
GRR    .GAPI  : GAMMA RAY FROM RESISTIVITY LOG
ILD    .OHMM  : INDUCTION DEEP RESISTIVITY
CILD   .MMHO  : INDUCTION DEEP CONDUCTIVITY
SFLA   .OHMM  : SPHERICALLY FOCUSED LOG RESISTIVITY AVERAGED OVER 2.5 FT
SPR    .MV    : SPONTANEOUS POTENTIAL FROM RESISTIVITY LOG
SFLU   .OHMM  : SHALLOW FOCUSED RESISTIVITY (UNAVERAGED)
ILM    .OHMM  : INDUCTION MEDIUM RESISTIVITY
NPHI_LS.DEC   : NEUTRON POROSITY LIMESTONE
DPHI_LS.DEC   : DENSITY POROSITY LIMESTONE
CALD   .IN    : CALIPER FROM DENSITY LOG
RHOB   .G/C3  : BULK DENSITY
DRHO   .G/C3  : BULK DENSITY CORRECTION
DT     .US/F  : DELTA-T (INTERVAL TRANSIT TIME)
DTCO   .US/F  : DELTA-T COMPRESSIONAL
DTSM   .US/F  : DELTA-T SHEAR
~Params ----------------------------------------------------
~Other -----------------------------------------------------
~ASCII -----------------------------------------------------
# ...
 6825.00000   92.66830    5.86000   -9999.25   -9999.25    2.46860    5.86430    5.62540    0.34390    0.22800   13.23440    2.32040    0.10700   -9999.25   -9999.25   -9999.25
 6825.50000   93.98500    5.76110   -9999.25   -9999.25    2.46860    5.49540    5.44200    0.35260    0.24220   13.39790    2.29510    0.09670   -9999.25   -9999.25   -9999.25
 6826.00000   94.50190    5.72870   -9999.25   -9999.25    3.24710    5.22790    5.26460    0.35090    0.24830   13.50850    2.28130    0.09310   -9999.25   -9999.25   -9999.25
 6826.50000   93.06480    5.72280   -9999.25   -9999.25    4.04250    5.02840    5.15200    0.34020    0.24410   13.58730    2.28850    0.09250   -9999.25   -9999.25   -9999.25
 6827.00000   89.84270    5.71290   -9999.25   -9999.25    4.83780    4.94730    5.08800    0.34350    0.24220   13.61660    2.29460    0.09670   -9999.25   -9999.25   -9999.25
 6827.50000   87.32250    5.61280   -9999.25   -9999.25    5.63320    4.94730    5.05360    0.34930    0.24270   13.60570    2.29440    0.10160   -9999.25   -9999.25   -9999.25
 6828.00000   86.79730    5.51440   -9999.25   -9999.25    6.42850    5.02240    5.04430    0.34440    0.24380   13.54250    2.29130    0.10800   -9999.25   -9999.25   -9999.25
 6828.50000   88.27750    5.48700   -9999.25   -9999.25    6.71940    5.22500    5.03860    0.32970    0.24680   13.52020    2.28440    0.11290   -9999.25   -9999.25   -9999.25
 6829.00000   89.39930    5.46330   -9999.25   -9999.25    6.15880    5.40790    5.02820    0.32340    0.26120   13.61330    2.26370    0.11370   -9999.25   -9999.25   -9999.25
 6829.50000   89.24990    5.45490   -9999.25   -9999.25    5.45140    5.40810    5.01770    0.33660    0.28150   13.67480    2.21530    0.11300   -9999.25   -9999.25   -9999.25
 6830.00000   88.68320    5.47790   -9999.25   -9999.25    4.78710    5.15880    5.00730    0.35210    0.29760   13.68440    2.17390    0.10870   -9999.25   -9999.25   -9999.25
 6830.50000   88.10290    5.52290   -9999.25   -9999.25    4.77110    4.92100    5.00450    0.36090    0.30030   13.72870    2.19220    0.10610   -9999.25   -9999.25   -9999.25
 6831.00000   86.33610    5.63780   -9999.25   -9999.25    5.90350    4.87680    5.03230    0.35830    0.27710   13.82840    2.24370    0.10910   -9999.25   -9999.25   -9999.25
 6831.50000   84.60470    5.75510   -9999.25   -9999.25    7.46400    4.85550    5.07710    0.35460    0.23940   13.97980    2.29110    0.10890   -9999.25   -9999.25   -9999.25
 6832.00000   84.70740    5.79530   -9999.25   -9999.25    9.02450    4.87420    5.14320    0.34920    0.21470   14.06810    2.33540    0.09930   -9999.25   -9999.25   -9999.25
 6832.50000   85.66910    5.79350   -9999.25   -9999.25   10.67920    4.97160    5.27230    0.34220    0.19490   13.85150    2.37420    0.08690   -9999.25   -9999.25   -9999.25
 6833.00000   86.64550    5.78830   -9999.25   -9999.25   12.48600    5.11930    5.40830    0.32670    0.17660   13.54290    2.39660    0.08310   -9999.25   -9999.25   -9999.25
 6833.50000   87.53500    5.78300   -9999.25   -9999.25   13.22600    5.31780    5.54770    0.31210    0.17010   13.27880    2.41270    0.08030   -9999.25   -9999.25   -9999.25
 6834.00000   88.84100    5.80360   -9999.25   -9999.25   13.96610    5.61070    5.66520    0.30300    0.17990   13.02720    2.41150    0.07740   -9999.25   -9999.25   -9999.25
 6834.50000   91.19180    5.82810   -9999.25   -9999.25   14.70610    5.91980    5.66420    0.30540    0.19590   12.95180    2.37900    0.07570   -9999.25   -9999.25   -9999.25
 6835.00000   90.69030    5.83280   -9999.25   -9999.25   15.69530    6.24590    5.66310    0.30480    0.20760   12.85000    2.35690    0.07700   -9999.25   -9999.25   -9999.25
 6835.50000   89.74660    5.83280   -9999.25   -9999.25   16.68080    6.30370    5.66300    0.30200    0.21540   12.72040    2.34360    0.09150   -9999.25   -9999.25   -9999.25
 6836.00000   89.21580    5.79640   -9999.25   -9999.25   17.07970    6.26590    5.62190    0.31540    0.21790   12.62050    2.33490    0.10770   -9999.25   -9999.25   -9999.25
 6836.50000   91.52530    5.72670   -9999.25   -9999.25   17.30330    6.14560    5.55950    0.34690    0.22220   12.55880    2.32750    0.12880   -9999.25   -9999.25   -9999.25
 6837.00000   95.31740    5.72060   -9999.25   -9999.25   17.52700    6.02610    5.55830    0.37800    0.22710   12.53060    2.32100    0.13000   -9999.25   -9999.25   -9999.25
 6837.50000   98.68720    5.76400   -9999.25   -9999.25   17.75060    5.93560    5.55700    0.40650    0.23200   12.52990    2.31240    0.12500   -9999.25   -9999.25   -9999.25
 6838.00000   95.66430    5.86300   -9999.25   -9999.25   17.45320    5.55040    5.55650    0.35600    0.22380   12.54060    2.33280    0.09080   -9999.25   -9999.25   -9999.25
 6838.50000   86.92260    6.05660   -9999.25   -9999.25   16.58350    5.04250    5.61130    0.26170    0.18240   12.48200    2.39340    0.06300   -9999.25   -9999.25   -9999.25
 6839.00000   75.51800    6.25650   -9999.25   -9999.25   15.67250    6.04520    5.78970    0.16410    0.13520   11.90120    2.46320    0.04160   -9999.25   -9999.25   -9999.25
 6839.50000   66.33670    6.45060   -9999.25   -9999.25   14.73770    8.03420    6.04850    0.13830    0.11210   11.43280    2.51960    0.03860   -9999.25   -9999.25   -9999.25
 6840.00000   65.30470    6.55390   -9999.25   -9999.25   12.44630   10.67770    6.31900    0.17550    0.17060   11.32110    2.45330    0.04880   -9999.25   -9999.25   -9999.25
 6840.50000   72.36940    6.53260   -9999.25   -9999.25   10.71960   10.36240    6.60150    0.21380    0.20320   11.30890    2.35090    0.07180   -9999.25   -9999.25   -9999.25
 6841.00000   74.50230    6.45620   -9999.25   -9999.25    9.90900    7.74110    6.90660    0.22550    0.20990   11.32320    2.34980    0.09770   -9999.25   -9999.25   -9999.25
 6841.50000   67.40290    6.35520   -9999.25   -9999.25    6.96350    5.83780    7.09250    0.19960    0.17560   11.44670    2.40940    0.13580   -9999.25   -9999.25   -9999.25
 6842.00000   55.61450    5.86400   -9999.25   -9999.25    2.91410    7.17160    6.72290    0.16570    0.14070   11.57030    2.46860    0.16560   -9999.25   -9999.25   -9999.25
 6842.50000   47.07730    5.09770   -9999.25   -9999.25   -1.29250   12.27550    5.89100    0.13050    0.11360   11.62440    2.51120    0.17830   -9999.25   -9999.25   -9999.25
 6843.00000   44.09400    4.43150   -9999.25   -9999.25   -5.42930   17.01470    5.24200    0.13230    0.11010   11.62540    2.51830    0.15900   -9999.25   -9999.25   -9999.25
 6843.50000   43.12750    4.12010   -9999.25   -9999.25   -9.57200   15.01850    4.70330    0.14540    0.11260   11.62640    2.50900    0.13630   -9999.25   -9999.25   -9999.25
 6844.00000   48.91730    3.97350   -9999.25   -9999.25  -13.71470    8.15580    4.21990    0.16210    0.12180   11.42460    2.48460    0.10010   -9999.25   -9999.25   -9999.25
 6844.50000   55.11350    3.92330   -9999.25   -9999.25  -16.13810    5.04230    4.08380    0.18550    0.14070   11.12970    2.44680    0.06730   -9999.25   -9999.25   -9999.25
 6845.00000   62.40110    3.89930   -9999.25   -9999.25  -16.10750    4.58880    4.00830    0.22130    0.17010   11.01050    2.39810    0.05740   -9999.25   -9999.25   -9999.25
 6845.50000   70.87320    3.93430   -9999.25   -9999.25  -13.13400    4.86820    4.07600    0.26140    0.22150   11.07400    2.32290    0.03980   -9999.25   -9999.25   -9999.25
 6846.00000   75.98330    3.96990   -9999.25   -9999.25   -8.61410    4.77240    4.29940    0.29980    0.27170   11.32200    2.25420    0.02120   -9999.25   -9999.25   -9999.25
 6846.50000   69.90790    4.06410   -9999.25   -9999.25   -4.09420    4.72830    4.63000    0.26380    0.27170   11.56990    2.24000    0.00790   -9999.25   -9999.25   -9999.25
 6847.00000   59.86710    4.15640   -9999.25   -9999.25   -3.73330    5.90790    4.98610    0.19190    0.22010   11.47450    2.31000    0.00290   -9999.25   -9999.25   -9999.25
 6847.50000   46.09060    4.24270   -9999.25   -9999.25   -7.33400    9.62650    5.49660    0.11580    0.16190   10.97030    2.39980    0.00390   -9999.25   -9999.25   -9999.25
