~Version ---------------------------------------------------
VERS.   2.0 : CWLS log ASCII Standard -VERSION 2.0
WRAP.    NO : One line per depth step
DLM . SPACE : Column Data Section Delimiter
~Well ------------------------------------------------------
STRT .F                 147.0 : START DEPTH
STOP .F                5497.0 : STOP DEPTH
STEP .F                   0.5 : STEP
NULL .               -9999.25 : NULL VALUE
COMP .                        : COMPANY
WELL .                        : WELL
FLD  .                        : FIELD
LOC  .                        : LOCATION
PROV .                        : PROVINCE
CNTY .                        : COUNTY
STAT .                        : STATE
CTRY .                        : COUNTRY
SRVC .                        : SERVICE COMPANY
DATE .                        : DATE
UWI  .                        : UNIQUE WELL ID
API  .                        : API NUMBER
SLAT .WGS84   3.3743785802031 : SURFACE LATITUDE
SLON .WGS84 7.599731958597999 : SURFACE LONGITUDE
DATUM.F                   nan : DEPTH DATUM ELEV
~Curve Information -----------------------------------------
DEPT   .F     : 1 MEASURED DEPTH
DTCO   .US/F  : DELTA-T COMPRESSIONAL
DTSM   .US/F  : DELTA-T SHEAR
GRD    .GAPI  : GAMMA RAY FROM DENSITY LOG
TNPH_LS.DEC   : THERMAL NEUTRON POROSITY [LIMESTONE]
CALD   .IN    : CALIPER FROM DENSITY LOG
DPHZ_LS.DEC   : HGRD STANDARD RESOLUTION DENSITY POROSITY
HDRA   .G/C3  : HRDD SPINE AND RIBS DENSITY CORRECTION
PEFZ   .B/E   : HRDD STANDARD RESOLUTION FORMATION PHOTOELECTRIC FACTOR
RHOZ   .G/C3  : HRDD STANDARD RESOLUTION FORMATION DENSITY
RLA3   .OHMM  : APPARENT RESISTIVITY FROM COMPUTED FOCUSING MODE 3
RLA5   .OHMM  : APPARENT RESISTIVITY FROM COMPUTED FOCUSING MODE 5
RXOZ   .OHMM  : INVADED FORMATION RESISTIVITY FILTERED AT 18 INCHES
~Params ----------------------------------------------------
~Other -----------------------------------------------------
~ASCII -----------------------------------------------------
# ...
 5327.00000   53.52370   96.50700   21.83530    0.12060    7.74140    0.00060   -0.00770    3.06670    2.71650  153.77970  192.08260  131.12310
 5327.50000   53.24520   96.10570   17.99820    0.13060    7.73480   -0.00900   -0.00380    3.14210    2.72300   57.67860   91.66320  125.07930
 5328.00000   53.14210   95.80550   16.31320    0.14160    7.73080    0.00450   -0.00090    3.11330    2.68810   19.97660   23.96720   54.44020
 5328.50000   53.21190   95.75920   18.04390    0.15030    7.72710    0.02710   -0.00240    3.08450    2.65030   16.94460   17.32150   29.87250
 5329.00000   54.02060   96.73340   19.01480    0.15690    7.72340    0.04380   -0.00390    3.05570    2.63350   23.04190   20.41640   32.55140
 5329.50000   55.15560   98.32590   16.97360    0.16470    7.71980    0.04310   -0.00350    3.07600    2.63830   29.06780   25.79700   37.79900
 5330.00000   56.35640   99.31430   15.82140    0.17420    7.71620    0.03730   -0.00080    3.11920    2.64450   18.50010   21.63530   41.48510
 5330.50000   56.44190   99.66190   20.22290    0.18080    7.71260    0.03790    0.00190    3.16490    2.64750   17.64760   18.83050   34.62210
 5331.00000   56.18380   99.56170   24.92040    0.16690    7.70890    0.03630    0.00150    3.20330    2.64580   20.77000   20.74300   29.14840
 5331.50000   56.42470   99.05030   26.13690    0.15560    7.70520    0.03890    0.00020    3.20820    2.64420   33.45050   27.52900   29.67480
 5332.00000   56.20810   98.46100   21.76320    0.14290    7.71540    0.03890   -0.00120    3.23600    2.64590   40.04590   36.99210   34.68500
 5332.50000   56.01260   97.87330   19.68770    0.13720    7.73740    0.03870   -0.00590    3.28900    2.64900   45.92050   42.59040   40.54100
 5333.00000   55.89210   97.58570   21.49180    0.13230    7.84970    0.03150   -0.00680    3.29040    2.67280   53.52960   49.03580   47.38570
 5333.50000   54.52340   96.84110   25.50280    0.11950    7.95760    0.01430   -0.00350    3.25680    2.70490   53.61080   51.97720   50.41600
 5334.00000   53.06640   95.76100   29.63060    0.09490    7.90460   -0.01480   -0.00060    3.20120    2.75800   52.33830   60.72880   49.69770
 5334.50000   51.78770   94.02190   33.25190    0.07440    7.79620   -0.04340   -0.00080    3.16760    2.79650   49.63650   59.35570   42.27630
 5335.00000   50.58850   92.16920   33.59960    0.07150    7.78330   -0.05480   -0.00220    3.13920    2.80300   38.65220   40.15610   35.18810
 5335.50000   49.86410   90.08660   32.13150    0.07820    7.77600   -0.04540   -0.00360    3.13220    2.77940   47.76920   47.91350   36.72710
 5336.00000   50.25910   88.31680   27.43190    0.08420    7.77070   -0.03260    0.00070    3.12040    2.74420   57.23140   50.71270   36.62110
 5336.50000   50.77600   89.18770   22.88100    0.08660    7.76050   -0.00610   -0.00130    3.10850    2.70910   52.38470   58.73810   43.72860
 5337.00000   50.77660   90.43730   20.28960    0.09000    7.74860    0.01440   -0.00390    3.09950    2.67410   64.43620   70.09020   44.94330
 5337.50000   50.92090   91.86540   19.16580    0.10880    7.73670    0.02650   -0.00730    3.10760    2.66710   76.88920   78.86880   62.21570
 5338.00000   51.82860   93.35250   21.11760    0.11470    7.72480    0.02310   -0.00440    3.14870    2.66970   81.43040   83.66200   70.70280
 5338.50000   52.95910   94.61360   24.54070    0.11650    7.71290    0.02370    0.00000    3.17980    2.67020   59.63040   65.80380   70.80680
 5339.00000   53.88170   95.03820   27.44540    0.11520    7.71210    0.02250    0.00150    3.18000    2.66820   54.12810   60.38540   70.80410
 5339.50000   54.04450   95.35250   30.54720    0.11210    7.74600    0.02700   -0.00280    3.21040    2.66720   78.00610  100.42210   76.57360
 5340.00000   53.89040   95.74780   30.54870    0.09800    7.75100    0.00960   -0.00620    3.24760    2.69200  108.59180  113.85170   87.04110
 5340.50000   53.45760   96.08340   29.25830    0.08840    7.75600   -0.00230   -0.00820    3.29230    2.71690  116.18040  143.67020   98.23510
 5341.00000   52.88810   96.16410   27.72290    0.08260    7.76100   -0.00420   -0.00770    3.35080    2.71690  195.77700  175.94840  116.83480
 5341.50000   52.56460   95.07430   28.74550    0.08950    7.76610    0.00160   -0.00650    3.34700    2.70170  112.15390  125.15170  143.26400
 5342.00000   52.29120   94.79580   30.43710    0.10030    7.77110    0.00980   -0.00530    3.34270    2.69480  115.33150  154.86750  137.03470
 5342.50000   52.01780   94.44200   32.40660    0.10480    7.77320    0.00690   -0.00460    3.33120    2.70360  228.05550  269.59320  109.36970
 5343.00000   51.80880   93.64830   34.65730    0.10230    7.76760   -0.00660   -0.00590    3.30610    2.73720  199.42590  211.19170  120.53210
 5343.50000   51.56800   93.46160   35.62370    0.08980    7.76200   -0.02640   -0.00720    3.29500    2.76350  111.43320  143.67720  105.75740
 5344.00000   51.33460   94.20230   32.45080    0.07780    7.75640   -0.04060   -0.00740    3.29920    2.78160   63.36040   84.67850   77.34080
 5344.50000   51.37780   95.24360   31.39530    0.07800    7.75080   -0.03870   -0.00760    3.26700    2.76890   59.30100   62.48600   48.33340
 5345.00000   52.02000   95.89990   32.19310    0.08910    7.74660   -0.03240   -0.00580    3.22400    2.75920   60.02150   67.29740   50.97890
 5345.50000   53.57330   97.22470   33.96200    0.10430    7.74310   -0.01840   -0.00380    3.12180    2.73680   92.95540  199.63740   71.54330
 5346.00000   54.84960   99.07770   29.10470    0.11850    7.73950   -0.00950   -0.00190    3.01280    2.72260  132.16930  342.56510  113.17900
 5346.50000   55.98590   99.01850   25.09770    0.12260    7.73600   -0.00190   -0.00030    2.91760    2.71090   52.26400   54.46540   74.93840
 5347.00000   56.36740   99.48080   22.77000    0.12160    7.73250    0.00190    0.00130    2.92840    2.70440   39.68930   37.50160   44.06680
 5347.50000   56.48170   99.32820   20.20480    0.13230    7.72900    0.01090    0.00280    2.96140    2.67760   35.69250   33.42520   40.14070
 5348.00000   56.36510   99.08540   17.86320    0.13880    7.72550    0.02510   -0.00130    2.99430    2.65100   33.50950   29.17630   49.51280
 5348.50000   56.36750   99.08540   17.31420    0.14270    7.72190    0.03890   -0.00270    3.00640    2.64160   45.15190   39.66440   71.93880
 5349.00000   57.13430  100.01460   20.21160    0.14400    7.71840    0.04130   -0.00410    2.94370    2.63550   39.76350   31.39040   69.73130
 5349.50000   58.00000  100.60780   21.39780    0.15660    7.71490    0.04480   -0.00130    2.86430    2.61260   18.96240   15.58060   61.39240
 5350.00000   58.88710  101.20100   20.36440    0.17020    7.71130    0.06710    0.00080    2.81230    2.57920   12.81870   11.88910   22.72520
 5350.50000   59.77430  102.59130   16.97100    0.17370    7.73750    0.07710    0.00250    2.78150    2.58410   14.88650   13.62020   19.57950
 5351.00000   60.17520  103.03050   16.73340    0.16740    7.76900    0.07190    0.00840    2.84940    2.59040   21.01200   19.14360   19.63290
 5351.50000   59.87980  104.06360   20.32030    0.16000    7.71150    0.07060    0.01540    2.94430    2.59230   24.81120   23.64810   19.86060
 5352.00000   58.93110  103.75910   26.48000    0.15110    7.69170    0.06970    0.01920    2.99120    2.59280   24.65800   26.81460   21.70610
 5352.50000   58.13810  103.53690   29.92150    0.14230    7.69780    0.06840    0.01320    3.00840    2.60270   21.30260   33.27520   24.45550
 5353.00000   57.34510  102.72990   29.84950    0.13760    7.72090    0.05350    0.00160    2.88830    2.62930   19.20550   28.44740   26.41630
 5353.50000   56.33200  101.61640   28.39050    0.14040    7.74390    0.04070   -0.00070    2.79860    2.63950   18.66620   21.99810   36.98860
 5354.00000   55.92890  101.00890   27.31910    0.14130    7.76690    0.04340   -0.00330    2.83470    2.62020   18.56990   22.17030   30.40200
 5354.50000   55.67430  100.44560   29.81560    0.14290    7.79000    0.06070   -0.00610    2.92800    2.59470   18.23470   21.99870   31.02610
