~Version ---------------------------------------------------
VERS.   2.0 : CWLS log ASCII Standard -VERSION 2.0
WRAP.    NO : One line per depth step
DLM . SPACE : Column Data Section Delimiter
~Well ------------------------------------------------------
STRT .F                 147.0 : START DEPTH
STOP .F                5497.0 : STOP DEPTH
STEP .F                   0.5 : STEP
NULL .               -9999.25 : NULL VALUE
COMP .                        : COMPANY
WELL .                        : WELL
FLD  .                        : FIELD
LOC  .                        : LOCATION
PROV .                        : PROVINCE
CNTY .                        : COUNTY
STAT .                        : STATE
CTRY .                        : COUNTRY
SRVC .                        : SERVICE COMPANY
DATE .                        : DATE
UWI  .                        : UNIQUE WELL ID
API  .                        : API NUMBER
SLAT .WGS84   3.3743785802031 : SURFACE LATITUDE
SLON .WGS84 7.599731958597999 : SURFACE LONGITUDE
DATUM.F                   nan : DEPTH DATUM ELEV
~Curve Information -----------------------------------------
DEPT   .F     : 1 MEASURED DEPTH
DTCO   .US/F  : DELTA-T COMPRESSIONAL
DTSM   .US/F  : DELTA-T SHEAR
GRD    .GAPI  : GAMMA RAY FROM DENSITY LOG
TNPH_LS.DEC   : THERMAL NEUTRON POROSITY [LIMESTONE]
CALD   .IN    : CALIPER FROM DENSITY LOG
DPHZ_LS.DEC   : HGRD STANDARD RESOLUTION DENSITY POROSITY
HDRA   .G/C3  : HRDD SPINE AND RIBS DENSITY CORRECTION
PEFZ   .B/E   : HRDD STANDARD RESOLUTION FORMATION PHOTOELECTRIC FACTOR
RHOZ   .G/C3  : HRDD STANDARD RESOLUTION FORMATION DENSITY
RLA3   .OHMM  : APPARENT RESISTIVITY FROM COMPUTED FOCUSING MODE 3
RLA5   .OHMM  : APPARENT RESISTIVITY FROM COMPUTED FOCUSING MODE 5
RXOZ   .OHMM  : INVADED FORMATION RESISTIVITY FILTERED AT 18 INCHES
~Params ----------------------------------------------------
~Other -----------------------------------------------------
~ASCII -----------------------------------------------------
# ...
 4907.00000   50.84290   90.94240   24.37110    0.02840    7.94990   -0.07800   -0.00500    4.28380    2.84450   83.25920   79.22970   66.57970
 4907.50000   50.60380   91.88630   18.81940    0.01530    7.95070   -0.09690   -0.00500    4.53850    2.84890  160.82870  239.62540   82.52350
 4908.00000   50.43810   91.80210   16.14190    0.00200    7.95150   -0.12830   -0.00490    4.70170    2.88640  405.37230  687.78640  202.88270
 4908.50000   50.09160   91.71260   18.17350   -0.00660    7.95240   -0.13890   -0.00350    4.65100    2.91800  698.25710  745.90220  321.46690
 4909.00000   49.83510   91.52240   22.26620   -0.00380    7.95320   -0.13200   -0.00220    4.47890    2.94280  870.13790  817.60270  449.12090
 4909.50000   49.45560   91.35000   25.86970    0.00670    7.95400   -0.11640   -0.00050    4.20190    2.94830  441.86990  263.11930  128.08410
 4910.00000   49.07610   90.10260   27.25710    0.02150    7.95480   -0.10090    0.00310    3.93310    2.94760   35.38190   24.36360   35.11310
 4910.50000   48.70230   88.79960   26.09480    0.03670    7.95410   -0.08530    0.00660    3.74240    2.86850   52.48370   57.98650   32.06110
 4911.00000   48.42430   88.37130   22.63210    0.04000    7.95270   -0.07790    0.00760    3.70100    2.84490  144.18740  237.57240   48.55530
 4911.50000   48.35500   88.40350   21.66900    0.03580    7.95130   -0.07990    0.00790    3.68440    2.84390  180.47590  196.91600  147.06230
 4912.00000   48.38030   90.10740   25.15800    0.03180    7.95010   -0.08400    0.00870    3.65740    2.84620  137.59120  141.41100  168.04310
 4912.50000   48.46170   88.24870   27.52750    0.03050    7.94880   -0.09050    0.01760    3.67330    2.85770  121.66840  119.78280  127.53930
 4913.00000   48.92280   91.93570   27.23550    0.02630    7.94740   -0.09430    0.02670    3.91560    2.86850  103.37640   72.70710   75.34580
 4913.50000   49.66640   95.52560   22.21760    0.01570    7.94600   -0.10860    0.02270    4.25130    2.88060   78.65750   90.91020   73.51820
 4914.00000   50.17860   93.12170   13.69200    0.00280    7.94470   -0.11970    0.01920    4.56000    2.90010  294.94290 1202.27340   86.41080
 4914.50000   50.52190   92.74420    8.98710   -0.00550    7.94330   -0.15070    0.01210    4.77230    2.93460 2476.14010 3132.21460  279.53840
 4915.00000   50.59260   92.59640    6.53000   -0.01020    7.94310   -0.15910    0.00120    4.75710    2.97950 1854.16630 1464.54210 1389.27400
 4915.50000   50.20980   92.22650    5.87400   -0.00900    7.95310   -0.15660   -0.00040    4.55660    2.98250 1082.94870 1453.17600 1391.41810
 4916.00000   49.30350   91.67810    8.74650    0.00330    7.96310   -0.14370    0.00060    4.34750    2.98200  768.99600 1394.46850  897.64180
 4916.50000   48.89490   91.02740   13.23770    0.01160    7.97320   -0.13550    0.00230    4.11910    2.95420  145.46890  468.21920  812.32040
 4917.00000   48.56040   90.70790   17.72900    0.02420    7.97260   -0.13870    0.01090    3.86930    2.94840   29.50170   51.62060  130.70900
 4917.50000   48.31440   90.60240   18.69210    0.03400    7.96890   -0.12170    0.01380    3.63750    2.94250   20.05270   33.28140   27.40680
 4918.00000   48.74830   91.00420   17.93510    0.04280    7.96530   -0.08390    0.01450    3.57980    2.89230   20.31860   55.34790   24.36510
 4918.50000   49.40460   91.59330   15.99960    0.04830    7.96170   -0.06430    0.00930    3.57970    2.83250   60.50330   57.51060   38.04470
 4919.00000   50.34040   92.86060   15.62680    0.05080    7.95800   -0.06590    0.00400    3.57970    2.82200   37.01230   35.02930   52.68910
 4919.50000   51.74330   95.95890   16.92040    0.05890    7.95510   -0.06600   -0.00080    3.58040    2.82140   21.86410   24.27550   24.17950
 4920.00000   53.34300   96.84710   22.68800    0.06830    7.95950   -0.05600   -0.00470    3.51400    2.81010   16.53330   16.82300   13.20340
 4920.50000   55.15970  100.07210   28.69120    0.07770    7.96390   -0.03660   -0.00640    3.44460    2.77770   16.03570   17.73160   11.72220
 4921.00000   56.99120  103.77690   36.67640    0.09120    7.96820   -0.01580   -0.00810    3.35650    2.74760   11.89650   15.98610    8.79070
 4921.50000   58.81440  105.20040   43.67210    0.11360    7.97260   -0.00060   -0.00830    3.30890    2.71100    7.51420    9.46850    6.06220
 4922.00000   60.50950  106.12620   49.60680    0.13240    7.97690    0.00050    0.00070    3.26390    2.70750    6.23450    6.79410    4.29420
 4922.50000   60.64450  106.52040   51.32320    0.14100    7.98130   -0.01170    0.00730    3.25150    2.73680    6.33870    6.75420    4.14850
 4923.00000   59.39190  104.78950   43.83720    0.12730    7.98530   -0.04360   -0.00180    3.32780    2.78880    7.91160   12.40510    6.03830
 4923.50000   56.84730  101.30660   30.59940    0.07870    7.98840   -0.09180   -0.00050    3.62740    2.84610   36.05330  157.87470   11.42580
 4924.00000   53.30150   98.66390   19.85610    0.04580    7.99160   -0.10600   -0.00020    3.74330    2.88400  308.04900  580.62660   75.59950
 4924.50000   50.22420   94.20610   16.49500    0.02480    7.99470   -0.11680    0.00020    3.72500    2.90850  284.53440  242.37930  239.42430
 4925.00000   48.52230   89.98780   19.36710    0.02510    7.99790   -0.09620    0.00050    3.62850    2.88180  173.15320  159.42420  120.44630
 4925.50000   47.56750   88.53580   22.73930    0.02960    8.00100   -0.07720   -0.00020    3.62090    2.84620  102.44890   72.15030   52.27770
 4926.00000   48.24470   89.51860   25.47180    0.03320    8.00410   -0.07220   -0.00090    3.67020    2.83510   78.75150   53.61720   50.03880
 4926.50000   49.20430   91.03040   25.57370    0.03370    8.00730   -0.07690   -0.00170    3.77130    2.84110  160.22030  204.41580   53.51450
 4927.00000   51.34450   95.92050   25.28460    0.03270    8.01710   -0.08450   -0.00250    3.99790    2.84980   85.51140   72.73870   63.13660
 4927.50000   53.11140   97.95890   23.98010    0.03310    8.03940   -0.08350   -0.00330    4.32620    2.85400   44.08300   49.65620   34.31640
 4928.00000   54.62910  100.34050   23.03420    0.03540    8.06170   -0.08480   -0.00410    4.81340    2.85620   13.12310    8.85320   12.25330
 4928.50000   54.95990  100.75900   19.82200    0.02210    8.07910   -0.09440   -0.00490    5.00520    2.86840   18.04030   29.30090   12.18010
 4929.00000   54.74430   99.90900   15.37340    0.00610    8.09120   -0.11550   -0.00440    5.00890    2.89620   95.78010  265.69020   22.48270
 4929.50000   53.34270   98.94380   13.55870   -0.00090    8.10320   -0.13620   -0.00300    4.88000    2.93010  649.06870 2498.03340  260.54450
 4930.00000   51.37120   95.99330   15.31350   -0.00640    8.11520   -0.15310   -0.00170    4.72600    2.95650 2159.08620 1890.17540  843.01750
 4930.50000   49.83660   92.98440   16.00420   -0.01430    8.12630   -0.16210   -0.00040    4.64790    2.97710 2029.20460 1282.31740  869.34770
 4931.00000   49.76060   91.24920   15.47230   -0.01550    8.13280   -0.16110    0.00010    4.68110    2.98850 5875.92970 8600.48340  883.64650
 4931.50000   49.64420   89.97750   13.77150   -0.01320    8.13930   -0.15930   -0.00140    4.70090    2.98830 4273.41650 4850.76070 1970.62540
 4932.00000   49.89960   89.95890   19.54530   -0.00870    8.14580   -0.15310   -0.00290    4.59430    2.98080 2406.08740 3601.54420 1974.10970
 4932.50000   50.40380   89.94340   24.66560   -0.00010    8.15220   -0.14680   -0.00580    4.37620    2.96480  801.13700 1102.81860  583.84050
 4933.00000   50.07400   89.48880   29.66640    0.00820    8.15870   -0.12630   -0.00770    4.13730    2.93570  188.23110  218.04380  152.78910
 4933.50000   49.76960   89.43110   28.61600    0.01190    8.16520   -0.11790   -0.00020    4.07550    2.91170  107.32210  113.73240   99.96780
 4934.00000   50.60770   90.29960   27.45410    0.01480    8.17170   -0.11220   -0.00050    4.15850    2.90070  288.22860  234.00280  124.71600
 4934.50000   51.33240   91.45490   32.38360    0.01980    8.17810   -0.10360   -0.00070    4.17480    2.88720  167.11870   76.55090  121.19210
