~Version ---------------------------------------------------
VERS.   2.0 : CWLS log ASCII Standard -VERSION 2.0
WRAP.    NO : One line per depth step
DLM . SPACE : Column Data Section Delimiter
~Well ------------------------------------------------------
STRT .F                 147.0 : START DEPTH
STOP .F                5497.0 : STOP DEPTH
STEP .F                   0.5 : STEP
NULL .               -9999.25 : NULL VALUE
COMP .                        : COMPANY
WELL .                        : WELL
FLD  .                        : FIELD
LOC  .                        : LOCATION
PROV .                        : PROVINCE
CNTY .                        : COUNTY
STAT .                        : STATE
CTRY .                        : COUNTRY
SRVC .                        : SERVICE COMPANY
DATE .                        : DATE
UWI  .                        : UNIQUE WELL ID
API  .                        : API NUMBER
SLAT .WGS84   3.3743785802031 : SURFACE LATITUDE
SLON .WGS84 7.599731958597999 : SURFACE LONGITUDE
DATUM.F                   nan : DEPTH DATUM ELEV
~Curve Information -----------------------------------------
DEPT   .F     : 1 MEASURED DEPTH
DTCO   .US/F  : DELTA-T COMPRESSIONAL
DTSM   .US/F  : DELTA-T SHEAR
GRD    .GAPI  : GAMMA RAY FROM DENSITY LOG
TNPH_LS.DEC   : THERMAL NEUTRON POROSITY [LIMESTONE]
CALD   .IN    : CALIPER FROM DENSITY LOG
DPHZ_LS.DEC   : HGRD STANDARD RESOLUTION DENSITY POROSITY
HDRA   .G/C3  : HRDD SPINE AND RIBS DENSITY CORRECTION
PEFZ   .B/E   : HRDD STANDARD RESOLUTION FORMATION PHOTOELECTRIC FACTOR
RHOZ   .G/C3  : HRDD STANDARD RESOLUTION FORMATION DENSITY
RLA3   .OHMM  : APPARENT RESISTIVITY FROM COMPUTED FOCUSING MODE 3
RLA5   .OHMM  : APPARENT RESISTIVITY FROM COMPUTED FOCUSING MODE 5
RXOZ   .OHMM  : INVADED FORMATION RESISTIVITY FILTERED AT 18 INCHES
~Params ----------------------------------------------------
~Other -----------------------------------------------------
~ASCII -----------------------------------------------------
# ...
 4711.00000   50.90490   96.06400   18.81550    0.00900    8.00550   -0.09840   -0.00710    4.39950    2.85820   39.36130   33.39980   40.38780
 4711.50000   51.22680   95.88700   20.07900    0.01190    8.00080   -0.08390   -0.00570    4.39900    2.85480   82.60220  188.13470   40.04180
 4712.00000   51.34170   95.08460   14.30350    0.00060    7.99620   -0.08620   -0.00720    4.55830    2.88240  590.42160  467.37360  221.68320
 4712.50000   51.35370   94.67980    7.91800   -0.00970    7.98790   -0.10390   -0.00710    4.74780    2.91090  330.57890  209.68830  661.44960
 4713.00000   51.25440   94.29440    5.30870   -0.01770    7.96320   -0.12110   -0.00070    4.92370    2.93930  140.11970  110.43130  354.30050
 4713.50000   51.19350   95.66820    5.20750   -0.01740    7.93840   -0.13910    0.00430    5.04470    2.96770  203.30260  392.88870  302.88450
 4714.00000   51.15660   95.94290    6.27890   -0.01640    7.91370   -0.15680    0.00700    5.11630    2.97720  486.71950  928.15620  426.31440
 4714.50000   51.64330   95.92400    8.39080   -0.01450    7.89080   -0.15200   -0.00070    5.13820    2.96710  844.69590 1022.54830  617.69370
 4715.00000   51.87230   95.60320   17.66160   -0.00930    7.89840   -0.15060   -0.01120    4.97080    2.93700  305.46540  221.22260  420.52690
 4715.50000   51.75280   95.28250   26.13370    0.00260    7.92440   -0.12820   -0.02170    4.72160    2.92210   43.76410   39.66240   62.18980
 4716.00000   51.27780   94.60570   29.13980    0.01760    7.93910   -0.12190   -0.01820    4.38830    2.90030   34.36170   44.03540   32.53080
 4716.50000   50.28960   93.14800   23.87370    0.03120    7.93150   -0.10640   -0.01120    4.06730    2.88300   40.40240  107.34260   33.21180
 4717.00000   49.26800   91.91880   18.86640    0.03090    7.92380   -0.10060   -0.00700    3.85270    2.87980  143.34020  480.67250   83.29660
 4717.50000   48.31810   90.15550   19.61610    0.02160    7.91510   -0.10030   -0.00550    3.78190    2.88080  797.45150 1147.14220  407.21320
 4718.00000   47.37730   87.87870   22.64840    0.01190    7.89970   -0.10060   -0.00510    3.77640    2.88560  655.39060  644.99730  780.37130
 4718.50000   46.74020   85.91440   25.02100    0.00940    7.88580   -0.10320   -0.00460    3.77090    2.88840  455.59420  349.50350  514.38380
 4719.00000   46.92510   85.17500   27.41800    0.01370    7.87180   -0.10400   -0.00410    3.72350    2.87530  380.03660  358.04740  419.26010
 4719.50000   47.90110   86.36410   34.62070    0.01960    7.84930   -0.09650   -0.00290    3.67820    2.85400  182.09240  311.85690  169.26500
 4720.00000   48.97030   89.24280   40.38600    0.02550    7.83460   -0.08900   -0.00260    3.37230    2.81270   70.57600   54.34780   58.11440
 4720.50000   49.91570   91.93230   43.92420    0.04300    7.82940   -0.06970   -0.00280    3.52280    2.78770   37.11870   33.88460   35.83540
 4721.00000   50.88380   94.74900   42.71580    0.04920    7.87320   -0.05050   -0.00300    3.87960    2.81080   40.26680   49.90250   29.52950
 4721.50000   53.90390   98.67080   44.53520    0.04620    7.92000   -0.05640    0.02160    4.28210    2.84850   53.78580   85.35950   45.71600
 4722.00000   55.08870  100.96600   46.13670    0.03870    7.96680   -0.08380    0.05080    4.71020    2.89380   30.59750   12.39360   29.97290
 4722.50000   55.51620  102.88060   38.04670    0.03630    7.99190   -0.12540    0.07360    4.98250    2.93400   19.69800   15.21400   18.74150
 4723.00000   55.45620  102.46040   22.86140    0.01980    8.00260   -0.13850    0.06590    5.08090    2.96180   40.65860   64.03360   27.37810
 4723.50000   55.09390  101.45710   11.15780   -0.00420    8.01330   -0.15470    0.04090    5.14570    2.98140  440.20780 1233.86680   87.63270
 4724.00000   54.15590  100.43070    6.74290   -0.01380    8.01010   -0.16080    0.01620    5.28750    2.99170 2473.67550 3733.88720 1109.23350
 4724.50000   52.44580   99.40420    5.85560   -0.01880    8.00300   -0.16200   -0.00190    5.41710    2.98510 3233.98830 4307.97360 1981.53540
 4725.00000   50.99830   98.28770    6.12190   -0.01850    7.99590   -0.15610   -0.00600    5.52330    2.97100 4968.41410 6803.07860 1984.45400
 4725.50000   51.03160   97.34090    7.75750   -0.01630    7.98880   -0.15050   -0.00490    5.47910    2.96400  135.12330 1313.24930 1984.45400
 4726.00000   51.38790   97.64960    9.21760   -0.01280    7.98170   -0.14780   -0.00380    5.36200    2.95670   53.28500   41.60420   84.36240
 4726.50000   51.71470   97.99210   10.02350   -0.01000    7.97450   -0.14320   -0.00270    5.28390    2.94010   74.71810   77.48860   73.37960
 4727.00000   51.80850   97.95780    8.12130   -0.00820    7.96740   -0.13530   -0.00380    5.27390    2.93250  172.25100  197.32480   79.01530
 4727.50000   51.92840   98.13810    5.34410   -0.01230    7.96030   -0.12840   -0.00500    5.21360    2.93550  300.14850  327.34020  294.69950
 4728.00000   51.79470   97.40850    3.25810   -0.01600    7.95320   -0.12960   -0.00620    5.12670    2.95040  500.28920  677.08570  433.25160
 4728.50000   51.60980   96.14880    2.87890   -0.01740    7.95020   -0.14500   -0.00500    5.02640    2.96990 1026.21040 1534.54750  846.13780
 4729.00000   51.30990   95.00630    4.54000   -0.01390    7.95230   -0.15330   -0.00370    4.92830    2.98470 1370.08680 1803.28520  972.82560
 4729.50000   50.94050   94.02760    8.72510   -0.00760    7.95020   -0.16170   -0.00250    4.79890    2.98380   97.39300   92.27180  258.71280
 4730.00000   50.14560   92.90210   12.27950    0.00280    7.94410   -0.15420   -0.00220    4.59710    2.94110  101.16170  104.83780  133.84220
 4730.50000   49.40690   90.59770   14.58420    0.01150    7.93180   -0.13520   -0.00300    4.36900    2.90920  170.94440  198.78590  144.91040
 4731.00000   48.53430   87.89520   14.75960    0.01740    7.92300   -0.11410   -0.00460    4.20330    2.88320  312.22570  447.28960  203.22550
 4731.50000   47.59080   86.53710   14.58860    0.01560    7.91820   -0.10070   -0.00920    4.04800    2.88230  544.31020  651.16580  421.57980
 4732.00000   47.18330   87.41400   17.04750    0.01290    7.91340   -0.10060   -0.00980    3.93520    2.89000  519.64110  503.52760  488.04960
 4732.50000   46.75280   85.25030   16.69490    0.01060    7.90910   -0.10640   -0.00940    3.94380    2.89690  402.74560  361.48970  415.43980
 4733.00000   46.61890   83.93250   14.76280    0.00940    7.90610   -0.10850   -0.00790    3.95790    2.89880  496.79990  943.40420  454.23710
 4733.50000   47.34030   84.24180   11.88480    0.00890    7.90590   -0.10810   -0.00710    4.11690    2.88270  602.40410 1802.13820  517.92490
 4734.00000   48.14040   84.51180   16.91270    0.00590    7.91280   -0.10030   -0.00630    4.28550    2.88300  276.43300  164.93260  200.62770
 4734.50000   48.88050   85.75050   19.97850    0.00240    7.91970   -0.10070   -0.00580    4.50910    2.89780  138.40340  158.21640  119.73390
 4735.00000   49.74220   88.53630   17.08310   -0.00120    7.92660   -0.11120   -0.00830    4.70930    2.92090  108.07090   92.10790  149.06140
 4735.50000   50.37870   91.16040   11.87370   -0.00240    7.93250   -0.12700   -0.01030    4.80540    2.93850   61.98780  119.34270  189.82180
 4736.00000   50.36180   91.60930    9.43820   -0.00060    7.93390   -0.13330   -0.01020    4.64820    2.93230  203.58510  330.80440  197.62920
 4736.50000   49.89450   92.03250   12.83670    0.00470    7.93530   -0.12450   -0.01010    4.36600    2.91810  268.49500  326.79890  228.23660
 4737.00000   48.70030   92.11570   16.97110    0.01280    7.93670   -0.11320   -0.00950    4.08340    2.90030  216.83910  240.28390  284.92680
 4737.50000   47.82680   90.33930   19.18720    0.01670    7.93820   -0.10770   -0.00920    3.93470    2.88890  185.54980  205.74630  191.43180
 4738.00000   47.87700   88.43640   19.59890    0.02050    7.93960   -0.10100   -0.00950    3.88390    2.88010  152.47170  172.05530  130.90580
 4738.50000   48.34960   88.17930   21.71580    0.02600    7.94370   -0.09530   -0.00990    3.84250    2.86370   54.40640   78.26620   40.64290
