~Version ---------------------------------------------------
VERS.   2.0 : CWLS log ASCII Standard -VERSION 2.0
WRAP.    NO : One line per depth step
DLM . SPACE : Column Data Section Delimiter
~Well ------------------------------------------------------
STRT .F                 147.0 : START DEPTH
STOP .F                5497.0 : STOP DEPTH
STEP .F                   0.5 : STEP
NULL .               -9999.25 : NULL VALUE
COMP .                        : COMPANY
WELL .                        : WELL
FLD  .                        : FIELD
LOC  .                        : LOCATION
PROV .                        : PROVINCE
CNTY .                        : COUNTY
STAT .                        : STATE
CTRY .                        : COUNTRY
SRVC .                        : SERVICE COMPANY
DATE .                        : DATE
UWI  .                        : UNIQUE WELL ID
API  .                        : API NUMBER
SLAT .WGS84   3.3743785802031 : SURFACE LATITUDE
SLON .WGS84 7.599731958597999 : SURFACE LONGITUDE
DATUM.F                   nan : DEPTH DATUM ELEV
~Curve Information -----------------------------------------
DEPT   .F     : 1 MEASURED DEPTH
DTCO   .US/F  : DELTA-T COMPRESSIONAL
DTSM   .US/F  : DELTA-T SHEAR
GRD    .GAPI  : GAMMA RAY FROM DENSITY LOG
TNPH_LS.DEC   : THERMAL NEUTRON POROSITY [LIMESTONE]
CALD   .IN    : CALIPER FROM DENSITY LOG
DPHZ_LS.DEC   : HGRD STANDARD RESOLUTION DENSITY POROSITY
HDRA   .G/C3  : HRDD SPINE AND RIBS DENSITY CORRECTION
PEFZ   .B/E   : HRDD STANDARD RESOLUTION FORMATION PHOTOELECTRIC FACTOR
RHOZ   .G/C3  : HRDD STANDARD RESOLUTION FORMATION DENSITY
RLA3   .OHMM  : APPARENT RESISTIVITY FROM COMPUTED FOCUSING MODE 3
RLA5   .OHMM  : APPARENT RESISTIVITY FROM COMPUTED FOCUSING MODE 5
RXOZ   .OHMM  : INVADED FORMATION RESISTIVITY FILTERED AT 18 INCHES
~Params ----------------------------------------------------
~Other -----------------------------------------------------
~ASCII -----------------------------------------------------
# ...
 4963.00000   52.87910   94.33940   30.62670    0.07790    7.92250   -0.05020   -0.00520    3.31230    2.79930   14.53290   15.88320    9.11920
 4963.50000   51.73150   92.87260   29.27640    0.05600    7.92200   -0.06740   -0.00730    3.49740    2.82500   22.54100   30.23070   14.63040
 4964.00000   50.34030   90.79780   26.98040    0.02770    7.92160   -0.09030   -0.00940    3.88450    2.86370   82.49570  214.92030   30.02770
 4964.50000   49.05520   88.62220   25.23280    0.01440    7.92110   -0.10110   -0.00880    3.98520    2.89190 1898.96410 1952.01320  297.11700
 4965.00000   47.97550   86.68090   26.50990    0.01010    7.92060   -0.11200   -0.00820    3.94390    2.89780  922.56320  873.47800  986.95100
 4965.50000   46.78340   85.48990   28.58190    0.01010    7.92010   -0.10770   -0.00760    3.84630    2.89410  539.46960  591.87160  681.47340
 4966.00000   46.39950   84.73710   28.80530    0.01090    7.91970   -0.10640   -0.00700    3.83260    2.89040  576.01580  828.51910  679.92850
 4966.50000   46.35730   84.50760   28.58450    0.01230    7.91920   -0.10510   -0.00640    3.88110    2.89080 1990.41220 3538.09110  992.13510
 4967.00000   46.91700   85.33410   27.40980    0.01580    7.91870   -0.11050   -0.00580    3.92950    2.89990 3332.13230 4601.27340 1865.49940
 4967.50000   48.51170   87.08840   30.77080    0.01920    7.91830   -0.09680   -0.00520    3.95510    2.88150 1210.19530 2323.12570 1083.95860
 4968.00000   49.85200   89.09210   38.40170    0.03290    7.91780   -0.08110   -0.00490    3.95510    2.85630   42.77800   44.97780   32.70380
 4968.50000   51.12200   91.44390   42.70980    0.04250    7.91760   -0.07180   -0.00460    4.00740    2.83800   26.69810   20.39410   26.30110
 4969.00000   51.64110   92.72440   36.14980    0.03980    7.91950   -0.08070   -0.00430    4.15530    2.83660   59.54110   92.21340   27.30830
 4969.50000   51.62520   92.64430   29.58980    0.02920    7.92140   -0.09540   -0.00400    4.30430    2.84760  332.57850  521.51590   64.43900
 4970.00000   51.03370   91.79190   26.14020    0.01840    7.92290   -0.11020   -0.00380    4.27780    2.88990  385.81430  408.07740  177.70070
 4970.50000   49.97130   91.01630   26.31090    0.01900    7.92480   -0.12800   -0.00240    4.08630    2.92890  177.74660  201.52820  164.55890
 4971.00000   48.64600   89.48720   25.40350    0.02140    7.92670   -0.12240   -0.00080    3.88300    2.91770  177.59980  203.07950  145.07760
 4971.50000   48.06920   87.71140   21.94160    0.02380    7.92860   -0.10480   -0.00400    3.75770    2.87460  224.25380  253.31730  140.36630
 4972.00000   48.36550   88.56000   21.91320    0.02770    7.93100   -0.09420   -0.00760    3.68130    2.87040  123.32150  153.66640  134.20820
 4972.50000   49.02550   89.03470   28.43470    0.03540    7.93290   -0.09430   -0.00820    3.63120    2.86980   54.79190   66.22220   49.45950
 4973.00000   50.06530   90.17360   35.59960    0.04480    7.93480   -0.09150   -0.00780    3.51540    2.86670   25.69810   30.66930   24.49850
 4973.50000   50.44860   92.82280   40.80250    0.05520    7.93680   -0.07910   -0.00670    3.40740    2.84880   21.67740   18.50720   20.75040
 4974.00000   50.41800   92.62290   39.42020    0.06120    7.93870   -0.07260   -0.00520    3.38450    2.83500   35.50000   50.88410   24.09240
 4974.50000   50.29690   90.86980   34.93320    0.04780    7.94060   -0.08040   -0.00440    3.51110    2.84170  202.47110  267.01200   38.79840
 4975.00000   49.91430   90.90940   34.13860    0.03320    7.94260   -0.08850   -0.00440    3.78160    2.86010  419.35380  659.76110  238.86400
 4975.50000   49.75360   92.15950   34.19750    0.02030    7.94450   -0.09190   -0.00440    4.05290    2.86660   68.93070   54.01450   87.68390
 4976.00000   49.54030   92.12820   30.69260    0.00880    7.94920   -0.09460   -0.00440    4.40710    2.87380  114.61440  216.99460   85.23960
 4976.50000   49.58140   91.65600   22.29190   -0.00090    7.95590   -0.11490   -0.00440    4.73430    2.90790 1735.89480 15548.65430   90.16120
 4977.00000   49.84360   90.89730    9.92350   -0.00910    7.96270   -0.13410   -0.00450    4.85100    2.92400 19021.04690 30880.31450 1147.23730
 4977.50000   49.67660   90.72470    6.57140   -0.01480    7.96940   -0.14400   -0.00460    4.83040    2.95410 15994.31540 21149.52930 1977.90540
 4978.00000   49.16970   90.36070    9.91560   -0.01310    7.97610   -0.14100   -0.00470    4.66430    2.95920 7841.99950 7975.64940 1981.53000
 4978.50000   48.65050   89.43050   13.11470   -0.00820    7.98280   -0.13500   -0.00490    4.41740    2.94340 3180.01730 4050.76270 1985.16000
 4979.00000   48.30570   88.25760   15.98090   -0.00390    7.98950   -0.13340   -0.00490    4.33500    2.94090 4908.77930 9189.64650 1988.79690
 4979.50000   48.21720   87.54170   18.95890    0.00080    7.99620   -0.12840   -0.00500    4.24910    2.93650 4491.38430 4615.54200 1433.79160
 4980.00000   48.21290   87.62330   23.15540    0.01020    8.00300   -0.12280   -0.00490    4.10400    2.92820  501.95110  913.15170  327.00220
 4980.50000   48.26750   88.05280   27.00730    0.02090    8.00970   -0.11350   -0.00690    3.87480    2.91480  166.79060  115.91940  154.95550
 4981.00000   48.49200   87.29220   32.87180    0.02980    8.01650   -0.10670   -0.01140    3.69250    2.90150   82.47140   69.39320  102.29870
 4981.50000   48.84540   87.28700   39.78730    0.03920    8.02320   -0.09620   -0.01500    3.59790    2.87110   51.90650   39.74460   60.11660
 4982.00000   49.06280   88.63010   45.69370    0.03820    8.02990   -0.07760   -0.00920    3.63640    2.84520   74.80260   58.20420   46.82700
 4982.50000   49.41220   89.66090   37.85670    0.02090    8.03570   -0.08530   -0.00480    3.87440    2.84270  128.15450  194.20160   57.66090
 4983.00000   49.60590   90.10110   23.92880    0.00300    8.03480   -0.11670   -0.00440    4.22660    2.88650  947.06310 1663.10660  141.96450
 4983.50000   49.62660   91.12290   10.83320   -0.01100    8.03380   -0.14090   -0.00450    4.62180    2.92590 2676.38380 5072.17770 1537.73100
 4984.00000   49.63350   92.34550    4.99710   -0.02070    8.03280   -0.15190   -0.00450    4.95040    2.96450 9883.22170 16470.75200 2003.28530
 4984.50000   49.73170   93.12930    3.62880   -0.02190    8.03180   -0.16190   -0.00500    5.04140    2.97420 15808.90040 18508.55860 2001.13310
 4985.00000   50.10550   92.75290    2.70770   -0.02330    8.03080   -0.17070   -0.00870    5.03520    2.99240 12772.88180 18264.93550 2001.59780
 4985.50000   50.39010   92.75510    3.72200   -0.02140    8.02980   -0.17410   -0.01180    4.99010    3.00360 7318.23490 4941.24850 2002.06370
 4986.00000   50.18480   92.19440    6.32150   -0.01930    8.02880   -0.16720   -0.01500    4.94490    3.00470 2634.34940 1308.65620 2002.52880
 4986.50000   49.61760   91.01960    9.60160   -0.01550    8.02780   -0.15780   -0.01820    4.79520    3.00100 1469.01200 1143.77430 2002.99490
 4987.00000   48.67090   89.35970   11.87310   -0.00890    8.02680   -0.15230   -0.02300    4.60370    2.97710 1229.38680 1698.51600 2003.46010
 4987.50000   47.69830   88.25650   12.57070   -0.00220    8.02580   -0.14340   -0.02910    4.40290    2.96260 1768.68160 4801.07030 2003.92540
 4988.00000   47.13460   87.17860   14.97100    0.00000    8.02480   -0.13910   -0.03020    4.28750    2.94950 5743.32180 7877.36820 2004.39200
 4988.50000   46.64740   86.07180   20.02830    0.00150    8.02380   -0.14170   -0.02650    4.21050    2.95150 5888.74660 6577.81790 2004.85740
 4989.00000   46.33040   84.92990   24.96060    0.00260    8.02280   -0.14550   -0.01760    4.18330    2.95500 4583.34080 6304.46920 2005.32300
 4989.50000   46.45570   85.58990   25.07510    0.00360    8.02180   -0.14710   -0.00770    4.17090    2.95850 2180.14060 3794.17020 1711.94480
 4990.00000   46.56240   84.94870   22.84000    0.00460    8.02080   -0.14190   -0.00030    4.16420    2.96150 2214.79520 1283.87120 1186.95060
 4990.50000   46.90200   85.18760   21.94760    0.00550    8.01610   -0.11850   -0.00200    4.15760    2.91760 2719.99540 2657.97140 1311.55470
