~Version ---------------------------------------------------
VERS.   2.0 : CWLS log ASCII Standard -VERSION 2.0
WRAP.    NO : One line per depth step
DLM . SPACE : Column Data Section Delimiter
~Well ------------------------------------------------------
STRT .F                 147.0 : START DEPTH
STOP .F                5497.0 : STOP DEPTH
STEP .F                   0.5 : STEP
NULL .               -9999.25 : NULL VALUE
COMP .                        : COMPANY
WELL .                        : WELL
FLD  .                        : FIELD
LOC  .                        : LOCATION
PROV .                        : PROVINCE
CNTY .                        : COUNTY
STAT .                        : STATE
CTRY .                        : COUNTRY
SRVC .                        : SERVICE COMPANY
DATE .                        : DATE
UWI  .                        : UNIQUE WELL ID
API  .                        : API NUMBER
SLAT .WGS84   3.3743785802031 : SURFACE LATITUDE
SLON .WGS84 7.599731958597999 : SURFACE LONGITUDE
DATUM.F                   nan : DEPTH DATUM ELEV
~Curve Information -----------------------------------------
DEPT   .F     : 1 MEASURED DEPTH
DTCO   .US/F  : DELTA-T COMPRESSIONAL
DTSM   .US/F  : DELTA-T SHEAR
GRD    .GAPI  : GAMMA RAY FROM DENSITY LOG
TNPH_LS.DEC   : THERMAL NEUTRON POROSITY [LIMESTONE]
CALD   .IN    : CALIPER FROM DENSITY LOG
DPHZ_LS.DEC   : HGRD STANDARD RESOLUTION DENSITY POROSITY
HDRA   .G/C3  : HRDD SPINE AND RIBS DENSITY CORRECTION
PEFZ   .B/E   : HRDD STANDARD RESOLUTION FORMATION PHOTOELECTRIC FACTOR
RHOZ   .G/C3  : HRDD STANDARD RESOLUTION FORMATION DENSITY
RLA3   .OHMM  : APPARENT RESISTIVITY FROM COMPUTED FOCUSING MODE 3
RLA5   .OHMM  : APPARENT RESISTIVITY FROM COMPUTED FOCUSING MODE 5
RXOZ   .OHMM  : INVADED FORMATION RESISTIVITY FILTERED AT 18 INCHES
~Params ----------------------------------------------------
~Other -----------------------------------------------------
~ASCII -----------------------------------------------------
# ...
 4655.00000   -9999.25   -9999.25   10.60230   -0.00660   -9999.25   -9999.25   -9999.25   -9999.25   -9999.25   -9999.25   -9999.25   -9999.25
 4655.50000   -9999.25   -9999.25   11.43400   -0.00670   -9999.25   -9999.25   -9999.25   -9999.25   -9999.25   -9999.25   -9999.25   -9999.25
 4656.00000   -9999.25   -9999.25   10.62860   -0.00670   -9999.25   -9999.25   -9999.25   -9999.25   -9999.25   -9999.25   -9999.25   -9999.25
 4656.50000   -9999.25   -9999.25    9.20840   -0.00580   -9999.25   -9999.25   -9999.25   -9999.25   -9999.25   -9999.25   -9999.25   -9999.25
 4657.00000   -9999.25   -9999.25   10.49440    0.00470   -9999.25   -9999.25   -9999.25   -9999.25   -9999.25   -9999.25   -9999.25   -9999.25
 4657.50000   -9999.25   -9999.25   13.95850    0.01990   -9999.25   -9999.25   -9999.25   -9999.25   -9999.25   -9999.25   -9999.25   -9999.25
 4658.00000   -9999.25   -9999.25   16.58970    0.03310   -9999.25   -9999.25   -9999.25   -9999.25   -9999.25   -9999.25   -9999.25   -9999.25
 4658.50000   -9999.25   -9999.25   16.13480    0.02970   -9999.25   -9999.25   -9999.25   -9999.25   -9999.25   -9999.25   -9999.25   -9999.25
 4659.00000   -9999.25   -9999.25   12.93820    0.02620   -9999.25   -9999.25   -9999.25   -9999.25   -9999.25   -9999.25   -9999.25   -9999.25
 4659.50000   -9999.25   -9999.25   12.51310    0.02860   -9999.25   -9999.25   -9999.25   -9999.25   -9999.25   -9999.25   -9999.25   -9999.25
 4660.00000   52.77290   96.64650   14.46180    0.06200    7.93230   -0.50090    0.05790    9.07550    3.46880   -9999.25   -9999.25   -9999.25
 4660.50000   53.22610   96.11750   17.21810    0.07380    7.94120   -0.46270   -0.01640    8.21520    2.68320   -9999.25   -9999.25   -9999.25
 4661.00000   53.50770   97.49340   18.30720    0.05660    7.93830   -0.09540   -0.00760    6.99150    2.68140    0.81040   20.05870    0.19960
 4661.50000   52.24620   98.32050   19.39220    0.04230    7.92770   -0.01340    0.14120    5.84680    2.69320   78.73200   81.75710    0.98150
 4662.00000   50.30400   99.07240   20.07250    0.03840    7.91710    0.02560    0.21770    5.15930    2.72660  133.94280   86.18490    9.24190
 4662.50000   48.85880   99.52980   19.83840    0.03500    7.90640   -0.02680    0.16500    4.50840    2.76550  117.20330   87.87710   15.35570
 4663.00000   48.52970   96.38460   19.60420    0.03010    7.89580   -0.08550    0.08170    3.86940    2.86150  197.44580  130.58910   54.04260
 4663.50000   47.36780   92.72240   19.71760    0.02470    7.88510   -0.08730    0.02550    3.66910    2.85840  185.45480  133.98620  215.31860
 4664.00000   45.99650   88.70330   21.18140    0.02810    7.87670   -0.07840   -0.00130    3.57920    2.83930  176.14430  130.04000  207.57890
 4664.50000   46.20660   85.92750   23.89510    0.03550    7.87150   -0.07450   -0.00290    3.49870    2.83760  197.65130  134.91050  191.97470
 4665.00000   46.23850   85.13760   26.27830    0.04000    7.86640   -0.07460   -0.00170    3.39620    2.83720  180.26430  127.29960  162.91020
 4665.50000   46.15710   84.84920   24.78390    0.03740    7.86470   -0.06870    0.00390    3.35950    2.82960  170.31430  123.14830  163.90680
 4666.00000   46.10880   84.56860   19.86080    0.03520    7.86650   -0.06340    0.00950    3.39550    2.81960  189.84360  173.55620  186.09080
 4666.50000   46.03300   84.24590   16.77740    0.03820    7.87090   -0.05810    0.01350    3.44640    2.81040  252.50010  232.65840  214.75050
 4667.00000   46.01890   83.98940   19.21390    0.03980    7.87540   -0.05730    0.00650    3.49410    2.80640  332.97860  304.28860  275.98320
 4667.50000   46.30830   84.00970   22.56780    0.03460    7.87990   -0.06190   -0.00060    3.54190    2.81530  428.16470  342.35600  331.91410
 4668.00000   46.87080   85.30840   23.98690    0.02910    7.88430   -0.06680   -0.00390    3.58960    2.82520  329.61520  241.82410  357.88710
 4668.50000   47.72880   86.94740   23.54170    0.02450    7.88880   -0.06330    0.00090    3.63650    2.80810  203.40130  187.31970  307.33820
 4669.00000   48.84620   88.72390   30.73880    0.03170    7.88870   -0.05260    0.00670    3.63510    2.78860   75.52970   51.10210  158.84920
 4669.50000   49.85270   91.84170   38.19780    0.06210    7.88520   -0.03990    0.00730    3.59230    2.76920   27.50980   24.03250   45.65340
 4670.00000   49.92910   91.74270   39.12470    0.09040    7.88160   -0.03390    0.00240    3.46910    2.76280   43.48450   40.79590   64.14020
 4670.50000   49.53950   91.34020   29.46820    0.09400    7.87800   -0.03940   -0.00240    3.37830    2.79410   63.18880   47.83980   82.29650
 4671.00000   48.88620   90.09100   22.60190    0.06850    7.87440   -0.06290   -0.00290    3.31100    2.82860   80.33450   84.60760   90.11300
 4671.50000   48.30350   88.48940   21.43170    0.05330    7.87080   -0.08040   -0.00370    3.28340    2.84830   80.42280   88.28780   83.91450
 4672.00000   47.71350   86.86210   23.95740    0.04190    7.87830   -0.08300   -0.00350    3.28630    2.84980   80.10190   93.38720   81.21320
 4672.50000   47.31200   85.09000   26.29240    0.04140    7.88940   -0.07690   -0.00290    3.36180    2.83990   75.94770   99.34840   76.68950
 4673.00000   47.19070   83.87010   24.77780    0.04380    7.90170   -0.07160   -0.00340    3.43730    2.83250   74.50740   78.98790   73.66360
 4673.50000   47.34940   84.90720   22.43130    0.04690    7.92030   -0.07160   -0.00550    3.53630    2.83110   82.25800   87.09710   78.17550
 4674.00000   47.80810   86.24380   22.30210    0.05190    7.93780   -0.06890   -0.00660    3.66740    2.82320   80.99400   56.10940   69.45370
 4674.50000   48.14980   87.64040   24.87390    0.05730    7.95000   -0.06170   -0.00560    3.71910    2.81100   50.04740   34.54560   45.11820
 4675.00000   48.42210   89.02630   26.47040    0.06450    7.94730   -0.05760   -0.00600    3.71040    2.80790   39.60600   51.52500   36.94680
 4675.50000   48.19470   89.88490   25.46760    0.06450    7.94540   -0.06480   -0.00650    3.59830    2.82980   40.36350   65.90670   39.08540
 4676.00000   48.02680   89.18850   23.73630    0.06160    7.94490   -0.07870   -0.00620    3.49930    2.85120   58.04970   71.13530   52.34700
 4676.50000   47.85170   88.08450   23.02890    0.05550    7.93160   -0.09220   -0.00240    3.44490    2.86880   80.88500  103.65260   74.70860
 4677.00000   47.62760   88.10790   23.70220    0.05120    7.90230   -0.09110   -0.00240    3.39070    2.86190   79.11130  109.99450   71.41130
 4677.50000   47.33530   86.95540   25.23210    0.05300    7.87300   -0.07960   -0.00240    3.33770    2.84370   53.57200   60.67960   50.48980
 4678.00000   47.04260   86.12000   25.72610    0.05440    7.86680   -0.07250   -0.00240    3.31120    2.83120   52.67060   72.08820   50.52710
 4678.50000   46.85140   84.61080   26.01140    0.04580    7.86650   -0.07450   -0.00230    3.30780    2.84170   71.28460  121.15310   57.96770
 4679.00000   46.84260   83.31490   25.00470    0.03590    7.86660   -0.08900   -0.00230    3.36720    2.86390  107.19510  121.21870   99.10960
 4679.50000   46.53750   85.28060   26.75210    0.03110    7.85580   -0.09210   -0.00230    3.42980    2.86580  115.02730  120.91920  123.83190
 4680.00000   46.24670   85.83280   27.84350    0.03030    7.83990   -0.08410   -0.00250    3.53570    2.84970  139.43150  173.43970  136.17630
 4680.50000   46.06050   86.08690   31.42840    0.03090    7.83070   -0.07290   -0.00080    3.64450    2.83690  236.70050  274.02960  165.32740
 4681.00000   45.98080   84.32710   34.31280    0.03020    7.86200   -0.07490    0.00120    3.73900    2.83680  233.99130  266.44620  231.01060
 4681.50000   46.04680   84.06680   34.32170    0.02940    7.87570   -0.07490    0.00290    3.81390    2.83640  232.87180  259.31410  277.02920
 4682.00000   46.06400   83.80300   29.91910    0.02850    7.88870   -0.07230    0.00030    3.75400    2.82950  254.46340  247.71380  277.56480
 4682.50000   46.07720   83.47420   24.41450    0.03260    7.89820   -0.06540   -0.00400    3.65330    2.82090  199.76340  170.26810  231.80940
