~Version ---------------------------------------------------
VERS.   2.0 : CWLS log ASCII Standard -VERSION 2.0
WRAP.    NO : One line per depth step
DLM . SPACE : Column Data Section Delimiter
~Well ------------------------------------------------------
STRT .F                 147.0 : START DEPTH
STOP .F                5497.0 : STOP DEPTH
STEP .F                   0.5 : STEP
NULL .               -9999.25 : NULL VALUE
COMP .                        : COMPANY
WELL .                        : WELL
FLD  .                        : FIELD
LOC  .                        : LOCATION
PROV .                        : PROVINCE
CNTY .                        : COUNTY
STAT .                        : STATE
CTRY .                        : COUNTRY
SRVC .                        : SERVICE COMPANY
DATE .                        : DATE
UWI  .                        : UNIQUE WELL ID
API  .                        : API NUMBER
SLAT .WGS84   3.3743785802031 : SURFACE LATITUDE
SLON .WGS84 7.599731958597999 : SURFACE LONGITUDE
DATUM.F                   nan : DEPTH DATUM ELEV
~Curve Information -----------------------------------------
DEPT   .F     : 1 MEASURED DEPTH
DTCO   .US/F  : DELTA-T COMPRESSIONAL
DTSM   .US/F  : DELTA-T SHEAR
GRD    .GAPI  : GAMMA RAY FROM DENSITY LOG
TNPH_LS.DEC   : THERMAL NEUTRON POROSITY [LIMESTONE]
CALD   .IN    : CALIPER FROM DENSITY LOG
DPHZ_LS.DEC   : HGRD STANDARD RESOLUTION DENSITY POROSITY
HDRA   .G/C3  : HRDD SPINE AND RIBS DENSITY CORRECTION
PEFZ   .B/E   : HRDD STANDARD RESOLUTION FORMATION PHOTOELECTRIC FACTOR
RHOZ   .G/C3  : HRDD STANDARD RESOLUTION FORMATION DENSITY
RLA3   .OHMM  : APPARENT RESISTIVITY FROM COMPUTED FOCUSING MODE 3
RLA5   .OHMM  : APPARENT RESISTIVITY FROM COMPUTED FOCUSING MODE 5
RXOZ   .OHMM  : INVADED FORMATION RESISTIVITY FILTERED AT 18 INCHES
~Params ----------------------------------------------------
~Other -----------------------------------------------------
~ASCII -----------------------------------------------------
# ...
 5271.00000   50.27460   92.00060   32.56630    0.04810    7.72640   -0.06370   -0.00440    3.15590    2.82430  528.32120  344.08910  217.72400
 5271.50000   49.52760   89.89150   36.53040    0.04480    7.72810   -0.06520   -0.00500    3.19640    2.82270  172.38020  100.57790  205.10880
 5272.00000   48.97040   87.90990   34.98750    0.05910    7.72950   -0.05170   -0.00660    3.22060    2.79550  103.03620   95.85800  119.94750
 5272.50000   48.87920   86.57850   26.86840    0.07460    7.73120   -0.03460   -0.00820    3.21990    2.76970  117.79980  129.31460  119.18970
 5273.00000   49.43870   86.08980   19.86520    0.08520    7.73280   -0.01550   -0.00790    3.19550    2.74440  140.63410  146.31700  132.64450
 5273.50000   49.97810   87.95500   15.75040    0.09210    7.73140   -0.00210   -0.00500    3.13790    2.71540  103.00840  124.57380  144.89830
 5274.00000   50.85290   90.35570   16.51250    0.09900    7.72480    0.00830   -0.00210    3.08020    2.69400  101.00730  119.96240  137.15710
 5274.50000   51.72770   91.01910   17.44650    0.10670    7.71820    0.01720   -0.00060    3.02250    2.67520  105.02480  100.74670  156.45990
 5275.00000   52.72640   93.08130   18.41080    0.11390    7.71150    0.02530   -0.00090    3.00820    2.66530  108.35500   98.13660  163.81200
 5275.50000   53.48470   94.71430   19.52320    0.11820    7.70490    0.02370   -0.00350    3.01880    2.67110   75.01050   70.25750  154.01560
 5276.00000   54.05480   95.18650   21.51310    0.11160    7.71100    0.01450   -0.00600    3.06960    2.68730   63.75080   57.41730  160.14660
 5276.50000   54.74010   95.34130   25.50740    0.11400    7.71890    0.00930   -0.00810    3.12720    2.69440   53.91690   51.21460   86.29640
 5277.00000   55.22280   96.74060   27.97510    0.13910    7.72030    0.02120   -0.00680    3.15500    2.68200   46.69640   38.94350   71.16010
 5277.50000   55.82010   97.98470   26.97850    0.16130    7.72160    0.04340   -0.00550    3.12710    2.64110   42.35190   38.94350   69.68240
 5278.00000   56.15480   98.73400   20.83560    0.16800    7.72290    0.06190   -0.00440    3.09880    2.61440   42.20420   39.01230   80.20860
 5278.50000   56.37420   99.02220   16.23590    0.15490    7.72420    0.07050   -0.00430    3.09020    2.59050   46.23450   42.88130   85.03090
 5279.00000   56.41120   99.10310   15.54210    0.13800    7.72550    0.07110   -0.00380    3.13980    2.59050   51.89230   49.30190   83.32710
 5279.50000   56.26940   98.97190   16.51990    0.12420    7.72690    0.06750   -0.00340    3.19810    2.60390   46.04770   40.99340   64.62420
 5280.00000   55.25830   98.63200   18.32940    0.11040    7.72850    0.03800   -0.00180    3.20970    2.64830   40.34010   34.73740   50.11140
 5280.50000   54.06060   97.32330   19.38920    0.09800    7.72980    0.00420    0.00240    3.19880    2.69870   57.07560   54.90790   42.29430
 5281.00000   52.86290   95.90190   20.12340    0.08640    7.73110   -0.02950    0.00650    3.22690    2.76640   45.46400   36.10260   29.58560
 5281.50000   51.64060   95.50750   20.90950    0.08330    7.73240   -0.05240    0.01060    3.25230    2.79620   26.46530   23.54490   20.75340
 5282.00000   51.54010   94.96700   25.44130    0.09170    7.73350   -0.05000    0.00810    3.23120    2.79710   20.92530   20.47060   17.31510
 5282.50000   51.57790   93.92990   30.03030    0.10050    7.73310   -0.04970    0.00310    3.16660    2.79650   21.25320   20.58360   17.65270
 5283.00000   51.70370   93.79940   31.22610    0.10640    7.73170   -0.05160   -0.00060    3.10520    2.79510   23.41660   31.45790   21.89900
 5283.50000   51.94890   93.82000   27.72120    0.10610    7.73040   -0.04210   -0.00220    3.10140    2.76830   30.60540   40.84450   28.80610
 5284.00000   51.88300   93.81030   21.89590    0.10550    7.72900   -0.01570   -0.00620    3.09280    2.72460   43.21080   50.35510   39.08940
 5284.50000   51.94300   94.30300   17.91640    0.11070    7.72770    0.01010   -0.01010    3.06300    2.69170   63.96760   71.90120   53.18560
 5285.00000   52.51770   94.91250   16.59950    0.12140    7.72630    0.01960   -0.00860    3.03310    2.67250   98.93370  108.55500   75.34630
 5285.50000   53.55620   94.96260   27.47670    0.14450    7.72500    0.02530   -0.00710    3.00320    2.65230  144.73710  199.68150  109.40250
 5286.00000   55.45370   95.44540   38.00970    0.16760    7.72360    0.03600   -0.00590    2.98350    2.63570   76.22720   84.66630   99.39260
 5286.50000   57.75200   97.37100   39.83800    0.17530    7.72940    0.06120   -0.00760    3.02430    2.57970   73.31570   68.03180   69.05440
 5287.00000   58.41100   98.83900   33.71700    0.16970    7.74530    0.08360   -0.00780    3.08530    2.56560   64.85710   64.20470   53.83580
 5287.50000   58.30750   99.64880   28.50520    0.15690    7.76130    0.08340   -0.00620    3.12580    2.60230   53.97380   57.92210   52.68450
 5288.00000   57.40260   99.18590   27.68820    0.12530    7.77730    0.04810   -0.00460    3.18910    2.64240   56.17850   56.00810   53.06360
 5288.50000   55.48440   98.17610   26.87110    0.09750    7.79330    0.00670   -0.00440    3.23410    2.73020   39.66840   43.58190   52.14120
 5289.00000   53.74100   97.06820   26.05410    0.08040    7.76490   -0.03330   -0.00440    3.24890    2.78770   27.30210   32.70280   35.01820
 5289.50000   52.59260   95.08670   26.74580    0.07890    7.73720   -0.05280   -0.00440    3.21970    2.79550   23.32810   25.20500   22.51300
 5290.00000   51.45830   94.10690   33.22650    0.07710    7.73810   -0.04910   -0.00500    3.22090    2.78890   22.84540   24.25580   19.53850
 5290.50000   51.21990   93.25640   37.86370    0.07430    7.73960   -0.04640   -0.00630    3.29800    2.78500   27.83760   25.22460   18.79360
 5291.00000   50.97330   92.22470   39.26040    0.06780    7.74120   -0.04320   -0.00750    3.44380    2.79360   78.26080   55.94710   26.29950
 5291.50000   50.65240   91.50910   34.12870    0.05760    7.74290   -0.05780   -0.00840    3.53320    2.81220  137.61740  203.97480   40.92810
 5292.00000   50.28620   90.16610   27.93560    0.04580    7.74370   -0.06090   -0.00820    3.54060    2.81360  756.03260  823.90670  163.18940
 5292.50000   49.62740   89.27730   20.32100    0.03970    7.73920   -0.05860   -0.00830    3.54220    2.80410  584.94870  752.16060  451.65380
 5293.00000   48.73360   87.24090   14.32450    0.04260    7.73460   -0.04610   -0.00840    3.57680    2.78160  396.69640  449.75410  475.54410
 5293.50000   48.57730   87.09250   13.43890    0.05220    7.73510   -0.03700   -0.00840    3.57900    2.77190  312.85530  342.27630  366.82010
 5294.00000   49.19310   87.54390   12.86010    0.06080    7.74040   -0.03020   -0.00800    3.55310    2.75830  247.21620  284.73220  311.78430
 5294.50000   49.51960   88.12670   14.20060    0.06880    7.74570   -0.02610   -0.00780    3.48220    2.75340  170.98680  196.32510  254.58820
 5295.00000   49.67230   88.95100   16.69480    0.07180    7.75100   -0.02270   -0.00770    3.42370    2.75100  182.00630  174.61460  211.34970
 5295.50000   49.71540   89.15860   19.56520    0.07210    7.75630   -0.02530   -0.00840    3.36510    2.75090  298.83370  263.03990  228.13350
 5296.00000   50.03260   89.15840   21.43910    0.07040    7.77580   -0.02450   -0.00740    3.30630    2.74730  504.23660  387.78530  290.17410
 5296.50000   50.58060   89.56910   23.13000    0.07860    7.78560   -0.01640   -0.00560    3.24730    2.73600  135.05830  319.74370  281.17060
 5297.00000   51.20090   90.11070   23.77550    0.10450    7.77420    0.00310   -0.00440    3.16930    2.70090   42.10960   46.74500  118.39610
 5297.50000   52.43000   91.56410   23.61750    0.13100    7.77110    0.03120   -0.00790    3.18030    2.64990   47.10090   55.41260   87.85340
 5298.00000   53.87670   95.88420   21.66230    0.14180    7.76800    0.04970   -0.00640    3.22610    2.62640   60.07720   85.92680   75.57320
 5298.50000   55.09810   97.84120   20.56370    0.14500    7.75960    0.04980   -0.00480    3.25140    2.62610   72.15600   83.03230   99.72030
