~Version ---------------------------------------------------
VERS.   2.0 : CWLS log ASCII Standard -VERSION 2.0
WRAP.    NO : One line per depth step
DLM . SPACE : Column Data Section Delimiter
~Well ------------------------------------------------------
STRT .F                 147.0 : START DEPTH
STOP .F                5497.0 : STOP DEPTH
STEP .F                   0.5 : STEP
NULL .               -9999.25 : NULL VALUE
COMP .                        : COMPANY
WELL .                        : WELL
FLD  .                        : FIELD
LOC  .                        : LOCATION
PROV .                        : PROVINCE
CNTY .                        : COUNTY
STAT .                        : STATE
CTRY .                        : COUNTRY
SRVC .                        : SERVICE COMPANY
DATE .                        : DATE
UWI  .                        : UNIQUE WELL ID
API  .                        : API NUMBER
SLAT .WGS84   3.3743785802031 : SURFACE LATITUDE
SLON .WGS84 7.599731958597999 : SURFACE LONGITUDE
DATUM.F                   nan : DEPTH DATUM ELEV
~Curve Information -----------------------------------------
DEPT   .F     : 1 MEASURED DEPTH
DTCO   .US/F  : DELTA-T COMPRESSIONAL
DTSM   .US/F  : DELTA-T SHEAR
GRD    .GAPI  : GAMMA RAY FROM DENSITY LOG
TNPH_LS.DEC   : THERMAL NEUTRON POROSITY [LIMESTONE]
CALD   .IN    : CALIPER FROM DENSITY LOG
DPHZ_LS.DEC   : HGRD STANDARD RESOLUTION DENSITY POROSITY
HDRA   .G/C3  : HRDD SPINE AND RIBS DENSITY CORRECTION
PEFZ   .B/E   : HRDD STANDARD RESOLUTION FORMATION PHOTOELECTRIC FACTOR
RHOZ   .G/C3  : HRDD STANDARD RESOLUTION FORMATION DENSITY
RLA3   .OHMM  : APPARENT RESISTIVITY FROM COMPUTED FOCUSING MODE 3
RLA5   .OHMM  : APPARENT RESISTIVITY FROM COMPUTED FOCUSING MODE 5
RXOZ   .OHMM  : INVADED FORMATION RESISTIVITY FILTERED AT 18 INCHES
~Params ----------------------------------------------------
~Other -----------------------------------------------------
~ASCII -----------------------------------------------------
# ...
 5243.00000   51.81760   91.48390   40.78900    0.08540    7.76650   -0.02390   -0.00430    3.19300    2.74830  385.01870  428.49980  458.99880
 5243.50000   51.97960   91.82460   37.52470    0.08870    7.76030   -0.01430   -0.00430    3.23350    2.73220  340.82340  473.96310  392.01720
 5244.00000   52.00800   91.85800   33.87610    0.08310    7.75410   -0.01040   -0.00430    3.29010    2.72630  274.89830  383.16150  350.57810
 5244.50000   52.00750   92.03800   32.92810    0.08300    7.74790   -0.00760   -0.00430    3.34070    2.72330  233.55470  220.73970  294.87090
 5245.00000   52.09000   93.12610   31.68250    0.08770    7.74170   -0.00290   -0.00270    3.36640    2.71470  219.90140  204.65070  255.32960
 5245.50000   52.41400   93.05090   31.05090    0.09790    7.74280    0.00440   -0.00090    3.37900    2.69900  207.02640  199.28570  278.03540
 5246.00000   52.80550   93.09510   30.05030    0.10850    7.74390    0.02190   -0.00120    3.38020    2.67640  185.27780  113.49080  165.52100
 5246.50000   53.14570   93.42560   29.84770    0.11390    7.74510    0.02810   -0.00170    3.36830    2.66400  127.62140   81.11380  115.56660
 5247.00000   53.39050   93.93430   29.49220    0.11480    7.74620    0.01790   -0.00150    3.29410    2.66630  106.23000   67.00050   95.06390
 5247.50000   53.74910   95.37140   28.04810    0.11440    7.74500    0.00660   -0.00130    3.23600    2.69840   81.80860   68.60860   82.23290
 5248.00000   54.20050   95.80950   25.93740    0.11930    7.74120    0.00570   -0.00110    3.17790    2.69860   78.13300   69.93570   85.14080
 5248.50000   54.42770   96.26150   25.16360    0.12670    7.73740    0.01660   -0.00100    3.11980    2.67650   69.77120   61.65340   88.89520
 5249.00000   54.98090   96.90300   25.56980    0.13400    7.73360    0.03250   -0.00110    3.06850    2.63580   49.77530   43.88190   88.03150
 5249.50000   55.68750   98.34250   24.50020    0.14050    7.72980    0.04530   -0.00210    3.09340    2.64040   35.51010   32.84940   53.49700
 5250.00000   56.42450   99.34190   23.17760    0.14660    7.72610    0.04020   -0.00320    3.14540    2.65670   29.47340   27.82320   45.22190
 5250.50000   57.03690  100.30430   21.73100    0.14540    7.72240    0.02770   -0.00420    3.19640    2.67300   24.97580   24.04720   45.87590
 5251.00000   57.20780  100.89940   20.87610    0.13820    7.71900    0.01820   -0.00240    3.24790    2.67620   25.13990   21.98530   62.09520
 5251.50000   57.43070  100.33910   20.02110    0.13240    7.71900    0.01880   -0.00290    3.29580    2.67520   26.10500   22.64670   74.96020
 5252.00000   57.73980  100.11450   18.35540    0.13400    7.72770    0.02500   -0.00590    3.27650    2.65980   26.58160   22.83570   62.48960
 5252.50000   57.96060  100.05580   16.65800    0.13920    7.81250    0.03680   -0.00700    3.20760    2.62700   25.80700   22.59170   52.56360
 5253.00000   58.42490  100.07040   15.77660    0.14730    7.81000    0.05770   -0.00800    3.13870    2.58890   24.71650   22.62620   45.19490
 5253.50000   58.89570   98.83250   18.93720    0.15530    7.77680    0.07610   -0.00800    3.06980    2.56850   23.23300   21.27460   41.65950
 5254.00000   59.00970   99.49140   21.34100    0.15990    7.74370    0.08520   -0.00480    3.02170    2.56480   30.94380   25.24650   43.31930
 5254.50000   58.99490   99.96260   23.25440    0.15080    7.71990    0.07660   -0.00160    3.03620    2.59140   40.60600   36.89320   44.51220
 5255.00000   58.62960  100.00310   25.10970    0.12980    7.72420    0.06070   -0.00060    3.05210    2.61410   39.84270   35.41490   48.07540
 5255.50000   57.80950   99.61780   35.08950    0.11800    7.72860    0.04760   -0.00150    3.04650    2.63490   39.87380   47.15050   46.89980
 5256.00000   56.79890   98.96470   46.55880    0.10620    7.73290    0.02530   -0.00340    2.98280    2.67790   81.59850   93.68900   60.29610
 5256.50000   56.01260   97.62190   50.40450    0.10660    7.73720    0.00630   -0.00430    2.91910    2.70430   83.82710  104.61520   97.71310
 5257.00000   55.47110   95.83270   40.24540    0.11020    7.74160   -0.00470   -0.00330    2.92970    2.71730   55.08660   62.30430   81.54370
 5257.50000   55.16610   94.11220   30.76360    0.11220    7.74590    0.00910   -0.00720    3.06410    2.68730   49.43410   55.47550   77.70510
 5258.00000   54.88260   93.20690   24.56040    0.10940    7.75020    0.02320   -0.01120    3.23050    2.66740   58.89720   65.51160   78.63100
 5258.50000   54.59910   92.30420   20.05360    0.10420    7.75460    0.02870   -0.01200    3.35860    2.66240   60.92360   69.92530  106.22530
 5259.00000   54.31560   92.70990   17.28380    0.09970    7.75890    0.02040   -0.00940    3.35220    2.67130   63.01970   71.43340  113.64790
 5259.50000   54.06400   95.47220   17.25020    0.09950    7.76330    0.01580   -0.00620    3.33930    2.68420   64.23270   76.37270  112.39550
 5260.00000   54.01490   95.90670   19.58220    0.10050    7.76760    0.01350   -0.00310    3.31820    2.69020   65.96400   89.09440  106.81700
 5260.50000   54.02010   96.15660   26.19720    0.10150    7.76950    0.01120   -0.00050    3.27910    2.69370   68.75980  103.36750   87.24010
 5261.00000   54.09990   96.17580   33.27450    0.10260    7.76240    0.00420   -0.00160    3.24300    2.70110   82.98320  105.03360   95.87580
 5261.50000   54.18600   95.99770   37.36980    0.10360    7.75540   -0.00940   -0.00260    3.20500    2.72540   83.69310   87.40610  101.38950
 5262.00000   54.33510   95.66430   34.47960    0.10090    7.74850   -0.02460   -0.00360    3.15490    2.75820   91.94650  101.77100  107.34360
 5262.50000   54.44400   95.08660   27.64630    0.09620    7.74150   -0.03210   -0.00480    3.09510    2.76390  122.16380  114.30490  112.43940
 5263.00000   54.42820   94.82940   25.98830    0.08950    7.73450   -0.02960   -0.00620    3.03450    2.75940   73.41880  131.26030  108.38060
 5263.50000   54.11190   95.01700   27.11300    0.08420    7.73070   -0.02410   -0.00760    3.07640    2.75430   66.39320   86.89610   62.13600
 5264.00000   53.43010   93.63910   26.84190    0.07830    7.72710   -0.02950   -0.00760    3.12380    2.76130   61.20650   63.31530   60.53960
 5264.50000   53.09080   93.19190   22.67190    0.07210    7.72360   -0.03830   -0.00660    3.14010    2.77500   59.74390   63.09250   66.65020
 5265.00000   53.10630   93.45750   22.50070    0.06890    7.72010   -0.03640   -0.00560    3.09450    2.77420   66.92170   62.87050   72.75160
 5265.50000   52.94890   91.51960   23.93670    0.07640    7.71650   -0.01740   -0.00460    3.04100    2.73790   53.72570   45.72660   60.09410
 5266.00000   53.44430   92.51930   23.68800    0.08880    7.73610    0.02240   -0.00350    2.95390    2.66960   34.11700   30.93350   43.68280
 5266.50000   54.00890   93.68300   21.06170    0.10080    7.83730    0.04800   -0.00240    2.87150    2.62670   25.77990   26.89430   32.95940
 5267.00000   54.57350   94.28460   20.06720    0.11140    7.78750    0.05470   -0.00130    2.79670    2.61760   25.41800   25.97030   22.79030
 5267.50000   55.03340   93.43770   20.48950    0.11460    7.70400    0.04870   -0.00060    2.74260    2.62640   27.94000   31.44960   23.37200
 5268.00000   55.09600   94.78350   23.83710    0.11190    7.70450    0.04460   -0.00130    2.78960    2.63750   36.05520   42.55270   37.22090
 5268.50000   54.88310   96.34720   27.51860    0.10930    7.71670    0.03250   -0.00270    2.94730    2.65290   46.29760   48.29800   57.66960
 5269.00000   54.39830   96.39610   29.31620    0.10670    7.71960    0.01920   -0.00400    3.12900    2.68150   54.60700   52.30460   91.68540
 5269.50000   53.53520   95.95100   28.98420    0.09850    7.72130   -0.00310   -0.00310    3.17740    2.70020   58.36060   56.70860   97.86840
 5270.00000   52.61380   94.46610   27.62380    0.08030    7.72300   -0.02510   -0.00350    3.17130    2.75560  112.28160   76.53130   98.38170
 5270.50000   51.23480   93.06510   28.90390    0.05910    7.72480   -0.04230   -0.00400    3.14020    2.79640  503.67970  272.09230  134.49410
