~Version ---------------------------------------------------
VERS.   2.0 : CWLS log ASCII Standard -VERSION 2.0
WRAP.    NO : One line per depth step
DLM . SPACE : Column Data Section Delimiter
~Well ------------------------------------------------------
STRT .F                 147.0 : START DEPTH
STOP .F                5497.0 : STOP DEPTH
STEP .F                   0.5 : STEP
NULL .               -9999.25 : NULL VALUE
COMP .                        : COMPANY
WELL .                        : WELL
FLD  .                        : FIELD
LOC  .                        : LOCATION
PROV .                        : PROVINCE
CNTY .                        : COUNTY
STAT .                        : STATE
CTRY .                        : COUNTRY
SRVC .                        : SERVICE COMPANY
DATE .                        : DATE
UWI  .                        : UNIQUE WELL ID
API  .                        : API NUMBER
SLAT .WGS84   3.3743785802031 : SURFACE LATITUDE
SLON .WGS84 7.599731958597999 : SURFACE LONGITUDE
DATUM.F                   nan : DEPTH DATUM ELEV
~Curve Information -----------------------------------------
DEPT   .F     : 1 MEASURED DEPTH
DTCO   .US/F  : DELTA-T COMPRESSIONAL
DTSM   .US/F  : DELTA-T SHEAR
GRD    .GAPI  : GAMMA RAY FROM DENSITY LOG
TNPH_LS.DEC   : THERMAL NEUTRON POROSITY [LIMESTONE]
CALD   .IN    : CALIPER FROM DENSITY LOG
DPHZ_LS.DEC   : HGRD STANDARD RESOLUTION DENSITY POROSITY
HDRA   .G/C3  : HRDD SPINE AND RIBS DENSITY CORRECTION
PEFZ   .B/E   : HRDD STANDARD RESOLUTION FORMATION PHOTOELECTRIC FACTOR
RHOZ   .G/C3  : HRDD STANDARD RESOLUTION FORMATION DENSITY
RLA3   .OHMM  : APPARENT RESISTIVITY FROM COMPUTED FOCUSING MODE 3
RLA5   .OHMM  : APPARENT RESISTIVITY FROM COMPUTED FOCUSING MODE 5
RXOZ   .OHMM  : INVADED FORMATION RESISTIVITY FILTERED AT 18 INCHES
~Params ----------------------------------------------------
~Other -----------------------------------------------------
~ASCII -----------------------------------------------------
# ...
 4851.00000   48.08730   88.08020   19.97120    0.00200    8.01560   -0.12660   -0.00630    4.10570    2.94740  483.14370  416.31490  512.75700
 4851.50000   47.91660   87.78940   20.90930    0.00570    8.00920   -0.11450   -0.00770    4.04130    2.91800  619.44320  557.78590  436.65490
 4852.00000   47.71170   87.70090   17.44480    0.00710    7.99470   -0.11540   -0.00840    4.15140    2.90980 1231.18540  747.31130  383.41190
 4852.50000   47.62750   87.67970   18.55650    0.01090    7.98020   -0.11810   -0.00810    4.37170    2.91020 2062.70630 3186.56370  514.36370
 4853.00000   48.99860   91.75480   28.91380    0.02080    7.96570   -0.09130   -0.00780    4.37070    2.89640  192.39210  480.81760  134.10410
 4853.50000   50.66300   94.98220   43.45510    0.03620    7.95130   -0.06300   -0.00750    4.20950    2.83780   17.45060   44.52200   28.53130
 4854.00000   52.45430   95.58800   52.34160    0.05130    7.94880   -0.04310   -0.00720    4.01020    2.78200   12.33900   12.87250    9.15200
 4854.50000   53.63290   96.40580   46.97010    0.05310    7.94750   -0.04900   -0.00600    4.14160    2.78750   23.84580   27.93240   10.15370
 4855.00000   53.39850   96.30040   34.36420    0.03490    7.94630   -0.07260   -0.00340    4.44320    2.81880  104.61480  144.16420   18.19790
 4855.50000   52.53410   96.12000   24.00580    0.01540    7.94500   -0.09550   -0.00030    4.57170    2.86040  331.25330  268.56210  141.09270
 4856.00000   50.91000   94.53250   20.49410    0.01340    7.94380   -0.10220    0.00260    4.38260    2.88010  225.11950  440.03550  306.90240
 4856.50000   49.33990   91.59160   22.69980    0.02000    7.94250   -0.09620   -0.00010    4.01810    2.88640   93.30680  100.14350  127.88750
 4857.00000   48.82490   89.84770   26.34000    0.03170    7.94200   -0.08800   -0.00360    3.67930    2.86840   35.27290   28.28980   63.21800
 4857.50000   48.92480   88.71630   33.29480    0.04590    7.93090   -0.08560   -0.00450    3.46270    2.85710   17.08060   16.32140   16.63370
 4858.00000   49.97530   90.18010   33.68400    0.06010    7.91990   -0.07780   -0.00510    3.34550    2.84760   20.31290   19.51560   13.28690
 4858.50000   51.10710   92.10000   32.09980    0.06540    7.90880   -0.07180   -0.00580    3.32970    2.83550   47.09770   37.75780   12.05070
 4859.00000   52.60280   95.15710   33.80900    0.06520    7.89780   -0.05670   -0.00630    3.31390    2.81980   23.18270   15.93720   11.35350
 4859.50000   53.76810   99.04540   42.71700    0.07580    7.88670   -0.04370   -0.00630    3.30020    2.80350   14.58350   13.46700    8.67140
 4860.00000   54.80250   99.24990   50.55190    0.09090    7.87570   -0.03670   -0.00490    3.29590    2.78860   10.07420    9.46220    6.50450
 4860.50000   55.43310   99.40310   53.58260    0.10670    7.87790   -0.03690   -0.00340    3.28080    2.77400   10.81040   11.14930    6.39310
 4861.00000   55.62530   99.56890   47.48040    0.11350    7.88250   -0.04720   -0.00130    3.29420    2.77870   16.78590   17.21870    6.85500
 4861.50000   55.05140   98.84430   38.69030    0.08680    7.88710   -0.05790    0.00160    3.42720    2.80270   21.96480   19.68780    8.88960
 4862.00000   53.57250   96.56800   25.66510    0.05950    7.89150   -0.08200   -0.00060    3.74320    2.83140   48.77140   28.00160   15.66260
 4862.50000   52.35200   95.00360   13.00030    0.02080    7.89610   -0.10560   -0.00450    4.18360    2.86690  977.28070  476.60310   31.86000
 4863.00000   51.14250   92.89780    5.93850   -0.00170    7.90070   -0.13720   -0.01220    4.65190    2.90450 6222.44140 15207.70120  432.40520
 4863.50000   50.37910   92.92240    4.41510   -0.01140    7.90520   -0.16450   -0.02600    4.75830    2.96590 14744.19530 17958.95510 2024.29000
 4864.00000   49.72170   92.35160   13.06200   -0.00220    7.90980   -0.16400   -0.03870    4.58350    2.99190 1382.37520 7931.73680 1167.34440
 4864.50000   49.46330   91.28900   23.50410    0.01500    7.91440   -0.14510   -0.03520    4.14150    2.99160  132.97140  199.15350  126.11990
 4865.00000   49.93480   91.32510   33.23450    0.03260    7.91900   -0.11800   -0.01780    3.80130    2.95160   41.16680   41.07090   34.58280
 4865.50000   50.09920   91.85990   43.27390    0.05030    7.92360   -0.07810   -0.00300    3.50770    2.84890   22.15600   22.97540   19.19030
 4866.00000   50.60660   91.29380   49.48360    0.06590    7.92630   -0.04950    0.00020    3.38660    2.81240   18.52830   21.13580   15.59890
 4866.50000   50.80180   91.02380   45.23460    0.06460    7.92800   -0.05150    0.00020    3.32030    2.79130   20.73620   25.95840   17.84610
 4867.00000   50.58350   90.87340   36.67830    0.04650    7.92970   -0.06680   -0.00080    3.34300    2.80420   46.32280  123.43700   26.76900
 4867.50000   49.60600   90.88480   28.16360    0.02840    7.93150   -0.08210   -0.00310    3.58020    2.84330  265.01080  318.40040   77.40740
 4868.00000   49.22810   90.44160   24.42310    0.01810    7.93320   -0.09320   -0.00540    3.80030    2.85900  483.75940  584.37630  290.49110
 4868.50000   49.21130   90.84440   23.77380    0.02430    7.93490   -0.09440   -0.00700    3.83450    2.86850  247.33930  236.04170  289.93010
 4869.00000   49.74140   91.80810   29.60630    0.03670    7.93660   -0.09320   -0.00390    3.76430    2.86950   94.86890   67.46870  123.17740
 4869.50000   50.87630   91.85350   39.65440    0.05490    7.93830   -0.07930   -0.00240    3.66470    2.86690   23.83300   30.21090   21.85300
 4870.00000   51.75010   92.31390   46.74350    0.07310    7.94000   -0.06400   -0.00660    3.66090    2.83780   18.01920   22.60830   14.89170
 4870.50000   52.17770   94.41060   44.60530    0.07420    7.94020   -0.05550   -0.00870    3.74780    2.80500   33.37430   37.72540   15.59440
 4871.00000   52.10150   94.32150   32.84390    0.03860    7.94020   -0.08390   -0.00990    4.00340    2.80440   74.65160  199.94660   32.71750
 4871.50000   51.12930   93.08700   21.96770    0.02140    7.94020   -0.10150   -0.00560    4.23630    2.85250 1295.22070 2351.70560  160.30980
 4872.00000   49.76870   90.26310   21.13290    0.00850    7.94030   -0.12410   -0.00380    4.40150    2.90600 1958.10520 1781.06380  721.00500
 4872.50000   48.69650   89.18290   21.70570    0.01110    7.94030   -0.13410   -0.00250    4.33640    2.94110 1074.08890  790.01740  907.12990
 4873.00000   47.83160   88.89280   23.50700    0.01570    7.94030   -0.12630   -0.00250    4.15080    2.93520  555.94070  436.16810  506.24190
 4873.50000   47.43630   87.69740   24.71180    0.01930    7.94030   -0.12020   -0.00310    4.00070    2.92150  408.64300  404.43940  356.17520
 4874.00000   47.43140   86.35260   23.79970    0.01270    7.94030   -0.11340   -0.00380    3.98780    2.90790  647.99850  498.74810  366.64230
 4874.50000   47.59270   86.75580   18.06570   -0.00040    7.94030   -0.11440   -0.00450    4.23460    2.90580 2799.82200 1468.26540  572.80380
 4875.00000   48.12280   87.49150   11.22600   -0.01200    7.94030   -0.11850   -0.00520    4.57880    2.91180 9313.14650 9436.64750 1471.15220
 4875.50000   48.57950   88.09090    6.94040   -0.01660    7.94030   -0.13230   -0.00590    4.73000    2.93040 7114.10690 9053.19040 1983.97910
 4876.00000   48.54820   88.22930    7.97560   -0.01510    7.94020   -0.14570   -0.00640    4.65130    2.95230 6562.16800 8317.43850 1992.00060
 4876.50000   48.34870   88.18030   12.08250   -0.00620    7.94020   -0.14580   -0.00650    4.43700    2.96250 3488.45430 1532.77690 1970.97160
 4877.00000   47.61330   88.13130   17.18020    0.00270    7.94020   -0.13380   -0.00650    4.16550    2.94920  849.73050  727.06490 1159.93740
 4877.50000   46.99890   87.46370   20.93980    0.00750    7.94020   -0.12170   -0.00660    4.04030    2.92780  638.97950  720.67180  667.06800
 4878.00000   46.70710   86.51680   20.70210    0.01360    7.94020   -0.11420   -0.00770    3.92490    2.90640  795.90680  753.17210  615.38020
 4878.50000   46.58830   85.08590   20.21040    0.01630    7.94020   -0.12120   -0.00880    3.85430    2.91050 1106.90920  757.71370  586.52110
