~Version ---------------------------------------------------
VERS.   2.0 : CWLS log ASCII Standard -VERSION 2.0
WRAP.    NO : One line per depth step
DLM . SPACE : Column Data Section Delimiter
~Well ------------------------------------------------------
STRT .F                 147.0 : START DEPTH
STOP .F                5497.0 : STOP DEPTH
STEP .F                   0.5 : STEP
NULL .               -9999.25 : NULL VALUE
COMP .                        : COMPANY
WELL .                        : WELL
FLD  .                        : FIELD
LOC  .                        : LOCATION
PROV .                        : PROVINCE
CNTY .                        : COUNTY
STAT .                        : STATE
CTRY .                        : COUNTRY
SRVC .                        : SERVICE COMPANY
DATE .                        : DATE
UWI  .                        : UNIQUE WELL ID
API  .                        : API NUMBER
SLAT .WGS84   3.3743785802031 : SURFACE LATITUDE
SLON .WGS84 7.599731958597999 : SURFACE LONGITUDE
DATUM.F                   nan : DEPTH DATUM ELEV
~Curve Information -----------------------------------------
DEPT   .F     : 1 MEASURED DEPTH
DTCO   .US/F  : DELTA-T COMPRESSIONAL
DTSM   .US/F  : DELTA-T SHEAR
GRD    .GAPI  : GAMMA RAY FROM DENSITY LOG
TNPH_LS.DEC   : THERMAL NEUTRON POROSITY [LIMESTONE]
CALD   .IN    : CALIPER FROM DENSITY LOG
DPHZ_LS.DEC   : HGRD STANDARD RESOLUTION DENSITY POROSITY
HDRA   .G/C3  : HRDD SPINE AND RIBS DENSITY CORRECTION
PEFZ   .B/E   : HRDD STANDARD RESOLUTION FORMATION PHOTOELECTRIC FACTOR
RHOZ   .G/C3  : HRDD STANDARD RESOLUTION FORMATION DENSITY
RLA3   .OHMM  : APPARENT RESISTIVITY FROM COMPUTED FOCUSING MODE 3
RLA5   .OHMM  : APPARENT RESISTIVITY FROM COMPUTED FOCUSING MODE 5
RXOZ   .OHMM  : INVADED FORMATION RESISTIVITY FILTERED AT 18 INCHES
~Params ----------------------------------------------------
~Other -----------------------------------------------------
~ASCII -----------------------------------------------------
# ...
 5187.00000   51.69030   94.82400   17.67070    0.06200    7.80120   -0.05750   -0.00400    3.66000    2.82270  350.29740  341.79260  212.84760
 5187.50000   51.49510   94.21100   18.11180    0.05670    7.80910   -0.08040   -0.00440    3.63610    2.85490  398.68730  501.29380  321.68840
 5188.00000   51.50870   93.23030   23.08770    0.05820    7.81690   -0.08940   -0.00220    3.57190    2.85810  293.90780  133.79840  134.21160
 5188.50000   51.54190   93.58880   30.97650    0.06890    7.82800   -0.07580    0.00200    3.48270    2.82700   74.10640   38.84630   50.24200
 5189.00000   51.58630   92.77880   33.50540    0.07680    7.83620   -0.05150   -0.00050    3.39360    2.79590   40.65210   32.54910   35.95430
 5189.50000   51.58960   91.19690   29.31040    0.07610    7.82110   -0.04860   -0.00150    3.33950    2.79310   47.65090   52.54320   33.44690
 5190.00000   51.42640   91.62780   25.39410    0.06200    7.80570   -0.05720   -0.00300    3.35830    2.81420   61.17780   69.12930   43.08030
 5190.50000   51.09410   92.11760   22.45870    0.05600    7.79050   -0.06850   -0.00430    3.40950    2.83030   68.55300   71.29470   58.51340
 5191.00000   50.02250   91.56080   20.35450    0.05680    7.77850   -0.07110   -0.00430    3.41240    2.82840   88.40380  101.25650   69.72660
 5191.50000   49.46100   89.90560   17.28030    0.05380    7.77860   -0.06580   -0.00570    3.36900    2.82380  138.57820  164.22290  110.22340
 5192.00000   49.10310   87.55440   13.65340    0.04900    7.77900   -0.06370   -0.00710    3.38770    2.82190  206.98910  379.86680  181.68460
 5192.50000   48.79880   87.11440   11.61680    0.04280    7.77910   -0.07190   -0.00760    3.45900    2.83670  256.52100  403.41320  231.33410
 5193.00000   48.54030   87.26470   12.47650    0.03720    7.77920   -0.08180   -0.00230    3.53760    2.84960  231.58570  267.12140  212.73010
 5193.50000   48.76470   87.39950   13.49250    0.03430    7.78190   -0.09180   -0.00160    3.75780    2.87140  197.56070  239.37740  177.84810
 5194.00000   49.34900   88.49850   12.59490    0.02210    7.78950   -0.10280   -0.00120    4.08750    2.90270  144.89030  195.95700  125.36690
 5194.50000   50.01110   91.80750    9.81320    0.00790    7.79700   -0.13120   -0.00070    4.41470    2.95130  154.12660  162.81480  146.71230
 5195.00000   50.80780   91.89600    7.49660    0.00090    7.80450   -0.15560   -0.00050    4.69560    2.98170  639.12050  713.13160  166.26410
 5195.50000   51.41030   93.97630    8.03500   -0.00400    7.80850   -0.16650   -0.00040    4.67830    2.99300  644.20720  715.60660  358.96420
 5196.00000   51.27820   93.54800   10.71830   -0.00170    7.80630   -0.16600   -0.00110    4.56220    2.99260  352.96040  696.07670  395.77670
 5196.50000   50.71260   92.37010   16.76720    0.01140    7.80410   -0.14990   -0.00220    4.29470    2.94160  188.23490  154.84810  216.28960
 5197.00000   49.91470   90.61980   17.11470    0.02440    7.80190   -0.12840   -0.00330    4.00510    2.90500  166.30060  112.85530  160.72270
 5197.50000   49.14480   88.75420   16.47560    0.03610    7.79970   -0.09460   -0.00440    3.76350    2.87000  120.84010  102.86430  101.94830
 5198.00000   48.41710   86.88880   12.61810    0.04470    7.79750   -0.07850   -0.00550    3.61280    2.83930   46.08890   77.82330   61.28600
 5198.50000   47.68950   85.61060   10.24170    0.04620    7.79530   -0.07200   -0.00650    3.49920    2.83420   56.57920   50.78540   45.52000
 5199.00000   47.13400   85.31140    9.86450    0.04380    7.79120   -0.07620   -0.00640    3.42580    2.84750  108.06210   80.54320   46.94860
 5199.50000   46.92450   84.94960   10.81540    0.04140    7.78470   -0.08170   -0.00510    3.34580    2.85760  121.78210  108.44620   68.59490
 5200.00000   46.90330   84.58770   11.19590    0.03940    7.77820   -0.08790   -0.00490    3.28950    2.85350  128.37660  116.59140  101.65590
 5200.50000   46.92550   83.97460   12.39370    0.03910    7.77170   -0.08240   -0.00600    3.24120    2.84340  141.01400  135.15550  115.64400
 5201.00000   46.99900   83.11800   14.52290    0.04520    7.76520   -0.07390   -0.00710    3.24750    2.83330  122.47820   94.51160   74.01160
 5201.50000   47.22140   84.42210   18.58140    0.05200    7.75910   -0.07100   -0.00820    3.29580    2.83140   61.34520   47.31680   41.13090
 5202.00000   47.46200   85.13510   21.97880    0.05360    7.76240   -0.07020   -0.00690    3.29060    2.83270   77.50300   49.94530   46.45820
 5202.50000   47.67270   85.71480   25.27270    0.04710    7.76580   -0.07290   -0.00540    3.27700    2.83370  177.18060   97.27170   71.51010
 5203.00000   47.77570   85.46380   27.88810    0.04250    7.76910   -0.07280   -0.00380    3.26690    2.83840  262.66150  211.84050  156.17070
 5203.50000   47.93500   85.16070   28.41720    0.04510    7.77170   -0.07810   -0.00220    3.31440    2.84360  295.04900  266.06340  238.88810
 5204.00000   48.40200   85.03410   26.38540    0.05170    7.76930   -0.07300   -0.00020    3.36180    2.83010  280.07340  305.99510  275.81020
 5204.50000   48.87180   84.74820   23.71150    0.05620    7.76690   -0.06250    0.00170    3.39600    2.80590  262.33590  436.00770  296.52960
 5205.00000   49.38300   85.47990   20.57910    0.06050    7.76450   -0.04900    0.00140    3.44990    2.78500  245.16010  197.00100  237.72350
 5205.50000   49.84780   89.87290   18.33580    0.06450    7.76620   -0.03880    0.00030    3.51450    2.77890  229.47440  212.35700  220.54370
 5206.00000   50.19180   90.03150   15.95320    0.06570    7.76890   -0.04000    0.00150    3.53990    2.77820  219.86790  276.27620  210.34360
 5206.50000   50.41760   89.12200   14.87620    0.06680    7.77150   -0.04200    0.00280    3.53620    2.77710  215.80830  205.24170  201.10040
 5207.00000   50.67350   88.69060   14.14100    0.06760    7.77410   -0.03670    0.00320    3.52200    2.76050  204.84430  169.38750  192.99800
 5207.50000   51.04390   88.81660   14.79350    0.06850    7.77670   -0.02160    0.00000    3.49140    2.74210  195.63940  180.10320  184.89600
 5208.00000   51.52920   91.57680   19.05770    0.07350    7.77890   -0.01380   -0.00520    3.42120    2.73160  189.38410  104.66840  166.13290
 5208.50000   51.75260   91.67610   25.96000    0.07870    7.77630   -0.01210   -0.00820    3.35090    2.72290  147.69680   95.63610  139.75610
 5209.00000   52.14750   92.19260   28.34670    0.08320    7.77350   -0.00300   -0.00790    3.28070    2.70680  162.52980  124.81080  142.93530
 5209.50000   52.48240   92.59210   26.10590    0.08470    7.77070    0.00400   -0.00730    3.26580    2.70130  260.83600  271.87940  201.58870
 5210.00000   52.63420   93.37280   21.65190    0.08660    7.76770    0.00380   -0.00670    3.26780    2.70340  329.20830  436.01850  254.50180
 5210.50000   52.76640   92.26590   17.19550    0.08920    7.76470    0.00320   -0.00630    3.30770    2.70580  263.97650  330.76880  267.47530
 5211.00000   52.81260   94.11400   16.56850    0.09240    7.76270    0.00250   -0.00680    3.33970    2.70610  242.56750  292.76750  259.83220
 5211.50000   52.85570   92.01040   16.25040    0.09300    7.76400    0.00320   -0.00730    3.39380    2.70840  318.20290  337.06140  278.76520
 5212.00000   52.72720   92.06120   13.65780    0.08110    7.76580   -0.00320   -0.00780    3.49660    2.73460  336.73130  364.32450  298.60540
 5212.50000   52.22260   92.33590   13.42830    0.06810    7.76720   -0.02530   -0.00750    3.61290    2.76310  388.07260  443.21270  337.65850
 5213.00000   52.02450   92.56950   15.42960    0.05910    7.76860   -0.04210   -0.00540    3.71240    2.79420  476.14750  562.58150  407.51550
 5213.50000   51.53770   91.82150   17.20270    0.05910    7.77540   -0.04850   -0.00330    3.67820    2.79020  582.05510  584.37480  481.94950
 5214.00000   51.19790   90.92150   15.10040    0.06090    7.78500   -0.03770   -0.00360    3.64350    2.76970  651.04860  385.67650  310.18230
 5214.50000   50.94960   90.36900   12.25380    0.06310    7.79470   -0.02760   -0.00510    3.57170    2.75510  163.33540  254.64790  223.07970
