~Version ---------------------------------------------------
VERS.   2.0 : CWLS log ASCII Standard -VERSION 2.0
WRAP.    NO : One line per depth step
DLM . SPACE : Column Data Section Delimiter
~Well ------------------------------------------------------
STRT .F                 147.0 : START DEPTH
STOP .F                5497.0 : STOP DEPTH
STEP .F                   0.5 : STEP
NULL .               -9999.25 : NULL VALUE
COMP .                        : COMPANY
WELL .                        : WELL
FLD  .                        : FIELD
LOC  .                        : LOCATION
PROV .                        : PROVINCE
CNTY .                        : COUNTY
STAT .                        : STATE
CTRY .                        : COUNTRY
SRVC .                        : SERVICE COMPANY
DATE .                        : DATE
UWI  .                        : UNIQUE WELL ID
API  .                        : API NUMBER
SLAT .WGS84   3.3743785802031 : SURFACE LATITUDE
SLON .WGS84 7.599731958597999 : SURFACE LONGITUDE
DATUM.F                   nan : DEPTH DATUM ELEV
~Curve Information -----------------------------------------
DEPT   .F     : 1 MEASURED DEPTH
DTCO   .US/F  : DELTA-T COMPRESSIONAL
DTSM   .US/F  : DELTA-T SHEAR
GRD    .GAPI  : GAMMA RAY FROM DENSITY LOG
TNPH_LS.DEC   : THERMAL NEUTRON POROSITY [LIMESTONE]
CALD   .IN    : CALIPER FROM DENSITY LOG
DPHZ_LS.DEC   : HGRD STANDARD RESOLUTION DENSITY POROSITY
HDRA   .G/C3  : HRDD SPINE AND RIBS DENSITY CORRECTION
PEFZ   .B/E   : HRDD STANDARD RESOLUTION FORMATION PHOTOELECTRIC FACTOR
RHOZ   .G/C3  : HRDD STANDARD RESOLUTION FORMATION DENSITY
RLA3   .OHMM  : APPARENT RESISTIVITY FROM COMPUTED FOCUSING MODE 3
RLA5   .OHMM  : APPARENT RESISTIVITY FROM COMPUTED FOCUSING MODE 5
RXOZ   .OHMM  : INVADED FORMATION RESISTIVITY FILTERED AT 18 INCHES
~Params ----------------------------------------------------
~Other -----------------------------------------------------
~ASCII -----------------------------------------------------
# ...
 5075.00000   47.31080   86.72220   26.37720    0.02940    7.82740   -0.07250   -0.00170    3.58430    2.83260   98.71610  124.84160  102.07270
 5075.50000   47.27460   86.51260   24.39520    0.03290    7.81950   -0.07420   -0.00190    3.45340    2.83590  103.56270  227.21400  123.33450
 5076.00000   47.30870   87.13200   22.50180    0.03280    7.82410   -0.07760   -0.00730    3.37040    2.84340  148.58160  183.97010  171.49420
 5076.50000   47.37380   88.15420   22.37330    0.03230    7.82890   -0.08080   -0.00990    3.36920    2.84680   99.84160   73.71030  111.65890
 5077.00000   47.35080   88.08910   23.53780    0.03190    7.83370   -0.08030   -0.01180    3.46010    2.84720   96.46730   93.95540  119.43580
 5077.50000   48.07010   87.20950   24.50540    0.03150    7.83850   -0.08160   -0.01360    3.56570    2.84700  263.04190  412.69770  145.08780
 5078.00000   49.67160   89.34800   28.25300    0.04120    7.84320   -0.08060   -0.01000    3.59640    2.83600  137.04730   89.85680  160.36680
 5078.50000   51.09980   92.46690   34.36450    0.06060    7.84800   -0.05710   -0.01000    3.57370    2.79550   51.50140   43.50330   75.48430
 5079.00000   52.38150   94.69350   41.46800    0.08260    7.84980   -0.03580   -0.01000    3.49860    2.76120   32.20070   29.44340   37.85940
 5079.50000   52.88870   94.77260   40.70190    0.08930    7.84980   -0.02970   -0.01000    3.50650    2.76140   33.92740   35.94730   29.64220
 5080.00000   52.84960   94.13850   33.91920    0.06830    7.85170   -0.03900   -0.00910    3.78370    2.79940   64.19680   75.99610   36.87680
 5080.50000   52.34530   93.87140   23.73520    0.03610    7.85690   -0.07080   -0.00740    4.11170    2.84940  176.63440  314.01830   74.86370
 5081.00000   50.99290   92.54050   17.38830    0.01500    7.86210   -0.09760   -0.00590    4.43920    2.89550 1129.65940 1935.32810  524.05690
 5081.50000   50.31720   92.05490   14.51140    0.00390    7.86740   -0.11290   -0.00440    4.58640    2.91780 2527.07100 3031.80910 1876.07970
 5082.00000   49.93000   91.16980   13.98190    0.00010    7.87260   -0.12540   -0.00300    4.61560    2.92830  839.94410  427.85060 1279.13870
 5082.50000   49.97290   91.06210   13.33150   -0.00240    7.87790   -0.12630   -0.00460    4.62830    2.92880 1049.18910 1010.58840  826.63190
 5083.00000   50.39370   91.53960   11.28240   -0.00180    7.88310   -0.12630   -0.00620    4.64100    2.93670 1739.85410  821.01170  675.22670
 5083.50000   50.77200   93.14970   10.11630   -0.00060    7.88840   -0.13890   -0.00500    4.61510    2.94640  335.79160  265.64690  417.25740
 5084.00000   50.89050   94.00820   13.33670    0.00500    7.89360   -0.13930   -0.00370    4.55940    2.94330  259.48820  224.73920  326.00560
 5084.50000   50.89810   93.39180   16.89510    0.01790    7.90100   -0.13390   -0.00240    4.35760    2.92810  174.47160  123.72410  197.58510
 5085.00000   50.38780   91.47610   20.33350    0.03090    7.90910   -0.11800   -0.00280    4.07600    2.90320  135.71640  130.71270  166.58870
 5085.50000   49.77710   91.20580   22.62990    0.03940    7.91710   -0.11340   -0.00330    3.81850    2.89440  210.29350  266.95030  160.86400
 5086.00000   49.33950   89.07220   22.98220    0.04270    7.92350   -0.10830   -0.00370    3.65690    2.87590  279.62110  292.98460  195.18250
 5086.50000   48.92170   87.04810   22.77370    0.04250    7.89490   -0.09080   -0.00420    3.57500    2.86220  281.84200  289.75120  248.49980
 5087.00000   48.52010   86.03070   23.27600    0.04210    7.86540   -0.08570   -0.00470    3.59140    2.85430  205.60870  207.91700  219.92330
 5087.50000   48.35350   84.92740   22.16410    0.04020    7.83590   -0.08360   -0.00520    3.61250    2.85740  171.04580  133.81220  208.61440
 5088.00000   48.14340   85.26140   18.63660    0.03440    7.80640   -0.09230   -0.00580    3.61540    2.86410  288.26690  233.39480  217.82970
 5088.50000   47.89490   85.51070   16.03320    0.02880    7.80420   -0.09350   -0.00630    3.61840    2.87070  376.49990  373.38170  284.24480
 5089.00000   47.66080   85.18120   15.67360    0.02350    7.80420   -0.09790   -0.00680    3.69660    2.87830  470.64630  510.83770  423.71750
 5089.50000   47.39950   85.42210   15.64440    0.02030    7.82390   -0.10160   -0.01000    3.80760    2.88380  589.12790  716.91010  517.73670
 5090.00000   47.37120   85.27680   14.14730    0.02060    7.85240   -0.10530   -0.01450    3.85330    2.89300  644.83870  755.74710  633.22770
 5090.50000   47.38780   85.09900   13.58640    0.02350    7.88060   -0.10790   -0.02030    3.85870    2.89830  329.31390  401.73820  310.27270
 5091.00000   47.48900   84.74280   14.18040    0.02690    7.90870   -0.11060   -0.02400    3.83820    2.89890  284.97850  296.28540  283.48330
 5091.50000   47.79480   84.53400   16.95450    0.03120    7.92760   -0.10910   -0.01440    3.74200    2.89730  217.71630  262.97260  219.63390
 5092.00000   48.16420   86.94720   19.64670    0.03610    7.93200   -0.10790   -0.00320    3.59900    2.89080  166.32970  184.88910  154.86560
 5092.50000   48.29710   87.07210   20.84530    0.04120    7.93650   -0.10300   -0.00210    3.45520    2.88480  119.29260  124.51170  107.69820
 5093.00000   48.24400   85.52620   17.84430    0.04260    7.93710   -0.10120   -0.00370    3.39060    2.88130   80.88320   86.73110   70.07580
 5093.50000   48.36470   85.10080   15.68020    0.04380    7.91930   -0.09890   -0.00540    3.34660    2.87140   56.59060   56.90840   47.63560
 5094.00000   48.55660   86.23350   13.70940    0.04660    7.90150   -0.08900   -0.00640    3.29010    2.85390   39.63670   35.68290   39.96700
 5094.50000   48.72410   86.65230   13.41610    0.04930    7.88360   -0.07060   -0.00640    3.23750    2.81950   31.55960   28.12510   35.18150
 5095.00000   48.69630   85.06150   11.08830    0.05520    7.86580   -0.05710   -0.00760    3.18520    2.80630   35.33000   37.50220   32.48670
 5095.50000   48.66120   85.52930   11.12430    0.05660    7.86270   -0.04970   -0.00820    3.22290    2.79470   43.71060   44.96550   36.80390
 5096.00000   48.59450   87.49130   11.35540    0.05280    7.86300   -0.05120   -0.00860    3.30460    2.80560   47.55060   52.55510   43.08990
 5096.50000   48.51340   90.01960   12.18740    0.04760    7.86320   -0.06220   -0.00910    3.36700    2.81840   57.87990   61.92210   51.61780
 5097.00000   48.92370   92.89410   16.78120    0.04490    7.86350   -0.06450   -0.00950    3.32780    2.82120   69.52110  105.57420   62.70590
 5097.50000   49.88710   95.26130   23.11860    0.05080    7.86380   -0.06200   -0.00990    3.24580    2.80420   66.18900   67.65190   68.88800
 5098.00000   50.95220   95.42650   29.14070    0.07320    7.86410   -0.04910   -0.01000    3.19420    2.79620   48.06700   41.73800   59.40290
 5098.50000   51.96770   94.96390   32.36650    0.08200    7.86550   -0.05310   -0.00800    3.16640    2.80300   58.90330   52.39480   57.63180
 5099.00000   52.20420   95.11410   30.72620    0.07780    7.87580   -0.06000   -0.00680    3.16670    2.81740   70.66740   73.37340   54.36660
 5099.50000   52.83060   95.65190   27.84080    0.06740    7.88310   -0.06330   -0.00630    3.24410    2.81740   60.88900   62.71820   48.90080
 5100.00000   52.68990   94.83570   26.37810    0.06940    7.88050   -0.05160   -0.00600    3.34550    2.78070   52.10940   54.05550   41.46320
 5100.50000   52.51210   94.68420   25.56350    0.08080    7.87800   -0.02730   -0.00540    3.44540    2.73890   45.39960   48.10180   33.45890
 5101.00000   52.59630   95.16890   26.22770    0.09150    7.87550   -0.01090   -0.00990    3.45890    2.71530   42.25640   42.82090   27.10290
 5101.50000   52.68830   92.63180   27.23410    0.09660    7.87300   -0.00190   -0.01020    3.47250    2.70950   42.06610   39.32690   27.63200
 5102.00000   52.20120   93.45070   27.60140    0.09000    7.87060   -0.00860   -0.00850    3.49520    2.73470   45.74310   49.04920   34.41550
 5102.50000   51.72760   94.33220   28.22870    0.08000    7.86800   -0.02420   -0.00570    3.52220    2.76220   62.38520   82.66270   57.19200
