~Version ---------------------------------------------------
VERS.   2.0 : CWLS log ASCII Standard -VERSION 2.0
WRAP.    NO : One line per depth step
DLM . SPACE : Column Data Section Delimiter
~Well ------------------------------------------------------
STRT .F                 147.0 : START DEPTH
STOP .F                5497.0 : STOP DEPTH
STEP .F                   0.5 : STEP
NULL .               -9999.25 : NULL VALUE
COMP .                        : COMPANY
WELL .                        : WELL
FLD  .                        : FIELD
LOC  .                        : LOCATION
PROV .                        : PROVINCE
CNTY .                        : COUNTY
STAT .                        : STATE
CTRY .                        : COUNTRY
SRVC .                        : SERVICE COMPANY
DATE .                        : DATE
UWI  .                        : UNIQUE WELL ID
API  .                        : API NUMBER
SLAT .WGS84   3.3743785802031 : SURFACE LATITUDE
SLON .WGS84 7.599731958597999 : SURFACE LONGITUDE
DATUM.F                   nan : DEPTH DATUM ELEV
~Curve Information -----------------------------------------
DEPT   .F     : 1 MEASURED DEPTH
DTCO   .US/F  : DELTA-T COMPRESSIONAL
DTSM   .US/F  : DELTA-T SHEAR
GRD    .GAPI  : GAMMA RAY FROM DENSITY LOG
TNPH_LS.DEC   : THERMAL NEUTRON POROSITY [LIMESTONE]
CALD   .IN    : CALIPER FROM DENSITY LOG
DPHZ_LS.DEC   : HGRD STANDARD RESOLUTION DENSITY POROSITY
HDRA   .G/C3  : HRDD SPINE AND RIBS DENSITY CORRECTION
PEFZ   .B/E   : HRDD STANDARD RESOLUTION FORMATION PHOTOELECTRIC FACTOR
RHOZ   .G/C3  : HRDD STANDARD RESOLUTION FORMATION DENSITY
RLA3   .OHMM  : APPARENT RESISTIVITY FROM COMPUTED FOCUSING MODE 3
RLA5   .OHMM  : APPARENT RESISTIVITY FROM COMPUTED FOCUSING MODE 5
RXOZ   .OHMM  : INVADED FORMATION RESISTIVITY FILTERED AT 18 INCHES
~Params ----------------------------------------------------
~Other -----------------------------------------------------
~ASCII -----------------------------------------------------
# ...
 5439.00000   56.45370  101.97330   32.11990    0.13920    7.38200    0.03410    0.09340    3.32740    2.64450   24.75360   20.29130   26.28700
 5439.50000   55.66300  101.64920   28.47800    0.13670    7.46690    0.02070    0.08880    3.28130    2.66400   25.19050   17.88640   26.27500
 5440.00000   55.14490  101.25180   26.61860    0.13420    7.53950    0.00590    0.08010    3.24660    2.68640   25.70040   20.78390   29.10470
 5440.50000   54.64780  100.84370   25.62190    0.13250    7.58470    0.00680    0.06590    3.20740    2.69970   25.97330   25.55620   34.39890
 5441.00000   54.16790  100.48030   25.59100    0.13150    7.63000    0.00930    0.04990    3.16090    2.69980   26.32340   25.92500   37.38200
 5441.50000   53.48900   99.54860   24.78070    0.12740    7.67530    0.00860    0.02470    3.12050    2.69710   29.76900   29.66060   41.63210
 5442.00000   52.80520   98.31070   23.51320    0.12230    7.70110    0.00770    0.00840    3.10420    2.69440   34.28030   27.67160   36.29550
 5442.50000   52.24070   97.07560   22.50020    0.11750    7.71220    0.00750   -0.00350    3.12260    2.69170   34.20860   22.84980   32.08020
 5443.00000   52.10760   96.21360   22.02670    0.11430    7.72330    0.01240   -0.00350    3.13370    2.69080   30.34110   22.47140   26.36570
 5443.50000   52.12650   95.80450   23.96220    0.11350    7.72150    0.00500   -0.00020    3.14480    2.70120   25.86470   23.60900   34.65040
 5444.00000   52.14550   95.91280   25.17490    0.11380    7.71450   -0.00730    0.00300    3.15590    2.71720   26.56870   28.47730   49.41640
 5444.50000   52.16440   96.37500   26.24900    0.11300    7.78560   -0.01180    0.00320    3.16700    2.72990   30.39110   32.36510   71.60530
 5445.00000   51.96710   96.30400   27.65440    0.10930    7.88380   -0.00360    0.00180    3.16990    2.71760   30.65900   32.55490   77.15610
 5445.50000   51.73100   96.04200   28.61500    0.10370    7.84640    0.00230    0.00030    3.14740    2.70630   37.11930   35.27110   40.10450
 5446.00000   51.49490   96.08400   28.01600    0.09810    7.79600   -0.00530    0.00410    3.16050    2.71750   46.83580   37.34000   41.42970
 5446.50000   51.52830   96.43070   27.24220    0.09700    7.76220   -0.01430    0.00880    3.20810    2.73390   46.40220   38.37330   47.36290
 5447.00000   51.88230   96.75560   27.30830    0.10260    7.68490   -0.01810    0.01320    3.21460    2.74070   34.69650   37.75900   54.14580
 5447.50000   52.61230   96.59140   31.30630    0.11630    7.74230   -0.00970    0.01030    3.19980    2.72880   28.28700   36.03110   53.94200
 5448.00000   53.26200   97.68620   36.62020    0.12480    7.76570   -0.00570    0.00550    3.14390    2.72260   31.76840   41.15680   58.72390
 5448.50000   53.91170   98.42470   -9999.25    0.12730    7.77040    0.00140    0.00080    3.09300    2.70980   45.77910   51.82490   72.41920
 5449.00000   54.20070   98.23040   -9999.25    0.12870    7.77510    0.00640   -0.00400    3.07250    2.70020   42.38430   39.28870   53.54180
 5449.50000   54.45070   97.96560   -9999.25    0.13010    7.73490    0.01170   -0.00500    3.05200    2.69550   30.53470   25.14850   39.76600
 5450.00000   54.70070   98.10630   -9999.25    0.13140    7.74390    0.01370   -0.00380    3.03830    2.68860   26.85010   24.36730   36.13690
 5450.50000   -9999.25   -9999.25   -9999.25    0.13160    7.76500    0.01520   -0.00240    3.07520    2.68130   24.04340   21.52000   39.92980
 5451.00000   -9999.25   -9999.25   -9999.25    0.12680    7.73360    0.02060    0.00300    3.14140    2.67400   23.92160   22.57500   42.93480
 5451.50000   -9999.25   -9999.25   -9999.25    0.12200    7.69520    0.02200    0.00900    3.21670    2.67480   27.89460   25.99910   41.86220
 5452.00000   -9999.25   -9999.25   -9999.25    0.11930    7.65710    0.01880    0.01340    3.26040    2.68040   30.81420   29.68400   41.59520
 5452.50000   -9999.25   -9999.25   -9999.25    0.11990    7.64630    0.01440    0.01790    3.25830    2.68760   29.62060   28.25380   41.46620
 5453.00000   -9999.25   -9999.25   -9999.25    0.12190    7.64560    0.01260    0.02610    3.24120    2.68940   23.74050   20.30920   31.52300
 5453.50000   -9999.25   -9999.25   -9999.25    0.12330    7.64500    0.01950    0.03470    3.19860    2.67960   18.69150   17.61690   24.29180
 5454.00000   -9999.25   -9999.25   -9999.25    0.12020    7.65430    0.02300    0.03990    3.14240    2.67180   19.11950   18.46570   20.93810
 5454.50000   -9999.25   -9999.25   -9999.25    0.11510    7.68570    0.02330    0.03900    3.10530    2.67050   20.95260   20.04050   21.61770
 5455.00000   -9999.25   -9999.25   -9999.25    0.10970    7.71700    0.02270    0.02610    3.06810    2.67250   22.96140   21.32330   26.28470
 5455.50000   -9999.25   -9999.25   -9999.25    0.10440    7.72850    0.01730    0.01690    3.03100    2.68220   26.81460   24.55250   38.11830
 5456.00000   -9999.25   -9999.25   -9999.25    0.10560    7.72760    0.01050    0.00990    3.00850    2.69170   31.54990   29.06910   56.72850
 5456.50000   -9999.25   -9999.25   -9999.25    0.10950    7.72720    0.00360    0.00370    3.00850    2.70210   35.38730   35.67500   49.87070
 5457.00000   -9999.25   -9999.25   -9999.25    0.11340    7.72690    0.00340    0.00280    3.05050    2.70330   40.31610   52.64890   47.14970
 5457.50000   -9999.25   -9999.25   -9999.25   -9999.25    7.73070    0.00440    0.00170    3.10180    2.70510   46.81170   74.23440   50.32300
 5458.00000   -9999.25   -9999.25   -9999.25   -9999.25    7.73540    0.00000    0.00060    3.14670    2.70860   49.25110   71.66120   52.56970
 5458.50000   -9999.25   -9999.25   -9999.25   -9999.25    7.67800   -0.00580    0.00040    3.19110    2.71850   54.48520   59.15300   56.50480
 5459.00000   -9999.25   -9999.25   -9999.25   -9999.25    7.65700   -0.01290    0.00990    3.24500    2.73040   56.49030   45.65710   56.07120
 5459.50000   -9999.25   -9999.25   -9999.25   -9999.25    7.65700   -0.01580    0.01960    3.29610    2.73370   34.97940   35.05410   42.40060
 5460.00000   -9999.25   -9999.25   -9999.25   -9999.25    7.64800   -0.01270    0.02890    3.30470    2.73230   26.14420   34.44650   38.22340
 5460.50000   -9999.25   -9999.25   -9999.25   -9999.25    7.60910   -0.00740    0.03470    3.22180    2.73060   22.62370   34.36710   33.34680
 5461.00000   -9999.25   -9999.25   -9999.25   -9999.25    7.57150   -0.01610    0.03740    3.13370    2.73580   19.22230   34.28790   39.58120
 5461.50000   -9999.25   -9999.25   -9999.25   -9999.25    7.60870   -0.02600    0.03460    3.10710    2.75080   21.82230   34.61300   51.12020
 5462.00000   -9999.25   -9999.25   -9999.25   -9999.25    7.73810   -0.03490    0.02530    3.09820    2.76580   33.87840   35.41370   65.94550
 5462.50000   -9999.25   -9999.25   -9999.25   -9999.25    7.79120   -0.03670    0.01610    3.07230    2.77340   40.77900   37.00500   60.57010
 5463.00000   -9999.25   -9999.25   -9999.25   -9999.25    7.76350   -0.03030    0.00790    3.04860    2.76450   48.81040   45.90290   57.45900
 5463.50000   -9999.25   -9999.25   -9999.25   -9999.25    7.73580   -0.02530    0.00280    3.02560    2.75260   54.42990   44.75610   45.05950
 5464.00000   -9999.25   -9999.25   -9999.25   -9999.25    7.72710   -0.01730   -0.00070    3.00270    2.74060   47.93830   41.22540   36.24190
 5464.50000   -9999.25   -9999.25   -9999.25   -9999.25    7.72660   -0.01360   -0.00070    2.97970    2.73600   42.33560   46.11780   37.16250
 5465.00000   -9999.25   -9999.25   -9999.25   -9999.25    7.72630   -0.01620   -0.00080    2.95670    2.73560   87.30810  127.74910   63.39640
 5465.50000   -9999.25   -9999.25   -9999.25   -9999.25    7.68670   -0.01600   -0.00090    2.93370    2.73520  128.01850  267.27030  131.48610
 5466.00000   -9999.25   -9999.25   -9999.25   -9999.25    7.68670   -0.00660   -0.00080    2.93030    2.72140  114.57920  180.85070   93.37020
 5466.50000   -9999.25   -9999.25   -9999.25   -9999.25    7.68670    0.00830    0.00050    2.93030    2.69880   61.94650   55.69550   47.76730
