~Version ---------------------------------------------------
VERS.   2.0 : CWLS log ASCII Standard -VERSION 2.0
WRAP.    NO : One line per depth step
DLM . SPACE : Column Data Section Delimiter
~Well ------------------------------------------------------
STRT .F                 147.0 : START DEPTH
STOP .F                5497.0 : STOP DEPTH
STEP .F                   0.5 : STEP
NULL .               -9999.25 : NULL VALUE
COMP .                        : COMPANY
WELL .                        : WELL
FLD  .                        : FIELD
LOC  .                        : LOCATION
PROV .                        : PROVINCE
CNTY .                        : COUNTY
STAT .                        : STATE
CTRY .                        : COUNTRY
SRVC .                        : SERVICE COMPANY
DATE .                        : DATE
UWI  .                        : UNIQUE WELL ID
API  .                        : API NUMBER
SLAT .WGS84   3.3743785802031 : SURFACE LATITUDE
SLON .WGS84 7.599731958597999 : SURFACE LONGITUDE
DATUM.F                   nan : DEPTH DATUM ELEV
~Curve Information -----------------------------------------
DEPT   .F     : 1 MEASURED DEPTH
DTCO   .US/F  : DELTA-T COMPRESSIONAL
DTSM   .US/F  : DELTA-T SHEAR
GRD    .GAPI  : GAMMA RAY FROM DENSITY LOG
TNPH_LS.DEC   : THERMAL NEUTRON POROSITY [LIMESTONE]
CALD   .IN    : CALIPER FROM DENSITY LOG
DPHZ_LS.DEC   : HGRD STANDARD RESOLUTION DENSITY POROSITY
HDRA   .G/C3  : HRDD SPINE AND RIBS DENSITY CORRECTION
PEFZ   .B/E   : HRDD STANDARD RESOLUTION FORMATION PHOTOELECTRIC FACTOR
RHOZ   .G/C3  : HRDD STANDARD RESOLUTION FORMATION DENSITY
RLA3   .OHMM  : APPARENT RESISTIVITY FROM COMPUTED FOCUSING MODE 3
RLA5   .OHMM  : APPARENT RESISTIVITY FROM COMPUTED FOCUSING MODE 5
RXOZ   .OHMM  : INVADED FORMATION RESISTIVITY FILTERED AT 18 INCHES
~Params ----------------------------------------------------
~Other -----------------------------------------------------
~ASCII -----------------------------------------------------
# ...
 5131.00000   53.97250   98.49510   35.98530    0.11800    7.78320   -0.00390   -0.00410    3.25860    2.71080   28.43300   29.28650   23.16380
 5131.50000   55.07130   98.07230   34.30390    0.13180    7.78400    0.00140   -0.00220    3.21660    2.70970   29.43500   32.56060   20.22440
 5132.00000   55.75240   98.51840   35.03260    0.13750    7.79260   -0.00150   -0.00030    3.21830    2.71250   20.47440   22.42920   18.91110
 5132.50000   56.42940   99.40690   42.92700    0.14300    7.80180   -0.00470    0.00160    3.21850    2.71600   18.78980   20.70800   17.82390
 5133.00000   56.24720   99.92350   47.82630    0.14490    7.81100   -0.00540    0.00310    3.21880    2.71900   20.15020   27.88510   19.30890
 5133.50000   55.02410   99.55360   47.67410    0.13520    7.82020   -0.01280    0.00460    3.21910    2.72890   22.43270   32.42280   21.29490
 5134.00000   54.57920  100.60370   40.28040    0.11920    7.82950   -0.02150    0.00610    3.23430    2.74560   22.98890   32.08470   21.69350
 5134.50000   54.05430   96.17350   34.21810    0.10560    7.83630   -0.02580    0.00610    3.26630    2.75260   21.55450   31.79670   22.31910
 5135.00000   53.39400   95.75420   30.08890    0.09260    7.82730   -0.03080    0.00310    3.29480    2.75830   25.92390   36.74100   25.51880
 5135.50000   52.33540   94.43270   28.39100    0.08390    7.82660   -0.04130    0.00020    3.37400    2.78010   37.08020   44.83710   30.96610
 5136.00000   51.06180   92.87590   24.35360    0.07050    7.82700   -0.06150   -0.00270    3.48590    2.80430   82.40290  127.59330   46.11080
 5136.50000   50.04340   90.72560   20.30120    0.05570    7.82600   -0.07720   -0.00280    3.64940    2.82860  239.88550  307.00400   94.26650
 5137.00000   49.18050   88.30620   19.09210    0.04000    7.80260   -0.08350   -0.00190    3.69810    2.84860  356.38450  424.15040  196.85470
 5137.50000   48.22510   87.99520   18.19470    0.03160    7.78360   -0.08830   -0.00080    3.63570    2.85930  278.94630  317.63660  224.32650
 5138.00000   47.55670   87.96640   18.33030    0.03270    7.78930   -0.08880   -0.00110    3.58770    2.86270  287.59100  391.34440  226.04360
 5138.50000   48.20740   88.10390   21.68150    0.03380    7.78780   -0.08750   -0.00260    3.59400    2.86170  258.63070  364.96030  230.13710
 5139.00000   49.25780   88.05380   30.69800    0.03470    7.79600   -0.06860   -0.00410    3.69990    2.84530   57.94500  135.48480   79.73620
 5139.50000   50.38190   89.84770   38.05080    0.03300    7.81240   -0.06590   -0.00800    4.02820    2.82420   33.43630   37.98470   54.30220
 5140.00000   51.15370   93.18030   31.91160    0.01610    7.82850   -0.07960   -0.00700    4.42490    2.82400  127.54530  246.07370   62.99470
 5140.50000   51.44110   95.93300   18.70710    0.00420    7.84450   -0.09800   -0.00580    4.75580    2.86550  729.41290  957.21550  203.11100
 5141.00000   51.19960   94.47930   10.43910   -0.00660    7.86080   -0.12540   -0.00460    4.88350    2.92540 4224.66460 3123.63230 1223.60840
 5141.50000   50.60320   94.23110    8.44760   -0.01320    7.85460   -0.14190   -0.00820    4.81530    2.94740 7719.91600 11142.95610 1730.61390
 5142.00000   49.61240   92.79210    7.28030   -0.01460    7.83800   -0.15320   -0.01890    4.66800    2.96470 6580.94580 8258.29980 1996.83790
 5142.50000   49.09010   91.02580    6.34850   -0.01500    7.82090   -0.15920   -0.01500    4.61390    2.98160 4117.68510 4742.36380 1996.83790
 5143.00000   48.72960   89.49470    6.28780   -0.01500    7.80760   -0.15840   -0.01350    4.54340    2.98290 5515.03860 6948.89260 1987.32780
 5143.50000   48.42520   88.62700    8.47460   -0.01150    7.80540   -0.15010   -0.01310    4.34340    2.98040 1586.14060 7610.50490  904.36040
 5144.00000   48.21330   88.58690   14.59260   -0.00190    7.80320   -0.13170   -0.01260    4.04800    2.94720  540.60830  741.39180  454.63950
 5144.50000   48.04530   88.65210   20.89890    0.00980    7.80100   -0.11270   -0.01210    3.77210    2.91360  418.47570  350.86070  304.20470
 5145.00000   47.80460   88.35130   23.95960    0.01980    7.79880   -0.09790   -0.01160    3.52660    2.88120  402.34840  326.29590  257.64810
 5145.50000   47.11110   87.96850   23.28750    0.02650    7.79660   -0.09580   -0.01100    3.40410    2.87540  333.62300  276.93230  244.25520
 5146.00000   47.07410   86.63430   22.30020    0.03050    7.79440   -0.09070   -0.00770    3.37190    2.86440  379.12720  296.15440  235.32620
 5146.50000   47.35550   84.91440   21.27300    0.03260    7.79480   -0.08340   -0.00370    3.36910    2.85230  409.09260  311.16240  235.91020
 5147.00000   48.17730   85.47660   19.93430    0.02800    7.80120   -0.07920    0.00580    3.45570    2.84690  221.51580  145.91190  155.36170
 5147.50000   48.75940   87.47650   17.76920    0.01730    7.80750   -0.08940    0.01740    3.89180    2.85680  172.49470  121.50610  151.94920
 5148.00000   49.60790   90.35990   13.77510    0.00220    7.81390   -0.11470    0.02700    4.36720    2.88200  325.50970  256.15460  198.22950
 5148.50000   50.43110   92.00170   10.35870   -0.00960    7.82030   -0.14010    0.01900    4.71700    2.94120 1198.97520  768.37150  382.87430
 5149.00000   50.84670   94.44860    7.14240   -0.01460    7.82660   -0.15990    0.00820    4.91800    2.96800 1847.17410 1617.63110 1022.27280
 5149.50000   51.15800   96.22840    6.52650   -0.01780    7.83040   -0.16920   -0.00090    4.95720    2.99370 2495.37300 2466.89090 1308.13620
 5150.00000   51.06340   95.90970    7.12040   -0.01770    7.83060   -0.16920   -0.00130    4.87020    2.99470  493.17790  958.12130 1885.85440
 5150.50000   50.96150   95.63200    8.68360   -0.01690    7.83070   -0.15800   -0.00180    4.79120    2.99290  320.87790  300.08130  410.23170
 5151.00000   51.05390   95.51660    8.81060   -0.01520    7.82840   -0.16270   -0.00220    4.71850    2.98800  362.07780  327.81370  300.93780
 5151.50000   51.05330   95.43790    7.61510   -0.01240    7.82140   -0.15990   -0.00230    4.68970    2.98270  449.21240  609.13020  294.04000
 5152.00000   50.69680   95.23670    6.33530   -0.00940    7.81460   -0.15260   -0.00230    4.65640    2.97750 1230.36510 2040.29900  579.02170
 5152.50000   50.17680   94.77780    8.23470   -0.00660    7.80760   -0.14230   -0.00230    4.62300    2.95270 2447.32960 2239.69190  941.33440
 5153.00000   49.65690   92.39060   12.35240   -0.00630    7.80070   -0.13530   -0.00230    4.58970    2.94770 3664.29440 3477.12400 1483.80050
 5153.50000   49.37780   92.80610   15.81650   -0.00630    7.79370   -0.13250   -0.00230    4.56400    2.94000 2842.67530 1952.00790 1545.36940
 5154.00000   49.96430   92.74630   15.58580   -0.00650    7.79070   -0.13360   -0.00230    4.54170    2.93830 2018.07190  426.89190  871.80940
 5154.50000   50.57830   93.22170   14.40440   -0.00680    7.79050   -0.13490   -0.00230    4.53940    2.93820  238.32450  227.66160  358.68540
 5155.00000   50.89670   95.09340   11.99800   -0.00700    7.79050   -0.14380   -0.00230    4.58780    2.94480  222.44200  245.06430  198.49360
 5155.50000   51.15690   95.79930   11.29370   -0.00700    7.79060   -0.15250   -0.00230    4.61930    2.95870  297.95560  483.37240  244.78170
 5156.00000   50.88080   95.69200   13.12060   -0.00110    7.79090   -0.15840   -0.00230    4.50080    2.97570  385.58520 2411.56490  330.53410
 5156.50000   50.58880   93.99610   16.76860    0.00670    7.79270   -0.14230   -0.00200    4.32640    2.97450  181.47590  218.89880  281.60560
 5157.00000   50.35270   92.59510   20.74580    0.01240    7.79460   -0.13080   -0.00100    4.15640    2.94960  182.28510  137.32660  176.19230
 5157.50000   50.55360   92.48700   19.07890    0.01180    7.79640   -0.12210    0.00000    4.24620    2.92480  279.39580  201.97840  168.38010
 5158.00000   50.67540   92.32540   15.44790   -0.00100    7.79830   -0.14110    0.00090    4.46250    2.93230  212.57560  161.89150  173.23000
 5158.50000   50.77810   92.03640   13.13510   -0.00580    7.80010   -0.14950    0.00170    4.63310    2.95270  239.02570  329.80510  208.21740
