~Version ---------------------------------------------------
VERS.   2.0 : CWLS log ASCII Standard -VERSION 2.0
WRAP.    NO : One line per depth step
DLM . SPACE : Column Data Section Delimiter
~Well ------------------------------------------------------
STRT .F                 147.0 : START DEPTH
STOP .F                5497.0 : STOP DEPTH
STEP .F                   0.5 : STEP
NULL .               -9999.25 : NULL VALUE
COMP .                        : COMPANY
WELL .                        : WELL
FLD  .                        : FIELD
LOC  .                        : LOCATION
PROV .                        : PROVINCE
CNTY .                        : COUNTY
STAT .                        : STATE
CTRY .                        : COUNTRY
SRVC .                        : SERVICE COMPANY
DATE .                        : DATE
UWI  .                        : UNIQUE WELL ID
API  .                        : API NUMBER
SLAT .WGS84   3.3743785802031 : SURFACE LATITUDE
SLON .WGS84 7.599731958597999 : SURFACE LONGITUDE
DATUM.F                   nan : DEPTH DATUM ELEV
~Curve Information -----------------------------------------
DEPT   .F     : 1 MEASURED DEPTH
DTCO   .US/F  : DELTA-T COMPRESSIONAL
DTSM   .US/F  : DELTA-T SHEAR
GRD    .GAPI  : GAMMA RAY FROM DENSITY LOG
TNPH_LS.DEC   : THERMAL NEUTRON POROSITY [LIMESTONE]
CALD   .IN    : CALIPER FROM DENSITY LOG
DPHZ_LS.DEC   : HGRD STANDARD RESOLUTION DENSITY POROSITY
HDRA   .G/C3  : HRDD SPINE AND RIBS DENSITY CORRECTION
PEFZ   .B/E   : HRDD STANDARD RESOLUTION FORMATION PHOTOELECTRIC FACTOR
RHOZ   .G/C3  : HRDD STANDARD RESOLUTION FORMATION DENSITY
RLA3   .OHMM  : APPARENT RESISTIVITY FROM COMPUTED FOCUSING MODE 3
RLA5   .OHMM  : APPARENT RESISTIVITY FROM COMPUTED FOCUSING MODE 5
RXOZ   .OHMM  : INVADED FORMATION RESISTIVITY FILTERED AT 18 INCHES
~Params ----------------------------------------------------
~Other -----------------------------------------------------
~ASCII -----------------------------------------------------
# ...
 4823.00000   52.01730   98.35170   17.29420   -0.00620    8.02590   -0.13130   -0.00450    5.23290    2.93960   72.17470   93.83630   63.12060
 4823.50000   52.46990   98.79220   23.01560   -0.00320    8.02440   -0.12850   -0.00300    5.26530    2.93350   47.32030   81.84390   39.13670
 4824.00000   52.73730   98.45960   23.47760   -0.00110    8.02290   -0.13400   -0.00110    5.33190    2.93270   39.01970   67.68660   33.80810
 4824.50000   52.81590   97.58710   17.57030   -0.00430    8.02140   -0.14840    0.00080    5.36070    2.95630   47.97120  130.02960   44.33850
 4825.00000   52.56780   96.72510    9.38630   -0.01040    8.02140   -0.16460    0.00270    5.29260    2.97950  402.46470 1434.69710  129.02830
 4825.50000   51.96880   95.78220    4.21190   -0.01550    8.02520   -0.17030    0.00090    5.23320    2.99920 6641.98000 2732.14280 1988.73460
 4826.00000   51.36970   94.79220    2.51820   -0.01800    8.02910   -0.16420   -0.00200    5.23900    2.99920 12881.49510 29796.80660 1998.85160
 4826.50000   50.81070   93.83180    2.23570   -0.01810    8.03290   -0.15240   -0.00490    5.12730    2.97990 20233.15620 12325.31150 2006.11360
 4827.00000   50.45270   92.98460    3.10030   -0.01820    8.03670   -0.15460   -0.00630    4.98620    2.97210 7989.03270 8244.05760 2001.94840
 4827.50000   50.10310   92.49690    7.78480   -0.01710    8.04060   -0.16130   -0.00510    4.82270    2.98230 7466.07180 13828.16990 1997.79060
 4828.00000   49.51210   91.98590   12.30000   -0.01150    8.03850   -0.16090   -0.00100    4.57070    2.99020 6238.24660 11870.50200 1993.64270
 4828.50000   49.27600   91.54040   16.21650   -0.00570    8.02360   -0.14120    0.00310    4.28360    2.96410 1126.05150 3407.76590 1972.54430
 4829.00000   49.25680   92.49170   21.00410    0.00280    8.00880   -0.11800    0.01070    3.99950    2.93000  402.92910  248.25280  470.30410
 4829.50000   49.78220   93.45690   30.09390    0.01420    7.99460   -0.10340    0.01460    3.73030    2.90610  159.29340  158.79140  153.51810
 4830.00000   51.85570   95.04320   38.41780    0.03100    7.98810   -0.08880    0.01090    3.61650    2.85530   49.80860   72.79730   42.41940
 4830.50000   53.30250   96.40380   44.50440    0.05560    7.97470   -0.06560    0.00060    3.52840    2.80330   19.96520   21.63660   15.54780
 4831.00000   54.23820   97.33610   46.57980    0.08050    7.95170   -0.04360   -0.00420    3.51730    2.77840   11.24790   11.60490    9.79370
 4831.50000   54.14880   97.61760   45.15310    0.08590    7.93820   -0.03790   -0.00020    3.55050    2.78340   13.39720   26.25050   11.70140
 4832.00000   53.68270   96.44650   35.00000    0.07350    7.93440   -0.05850    0.00290    3.70960    2.81160   90.07350  135.04760   21.50170
 4832.50000   52.47820   94.82130   29.45080    0.04750    7.93150   -0.08080    0.00270    3.80110    2.84700  151.25760  107.15520   49.47940
 4833.00000   51.34970   93.48680   27.33490    0.03850    7.93120   -0.09080    0.00000    3.72770    2.86910   55.65170   35.33580   42.42040
 4833.50000   50.20930   91.78830   28.49370    0.03980    7.93280   -0.10090   -0.00150    3.64700    2.88170   34.87380   32.92330   29.24210
 4834.00000   49.79910   91.09190   27.26070    0.04230    7.93450   -0.10260   -0.00290    3.57350    2.88770   41.92800   53.77980   33.19970
 4834.50000   49.50760   90.75880   22.41490    0.03890    7.93620   -0.10880   -0.00390    3.61860    2.89580   55.29820   61.15130   46.69460
 4835.00000   49.39430   90.70980   19.18050    0.03220    7.93790   -0.10900   -0.00490    3.69230    2.89800   68.31600   79.54700   58.81360
 4835.50000   49.16990   90.38220   18.95800    0.02950    7.93950   -0.10830   -0.00590    3.77270    2.89400   90.63990  107.70790   70.19460
 4836.00000   49.00520   89.20340   21.91830    0.02970    7.94120   -0.09410   -0.00710    3.75650    2.87610   64.74540   83.78230   79.75790
 4836.50000   48.87910   88.26320   29.31330    0.03040    7.94290   -0.08520   -0.00700    3.71960    2.85870   63.13200   53.88510   64.43290
 4837.00000   48.81290   88.05240   33.72920    0.03320    7.94460   -0.08010   -0.00660    3.68130    2.85040   73.42680   84.65570   55.30560
 4837.50000   49.20990   86.99230   35.93420    0.03720    7.94630   -0.07940   -0.00630    3.63310    2.84660   70.76610   74.29240   62.56610
 4838.00000   50.56280   89.11950   35.52690    0.04510    7.94790   -0.07480   -0.00250    3.58900    2.84030   41.80260   30.43100   32.70630
 4838.50000   51.20790   92.54740   35.12210    0.05810    7.94960   -0.06810   -0.00210    3.54360    2.83160   19.65470   15.03830   17.58350
 4839.00000   51.35470   92.45890   32.72910    0.07140    7.95130   -0.06440   -0.00180    3.49820    2.82320   20.09190   19.77200   14.72960
 4839.50000   51.41580   91.90510   31.78190    0.07160    7.95300   -0.07860   -0.00300    3.48280    2.82100   38.73210   45.68010   19.67930
 4840.00000   50.78640   91.07160   31.38600    0.05290    7.95460   -0.09500   -0.00490    3.57570    2.84520   64.55820   78.01380   38.55520
 4840.50000   49.56700   89.32670   30.80120    0.03670    7.96090   -0.10140   -0.00700    3.70080    2.89340   84.35440   93.33080   69.41630
 4841.00000   48.29860   88.00590   28.61480    0.02660    7.96960   -0.10880   -0.00840    3.82990    2.90010  184.49450  209.96650   84.35630
 4841.50000   47.69370   86.82930   26.79580    0.02310    7.97830   -0.10960   -0.00800    3.90380    2.89700  491.59930  561.48130  130.05310
 4842.00000   47.78930   85.05690   29.13900    0.02190    7.98710   -0.09490   -0.00760    3.97780    2.88110  175.14950  270.63760  147.06680
 4842.50000   47.97040   84.04490   33.00100    0.02070    7.99580   -0.09080   -0.00720    4.05440    2.86590   91.34180   74.85690   99.87770
 4843.00000   47.90230   86.18450   28.59840    0.01880    8.00460   -0.09530   -0.00680    4.13360    2.86880  164.92510  159.96010  101.40030
 4843.50000   48.40230   87.32090   22.20580    0.00650    8.01330   -0.10160   -0.00640    4.24250    2.87540  197.37120  188.11890  114.31630
 4844.00000   48.95490   88.17700   15.35780   -0.00630    8.02210   -0.10780   -0.00600    4.44860    2.88860  348.58720  288.93530  219.51020
 4844.50000   49.50770   90.24490    9.17990   -0.01540    8.03080   -0.13130   -0.00560    4.66030    2.92670  602.33170  691.39230  312.29050
 4845.00000   49.91550   91.45890    5.06030   -0.01930    8.03960   -0.15290   -0.00600    4.79050    2.97640 1016.81780 1396.54690  688.16110
 4845.50000   50.14660   91.90830    3.74680   -0.02030    8.04000   -0.17830   -0.00510    4.86790    3.01910 1765.31650 8506.83690 1241.34180
 4846.00000   50.17750   91.75630    2.96980   -0.02150    8.03470   -0.18550   -0.00470    4.90710    3.02960 31840.98050 33577.15620 1957.06810
 4846.50000   50.07140   91.44540    3.14480   -0.02040    8.02940   -0.18090   -0.00540    4.91840    3.01210 31765.86910 33459.60940 1985.15250
 4847.00000   49.79110   91.09400    6.97550   -0.01800    8.02410   -0.16770   -0.00600    4.87520    2.99730 9311.76070 12722.48140 1979.75000
 4847.50000   49.47950   89.96050   12.38220   -0.01530    8.01880   -0.15300   -0.00640    4.75440    2.98260 2382.09380 4869.72310 1974.36230
 4848.00000   49.20970   88.81340   16.69830   -0.01230    8.01580   -0.13850   -0.00640    4.61760    2.95570 1614.77140 2845.24950 1366.73030
 4848.50000   48.96100   88.12850   16.30300   -0.01160    8.01570   -0.13770   -0.00640    4.52130    2.94570  732.55750  820.77590  706.47960
 4849.00000   49.07470   92.02080   12.02670   -0.01360    8.01570   -0.14940   -0.00640    4.57830    2.95590 1458.29060 5299.41750  790.29500
 4849.50000   48.66340   91.69590    9.35230   -0.01490    8.01570   -0.16150   -0.00640    4.65210    2.97720 8940.30570 9528.60160 1076.22670
 4850.00000   48.44700   90.73410   10.25140   -0.01050    8.01570   -0.16990   -0.00640    4.56870    2.99690 4879.62840 7989.92290 1998.05290
 4850.50000   48.26360   89.05920   15.49210   -0.00420    8.01560   -0.15220   -0.00630    4.33510    2.97930  818.95130  619.78030 1953.76500
