~Version ---------------------------------------------------
VERS.   2.0 : CWLS log ASCII Standard -VERSION 2.0
WRAP.    NO : One line per depth step
DLM . SPACE : Column Data Section Delimiter
~Well ------------------------------------------------------
STRT .F                 147.0 : START DEPTH
STOP .F                5497.0 : STOP DEPTH
STEP .F                   0.5 : STEP
NULL .               -9999.25 : NULL VALUE
COMP .                        : COMPANY
WELL .                        : WELL
FLD  .                        : FIELD
LOC  .                        : LOCATION
PROV .                        : PROVINCE
CNTY .                        : COUNTY
STAT .                        : STATE
CTRY .                        : COUNTRY
SRVC .                        : SERVICE COMPANY
DATE .                        : DATE
UWI  .                        : UNIQUE WELL ID
API  .                        : API NUMBER
SLAT .WGS84   3.3743785802031 : SURFACE LATITUDE
SLON .WGS84 7.599731958597999 : SURFACE LONGITUDE
DATUM.F                   nan : DEPTH DATUM ELEV
~Curve Information -----------------------------------------
DEPT   .F     : 1 MEASURED DEPTH
DTCO   .US/F  : DELTA-T COMPRESSIONAL
DTSM   .US/F  : DELTA-T SHEAR
GRD    .GAPI  : GAMMA RAY FROM DENSITY LOG
TNPH_LS.DEC   : THERMAL NEUTRON POROSITY [LIMESTONE]
CALD   .IN    : CALIPER FROM DENSITY LOG
DPHZ_LS.DEC   : HGRD STANDARD RESOLUTION DENSITY POROSITY
HDRA   .G/C3  : HRDD SPINE AND RIBS DENSITY CORRECTION
PEFZ   .B/E   : HRDD STANDARD RESOLUTION FORMATION PHOTOELECTRIC FACTOR
RHOZ   .G/C3  : HRDD STANDARD RESOLUTION FORMATION DENSITY
RLA3   .OHMM  : APPARENT RESISTIVITY FROM COMPUTED FOCUSING MODE 3
RLA5   .OHMM  : APPARENT RESISTIVITY FROM COMPUTED FOCUSING MODE 5
RXOZ   .OHMM  : INVADED FORMATION RESISTIVITY FILTERED AT 18 INCHES
~Params ----------------------------------------------------
~Other -----------------------------------------------------
~ASCII -----------------------------------------------------
# ...
 5019.00000   50.87000   92.87630   27.62880    0.02680    7.86340   -0.08420    0.00430    4.01440    2.84360   69.06720   79.30030   56.47230
 5019.50000   51.45490   94.54570   21.80420    0.01460    7.86370   -0.09850    0.00020    4.29410    2.88360   75.00610   79.68230   60.29020
 5020.00000   51.14180   92.86970   18.03890    0.00640    7.86380   -0.10140   -0.00370    4.45620    2.91920  179.82800  202.03440  113.71930
 5020.50000   50.68740   92.79800   18.70960    0.00140    7.86390   -0.14850   -0.00500    4.46090    2.95470  434.26440  533.93050  306.11230
 5021.00000   50.12720   92.36380   21.00490    0.00450    7.85970   -0.14780   -0.00610    4.36990    2.96840  641.71590  640.49530  493.05450
 5021.50000   48.80500   90.06710   22.45520    0.00950    7.85510   -0.13340   -0.00730    4.12970    2.94080  498.95810  545.08170  435.33440
 5022.00000   47.64820   87.14070   23.07200    0.01660    7.85090   -0.11250   -0.00850    3.89600    2.90260  311.82270  343.88250  270.38810
 5022.50000   47.05810   84.11970   22.90250    0.02140    7.84620   -0.10650   -0.00920    3.70530    2.88510  214.91110  216.88100  205.74680
 5023.00000   46.85440   80.79910   22.59900    0.02170    7.84160   -0.09230   -0.00810    3.68990    2.87120  207.91890  213.47480  198.85160
 5023.50000   46.91100   81.53090   20.12570    0.01920    7.83690   -0.09340   -0.00700    3.74850    2.86720  321.90790  492.52190  260.26170
 5024.00000   46.87080   82.37190   21.17580    0.01580    7.83230   -0.09740   -0.00590    3.80360    2.87770  599.64110  848.18880  499.68530
 5024.50000   46.89890   82.64320   21.79080    0.01460    7.82760   -0.10260   -0.00490    3.84630    2.88970  809.12430  922.18180  763.90440
 5025.00000   46.98300   80.05640   23.45670    0.01630    7.82300   -0.10410   -0.00440    3.80470    2.88990  630.14170  683.97360  880.26170
 5025.50000   47.09020   78.09780   26.87310    0.01920    7.82010   -0.09210   -0.00270    3.73690    2.87190  272.07030  241.49180  314.30420
 5026.00000   47.53590   83.89420   28.31560    0.02030    7.82230   -0.09640   -0.00050    3.66940    2.86890  163.28010  137.88090  199.03100
 5026.50000   47.78590   84.49290   28.21140    0.01590    7.82450   -0.10090    0.00150    3.81270    2.88370  230.36840  163.49800  202.37000
 5027.00000   47.76110   85.05760   25.79860    0.01120    7.82670   -0.10550    0.00140    3.98460    2.89400  521.54710  557.63900  284.39490
 5027.50000   47.55040   85.80800   27.40070    0.00970    7.82890   -0.11560    0.00120    3.92630    2.90720 1149.86910 1544.24570  659.64310
 5028.00000   47.21380   86.21090   31.95630    0.01190    7.83120   -0.11110    0.00100    3.82980    2.90010 1077.11330 1327.19460 1327.82500
 5028.50000   46.94420   86.11030   35.46470    0.01590    7.83340   -0.10880    0.00090    3.73280    2.88980  395.90190  304.57870  550.52890
 5029.00000   46.68720   85.55850   36.86460    0.01820    7.83560   -0.09850    0.00070    3.62820    2.88080  229.67050  244.93330  232.37910
 5029.50000   46.53110   83.58210   35.36690    0.01900    7.83780   -0.10140    0.00080    3.58410    2.88260  190.59240  209.88510  154.46700
 5030.00000   46.45360   83.31360   29.78940    0.01780    7.84000   -0.10430    0.00130    3.63680    2.88840  255.73230  221.33420  162.98300
 5030.50000   46.46120   83.22860   23.43710    0.01400    7.84220   -0.10570    0.00190    3.76900    2.89440  582.31520  535.34690  247.69860
 5031.00000   46.23980   83.81070   18.16440    0.01020    7.84440   -0.11000    0.00070    3.82420    2.90030 1090.55000 1211.74020  532.10390
 5031.50000   46.08340   84.36600   14.49020    0.00690    7.84660   -0.11350   -0.00170    3.83190    2.90510  935.72560 1456.83760 1030.05300
 5032.00000   46.10230   83.17420   13.92340    0.00700    7.84880   -0.11480   -0.00320    3.82300    2.90540  309.27550  522.65600  756.88270
 5032.50000   46.28320   83.24430   13.95050    0.01260    7.85100   -0.10770    0.00030    3.81410    2.88810  136.59910  141.89720  291.99820
 5033.00000   46.68100   84.00920   14.61810    0.01900    7.85330   -0.08930    0.00390    3.80910    2.86330   79.84990   92.10080  106.25160
 5033.50000   47.01710   84.76250   17.12950    0.02830    7.85550   -0.07990    0.00320    3.88040    2.84200   67.26810   70.37910   75.36340
 5034.00000   47.42950   85.50000   20.15880    0.03520    7.85770   -0.07460   -0.00090    3.98830    2.83670   67.87580   70.12690   86.21940
 5034.50000   47.81130   86.41630   22.25810    0.03590    7.85990   -0.07560   -0.00550    4.01560    2.84050   71.20740   72.25060   94.70880
 5035.00000   48.02650   87.04310   25.34240    0.03610    7.86220   -0.08020   -0.00560    3.99600    2.84600   62.13880   86.70790   72.46240
 5035.50000   48.04020   86.46390   29.47650    0.03540    7.86440   -0.08410   -0.00560    3.96720    2.85150  100.54880  169.92930   72.29740
 5036.00000   47.89900   86.59700   36.36270    0.03110    7.86660   -0.08490   -0.00710    3.95520    2.85380  169.07860  178.47760   90.62360
 5036.50000   47.74480   86.48230   36.75290    0.02830    7.86880   -0.08320   -0.00820    3.92070    2.85300  171.57250  194.11640  155.46690
 5037.00000   47.60350   85.30270   31.21160    0.02620    7.87100   -0.08440   -0.01090    3.85550    2.85560  213.67780  252.88600  162.96300
 5037.50000   47.28190   84.81560   25.49580    0.02310    7.87330   -0.09040   -0.00050    3.82440    2.86510  307.77970  402.36060  269.08020
 5038.00000   47.43780   85.19910   23.40950    0.01990    7.87550   -0.09330    0.00690    3.80770    2.86940  497.77070  616.01100  414.29850
 5038.50000   47.64930   85.62550   23.88990    0.01940    7.87770   -0.09390    0.00530    3.80500    2.86830  527.33310  518.17600  486.65510
 5039.00000   48.21190   86.42260   30.02370    0.03000    7.87970   -0.08190   -0.00190    3.82840    2.84860  139.65260  153.72440   94.24950
 5039.50000   48.93310   87.61090   36.61760    0.04490    7.87970   -0.07020   -0.00750    3.82910    2.82050   43.58490   66.45010   39.86360
 5040.00000   49.39100   88.85310   40.21850    0.05310    7.87970   -0.05350   -0.00450    3.82310    2.79460   51.11550   65.10700   38.24350
 5040.50000   49.76620   89.55140   40.72870    0.05230    7.87990   -0.05000   -0.00290    3.80070    2.79940   82.06990  109.27240   42.12360
 5041.00000   49.92020   89.90980   39.47860    0.04310    7.87990   -0.05950   -0.00150    3.79550    2.82440   65.81260   70.84580   62.54660
 5041.50000   50.01430   91.50400   38.96080    0.03210    7.87990   -0.07300   -0.00050    3.84610    2.84370   80.96230  109.05440   68.01180
 5042.00000   49.68450   92.15340   29.86050    0.01350    7.87980   -0.10210   -0.00120    4.30080    2.89700  271.59760  556.10680  130.78340
 5042.50000   49.60320   92.31080   18.41140   -0.00550    7.87980   -0.13110   -0.00180    4.78070    2.94670 2203.29740 10496.03320  365.97050
 5043.00000   49.77690   92.17480    6.95320   -0.01730    7.87980   -0.19580   -0.00290    5.15690    2.99160 12253.35250 11787.80860 1932.24840
 5043.50000   50.13060   92.41800    3.51500   -0.02050    7.87980   -0.20090   -0.00540    5.23730    3.04790 4700.18410 7664.36520 2001.41320
 5044.00000   50.03300   92.54310    5.89320   -0.02040    7.87980   -0.19060   -0.00800    5.01350    3.04770 1490.47880  832.24260 2005.42210
 5044.50000   49.68600   92.45720   10.91870   -0.01560    7.87980   -0.18150   -0.00970    4.71920    3.02720 1205.13070  998.55830 2008.38150
 5045.00000   49.01690   90.58050   16.93250   -0.00850    7.87990   -0.16890   -0.00420    4.40530    3.00670 1801.96310 4684.97710 2011.34510
 5045.50000   48.22520   89.62720   22.94620   -0.00100    7.87990   -0.15840   -0.00540    4.23250    2.96410 6181.76070 6885.91160 2005.94070
 5046.00000   47.41930   88.68970   27.17090    0.00650    7.87990   -0.13240   -0.00660    4.06700    2.91860 1159.36690  704.96330  625.06490
 5046.50000   46.76630   85.36340   29.52540    0.01260    7.87990   -0.09090   -0.00590    4.00810    2.85640  441.90850  391.57260  582.49240
