~Version ---------------------------------------------------
VERS.   2.0 : CWLS log ASCII Standard -VERSION 2.0
WRAP.    NO : One line per depth step
DLM . SPACE : Column Data Section Delimiter
~Well ------------------------------------------------------
STRT .F                 147.0 : START DEPTH
STOP .F                5497.0 : STOP DEPTH
STEP .F                   0.5 : STEP
NULL .               -9999.25 : NULL VALUE
COMP .                        : COMPANY
WELL .                        : WELL
FLD  .                        : FIELD
LOC  .                        : LOCATION
PROV .                        : PROVINCE
CNTY .                        : COUNTY
STAT .                        : STATE
CTRY .                        : COUNTRY
SRVC .                        : SERVICE COMPANY
DATE .                        : DATE
UWI  .                        : UNIQUE WELL ID
API  .                        : API NUMBER
SLAT .WGS84   3.3743785802031 : SURFACE LATITUDE
SLON .WGS84 7.599731958597999 : SURFACE LONGITUDE
DATUM.F                   nan : DEPTH DATUM ELEV
~Curve Information -----------------------------------------
DEPT   .F     : 1 MEASURED DEPTH
DTCO   .US/F  : DELTA-T COMPRESSIONAL
DTSM   .US/F  : DELTA-T SHEAR
GRD    .GAPI  : GAMMA RAY FROM DENSITY LOG
TNPH_LS.DEC   : THERMAL NEUTRON POROSITY [LIMESTONE]
CALD   .IN    : CALIPER FROM DENSITY LOG
DPHZ_LS.DEC   : HGRD STANDARD RESOLUTION DENSITY POROSITY
HDRA   .G/C3  : HRDD SPINE AND RIBS DENSITY CORRECTION
PEFZ   .B/E   : HRDD STANDARD RESOLUTION FORMATION PHOTOELECTRIC FACTOR
RHOZ   .G/C3  : HRDD STANDARD RESOLUTION FORMATION DENSITY
RLA3   .OHMM  : APPARENT RESISTIVITY FROM COMPUTED FOCUSING MODE 3
RLA5   .OHMM  : APPARENT RESISTIVITY FROM COMPUTED FOCUSING MODE 5
RXOZ   .OHMM  : INVADED FORMATION RESISTIVITY FILTERED AT 18 INCHES
~Params ----------------------------------------------------
~Other -----------------------------------------------------
~ASCII -----------------------------------------------------
# ...
 4767.00000   48.51080   89.09550   21.34730    0.01210    7.83550   -0.11570   -0.00700    4.08890    2.90160  695.08120  400.24350  779.51720
 4767.50000   48.76460   88.91650   22.88550    0.01990    7.83290   -0.10100   -0.00700    3.93320    2.87450  193.07640   87.39870  270.00090
 4768.00000   50.14600   92.45400   28.62140    0.03090    7.83010   -0.08630   -0.00650    3.68680    2.84790   49.90020   32.38410   46.22270
 4768.50000   51.75700   95.82430   34.95080    0.05070    7.82720   -0.06410   -0.00590    3.59050    2.81700   39.64820   28.25540   26.60520
 4769.00000   53.26100   96.31750   40.18960    0.06300    7.82440   -0.04660   -0.00520    3.59360    2.78560   26.17510   22.58610   18.18870
 4769.50000   53.98520   96.89340   42.80470    0.06210    7.82150   -0.04330    0.00820    3.77820    2.78410   18.64970   16.89140   14.65550
 4770.00000   54.37120   97.40160   35.89960    0.04600    7.83080   -0.06470    0.02610    4.12750    2.80990   29.64540   29.03540   15.73830
 4770.50000   53.89850   97.31670   22.66340    0.02280    7.88410   -0.09310    0.02090    4.59750    2.87490   76.59410  162.29590   27.29050
 4771.00000   53.28450   96.00020   11.31840   -0.00650    7.93750   -0.11960    0.01460    4.92370    2.91290  436.66050  717.11760   98.06650
 4771.50000   52.40170   95.59590    5.83520   -0.01740    7.99080   -0.14020    0.00840    4.99830    2.94940 2861.18120 4267.16890 1542.32340
 4772.00000   51.67500   95.61760    3.73040   -0.01850    8.00980   -0.16150    0.00220    5.01890    2.97870 4372.55130 8305.20510 2039.11880
 4772.50000   51.02760   96.01480    3.57690   -0.01950    8.01360   -0.17280   -0.00170    5.01630    2.99520 2259.69090 1247.14780 2004.00350
 4773.00000   51.02270   96.39990    3.63290   -0.01830    7.99240   -0.16830   -0.00300    4.99850    2.99760  146.83060  192.61150  366.80020
 4773.50000   51.20720   95.92070    4.15360   -0.01600    7.95290   -0.16140   -0.00420    4.97160    2.98890  275.60820  435.54820  363.78250
 4774.00000   50.86830   94.74600    6.76200   -0.01230    7.91340   -0.15510   -0.00550    4.84970    2.97800  435.78970  715.84630  363.78250
 4774.50000   50.42570   93.35710    8.93900   -0.00840    7.88250   -0.15230   -0.00670    4.55050    2.97160  150.20860  186.63460  209.21840
 4775.00000   49.63690   91.96050    9.86960   -0.00130    7.87690   -0.14900   -0.00790    4.26890    2.96780  190.69960  290.25730  204.46770
 4775.50000   48.87510   90.97590   10.20370    0.00330    7.87140   -0.13930   -0.00820    4.14410    2.95060  532.04610  694.52120  209.42340
 4776.00000   48.34390   89.65240   11.97920    0.00750    7.85670   -0.12970   -0.00500    4.12470    2.93330  688.98060  176.74130  502.91320
 4776.50000   48.26950   88.68870   14.63390    0.01220    7.83920   -0.12320   -0.00230    4.12070    2.92330   90.99940  135.53730  206.32110
 4777.00000   48.50940   88.63290   17.40990    0.02040    7.83320   -0.11810   -0.00260    4.12050    2.91120   58.42470   80.79250   99.78710
 4777.50000   48.93300   90.16730   19.91740    0.02830    7.83100   -0.10510   -0.00290    4.05830    2.88900   41.57220   44.69760   72.02050
 4778.00000   49.21600   92.26430   22.39600    0.03540    7.82890   -0.08490   -0.00330    3.97380    2.85320   34.07120   39.42410   37.96990
 4778.50000   49.41320   92.21680   24.40050    0.04090    7.82680   -0.07150   -0.00360    3.86820    2.83710   30.53750   44.17810   30.74860
 4779.00000   49.48950   92.06580   23.78350    0.04490    7.82780   -0.07550   -0.00410    3.75060    2.83590   26.75650   45.94620   25.90890
 4779.50000   50.02470   93.49480   21.19100    0.04870    7.83390   -0.07270   -0.00490    3.74330    2.83370   22.70050   32.82960   20.73300
 4780.00000   51.58070   95.64570   23.93270    0.06110    7.84000   -0.06300   -0.00580    3.66840    2.81920   15.21500   20.14620   13.57390
 4780.50000   53.18420   96.28170   32.61110    0.07550    7.84610   -0.05320   -0.00670    3.53890    2.79850    9.92840   10.21930    8.88690
 4781.00000   54.91320   95.94070   46.92610    0.09290    7.85210   -0.03790   -0.00750    3.42870    2.78100    8.19770    8.41420    6.69500
 4781.50000   55.68000   97.06460   53.85730    0.10430    7.85810   -0.02990   -0.00830    3.36530    2.76350    8.95690   10.43690    6.57110
 4782.00000   55.32310   97.49220   51.22220    0.09620    7.86390   -0.02740   -0.00780    3.41080    2.75610   12.69930   17.92820    8.65590
 4782.50000   54.10200   97.13620   44.74120    0.07240    7.86990   -0.04450   -0.00680    3.53730    2.75790   26.32430   51.40290   16.01930
 4783.00000   52.02090   93.92130   37.09210    0.05120    7.87810   -0.06670   -0.00570    3.67370    2.82300   81.52760  124.45660   33.59300
 4783.50000   49.99170   92.03580   32.27520    0.03100    7.88430   -0.08900   -0.00470    3.78020    2.86800  137.49630  155.96230  110.37080
 4784.00000   48.13070   89.23180   28.61580    0.01920    7.88330   -0.10180   -0.00400    3.83840    2.88780  187.20230  481.84580  152.55170
 4784.50000   47.46480   86.58160   26.46810    0.01410    7.88230   -0.11460   -0.00250    3.90610    2.90570  320.15210  839.13200  252.18880
 4785.00000   47.24470   85.65580   25.50050    0.01190    7.88120   -0.11800   -0.00040    3.96630    2.91430  904.18710 1190.50450  635.48750
 4785.50000   47.59730   85.88310   26.69040    0.01190    7.88020   -0.11980    0.00170    3.96240    2.91540  543.79680  559.00480  368.26540
 4786.00000   48.27660   86.69970   31.67920    0.02000    7.88110   -0.11780    0.00370    3.96150    2.91390  201.51140  221.70370  126.38590
 4786.50000   48.95390   88.74590   36.61180    0.02970    7.88590   -0.11370    0.00550    3.91930    2.89960   77.97670   89.59930   66.46030
 4787.00000   49.60970   89.95420   39.69210    0.03760    7.89060   -0.09860    0.00270    3.84760    2.88240   48.23930   42.97430   48.90160
 4787.50000   50.16810   89.45830   35.45270    0.03790    7.89540   -0.09340   -0.00030    3.82390    2.87130   49.25430   44.85930   49.26450
 4788.00000   50.40760   89.77180   26.21770    0.02230    7.90020   -0.10470   -0.00330    3.95690    2.87560  115.62510  371.96170   62.66890
 4788.50000   50.39350   90.36920   18.97430    0.00030    7.90500   -0.11600   -0.00630    4.28660    2.91910 1190.60390 15596.19530  235.29490
 4789.00000   50.08440   90.59800   14.74040   -0.01190    7.90650   -0.13130   -0.00690    4.62130    2.94420 8409.49900 30820.42770 1006.11940
 4789.50000   49.69840   90.71540   14.70310   -0.01730    7.90400   -0.14540   -0.00360    4.83610    2.96540 30699.01560 15788.13670 1994.20970
 4790.00000   49.53200   90.06800   15.87200   -0.01520    7.90160   -0.15440   -0.00040    4.87420    2.98030 7845.59080 7140.70610 1994.27760
 4790.50000   49.36730   89.62480   16.23460   -0.01280    7.89980   -0.15700    0.00180    4.79770    2.97570 2246.41380 2742.38530 1994.34440
 4791.00000   49.29170   89.57850   14.66880   -0.01080    7.90190   -0.15070    0.00220    4.70040    2.96800 5361.21580 10549.42190 1994.41220
 4791.50000   48.47870   89.65810   13.94480   -0.00890    7.90410   -0.14810   -0.00070    4.61180    2.96290 9236.43550 14682.08110 1994.47910
 4792.00000   47.52500   89.21000   15.13370   -0.00690    7.90640   -0.14920   -0.00370    4.52320    2.97190 6248.99220 8214.07030 1994.54590
 4792.50000   46.75030   88.86040   17.08740   -0.00240    7.90850   -0.15610   -0.00550    4.42930    2.97330 5617.91160 7011.36080 1994.61380
 4793.00000   46.34290   88.39630   18.47150    0.00220    7.91020   -0.15090   -0.00420    4.16740    2.96350 5617.91160 6197.37740 1994.68050
 4793.50000   46.23690   87.68470   21.17050    0.00750    7.91090   -0.13720   -0.00060    3.98740    2.94390 3348.17140 1574.53520 1994.74840
 4794.00000   46.73310   87.94440   25.29470    0.01370    7.91150   -0.12270    0.00320    3.82310    2.89840  285.52550  162.18970  128.30900
 4794.50000   48.03020   92.19640   29.97530    0.02720    7.91220   -0.07950    0.00500    3.75980    2.84330   89.81370   62.84370   37.01190
