~Version ---------------------------------------------------
VERS.   2.0 : CWLS log ASCII Standard -VERSION 2.0
WRAP.    NO : One line per depth step
DLM . SPACE : Column Data Section Delimiter
~Well ------------------------------------------------------
STRT .F                 147.0 : START DEPTH
STOP .F                5497.0 : STOP DEPTH
STEP .F                   0.5 : STEP
NULL .               -9999.25 : NULL VALUE
COMP .                        : COMPANY
WELL .                        : WELL
FLD  .                        : FIELD
LOC  .                        : LOCATION
PROV .                        : PROVINCE
CNTY .                        : COUNTY
STAT .                        : STATE
CTRY .                        : COUNTRY
SRVC .                        : SERVICE COMPANY
DATE .                        : DATE
UWI  .                        : UNIQUE WELL ID
API  .                        : API NUMBER
SLAT .WGS84   3.3743785802031 : SURFACE LATITUDE
SLON .WGS84 7.599731958597999 : SURFACE LONGITUDE
DATUM.F                   nan : DEPTH DATUM ELEV
~Curve Information -----------------------------------------
DEPT   .F     : 1 MEASURED DEPTH
DTCO   .US/F  : DELTA-T COMPRESSIONAL
DTSM   .US/F  : DELTA-T SHEAR
GRD    .GAPI  : GAMMA RAY FROM DENSITY LOG
TNPH_LS.DEC   : THERMAL NEUTRON POROSITY [LIMESTONE]
CALD   .IN    : CALIPER FROM DENSITY LOG
DPHZ_LS.DEC   : HGRD STANDARD RESOLUTION DENSITY POROSITY
HDRA   .G/C3  : HRDD SPINE AND RIBS DENSITY CORRECTION
PEFZ   .B/E   : HRDD STANDARD RESOLUTION FORMATION PHOTOELECTRIC FACTOR
RHOZ   .G/C3  : HRDD STANDARD RESOLUTION FORMATION DENSITY
RLA3   .OHMM  : APPARENT RESISTIVITY FROM COMPUTED FOCUSING MODE 3
RLA5   .OHMM  : APPARENT RESISTIVITY FROM COMPUTED FOCUSING MODE 5
RXOZ   .OHMM  : INVADED FORMATION RESISTIVITY FILTERED AT 18 INCHES
~Params ----------------------------------------------------
~Other -----------------------------------------------------
~ASCII -----------------------------------------------------
# ...
 5383.00000   54.43140   94.90370   43.17520    0.13750    7.79220    0.02100   -0.00240    3.15850    2.67680   32.19080   21.65490   50.84880
 5383.50000   55.01360   96.41680   46.94330    0.15580    7.79170    0.04550   -0.00660    3.14130    2.63830   31.90110   25.79850   39.96990
 5384.00000   55.90360   98.79200   41.41990    0.16680    7.78440    0.07260   -0.00690    3.11620    2.58380   46.68660   42.25680   52.05510
 5384.50000   56.74920   99.45310   30.17350    0.16670    7.77710    0.08910   -0.00480    3.11790    2.55870   61.40860   57.91700   66.25720
 5385.00000   57.26650   99.53580   23.05470    0.15850    7.78740    0.08710   -0.00270    3.18870    2.55800   69.96790   67.99680   82.89200
 5385.50000   57.56920   99.60500   18.32070    0.15140    7.81560    0.07540   -0.00060    3.31950    2.60340   58.99800   54.08590   82.33550
 5386.00000   57.62480  101.03090   18.28670    0.14820    7.85320    0.05240    0.00230    3.46600    2.62750   48.38070   48.96490   59.32210
 5386.50000   57.63110  102.02820   20.90810    0.15270    7.89080    0.04080    0.00520    3.54830    2.64030   40.84980   44.13620   46.53540
 5387.00000   57.21960  101.85690   28.54530    0.15500    7.89320    0.03710    0.00660    3.47390    2.64760   32.23980   36.54040   45.03220
 5387.50000   56.72270  100.58690   36.74160    0.14240    7.84330    0.03280    0.00240    3.36860    2.65320   27.69750   28.82090   48.44820
 5388.00000   56.23880   99.42490   37.64490    0.12870    7.80730    0.02210    0.00050    3.26010    2.67160   27.77680   28.10190   46.18040
 5388.50000   55.74950   98.90320   33.97940    0.12310    7.77510    0.01480   -0.00150    3.12970    2.68550   33.08710   34.06080   39.55790
 5389.00000   55.31360   98.88950   31.36320    0.12890    7.77180    0.01810   -0.00350    3.05630    2.68180   39.64930   35.74290   41.32580
 5389.50000   55.11940   97.52770   33.15020    0.13450    7.77160    0.02900   -0.00490    3.00180    2.66780   22.36280   24.56930   37.93280
 5390.00000   55.08370   97.80170   33.68400    0.13910    7.77650    0.04090   -0.00640    3.03250    2.63710   23.78540   26.15120   38.41590
 5390.50000   55.06650   98.26940   29.45180    0.13950    7.78100    0.05430   -0.00790    3.06070    2.61570   27.48900   29.03990   40.86080
 5391.00000   55.04940   98.39640   24.80530    0.13760    7.78550    0.04890   -0.00930    3.10030    2.62480   27.08820   25.84100   47.97610
 5391.50000   54.94570   98.29320   23.54830    0.13390    7.79000    0.03760   -0.00680    3.10060    2.64330   26.30970   27.22540   48.92420
 5392.00000   54.81060   97.83980   23.74080    0.13310    7.79400    0.03300   -0.00380    3.14950    2.65120   26.45700   27.14480   47.29150
 5392.50000   54.67540   97.32870   24.31480    0.13200    7.79850    0.03030   -0.00070    3.19850    2.65780   26.64870   27.06430   46.10480
 5393.00000   54.54450   97.18140   25.30460    0.13190    7.80500    0.02580   -0.00070    3.21940    2.66450   25.75650   25.29090   43.35510
 5393.50000   54.40050   97.17940   26.32450    0.13350    7.81300    0.02550   -0.00070    3.15690    2.66800   24.88890   24.63720   39.76970
 5394.00000   54.18680   97.14050   27.45540    0.13510    7.81610    0.02640   -0.00140    3.07360    2.66540   23.65480   23.29730   37.77200
 5394.50000   53.99700   97.07100   28.32240    0.13610    7.80290    0.02980   -0.00360    3.02230    2.65990   20.76590   20.75930   37.81450
 5395.00000   53.59340   96.69780   27.41830    0.13470    7.78960    0.02700   -0.00580    3.00640    2.66300   20.23580   21.75760   38.43700
 5395.50000   53.36980   96.09870   26.71410    0.13340    7.77630    0.02220   -0.00810    3.00420    2.66810   19.20350   20.19580   33.84320
 5396.00000   52.95850   95.69330   25.43540    0.13250    7.76300    0.01120   -0.00390    3.00190    2.68700   19.13610   20.68740   30.30010
 5396.50000   52.82680   94.94690   25.73370    0.13180    7.74970    0.01180   -0.00240    2.99960    2.69100   20.17990   22.14780   27.34160
 5397.00000   53.18810   94.23580   26.02430    0.13090    7.75250    0.01620   -0.00100    2.99740    2.68540   22.45430   24.20250   25.33360
 5397.50000   53.06620   94.07590   24.55590    0.12790    7.75600    0.01690   -0.00070    2.99510    2.68210   24.04100   27.00440   25.76900
 5398.00000   52.88610   93.89510   23.37530    0.11770    7.75950    0.01230   -0.00060    2.99310    2.68590   28.16010   35.53620   30.09230
 5398.50000   52.65130   93.83420   22.33840    0.09910    7.76300    0.00780   -0.00060    2.99310    2.69550   33.37070   43.40800   36.58030
 5399.00000   52.39550   93.42780   21.32500    0.08080    7.76640    0.00050   -0.00060    2.99310    2.70180   38.68640   50.96810   40.54220
 5399.50000   52.06230   93.02930   18.36710    0.06480    7.75230   -0.00980    0.00360    2.99970    2.71580   55.74500   75.20560   50.54700
 5400.00000   52.30450   92.77990   15.35200    0.06150    7.73810   -0.01310    0.00510    3.00760    2.73000   81.55340   89.88570   65.93690
 5400.50000   52.47630   92.59970   13.08630    0.07600    7.74510   -0.01190    0.00660    3.03180    2.73040   54.26010   63.74960   61.06100
 5401.00000   52.53880   93.59630   12.76540    0.09280    7.75100   -0.00070    0.00700    3.09910    2.72210   39.97850   44.09440   48.47930
 5401.50000   52.99390   94.07320   12.72530    0.10910    7.73630    0.00100    0.01060    3.16640    2.71200   33.21770   34.33020   39.23020
 5402.00000   53.22870   94.27770   13.90340    0.11710    7.72100    0.00350    0.01370    3.20650    2.70470   34.07030   36.03530   38.79350
 5402.50000   53.32920   94.52370   15.30400    0.11310    7.70930   -0.00100    0.01190    3.21970    2.70590   39.49210   42.79800   41.27520
 5403.00000   53.25770   94.60110   19.77820    0.10750    7.73060   -0.00350    0.00820    3.20220    2.71520   43.22380   46.50910   40.86780
 5403.50000   53.01480   94.53170   23.57570    0.10200    7.78410   -0.00350    0.00080    3.17480    2.71670   40.24610   41.95340   37.54910
 5404.00000   52.90280   94.21540   30.14200    0.10140    7.79940    0.00170   -0.00370    3.14730    2.71420   40.46960   41.53050   38.35380
 5404.50000   52.88540   93.71890   31.42200    0.10740    7.79680    0.01130   -0.00250    3.14000    2.69280   45.46600   43.84960   44.91940
 5405.00000   53.08230   93.78630   32.60420    0.11210    7.78700    0.00810   -0.00120    3.11310    2.69200   49.08450   46.58340   58.10830
 5405.50000   53.32090   94.45090   33.92900    0.11680    7.77730    0.00780    0.00210    3.06850    2.69670   65.07830   84.29360   73.61580
 5406.00000   53.73810   95.03830   35.67170    0.12020    7.76760    0.00610    0.00030    3.02320    2.69840   70.85160   42.73420   74.03400
 5406.50000   53.78750   95.75940   35.00120    0.12330    7.75780    0.01540   -0.00280    3.00810    2.69210   64.60590   42.57610   65.52340
 5407.00000   53.99390   96.21980   32.11140    0.12640    7.74810    0.01790   -0.00440    3.00770    2.67980   59.47050   48.63320   67.65820
 5407.50000   53.99810   96.51080   30.00600    0.12880    7.74390    0.02180   -0.00440    3.01600    2.67720   66.97480   50.00370   69.53790
 5408.00000   53.85540   96.84270   32.19000    0.12880    7.74900    0.02460   -0.00430    3.03520    2.67150   72.55310   52.80380   66.94480
 5408.50000   53.79370   97.22140   42.47250    0.12730    7.75400    0.01990   -0.00430    3.03500    2.67220   73.20470   73.68880   66.52650
 5409.00000   54.06470   97.25740   47.77820    0.12520    7.75900    0.01450   -0.00070    3.02490    2.68050  125.82240  104.76970   80.86880
 5409.50000   54.43990   96.92530   48.77370    0.12310    7.76400    0.01460   -0.00060    3.01940    2.68480   75.39110  105.31070   68.08260
 5410.00000   54.81520   96.90220   38.85730    0.12610    7.76910    0.01840   -0.00060    3.04550    2.68080   54.33040   59.44590   58.51430
 5410.50000   54.97750   96.94250   29.70470    0.13030    7.77130    0.01740   -0.00090    3.09230    2.67770   53.39190   46.59260   64.52000
