~Version ---------------------------------------------------
VERS.   2.0 : CWLS log ASCII Standard -VERSION 2.0
WRAP.    NO : One line per depth step
DLM . SPACE : Column Data Section Delimiter
~Well ------------------------------------------------------
STRT .FT                8880.0 : START DEPTH
STOP .FT               11092.0 : STOP DEPTH
STEP .FT                   0.5 : STEP
NULL .                -9999.25 : NULL VALUE
COMP .                         : COMPANY
WELL .                         : WELL
FLD  .                         : FIELD
LOC  .                         : LOCATION
PROV .                         : PROVINCE
CNTY .                         : COUNTY
STAT .                         : STATE
CTRY .                         : COUNTRY
SRVC .                         : SERVICE COMPANY
DATE .                         : DATE
UWI  .                         : UNIQUE WELL ID
API  .                         : API NUMBER
SLAT .WGS84  6.408765936937996 : SURFACE LATITUDE
SLON .WGS84 3.6245272197060956 : SURFACE LONGITUDE
DATUM.F                    nan : DEPTH DATUM ELEV
~Curve Information -----------------------------------------
DEPT   .FT    : 
AT10   .OHMM  : ARRAY INDUCTION TWO FOOT RESISTIVITY A10
AT30   .OHMM  : ARRAY INDUCTION TWO FOOT RESISTIVITY A30
AT90   .OHMM  : ARRAY INDUCTION TWO FOOT RESISTIVITY A90
CALR   .IN    : CALIPER FROM RESISTIVITY LOG
DPHZ_LS.DEC   : HGRD STANDARD RESOLUTION DENSITY POROSITY
DTSM   .US/F  : DELTA-T SHEAR
ECGRS  .GAPI  : ENVIRONMENTALLY CORRECTED GAMMA RAY FROM SONIC LOG
PEFZ   .B/E   : HRDD STANDARD RESOLUTION FORMATION PHOTOELECTRIC FACTOR
SPR    .MV    : SPONTANEOUS POTENTIAL FROM RESISTIVITY LOG
TNPH_LS.DEC   : THERMAL NEUTRON POROSITY [LIMESTONE]
~Params ----------------------------------------------------
~Other -----------------------------------------------------
~ASCII -----------------------------------------------------
# ...
 9507.00000    8.87910  793.54100  781.58540    8.90110    0.03590  119.86400   48.79750    4.08040  -19.82450    0.16270
 9507.50000    6.99120  765.33500  755.77390    8.89760    0.04670  118.83630   45.56630    4.36390  -19.58050    0.15210
 9508.00000    7.30120  777.15460  767.59360    8.89230    0.04970  116.90770   40.77880    4.63960  -19.75440    0.13840
 9508.50000    9.36390  819.95610  810.39510    8.86600    0.04260  114.97240   34.94500    4.91530  -19.58050    0.12580
 9509.00000   15.01140  893.54420  883.98320    8.81920    0.03420  113.23870   29.01820    4.99050  -19.62380    0.11400
 9509.50000   31.92220 1010.76410 1001.20310    8.80170    0.02350  112.26880   24.46220    5.03530  -19.66720    0.08370
 9510.00000   48.83300 1127.98400 1118.42300    8.80680    0.01900  111.38100   22.57820    5.04280  -19.71060    0.04990
 9510.50000   53.34640 1168.27840 1158.79430    8.79090    0.00630  110.29340   24.13700    5.05020  -19.58050    0.03220
 9511.00000   42.09190 1130.67070 1091.63700    8.79850    0.00020  109.20580   28.94830    5.05770  -19.76360    0.02300
 9511.50000   39.84100 1127.98400 1121.18660    8.79200    0.00210  109.51230   34.13000    5.06510  -19.87220    0.02410
 9512.00000   31.86810 1062.78050 1049.89660    8.75410    0.00780  111.43060   35.96850    5.07110  -19.86000    0.02960
 9512.50000   21.28350  984.63410  978.60660    8.77840    0.01360  112.05630   35.37200    5.07110  -19.84700    0.04480
 9513.00000   17.04960  953.37560  941.87680    8.80270    0.01940  112.46470   33.12040    5.02680  -19.86870    0.06860
 9513.50000   22.86250  996.65450  972.09750    8.75520    0.02020  113.17180   32.39730    4.98250  -19.79930    0.07380
 9514.00000   24.92550 1033.96420 1002.31830    8.73530    0.01890  114.03490   32.55310    4.93820  -19.88460    0.06880
 9514.50000   22.06420 1012.63190 1001.19900    8.72500    0.01490  114.13270   37.27000    4.89390  -19.97000    0.06420
 9515.00000   18.86960  977.07810  965.38180    8.73290    0.01600  113.12090   41.99860    4.84960  -20.05540    0.07120
 9515.50000   15.67510  941.52430  929.56460    8.74090    0.01920  112.29770   44.77490    4.76700  -20.14080    0.07970
 9516.00000   13.11950  913.08120  893.74740    8.74890    0.01980  112.22880   41.52950    4.69840  -20.22610    0.08680
 9516.50000   15.38120  925.84070  892.84230    8.75360    0.01880  111.74020   36.77780    4.65960  -20.31150    0.09180
 9517.00000   18.04420  951.02470  926.39680    8.75360    0.01180  111.28950   33.70740    4.68360  -20.58910    0.07730
 9517.50000   20.70720  976.20860  959.95120    8.75360    0.00980  111.04080   32.80340    4.70760  -20.95480    0.06490
 9518.00000   22.88370  997.25120  987.69020    8.75360    0.00950  110.81970   32.37840    4.73170  -20.89170    0.05710
 9518.50000   24.33050 1001.72840  992.16730    8.75360    0.01160  109.59570   31.82390    4.75570  -20.99260    0.05230
 9519.00000   24.31780 1006.20560  996.64450    8.75360    0.01270  109.35100   30.98920    4.78250  -21.18730    0.05140
 9519.50000   25.45270 1040.00840 1016.42130    8.75360    0.01360  109.92090   32.74260    4.82270  -21.59670    0.04950
 9520.00000   23.13460 1014.26690  988.63940    8.75360    0.01210  109.17410   35.98910    4.85330  -21.65470    0.04750
 9520.50000   17.37940  954.57520  942.33640    8.75360    0.00960  105.57370   37.82590    4.90330  -21.79690    0.04810
 9521.00000   14.45350  915.77400  906.21280    8.75360    0.00960  102.23650   33.31240    4.81880  -21.99930    0.06010
 9521.50000   12.67860  888.91100  879.34990    8.75360    0.01190   98.36920   26.28930    4.73150  -22.20170    0.06880
 9522.00000   27.08140  933.57060  924.00950    8.75360    0.01170   97.29040   19.68370    4.77830  -22.40410    0.07280
 9522.50000   50.55810 1001.73600  992.17490    8.75360    0.00500   96.21160   18.48790    5.00400  -22.60650    0.05340
 9523.00000   74.03470 1133.36500 1118.65020    8.71040    0.00200   95.71290   19.32500    5.01400  -23.11080    0.03250
 9523.50000   97.51130 1262.30810 1242.43960    8.69310   -0.00070   95.40510   18.64800    5.08350  -23.49310    0.02170
 9524.00000  120.98790 1391.25110 1341.47110    8.69310   -0.00280   93.94350   18.60290    5.10460  -23.68080    0.01100
 9524.50000  141.35120 1376.74510 1331.62170    8.69310   -0.00420   92.66230   20.04000    5.09120  -23.86840    0.00910
 9525.00000  229.97850 1367.07430 1328.04090    8.69310   -0.00190   91.95670   23.25040    5.11140  -24.08090    0.00710
 9525.50000  334.49070 1404.29890 1356.69530    8.72320   -0.00170   91.59280   25.16700    5.13650  -24.24160    0.00540
 9526.00000  464.53150 1434.23350 1392.51320    8.72290   -0.00100   91.58290   24.79750    5.06100  -24.30170    0.00350
 9526.50000  681.05920 1461.09660 1428.33120    8.72260   -0.00010   91.89380   24.27540    5.03080  -24.36190    0.00270
 9527.00000 1084.09490 1495.19210 1464.14920    8.72230   -0.00010   91.93990   27.33600    5.02330  -24.42200    0.00390
 9527.50000 1466.49580 1529.28760 1499.96720    8.72200    0.00050   91.98610   31.26600    5.01380  -24.48220    0.00410
 9528.00000 1740.71820 1549.74490 1521.45800    8.72170    0.00050   91.92700   34.70140    5.00440  -24.54230    0.00410
 9528.50000 1914.86360 1541.68600 1513.06160    8.72140    0.00070   92.56330   35.31380    5.00990  -24.42210    0.00340
 9529.00000 1937.66900 1538.99840 1508.02380    8.72110    0.00270   93.06200   35.31380    5.00820  -24.42210    0.00500
 9529.50000 1806.37900 1530.94140 1508.02380    8.72080    0.00460   93.40060   31.96230    4.97480  -24.42210    0.00570
 9530.00000 1579.90520 1525.56810 1499.96480    8.72050    0.00660   92.97190   29.24880    4.91920  -24.42210    0.00800
 9530.50000 1263.48990 1517.51220 1483.84990    8.71330    0.00850   92.98830   25.86800    4.85900  -24.42210    0.01060
 9531.00000  944.93480 1477.21740 1456.98670    8.71330    0.01010   92.76240   22.83310    4.83480  -24.50270    0.01320
 9531.50000  683.43670 1466.47080 1435.49620    8.71330    0.01090   92.79770   20.91280    4.87580  -24.80640    0.01420
 9532.00000  529.98070 1435.04130 1435.49620    8.71330    0.01090   92.78150   18.73500    4.95470  -24.47450    0.01370
 9532.50000  389.15870 1396.09030 1411.32190    8.72030    0.01090   92.50940   17.94060    5.01330  -24.80080    0.00830
 9533.00000  373.23250 1372.45090 1400.57660    8.71290    0.00890   92.23730   18.32420    5.00750  -24.71980    0.00350
 9533.50000  557.51440 1429.69150 1422.48030    8.71070    0.00690   92.05660   18.97850    5.00720  -24.60230    0.00400
 9534.00000  773.52090 1507.18150 1477.23930    8.70850    0.00490   92.01380   19.32780    5.12810  -24.48470    0.00460
 9534.50000 1008.50970 1584.67150 1531.99840    8.70640    0.00290   91.45540   17.92980    5.20580  -24.36710    0.00400
 9535.00000 1335.92070 1550.64390 1481.16620    8.70420    0.00090   91.12920   17.17760    5.20690  -23.99070    0.00390
 9535.50000 1582.83660 1539.00470 1489.22830    8.70200    0.00150   91.13000   19.51500    5.23030  -23.85160    0.00300
 9536.00000 1875.38520 1552.43890 1493.25580    8.69990    0.00170   91.40510   25.90500    5.24560  -23.71250    0.00300
 9536.50000 1942.11740 1599.18020 1561.75910    8.69770   -0.00030   92.37740   33.94000    5.24560  -23.57340    0.00410
 9537.00000 1944.22040 1627.65340 1542.61650    8.69560   -0.00210   93.14420   37.35070    5.14580  -23.43420    0.00470
 9537.50000 1874.51660 1526.91620 1488.05100    8.69340   -0.00360   94.02750   36.44490    4.98550  -23.29510    0.00500
 9538.00000 1404.11430 1465.80290 1433.48540    8.69120    0.00430   95.47040   31.05780    4.77200  -23.21160    0.00550
 9538.50000  903.02540 1414.59570 1382.77180    8.68910    0.01310   97.58060   27.72030    4.58670  -23.07710    0.00840
 9539.00000  501.45510 1363.38850 1347.46620    8.68690    0.02180  101.18720   27.04090    4.58640  -22.80810    0.01110
 9539.50000  279.03880 1316.18400 1301.79950    8.68480    0.02420  104.43190   30.31640    4.74290  -22.51210    0.01480
