~Version ---------------------------------------------------
VERS.   2.0 : CWLS log ASCII Standard -VERSION 2.0
WRAP.    NO : One line per depth step
DLM . SPACE : Column Data Section Delimiter
~Well ------------------------------------------------------
STRT .FT                8880.0 : START DEPTH
STOP .FT               11092.0 : STOP DEPTH
STEP .FT                   0.5 : STEP
NULL .                -9999.25 : NULL VALUE
COMP .                         : COMPANY
WELL .                         : WELL
FLD  .                         : FIELD
LOC  .                         : LOCATION
PROV .                         : PROVINCE
CNTY .                         : COUNTY
STAT .                         : STATE
CTRY .                         : COUNTRY
SRVC .                         : SERVICE COMPANY
DATE .                         : DATE
UWI  .                         : UNIQUE WELL ID
API  .                         : API NUMBER
SLAT .WGS84  6.408765936937996 : SURFACE LATITUDE
SLON .WGS84 3.6245272197060956 : SURFACE LONGITUDE
DATUM.F                    nan : DEPTH DATUM ELEV
~Curve Information -----------------------------------------
DEPT   .FT    : 
AT10   .OHMM  : ARRAY INDUCTION TWO FOOT RESISTIVITY A10
AT30   .OHMM  : ARRAY INDUCTION TWO FOOT RESISTIVITY A30
AT90   .OHMM  : ARRAY INDUCTION TWO FOOT RESISTIVITY A90
CALR   .IN    : CALIPER FROM RESISTIVITY LOG
DPHZ_LS.DEC   : HGRD STANDARD RESOLUTION DENSITY POROSITY
DTSM   .US/F  : DELTA-T SHEAR
ECGRS  .GAPI  : ENVIRONMENTALLY CORRECTED GAMMA RAY FROM SONIC LOG
PEFZ   .B/E   : HRDD STANDARD RESOLUTION FORMATION PHOTOELECTRIC FACTOR
SPR    .MV    : SPONTANEOUS POTENTIAL FROM RESISTIVITY LOG
TNPH_LS.DEC   : THERMAL NEUTRON POROSITY [LIMESTONE]
~Params ----------------------------------------------------
~Other -----------------------------------------------------
~ASCII -----------------------------------------------------
# ...
 10596.00000 1980.66900 1625.96750 1890.48370    8.65720    0.01490   92.97170   15.43220    4.57290  -68.60200    0.00080
 10596.50000 2005.27330 1623.31750 1769.64230    8.64270    0.01490   92.32430   14.56890    4.50390  -68.75330    0.00070
 10597.00000   -9999.25 1650.22510 1784.01060    8.65280    0.01780   92.25320   15.81580    4.53780  -68.94240    0.00070
 10597.50000   -9999.25 1650.26270 1766.14340    8.64720    0.02250   92.18210   17.87980    4.59460  -69.13160    0.00070
 10598.00000   -9999.25 1626.12880 1716.03560    8.64710    0.02620   92.17460   19.11740    4.64580  -69.32070    0.00070
 10598.50000   -9999.25 1644.58860 1731.65940    8.65310    0.02090   92.32250   19.33780    4.62580  -69.50980    0.00060
 10599.00000   -9999.25 1661.13290 1751.03970    8.65900    0.01410   92.11690   19.83230    4.47590  -69.69890    0.00060
 10599.50000   -9999.25 1663.85420 1737.64320    8.64760    0.01580   92.10880   19.64390    4.32940  -69.81240    0.00060
 10600.00000   -9999.25 1678.93080 1768.12890    8.64320    0.01760   91.86280   18.09450    4.27770  -69.81240    0.00050
 10600.50000   -9999.25 1703.11640 1826.34180    8.63730    0.01760   91.25990   17.12940    4.32590  -69.81240    0.00110
 10601.00000   -9999.25 1736.42880 1903.57370    8.63270    0.01240   90.76370   18.82970    4.29180  -69.81240    0.00070
 10601.50000   -9999.25 1744.48530 1929.95730    8.63280    0.00610   90.29410   20.43940    4.35990  -69.81240    0.00070
 10602.00000   -9999.25 1709.56390 1830.17960    8.63290    0.00610   89.82450   20.43940    4.47400  -69.81240    0.00040
 10602.50000   -9999.25 1655.83530 1807.54030    8.63310    0.00610   89.54260   20.06870    4.58800  -69.81240    0.00000
 10603.00000   -9999.25 1579.53350 1777.67810    8.63320    0.00610   89.71300   19.33190    4.64150  -69.81240    0.00020
 10603.50000   -9999.25 1540.30750 1736.63630    8.63330    0.00610   90.56930   20.22790    4.61690  -69.81240    0.00070
 10604.00000   -9999.25 1540.30360 1695.59440    8.64600    0.00810   91.16560   19.14940    4.51250  -69.81240    0.00170
 10604.50000   -9999.25 1524.18140 1654.55260    8.63260    0.01010   91.40140   18.03050    4.38470  -69.81240    0.00300
 10605.00000   -9999.25 1526.32420 1658.69830    8.62020    0.01820   91.57020   16.52990    4.31520  -69.81240    0.00430
 10605.50000   -9999.25 1523.09850 1665.14170    8.60470    0.02460   92.14920   15.61270    4.38980  -69.81240    0.00440
 10606.00000   -9999.25 1518.79390 1654.39720    8.59220    0.02160   93.20530   14.98950    4.76590  -69.61070    0.00470
 10606.50000   -9999.25 1529.53640 1635.58980    8.60280    0.01210   93.35900   14.22890    5.07810  -69.14670    0.00500
 10607.00000   -9999.25 1624.45950 1709.16030    8.61240    0.00260   93.33860   15.01810    5.20550  -69.08620    0.00530
 10607.50000   -9999.25 1733.04030 1801.12410    8.63270    0.00040   93.53040   15.93970    5.20330  -69.02570    0.00560
 10608.00000   -9999.25 1798.18830 1874.69520    8.64890    0.00310   93.79920   17.38610    5.16970  -68.96510    0.00590
 10608.50000   -9999.25 1727.11910 1799.44700    8.65410    0.00450   93.92690   19.10140    5.12420  -68.90460    0.00620
 10609.00000   -9999.25 1641.64330 1804.84500    8.65930    0.00450   94.05460   20.81290    5.12890  -68.84410    0.00630
 10609.50000   -9999.25 1617.34030 1737.65560    8.66460    0.00210   94.15830   20.45480    5.13920  -68.78360    0.00620
 10610.00000   -9999.25 1655.58140 1809.05080    8.66980   -0.00020   94.16570   20.18810    5.14960  -68.72300    0.00600
 10610.50000   -9999.25 1693.82250 1893.50060    8.67650   -0.00250   94.17310   19.65700    5.11140  -68.66250    0.00560
 10611.00000   -9999.25 1661.69290 1761.82640    8.67210   -0.00280   94.18060   19.64770    5.06370  -68.60200    0.00560
 10611.50000   -9999.25 1585.90840 1708.10010    8.65180    0.00380   94.65180   19.75390    4.94460  -68.60200    0.00690
 10612.00000   -9999.25 1545.61020 1633.62780    8.64730    0.01030   94.85790   17.34160    4.82270  -68.60200    0.00820
 10612.50000   -9999.25 1502.62390 1562.98500    8.63830    0.01690   95.86340   14.99700    4.67170  -68.60200    0.00860
 10613.00000   -9999.25 1525.60420 1571.04040    8.62930    0.01820   96.47330   12.82100    4.71200  -68.60200    0.00710
 10613.50000   -9999.25 1576.34200 1679.42860    8.63260    0.01620   96.61250   12.28030    4.88310  -68.60200    0.00680
 10614.00000   -9999.25 1595.29090 1657.86230    8.64520    0.01140   97.07550   12.34010    5.07950  -68.60200    0.00630
 10614.50000   -9999.25 1572.45210 1587.58040    8.65950    0.00850   97.53850   12.72540    5.27580  -68.60200    0.00610
 10615.00000   -9999.25 1550.95710 1517.29860    8.67350    0.01090   98.20150   13.62570    5.33960  -68.60200    0.00720
 10615.50000   -9999.25 1587.02180 1525.35400    8.67630    0.01490   98.83370   12.41280    5.34630  -68.40030    0.01050
 10616.00000   -9999.25 1628.74380 1554.13190    8.67910    0.01840   99.41970   12.49660    5.32720  -68.38270    0.01230
 10616.50000   -9999.25 1670.46580 1586.47340    8.68190    0.02100  100.00570   12.31670    5.32750  -68.29500    0.01410
 10617.00000   -9999.25 1712.18770 1651.66330    8.67550    0.02360  100.59180   12.96830    5.34630  -68.20730    0.01600
 10617.50000   -9999.25 1754.15980 1707.82990    8.67050    0.02620  101.13410   12.76550    5.32140  -68.11960    0.01780
 10618.00000   -9999.25 1779.34210 1771.32290    8.70900    0.02220  101.40800   12.22500    5.26790  -68.03190    0.01930
 10618.50000   -9999.25 1740.37430 1792.42120    8.75440    0.01820  102.25000   11.79140    5.24680  -67.79510    0.01870
 10619.00000   -9999.25 1679.90830 1783.28690    8.77380    0.01410  103.09200   11.79620    5.26310  -67.76170    0.01570
 10619.50000   -9999.25 1619.44220 1820.97050    8.79330    0.01250  103.69440   12.33870    5.27940  -67.47580    0.01450
 10620.00000   -9999.25 1558.97620 1674.55640    8.77640    0.01660  103.78190   11.74660    5.28390  -67.39110    0.01450
 10620.50000   -9999.25 1518.42890 1579.71280    8.74610    0.02110  103.86940   11.74300    5.25420  -67.39040    0.01450
 10621.00000   -9999.25 1477.88170 1519.24960    8.73750    0.02380  104.26420   11.73940    5.27380  -67.18990    0.01500
 10621.50000   -9999.25 1445.44120 1504.90660    8.73290    0.02380  105.36860   12.74450    5.27870  -67.02610    0.01500
 10622.00000   -9999.25 1429.79190 1471.83860    8.72990    0.02040  106.09720   14.70850    5.29670  -66.82130    0.01500
 10622.50000 2005.27490 1404.13060 1424.19610    8.72690    0.01610  104.77490   15.34220    5.30600  -66.61660    0.01310
 10623.00000 2005.27490 1379.12030 1395.60520    8.72390    0.01180  104.37890   15.63460    5.26180  -66.18120    0.01070
 10623.50000 1817.44800 1356.71450 1398.26750    8.72090    0.01250  103.98300   13.34780    5.19230  -66.28210    0.01020
 10624.00000 1693.07190 1334.30860 1389.29720    8.70920    0.01710  103.58700   12.15140    5.07540  -66.30220    0.01220
 10624.50000 1564.15560 1313.69490 1371.36690    8.71330    0.03210  103.19110   12.10210    4.91530  -66.17570    0.01480
 10625.00000 1442.45250 1300.24010 1371.34820    8.69750    0.04700   99.20670   12.66020    4.80240  -66.16210    0.01730
 10625.50000 1330.62290 1286.78760 1409.70110    8.65850    0.05680   99.20670   12.19590    4.84160  -65.97950    0.01990
 10626.00000 1541.01000 1335.12280 1426.82100    8.67230    0.05300   97.92840   11.48260    5.01800  -65.80150    0.01990
 10626.50000 1658.16120 1441.47830 1517.68900    8.71970    0.03780   96.33720   10.88360    5.21450  -65.62350    0.01830
 10627.00000 1776.84220 1538.16470 1640.78950    8.76110    0.02510   95.85710   11.36420    5.30600  -65.44550    0.01650
 10627.50000 1980.66160 1634.85120 1739.26720    8.73300    0.01900   95.37700   10.98560    5.28590  -65.37430    0.01610
 10628.00000   -9999.25 1673.51490 1696.26520    8.74240    0.02140   95.18460   11.11090    5.24080  -65.37430    0.01760
 10628.50000   -9999.25 1616.18830 1642.51940    8.75180    0.02580   95.27340   10.83120    5.19190  -65.47510    0.01950
