~Version ---------------------------------------------------
VERS.   2.0 : CWLS log ASCII Standard -VERSION 2.0
WRAP.    NO : One line per depth step
DLM . SPACE : Column Data Section Delimiter
~Well ------------------------------------------------------
STRT .FT                8880.0 : START DEPTH
STOP .FT               11092.0 : STOP DEPTH
STEP .FT                   0.5 : STEP
NULL .                -9999.25 : NULL VALUE
COMP .                         : COMPANY
WELL .                         : WELL
FLD  .                         : FIELD
LOC  .                         : LOCATION
PROV .                         : PROVINCE
CNTY .                         : COUNTY
STAT .                         : STATE
CTRY .                         : COUNTRY
SRVC .                         : SERVICE COMPANY
DATE .                         : DATE
UWI  .                         : UNIQUE WELL ID
API  .                         : API NUMBER
SLAT .WGS84  6.408765936937996 : SURFACE LATITUDE
SLON .WGS84 3.6245272197060956 : SURFACE LONGITUDE
DATUM.F                    nan : DEPTH DATUM ELEV
~Curve Information -----------------------------------------
DEPT   .FT    : 
AT10   .OHMM  : ARRAY INDUCTION TWO FOOT RESISTIVITY A10
AT30   .OHMM  : ARRAY INDUCTION TWO FOOT RESISTIVITY A30
AT90   .OHMM  : ARRAY INDUCTION TWO FOOT RESISTIVITY A90
CALR   .IN    : CALIPER FROM RESISTIVITY LOG
DPHZ_LS.DEC   : HGRD STANDARD RESOLUTION DENSITY POROSITY
DTSM   .US/F  : DELTA-T SHEAR
ECGRS  .GAPI  : ENVIRONMENTALLY CORRECTED GAMMA RAY FROM SONIC LOG
PEFZ   .B/E   : HRDD STANDARD RESOLUTION FORMATION PHOTOELECTRIC FACTOR
SPR    .MV    : SPONTANEOUS POTENTIAL FROM RESISTIVITY LOG
TNPH_LS.DEC   : THERMAL NEUTRON POROSITY [LIMESTONE]
~Params ----------------------------------------------------
~Other -----------------------------------------------------
~ASCII -----------------------------------------------------
# ...
 9903.00000  193.20100 1325.70020 1311.29710    8.67300   -0.00600   93.68420   39.32850    3.55190  -42.17450    0.01900
 9903.50000  126.69980 1280.21060 1250.33780    8.67300    0.00920   93.40000   33.74100    3.55950  -42.17450    0.02280
 9904.00000  153.16280 1264.98930 1246.54920    8.67300    0.01830   92.91900   28.15360    3.78600  -42.34300    0.02580
 9904.50000  244.46040 1393.75160 1349.52510    8.67300    0.02380   92.44610   23.80010    4.14810  -42.76430    0.02520
 9905.00000  362.94570 1551.34730 1518.02930    8.67300    0.01800   92.68260   22.81640    4.49380  -43.17870    0.02180
 9905.50000  931.30140 1708.94310 1686.53350    8.71330    0.00950   92.11710   20.50690    4.81270  -43.58660    0.01840
 9906.00000 1836.41470 1739.12040 1687.99880    8.71330    0.00490   92.28020   19.34700    5.01580  -43.86520    0.01500
 9906.50000 1646.81700 1732.40340 1716.20390    8.71330    0.00230   92.44240   18.12140    5.15230  -44.02390    0.01150
 9907.00000 1794.97180 1735.09200 1813.58310    8.70880    0.00260   92.52820   18.06470    5.15900  -44.18260    0.00800
 9907.50000 1971.15770 1721.65940 1799.03290    8.69760    0.00290   92.72490   18.33190    5.10400  -44.34130    0.00430
 9908.00000 2003.96260 1708.22670 1726.68230    8.68640    0.00370   93.12100   17.46620    5.09120  -44.50010    0.00350
 9908.50000 2001.76180 1701.51160 1706.80420    8.67520    0.00370   93.01340   17.41440    5.14160  -44.59530    0.00390
 9909.00000 1999.56090 1675.32020 1700.08610    8.67300    0.00370   92.90580   17.46640    5.19190  -44.59530    0.00540
 9909.50000 1997.36000 1633.90750 1696.72910    8.67300    0.00450   92.79820   18.44940    5.19190  -44.59530    0.00700
 9910.00000 1995.15920 1600.77730 1639.10710    8.67630    0.01110   92.76100   18.79360    4.95760  -45.02760    0.00860
 9910.50000 1992.95830 1659.33600 1631.58650    8.67970    0.01770   92.82920   18.95090    4.66470  -45.20050    0.01020
 9911.00000 1990.75740 1729.17980 1736.14420    8.68300    0.03320   92.57830   18.37810    4.51130  -45.20050    0.01020
 9911.50000 1988.55660 1799.02360 1835.33060    8.68640    0.03190   92.54850   17.79660    4.36410  -45.72140    0.00870
 9912.00000 1986.35570 1810.30670 1894.84250    8.68980    0.03430   92.57390   18.03260    4.17390  -46.21770    0.00640
 9912.50000 1984.15490 1730.87040 1780.52610    8.69310    0.03910   92.98720   18.97120    3.98460  -46.41090    0.00640
 9913.00000 1981.95400 1653.16020 1647.70430    8.70190    0.04310   93.24860   17.77470    3.93910  -46.87050    0.00640
 9913.50000 1932.83710 1602.79210 1562.63760    8.69730    0.04310   93.80560   17.13130    4.15020  -47.33020    0.00850
 9914.00000 1760.93740 1517.50080 1477.57090    8.71000    0.04110   94.84110   15.53980    4.54160  -47.78980    0.01330
 9914.50000 1512.23600 1441.00650 1411.31100    8.72040    0.03910   95.70540   14.43950    4.89800  -48.22040    0.01950
 9915.00000 1154.18310 1407.74720 1377.73160    8.73090    0.03830   96.56970   14.09250    4.92760  -48.81040    0.02670
 9915.50000  886.86350 1374.48790 1344.15220    8.72210    0.04860   97.13420   14.07590    4.76250  -48.81800    0.03030
 9916.00000  658.03670 1341.22870 1310.57280    8.68780    0.05680   97.72310   14.07870    4.65960  -48.82570    0.03320
 9916.50000  446.65830 1307.96940 1280.57560    8.68940    0.05760   98.40490   14.08150    4.76320  -48.93200    0.03520
 9917.00000  324.10000 1285.34810 1255.95160    8.69090    0.05980   99.07290   13.82630    4.95170  -49.10700    0.03690
 9917.50000  250.67370 1262.72680 1231.32750    8.69250    0.06200   99.69000   13.57980    5.16060  -48.82410    0.03780
 9918.00000  196.48280 1240.10550 1206.70350    8.64360    0.06710  100.05740   12.93220    5.27620  -48.78580    0.04170
 9918.50000  154.61350 1219.18760 1182.07950    8.56110    0.07210  100.26190   13.17030    5.20390  -48.74740    0.04690
 9919.00000  129.76400 1205.08350 1166.85730    8.51400    0.08930  100.43700   12.61890    4.93230  -48.70910    0.05210
 9919.50000  121.33160 1190.97940 1171.33460    8.52010    0.10730  100.27460   11.98610    4.67060  -48.67070    0.05870
 9920.00000  116.67490 1176.87530 1158.79840    8.52620    0.12530  100.06190   11.69920    4.39130  -48.63240    0.06340
 9920.50000  124.58950 1162.90610 1137.68920    8.53240    0.14220   99.84930   11.70620    4.12890  -48.63010    0.06540
 9921.00000  137.97980 1162.90610 1129.24550    8.53850    0.14870   99.76280   12.27480    3.98370  -48.79790    0.06230
 9921.50000  147.12760 1176.33730 1134.84180    8.54460    0.14950   99.91160   12.31920    3.98370  -48.81910    0.06020
 9922.00000  152.72700 1182.38140 1140.43810    8.55070    0.13350   99.83350   12.85510    3.98370  -49.03360    0.05680
 9922.50000  145.95890 1184.39610 1142.67660    8.55190    0.10820  100.10190   14.12830    4.14620  -49.43700    0.05210
 9923.00000  121.29280 1176.23770 1127.17870    8.55190    0.08950  100.44650   15.05390    4.38360  -49.47500    0.04830
 9923.50000   97.38440 1155.84180 1101.34900    8.55190    0.08040  100.43710   15.25900    4.62090  -49.79480    0.04830
 9924.00000   82.21410 1135.44580 1075.51930    8.55190    0.07860  100.36100   15.59870    4.65040  -49.81760    0.05200
 9924.50000   67.04380 1115.04990 1058.42450    8.55190    0.08150  100.71100   15.93850    4.54160  -49.84050    0.05580
 9925.00000   55.55500 1094.65390 1041.32970    8.55190    0.09190  100.82530   16.60360    4.43540  -49.75280    0.05970
 9925.50000   49.68980 1074.25800 1033.88130    8.55190    0.10030   99.93780   15.32290    4.45220  -49.66510    0.06260
 9926.00000   57.36670 1071.57140 1062.47120    8.55190    0.09180   99.05020   14.87550    4.59390  -49.57740    0.05290
 9926.50000   84.81390 1157.53250 1113.51040    8.55190    0.07050   98.16270   12.95330    4.87610  -49.48970    0.04130
 9927.00000  135.78520 1268.64630 1222.88050    8.58420    0.04920   97.27510   12.03780    5.08720  -49.43630    0.02960
 9927.50000  221.46600 1379.76000 1332.25060    8.62450    0.03400   95.89660   11.45700    5.25520  -49.43450    0.02180
 9928.00000  374.08380 1443.88890 1413.99040    8.66490    0.02940   94.41740   12.55020    5.31800  -49.26330    0.01880
 9928.50000  727.70680 1496.27150 1473.42500    8.67460    0.02880   93.84530   15.03550    5.33410  -48.83000    0.01660
 9929.00000 1189.77130 1564.60690 1545.61980    8.67670    0.02250   93.59370   17.86050    5.32650  -48.82080    0.01340
 9929.50000 1573.99230 1636.93060 1641.55780    8.67880    0.01490   93.55560   19.70620    5.27880  -48.81150    0.01270
 9930.00000 1861.87330 1694.78950 1852.39120    8.68090    0.00730   93.74210   19.33260    5.23680  -48.50700    0.01230
 9930.50000 1956.29120 1700.15980 1882.74730    8.68300   -0.00040   93.92870   18.02120    5.14620  -48.42840    0.01190
 9931.00000   -9999.25 1700.15980 1808.87470    8.68510    0.00040   94.11520   15.65710    5.12370  -48.57360    0.01140
 9931.50000   -9999.25 1716.76760 1849.16810    8.68720    0.00360   94.30180   14.17080    5.12900  -48.52170    0.01120
 9932.00000   -9999.25 1739.96800 1829.02190    8.68930    0.00680   94.40900   13.68800    5.13430  -48.46990    0.01120
 9932.50000   -9999.25 1753.88820 1806.18620    8.69140    0.00930   94.48410   14.95880    5.13960  -48.42840    0.01040
 9933.00000   -9999.25 1775.91390 1834.72960    8.70320    0.01010   94.64000   15.42310    5.18410  -48.63010    0.01040
 9933.50000   -9999.25 1794.71920 1851.85570    8.71980    0.01330   95.03760   15.56700    5.27450  -48.83180    0.00700
 9934.00000   -9999.25 1802.24130 1853.19750    8.71830    0.01250   94.75100   14.24330    5.32620  -48.74780    0.00480
 9934.50000   -9999.25 1821.93950 1898.86400    8.71680    0.00850   94.63110   13.89440    5.33190  -48.79820    0.00480
 9935.00000   -9999.25 1857.75670 1972.73850    8.71540    0.00690   94.58320   13.32270    5.30440  -49.26950    0.00540
 9935.50000   -9999.25 1893.57400 1972.73750    8.71390    0.00530   94.48630   13.34590    5.30600  -49.44740    0.00640
