~Version ---------------------------------------------------
VERS.   2.0 : CWLS log ASCII Standard -VERSION 2.0
WRAP.    NO : One line per depth step
DLM . SPACE : Column Data Section Delimiter
~Well ------------------------------------------------------
STRT .FT                8880.0 : START DEPTH
STOP .FT               11092.0 : STOP DEPTH
STEP .FT                   0.5 : STEP
NULL .                -9999.25 : NULL VALUE
COMP .                         : COMPANY
WELL .                         : WELL
FLD  .                         : FIELD
LOC  .                         : LOCATION
PROV .                         : PROVINCE
CNTY .                         : COUNTY
STAT .                         : STATE
CTRY .                         : COUNTRY
SRVC .                         : SERVICE COMPANY
DATE .                         : DATE
UWI  .                         : UNIQUE WELL ID
API  .                         : API NUMBER
SLAT .WGS84  6.408765936937996 : SURFACE LATITUDE
SLON .WGS84 3.6245272197060956 : SURFACE LONGITUDE
DATUM.F                    nan : DEPTH DATUM ELEV
~Curve Information -----------------------------------------
DEPT   .FT    : 
AT10   .OHMM  : ARRAY INDUCTION TWO FOOT RESISTIVITY A10
AT30   .OHMM  : ARRAY INDUCTION TWO FOOT RESISTIVITY A30
AT90   .OHMM  : ARRAY INDUCTION TWO FOOT RESISTIVITY A90
CALR   .IN    : CALIPER FROM RESISTIVITY LOG
DPHZ_LS.DEC   : HGRD STANDARD RESOLUTION DENSITY POROSITY
DTSM   .US/F  : DELTA-T SHEAR
ECGRS  .GAPI  : ENVIRONMENTALLY CORRECTED GAMMA RAY FROM SONIC LOG
PEFZ   .B/E   : HRDD STANDARD RESOLUTION FORMATION PHOTOELECTRIC FACTOR
SPR    .MV    : SPONTANEOUS POTENTIAL FROM RESISTIVITY LOG
TNPH_LS.DEC   : THERMAL NEUTRON POROSITY [LIMESTONE]
~Params ----------------------------------------------------
~Other -----------------------------------------------------
~ASCII -----------------------------------------------------
# ...
 9771.00000    2.75600  563.03920  558.85060    9.96400    0.14780  196.14570   99.60950    5.98950  -17.75980    0.31300
 9771.50000    2.89040  573.49000  569.30120   10.10530    0.14220  196.56750  100.73000    5.99010  -17.76340    0.31090
 9772.00000    2.82740  568.70360  564.51500    9.89950    0.14020  197.26600  100.09080    5.97090  -17.66390    0.32370
 9772.50000    2.83260  569.09850  564.90980    9.94740    0.13830  198.99550  100.55160    5.87200  -17.73490    0.33230
 9773.00000    2.87030  571.97520  567.78670   10.30570    0.13640  202.60640   99.90950    5.75910  -17.72960    0.31380
 9773.50000    2.87460  572.29560  568.10700    9.74210    0.12950  207.84290   99.25790    5.53620  -17.48300    0.30710
 9774.00000    2.82250  568.29340  564.10490    9.76230    0.13750  206.41910  100.41810    5.37390  -17.40790    0.30310
 9774.50000    2.78460  565.30820  561.11960    9.74010    0.14060  204.33940  103.78620    5.26600  -17.48550    0.29960
 9775.00000    2.91270  574.95300  570.76430    9.97210    0.13360  205.20150  104.36160    5.19500  -17.56300    0.29900
 9775.50000    3.01520  582.66880  578.48000    9.89010    0.13090  207.45650  102.82080    5.17720  -17.75430    0.30720
 9776.00000    2.88700  572.87270  568.68400   10.08510    0.14380  207.75150  104.82930    5.26500  -17.75010    0.32410
 9776.50000    2.67350  556.54580  552.35720   10.02790    0.15750  207.44780  104.66520    5.41240  -17.74600    0.33660
 9777.00000    2.57000  547.96850  543.78000   10.54910    0.15270  207.09650  101.62160    5.52360  -17.74180    0.33140
 9777.50000    2.53080  544.60690  540.41830   10.41790    0.14320  205.77240  100.01060    5.59460  -17.73760    0.32410
 9778.00000    2.47470  539.76230  535.57380   10.06900    0.14300  204.17040  100.13440    5.59190  -17.63320    0.33190
 9778.50000    2.45300  537.84790  533.65930   10.19470    0.14220  203.38350  101.37300    5.56240  -17.74480    0.33070
 9779.00000    2.38880  532.08630  527.89780    9.94390    0.13600  200.74300  102.57160    5.48420  -17.91290    0.32980
 9779.50000    2.43320  536.07660  531.88800   10.04470    0.12480  199.45250  104.05440    5.37310  -17.56310    0.33210
 9780.00000    2.47490  539.77800  535.58950   10.07900    0.11810  198.49700  106.28220    5.21650  -17.83740    0.33600
 9780.50000    2.55830  546.97930  542.79070   10.51380    0.11200  189.02700  104.90570    5.08960  -17.76480    0.33900
 9781.00000    2.67150  556.22700  552.03830   10.17180    0.11010  182.26680  103.99750    4.96420  -17.76480    0.32940
 9781.50000    2.80340  566.78040  562.59170   10.24650    0.11140  180.54230  105.86270    4.83870  -17.76480    0.31520
 9782.00000    2.94670  577.67680  573.48820   10.04470    0.11300  180.12560  109.80880    4.71330  -17.76480    0.31860
 9782.50000    2.74890  562.48580  558.29720    9.84300    0.11660  179.25330  111.25590    4.58780  -17.76480    0.31340
 9783.00000    2.45350  537.60060  533.41210    9.89200    0.12320  180.63980  106.41830    4.68260  -17.76480    0.29900
 9783.50000    2.42560  535.26180  529.62500   10.13700    0.13010  182.44980  100.11500    4.77730  -17.76480    0.29800
 9784.00000    2.67030  556.28460  550.18010   10.10530    0.13820  183.32850   95.13010    4.87210  -17.61350    0.29860
 9784.50000    2.90880  574.83350  569.47260   10.20610    0.14620  184.50390   94.06990    4.91000  -17.84960    0.32110
 9785.00000    3.50060  600.87020  596.68140   10.34730    0.13600  181.83250   99.61810    4.91000  -17.93890    0.30910
 9785.50000    4.24080  625.99720  621.80840   10.14560    0.11050  177.59180  103.32300    4.80930  -17.64380    0.30010
 9786.00000    3.57190  612.30340  608.11460    9.65140    0.08500  169.74640  107.80190    4.74890  -17.89400    0.26130
 9786.50000    2.99640  580.11020  568.64610    9.34880    0.09320  167.89660  106.40540    4.89490  -18.17060    0.24220
 9787.00000    2.56090  546.42520  514.08630    9.86320    0.13400  164.59260  110.93820    5.07740  -17.76480    0.25840
 9787.50000    2.41490  534.34290  526.34860    9.95400    0.14140  155.47190  107.91800    5.25990  -17.87290    0.29910
 9788.00000    2.57050  547.91090  538.61100   10.11970    0.12170  134.38240  103.40500    5.31270  -17.98090    0.30930
 9788.50000    2.91790  574.56960  565.00820    9.87330    0.10270  109.89430   95.16450    5.19860  -18.08890    0.31570
 9789.00000    3.33570  604.61670  595.05520    9.60090    0.09870  107.42780   81.78920    4.96370  -18.19700    0.29960
 9789.50000    4.27280  656.84350  647.28230    9.66140    0.09510  108.41570   69.72070    4.60220  -18.30500    0.27460
 9790.00000    5.49170  712.90810  703.34650    9.51350    0.07600  110.11980   59.22280    4.15630  -18.20110    0.20830
 9790.50000   14.61220  858.35300  835.94650    8.97550    0.05540  103.11200   58.35060    3.71040  -18.53440    0.13100
 9791.00000   23.36900  966.81000  962.69820    8.90380    0.03910  101.64890   63.92950    3.36280  -18.56110    0.10510
 9791.50000   18.57690  938.41210  888.07880    8.79550    0.02870  100.87750   65.75420    3.27290  -18.53810    0.07970
 9792.00000   10.59010  840.55410  801.52030    8.77950    0.02850  102.07860   63.53300    3.25450  -18.48210    0.08370
 9792.50000   17.79700  951.07610  855.22740    8.78670    0.03040  102.18790   58.97900    3.25410  -18.56320    0.09490
 9793.00000   25.00400 1020.15230  996.20990    8.79390    0.03260  101.48140   53.29730    3.28780  -18.56470    0.09560
 9793.50000   32.24230 1081.72380 1069.80910    8.80100    0.03300  100.77500   51.60930    3.38290  -18.56610    0.07540
 9794.00000   39.48840 1141.41900 1126.56240    8.76950    0.03010  100.93070   50.33390    3.47500  -18.56760    0.05530
 9794.50000   37.42850 1129.52280 1115.81740    8.76590    0.02730  101.82930   48.81570    3.55410  -18.56910    0.04730
 9795.00000   35.32900 1117.24240 1102.38570    8.75870    0.02650  104.36590   47.94500    3.58990  -18.57060    0.04900
 9795.50000   42.54630 1154.08330 1131.93540    8.74620    0.02310  104.89800   45.95170    3.63470  -18.56770    0.04970
 9796.00000   51.56790 1181.71400 1161.48510    8.73370    0.01830  106.25000   46.01110    3.67940  -18.54750    0.04820
 9796.50000   44.47810 1148.13520 1126.77630    8.72410    0.01380  114.27780   46.72740    3.71520  -18.52740    0.04480
 9797.00000   36.92870 1114.55650 1092.06760    8.72570    0.01160  114.54070   50.85730    3.68470  -18.50720    0.04560
 9797.50000   34.23400 1080.97780 1057.35890    8.72740    0.01600  114.88870   55.77890    3.63510  -18.48700    0.04920
 9798.00000   30.67610 1045.30970 1022.65020    8.72910    0.02110  114.65070   62.58720    3.55090  -18.47090    0.05070
 9798.50000   26.63430 1006.50770  987.94150    8.73810    0.02890  114.72560   68.56760    3.47950  -18.53390    0.06040
 9799.00000   22.59240  967.70570  953.23270    8.74980    0.03430  114.05220   72.51870    3.43330  -18.57180    0.07270
 9799.50000   18.55050  928.90380  918.52400    8.76140    0.04070  113.21040   72.42760    3.44230  -18.61750    0.08860
 9800.00000   15.73150  921.14340  911.58230    8.75990    0.04170  112.51290   72.10950    3.46630  -18.73180    0.10290
 9800.50000   15.82940  929.87360  920.31250    8.75360    0.04160  111.60210   73.02610    3.47600  -18.84610    0.11390
 9801.00000   16.85040  946.66310  937.10200    8.75360    0.04070  110.16840   72.66730    3.48580  -18.96040    0.11380
 9801.50000   17.65330  956.06480  946.50380    8.75000    0.04540  110.37250   70.30790    3.49550  -18.66290    0.11030
 9802.00000   18.45620  961.43790  951.87680    8.75250    0.05290  110.43020   66.66130    3.49130  -18.57180    0.10580
 9802.50000   21.36890  989.52180  968.71400    8.75110    0.05140  110.75000   61.03440    3.45340  -18.57180    0.09640
 9803.00000   26.26050 1017.60560 1002.04630    8.74970    0.04850  111.84800   60.01410    3.40440  -18.57180    0.08700
 9803.50000   29.92670 1053.07030 1034.10810    8.74700    0.04520  116.82980   61.71160    3.42200  -18.57180    0.07760
