~Version ---------------------------------------------------
VERS.   2.0 : CWLS log ASCII Standard -VERSION 2.0
WRAP.    NO : One line per depth step
DLM . SPACE : Column Data Section Delimiter
~Well ------------------------------------------------------
STRT .FT                8880.0 : START DEPTH
STOP .FT               11092.0 : STOP DEPTH
STEP .FT                   0.5 : STEP
NULL .                -9999.25 : NULL VALUE
COMP .                         : COMPANY
WELL .                         : WELL
FLD  .                         : FIELD
LOC  .                         : LOCATION
PROV .                         : PROVINCE
CNTY .                         : COUNTY
STAT .                         : STATE
CTRY .                         : COUNTRY
SRVC .                         : SERVICE COMPANY
DATE .                         : DATE
UWI  .                         : UNIQUE WELL ID
API  .                         : API NUMBER
SLAT .WGS84  6.408765936937996 : SURFACE LATITUDE
SLON .WGS84 3.6245272197060956 : SURFACE LONGITUDE
DATUM.F                    nan : DEPTH DATUM ELEV
~Curve Information -----------------------------------------
DEPT   .FT    : 
AT10   .OHMM  : ARRAY INDUCTION TWO FOOT RESISTIVITY A10
AT30   .OHMM  : ARRAY INDUCTION TWO FOOT RESISTIVITY A30
AT90   .OHMM  : ARRAY INDUCTION TWO FOOT RESISTIVITY A90
CALR   .IN    : CALIPER FROM RESISTIVITY LOG
DPHZ_LS.DEC   : HGRD STANDARD RESOLUTION DENSITY POROSITY
DTSM   .US/F  : DELTA-T SHEAR
ECGRS  .GAPI  : ENVIRONMENTALLY CORRECTED GAMMA RAY FROM SONIC LOG
PEFZ   .B/E   : HRDD STANDARD RESOLUTION FORMATION PHOTOELECTRIC FACTOR
SPR    .MV    : SPONTANEOUS POTENTIAL FROM RESISTIVITY LOG
TNPH_LS.DEC   : THERMAL NEUTRON POROSITY [LIMESTONE]
~Params ----------------------------------------------------
~Other -----------------------------------------------------
~ASCII -----------------------------------------------------
# ...
 9375.00000   74.51800 1266.65160 1218.56850    8.72370    0.02330  107.12090   60.77630    3.37110  -19.90930    0.04900
 9375.50000   59.32550 1206.95730 1182.97540    8.72080    0.01990  109.03540   64.56710    3.28800  -19.91470    0.04160
 9376.00000   43.59100 1156.51540 1128.13000    8.71850    0.02040  113.75970   70.74630    3.26030  -19.92020    0.04320
 9376.50000   38.10140 1126.39180 1078.88140    8.72310    0.02460  124.54100   76.25200    3.23250  -19.92570    0.04590
 9377.00000   32.60940 1092.00600 1073.50840    8.72880    0.03180  129.89190   82.08430    3.20480  -19.79930    0.05170
 9377.50000   25.24850 1036.32190 1023.35060    8.73450    0.03450  133.82170   85.55330    3.17710  -19.64000    0.06080
 9378.00000   14.88330  922.85900  918.10340    8.74020    0.03770  138.77350   87.24580    3.16040  -19.48060    0.07400
 9378.50000    9.98550  832.68820  823.12680    8.74590    0.04100  148.12540   89.69820    3.12160  -19.32130    0.08780
 9379.00000    7.41810  771.33310  761.77150    8.75160    0.05690  150.12510   95.52390    3.07030  -19.48250    0.11190
 9379.50000    6.60290  745.77060  736.20900    8.75730    0.07510  154.31410   96.68050    3.13130  -19.49440    0.13940
 9380.00000    5.39970  701.62980  692.06860    8.83370    0.09630  158.77980   92.15520    3.42760  -19.21000    0.16690
 9380.50000    4.56070  664.44570  654.88470    8.95700    0.10270  156.81380   92.77430    3.74770  -19.11550    0.19200
 9381.00000    3.97970  635.80600  624.78770    8.89300    0.09330  151.38320   95.17520    4.03010  -19.33320    0.21350
 9381.50000    3.67390  618.65740  599.67170    8.78240    0.08520  146.92760   98.62380    4.09130  -19.39380    0.22570
 9382.00000    3.55030  614.49200  584.60200    8.89460    0.08830  139.77130   88.40010    4.09780  -19.45430    0.23280
 9382.50000    3.52350  615.53650  597.13830    8.96190    0.10270  131.93740   70.59390    4.13640  -19.51490    0.24080
 9383.00000    3.82370  629.47580  614.15130    8.98220    0.12150  128.11010   56.83420    4.24410  -19.37940    0.25910
 9383.50000    4.12400  643.80570  630.26900    9.20420    0.12050  126.95400   49.14420    4.36210  -19.33340    0.27410
 9384.00000    5.23200  690.44120  663.95180    9.05640    0.09630  122.79070   46.06760    4.33510  -19.64540    0.21720
 9384.50000   14.89710  806.59990  772.10570    8.82110    0.07190  121.62280   50.06080    4.19940  -19.70690    0.17350
 9385.00000   24.56220  944.28670  903.73430    8.75130    0.04740  120.65270   59.04930    4.00220  -19.90290    0.11690
 9385.50000   28.42820 1054.43610 1011.72360    8.74060    0.03030  120.35310   67.28880    3.92330  -19.82850    0.05960
 9386.00000   22.56840 1003.23920  972.57890    8.74550    0.02330  121.04400   75.56970    3.84950  -19.44070    0.04430
 9386.50000   17.08790  916.89950  907.33790    8.75040    0.02350  122.45880   77.75220    3.72280  -19.62710    0.04890
 9387.00000   11.70220  841.53150  831.97040    8.75540    0.03370  125.41370   75.58370    3.55670  -19.81370    0.06630
 9387.50000    8.26410  786.93680  777.37570    8.80940    0.05830  131.09670   71.87350    3.47240  -19.82600    0.09020
 9388.00000    6.86370  752.41580  742.85480    8.83690    0.07300  134.59380   72.42380    3.60490  -19.83830    0.11840
 9388.50000    6.77180  751.10780  741.54680    8.87080    0.07550  137.23080   75.65940    3.85470  -19.85060    0.14660
 9389.00000    7.71260  779.08880  769.52770    8.83520    0.06330  137.43630   81.39570    4.10450  -19.86280    0.16400
 9389.50000    8.74690  807.07220  797.51110    8.79180    0.05450  136.63690   84.74310    4.16830  -19.87510    0.15360
 9390.00000    8.44750  799.08420  789.52310    8.79320    0.04700  135.27740   87.56330    4.26240  -19.88740    0.14310
 9390.50000    7.39050  770.64770  761.08670    8.78200    0.04740  135.26500   88.48920    4.39030  -19.89960    0.14890
 9391.00000    6.39120  738.85120  729.28960    8.78770    0.06230  135.07350   85.71510    4.54140  -20.17030    0.17010
 9391.50000    5.60700  709.68360  700.12220    8.78710    0.07770  135.11500   77.53690    4.61830  -20.50550    0.19170
 9392.00000    4.95520  683.72690  674.16580    8.79990    0.07930  134.28920   71.22100    4.61050  -20.84070    0.20970
 9392.50000    5.88130  707.90360  693.86130    9.07630    0.06240  132.71020   70.26010    4.60280  -20.90780    0.20040
 9393.00000    8.19650  768.34530  743.10000    8.87740    0.03190  129.12670   73.97370    4.45360  -20.90780    0.16710
 9393.50000    8.92050  804.61030  772.64330    8.79730    0.02080  126.85000   78.59790    4.14180  -20.90780    0.15280
 9394.00000    7.91000  788.49250  753.83890    8.81130    0.02910  124.18840   78.94380    3.89290  -20.90780    0.16190
 9394.50000    7.21400  769.68840  756.52550    8.79360    0.04100  120.48090   77.97990    3.80250  -20.90780    0.17320
 9395.00000    6.99130  767.00200  749.27250    9.16950    0.04240  114.76910   66.50970    3.78230  -20.90780    0.18280
 9395.50000    6.65600  754.46590  737.18410    9.48900    0.04060  112.54780   51.67540    3.78230  -20.90780    0.18280
 9396.00000    6.49490  745.51160  729.66220    9.07760    0.04310  108.45790   36.84100    3.96720  -20.89990    0.16720
 9396.50000   10.75260  834.54330  824.98220    8.78320    0.03740  103.04480   22.00670    4.23700  -20.76440    0.14440
 9397.00000   16.02460  970.93080  947.14340    8.73980    0.02640   97.63160   17.57680    4.59960  -20.47020    0.10070
 9397.50000   74.20450 1130.95880 1036.03980    8.72410    0.00890   92.21850   16.70880    4.96220  -20.42880    0.04700
 9398.00000  132.38440 1290.98680 1124.93620    8.70850    0.00190   92.68090   16.97290    5.27720  -20.38750    0.01680
 9398.50000  190.56430 1451.01480 1238.44640    8.71030   -0.00260   96.27780   17.10110    5.38660  -20.34610    0.00460
 9399.00000  147.01630 1356.99570 1326.02130    8.71210   -0.00250  100.58120   17.11940    5.40670  -20.30470    0.00190
 9399.50000  192.52030 1437.28470 1277.66810    8.68340   -0.00220  104.88460   17.93020    5.41760  -20.27220    0.00030
 9400.00000  327.26230 1534.29140 1329.24590    8.67280   -0.00420  104.13970   24.05750    5.38250  -20.24570   -0.00080
 9400.50000  926.65250 1439.50840 1349.98110    8.67800   -0.00990  106.47060   32.43990    5.32330  -20.21910   -0.00080
 9401.00000 1395.27200 1301.40240 1268.28070    8.68330   -0.01390  117.09130   42.49550    5.28720  -20.19250    0.00130
 9401.50000  294.65060 1224.85190 1186.58030    8.67340   -0.01220  118.33710   47.86670    5.25900  -20.16590    0.00490
 9402.00000   42.61850 1143.57020 1129.34690    8.66230   -0.00640  119.91200   52.62860    5.20130  -20.13930    0.01220
 9402.50000   30.52300 1043.36390 1005.82970    8.67790   -0.00490  127.01280   55.81190    5.04690  -20.11270    0.02010
 9403.00000   18.42750  943.15760  915.07610    8.67620    0.00760  133.60740   61.43240    4.89250  -20.08610    0.05960
 9403.50000   12.18670  873.32910  864.92240    8.66380    0.02240  139.37360   60.15430    4.74890  -20.05950    0.09900
 9404.00000    9.84910  823.75250  814.76880    8.80500    0.03580  141.14430   58.67220    4.74630  -20.03290    0.13840
 9404.50000    7.51150  774.17600  764.61510    8.89950    0.04960  139.95010   56.99340    4.79030  -20.00630    0.17000
 9405.00000    5.18570  693.60010  684.03900    8.78650    0.05840  135.90300   58.49260    4.83660  -19.97970    0.17050
 9405.50000    6.67740  747.33830  737.77720    8.88590    0.09740  128.30480   53.93720    4.93700  -19.95310    0.16320
 9406.00000    6.30930  731.90430  722.28550    8.84090    0.13630  126.32470   45.78100    5.04210  -19.92650    0.16750
 9406.50000    4.64270  666.43770  656.67490    9.03020    0.15270  125.47110   39.67460    5.14720  -19.89990    0.19040
 9407.00000    5.72470  686.18360  659.97530    9.05870    0.12390  123.00390   39.18130    5.25230  -19.87330    0.18930
 9407.50000   12.26130  823.47790  807.67400    8.80650    0.07860  118.20640   40.51590    5.24120  -19.84670    0.14090
