~Version ---------------------------------------------------
VERS.   2.0 : CWLS log ASCII Standard -VERSION 2.0
WRAP.    NO : One line per depth step
DLM . SPACE : Column Data Section Delimiter
~Well ------------------------------------------------------
STRT .FT                8880.0 : START DEPTH
STOP .FT               11092.0 : STOP DEPTH
STEP .FT                   0.5 : STEP
NULL .                -9999.25 : NULL VALUE
COMP .                         : COMPANY
WELL .                         : WELL
FLD  .                         : FIELD
LOC  .                         : LOCATION
PROV .                         : PROVINCE
CNTY .                         : COUNTY
STAT .                         : STATE
CTRY .                         : COUNTRY
SRVC .                         : SERVICE COMPANY
DATE .                         : DATE
UWI  .                         : UNIQUE WELL ID
API  .                         : API NUMBER
SLAT .WGS84  6.408765936937996 : SURFACE LATITUDE
SLON .WGS84 3.6245272197060956 : SURFACE LONGITUDE
DATUM.F                    nan : DEPTH DATUM ELEV
~Curve Information -----------------------------------------
DEPT   .FT    : 
AT10   .OHMM  : ARRAY INDUCTION TWO FOOT RESISTIVITY A10
AT30   .OHMM  : ARRAY INDUCTION TWO FOOT RESISTIVITY A30
AT90   .OHMM  : ARRAY INDUCTION TWO FOOT RESISTIVITY A90
CALR   .IN    : CALIPER FROM RESISTIVITY LOG
DPHZ_LS.DEC   : HGRD STANDARD RESOLUTION DENSITY POROSITY
DTSM   .US/F  : DELTA-T SHEAR
ECGRS  .GAPI  : ENVIRONMENTALLY CORRECTED GAMMA RAY FROM SONIC LOG
PEFZ   .B/E   : HRDD STANDARD RESOLUTION FORMATION PHOTOELECTRIC FACTOR
SPR    .MV    : SPONTANEOUS POTENTIAL FROM RESISTIVITY LOG
TNPH_LS.DEC   : THERMAL NEUTRON POROSITY [LIMESTONE]
~Params ----------------------------------------------------
~Other -----------------------------------------------------
~ASCII -----------------------------------------------------
# ...
 11025.00000    1.64660  449.78480  442.44940    8.63260    0.06520  107.57350   42.74970    3.66700  -55.74140   -9999.25
 11025.50000    1.69160  454.08320  446.92650    8.67510    0.06350  107.71750   43.80870    3.71280  -55.86750   -9999.25
 11026.00000    1.68010  454.08320  442.74780    8.68570    0.05860  108.33730   45.20790    3.77080  -55.95250   -9999.25
 11026.50000    1.61620  442.57050  432.30120    8.69630    0.05440  109.05640   45.07250    3.86620  -56.02720   -9999.25
 11027.00000    1.59640  440.65130  428.12260    8.70690    0.05360  109.38210   44.30670    3.97090  -56.10190   -9999.25
 11027.50000    1.94890  484.16950  504.23400    8.71330    0.05580  109.39490   43.36390    4.04410  -56.17670   -9999.25
 11028.00000    2.46980  521.77730  580.34530    8.74240    0.05760  109.40760   42.78720    4.00570  -56.25140   -9999.25
 11028.50000    2.99070  559.38520  656.45660    8.75360    0.05520  108.82240   42.45200    3.95780  -56.16170   -9999.25
 11029.00000    3.51160  596.99310  705.34680    8.76480    0.05120  108.08770   41.81690    3.90980  -55.82550   -9999.25
 11029.50000    4.03240  634.60100  707.49590    8.75360    0.04620  107.35300   41.22750    3.92360  -55.48930   -9999.25
 11030.00000    4.24080  644.80910  693.76600    8.65280    0.03610  106.61830   41.01750    3.91880  -55.15300   -9999.25
 11030.50000    3.98680  623.73220  659.44130    8.59220    0.02660  105.81410   40.56150    3.91180  -55.08580   -9999.25
 11031.00000    3.61070  597.38590  625.11650    8.59410    0.01900  104.84640   40.07400    3.91790  -55.08580   -9999.25
 11031.50000    3.23470  571.03970  590.79180    8.60320    0.01950  104.52060   40.69360    3.96750  -55.13330   -9999.25
 11032.00000    2.85860  544.69350  554.55680    8.61240    0.02220  103.86850   41.62910    4.02610  -55.19260   -9999.25
 11032.50000    2.48260  518.34720  517.84430    8.55190    0.02620  103.90340   42.32380    4.10790  -55.25190   -9999.25
 11033.00000    2.20180  507.80870  481.13180    8.55190    0.02460  104.27660   42.11190    4.22700  -55.31130   -9999.25
 11033.50000    2.20180  511.56960  465.73050    8.52500    0.02220  104.65300   42.68030    4.28580  -55.37060   -9999.25
 11034.00000    2.25700  515.86760  465.73050    8.51150    0.02140  105.33300   43.93850    4.24550  -55.42990   -9999.25
 11034.50000    2.20560  513.18100  468.66100   -9999.25   -9999.25  106.01310   -9999.25   -9999.25  -55.48930   -9999.25
 11035.00000    2.17480  507.80870  475.98720   -9999.25   -9999.25  106.60810   -9999.25   -9999.25  -55.48930   -9999.25
 11035.50000    2.17480  507.80870  481.84820   -9999.25   -9999.25  106.65540   -9999.25   -9999.25  -55.52290   -9999.25
 11036.00000    3.06390  517.01890  500.95050   -9999.25   -9999.25  106.17100   -9999.25   -9999.25  -55.69100   -9999.25
 11036.50000    4.20200  549.63800  529.30580   -9999.25   -9999.25  105.37040   -9999.25   -9999.25  -56.84910   -9999.25
 11037.00000    4.70620  551.83390  546.31900   -9999.25   -9999.25  104.96310   -9999.25   -9999.25  -58.00720   -9999.25
 11037.50000    3.66290  530.19450  517.77720   -9999.25   -9999.25  104.26420   -9999.25   -9999.25  -59.16530   -9999.25
 11038.00000    2.82140  508.55500  489.23540   -9999.25   -9999.25  104.06890   -9999.25   -9999.25  -60.32340   -9999.25
 11038.50000    2.28250  486.91550  460.69360   -9999.25   -9999.25  103.68850   -9999.25   -9999.25  -61.48150   -9999.25
 11039.00000    2.17480  475.57340  454.98530   -9999.25   -9999.25  103.18020   -9999.25   -9999.25  -62.75170   -9999.25
 11039.50000    2.51170  478.25970  454.98530   -9999.25   -9999.25  102.83410   -9999.25   -9999.25  -63.15520   -9999.25
 11040.00000    3.10820  496.57530  478.86340   -9999.25   -9999.25  102.48800   -9999.25   -9999.25  -63.24900   -9999.25
 11040.50000    3.56930  514.89080  497.96590   -9999.25   -9999.25  102.38220   -9999.25   -9999.25  -63.34280   -9999.25
 11041.00000    3.57600  518.55390  497.96590   -9999.25   -9999.25  102.19540   -9999.25   -9999.25  -63.43670   -9999.25
 11041.50000    3.45610  506.46570  490.80240   -9999.25   -9999.25  102.38550   -9999.25   -9999.25  -63.53050   -9999.25
 11042.00000    3.61360  502.43630  489.90690   -9999.25   -9999.25  102.38030   -9999.25   -9999.25  -63.62430   -9999.25
 11042.50000    4.03790  517.31410  503.33840   -9999.25   -9999.25  102.37510   -9999.25   -9999.25  -63.71820   -9999.25
 11043.00000    4.86360  535.91150  516.76980   -9999.25   -9999.25  102.19540   -9999.25   -9999.25  -63.81200   -9999.25
 11043.50000    5.34750  550.78930  522.14240   -9999.25   -9999.25  102.19340   -9999.25   -9999.25  -63.90580   -9999.25
 11044.00000    4.89520  547.43140  512.22380   -9999.25   -9999.25  102.19140   -9999.25   -9999.25  -64.14140   -9999.25
 11044.50000    4.11360  525.60540  495.69280   -9999.25   -9999.25  102.18940   -9999.25   -9999.25  -64.58970   -9999.25
 11045.00000    3.53590  503.77940  479.16180   -9999.25   -9999.25  102.20610   -9999.25   -9999.25  -64.76910   -9999.25
 11045.50000    3.22160  486.31860  473.78930   -9999.25   -9999.25  102.25080   -9999.25   -9999.25  -64.84980   -9999.25
 11046.00000    3.25020  489.00440  473.78930   -9999.25   -9999.25  102.29540   -9999.25   -9999.25  -65.05150   -9999.25
 11046.50000    3.49530  494.91460  481.84820   -9999.25   -9999.25  102.34010   -9999.25   -9999.25  -65.33670   -9999.25
 11047.00000    3.86750  511.03230  494.57270   -9999.25   -9999.25  102.38480   -9999.25   -9999.25  -65.34660   -9999.25
 11047.50000    4.34330  527.15000  507.29720   -9999.25   -9999.25  102.33050   -9999.25   -9999.25  -65.35650   -9999.25
 11048.00000    5.01640  543.26770  520.02170   -9999.25   -9999.25  102.25140   -9999.25   -9999.25  -65.36640   -9999.25
 11048.50000    5.75300  556.16180  532.88760   -9999.25   -9999.25  102.19120   -9999.25   -9999.25  -65.43580   -9999.25
 11049.00000    6.19820  556.16180  538.26010   -9999.25   -9999.25  102.20590   -9999.25   -9999.25  -65.74340   -9999.25
 11049.50000    5.40330  548.10420  524.48490   -9999.25   -9999.25  102.39010   -9999.25   -9999.25  -66.05110   -9999.25
 11050.00000    4.77610  534.67490  513.39610   -9999.25   -9999.25  102.27260   -9999.25   -9999.25  -66.35870   -9999.25
 11050.50000    4.46500  527.96820  502.30740   -9999.25   -9999.25  102.22930   -9999.25   -9999.25  -66.71370   -9999.25
 11051.00000    4.17960  519.92070  491.21860   -9999.25   -9999.25  102.19380   -9999.25   -9999.25  -65.98350   -9999.25
 11051.50000    3.54680  497.48350  471.13900   -9999.25   -9999.25  102.24780   -9999.25   -9999.25  -66.15890   -9999.25
 11052.00000    2.76610  466.79580  437.57330   -9999.25   -9999.25  102.32430   -9999.25   -9999.25  -66.20640   -9999.25
 11052.50000    2.23550  436.10810  404.00760   -9999.25   -9999.25  102.40070   -9999.25   -9999.25  -66.33250   -9999.25
 11053.00000    1.99500  421.91980  404.01400   -9999.25   -9999.25  102.53060   -9999.25   -9999.25  -66.58470   -9999.25
 11053.50000    2.01410  416.55990  404.03190   -9999.25   -9999.25  102.34700   -9999.25   -9999.25  -66.98710   -9999.25
 11054.00000    2.14210  419.48060  408.78390   -9999.25   -9999.25  102.33540   -9999.25   -9999.25  -66.85740   -9999.25
 11054.50000    2.41550  434.04350  416.69610   -9999.25   -9999.25  102.33060   -9999.25   -9999.25  -66.64540   -9999.25
 11055.00000    2.65400  448.60650  424.60830   -9999.25   -9999.25  102.35250   -9999.25   -9999.25  -66.43340   -9999.25
 11055.50000    2.73660  457.79770  436.08050   -9999.25   -9999.25  102.24760   -9999.25   -9999.25  -66.22140   -9999.25
 11056.00000    2.66500  453.60770  435.00960   -9999.25   -9999.25  102.19360   -9999.25   -9999.25  -65.82850   -9999.25
 11056.50000    2.51770  449.48690  432.51260   -9999.25   -9999.25  102.19980   -9999.25   -9999.25  -65.37430   -9999.25
 11057.00000    2.46940  446.60610  433.41590   -9999.25   -9999.25  102.38030   -9999.25   -9999.25  -65.17250   -9999.25
 11057.50000    2.39530  448.68480  433.55250   -9999.25   -9999.25   -9999.25   -9999.25   -9999.25  -65.35500   -9999.25
