~Version ---------------------------------------------------
VERS.   2.0 : CWLS log ASCII Standard -VERSION 2.0
WRAP.    NO : One line per depth step
DLM . SPACE : Column Data Section Delimiter
~Well ------------------------------------------------------
STRT .FT                8880.0 : START DEPTH
STOP .FT               11092.0 : STOP DEPTH
STEP .FT                   0.5 : STEP
NULL .                -9999.25 : NULL VALUE
COMP .                         : COMPANY
WELL .                         : WELL
FLD  .                         : FIELD
LOC  .                         : LOCATION
PROV .                         : PROVINCE
CNTY .                         : COUNTY
STAT .                         : STATE
CTRY .                         : COUNTRY
SRVC .                         : SERVICE COMPANY
DATE .                         : DATE
UWI  .                         : UNIQUE WELL ID
API  .                         : API NUMBER
SLAT .WGS84  6.408765936937996 : SURFACE LATITUDE
SLON .WGS84 3.6245272197060956 : SURFACE LONGITUDE
DATUM.F                    nan : DEPTH DATUM ELEV
~Curve Information -----------------------------------------
DEPT   .FT    : 
AT10   .OHMM  : ARRAY INDUCTION TWO FOOT RESISTIVITY A10
AT30   .OHMM  : ARRAY INDUCTION TWO FOOT RESISTIVITY A30
AT90   .OHMM  : ARRAY INDUCTION TWO FOOT RESISTIVITY A90
CALR   .IN    : CALIPER FROM RESISTIVITY LOG
DPHZ_LS.DEC   : HGRD STANDARD RESOLUTION DENSITY POROSITY
DTSM   .US/F  : DELTA-T SHEAR
ECGRS  .GAPI  : ENVIRONMENTALLY CORRECTED GAMMA RAY FROM SONIC LOG
PEFZ   .B/E   : HRDD STANDARD RESOLUTION FORMATION PHOTOELECTRIC FACTOR
SPR    .MV    : SPONTANEOUS POTENTIAL FROM RESISTIVITY LOG
TNPH_LS.DEC   : THERMAL NEUTRON POROSITY [LIMESTONE]
~Params ----------------------------------------------------
~Other -----------------------------------------------------
~ASCII -----------------------------------------------------
# ...
 10464.00000 1041.15670 1353.63520 1375.25570    8.64810    0.02480   98.99610   14.80880    5.04000  -69.50210    0.02850
 10464.50000 1041.15670 1350.95150 1368.89340    8.65000    0.02460   98.79870   13.70640    5.03710  -69.46330    0.02900
 10465.00000 1098.00780 1346.47350 1362.53110    8.65190    0.02330   98.95280   13.71660    5.03430  -69.42450    0.02950
 10465.50000 1228.18530 1339.01010 1356.16880    8.65900    0.02420   99.71610   15.01050    5.03140  -69.40900    0.02810
 10466.00000 1355.55490 1337.51740 1352.21270    8.66350    0.02480  100.35170   15.77700    5.06300  -69.36410    0.02770
 10466.50000 1471.34120 1341.10090 1352.21270    8.66180    0.02480   99.38000   16.11510    5.10330  -69.28940    0.02570
 10467.00000 1541.35100 1356.32280 1354.89640    8.65500    0.02470   98.98670   15.80390    5.11140  -69.21470    0.02000
 10467.50000 1645.89800 1375.42550 1383.10450    8.64810    0.02460   98.41610   15.51960    5.11140  -69.14000    0.01920
 10468.00000 1759.24880 1390.35010 1403.24980    8.64340    0.02380   97.84550   15.24980    5.10130  -69.06530    0.01900
 10468.50000 1852.38180 1415.42270 1413.99630    8.64730    0.02000   97.27490   15.29280    5.05100  -69.00550    0.01930
 10469.00000 1945.60840 1487.18490 1521.44760    8.65420    0.01620   96.66080   17.19820    5.00060  -69.00550    0.01910
 10469.50000 2081.07860 1606.14860 1623.52760    8.67290    0.01240   96.39270   18.08730    4.97040  -69.00550    0.01800
 10470.00000 2068.28800 1577.94110 1602.21460    8.66510    0.00890   96.13040   18.15650    4.97040  -69.02500    0.01690
 10470.50000 2055.49730 1530.92850 1555.65120    8.66870    0.00860   95.12990   16.13720    5.05430  -69.05760    0.01580
 10471.00000   -9999.25 1483.91590 1509.08780    8.67220    0.00870   95.17920   14.14390    5.13820  -69.09010    0.01560
 10471.50000   -9999.25 1456.24720 1471.74760    8.66800    0.01230   95.37200   13.99020    5.17180  -69.12260    0.01560
 10472.00000   -9999.25 1433.41440 1448.24220    8.66820    0.01700   95.73440   13.99920    5.17180  -69.15520    0.01680
 10472.50000   -9999.25 1410.58160 1424.73670    8.67060    0.01880   96.33040   15.04500    5.16650  -69.18770    0.01840
 10473.00000   -9999.25 1387.74880 1405.93240    8.66540    0.02120   96.77080   14.33330    5.16050  -69.20720    0.02010
 10473.50000   -9999.25 1380.49460 1400.56110    8.66540    0.02130   97.21120   13.99020    5.15730  -69.20720    0.02020
 10474.00000   -9999.25 1390.41350 1403.24480    8.66850    0.02000   97.55270   13.06040    5.16510  -69.61810    0.01920
 10474.50000   -9999.25 1406.94500 1417.25430    8.67170    0.01340   97.49820   12.77790    5.15280  -69.63660    0.01810
 10475.00000   -9999.25 1423.47650 1431.64480    8.66890    0.00770   97.44380   12.76030    5.14910  -69.65510    0.01710
 10475.50000   -9999.25 1415.41570 1446.03530    8.66570    0.01130   97.09000   13.52900    5.15960  -69.67360    0.01660
 10476.00000   -9999.25 1401.98450 1442.00590    8.67290    0.01570   96.78800   13.03880    5.18830  -69.69210    0.01830
 10476.50000   -9999.25 1388.55340 1424.73690    8.67290    0.02020   96.46620   12.90800    5.18580  -69.71060    0.01910
 10477.00000   -9999.25 1375.12230 1407.46790    8.67290    0.02290   96.41250   13.42900    5.18560  -69.72920    0.01980
 10477.50000   -9999.25 1364.37610 1390.19890    8.67290    0.02300   96.18510   13.08230    5.18530  -69.74770    0.02050
 10478.00000   -9999.25 1357.66030 1371.00850    8.67460    0.02320   96.42460   12.74490    5.19190  -69.76620    0.02120
 10478.50000   -9999.25 1356.31720 1372.16030    8.66440    0.02370   96.24480   11.83780    5.22550  -69.78470    0.02190
 10479.00000   -9999.25 1356.31720 1373.69610    8.66560    0.02560   96.00940   11.27780    5.25460  -69.80320    0.02180
 10479.50000   -9999.25 1356.31720 1379.06730    8.67290    0.02670   95.77400   11.53040    5.27700  -69.82170    0.02060
 10480.00000   -9999.25 1365.27040 1390.48660    8.67580    0.02780   95.35290   11.69920    5.30070  -69.84020    0.01930
 10480.50000   -9999.25 1377.31820 1420.70700    8.66470    0.02840   95.22100   12.45280    5.37820  -69.85870    0.01930
 10481.00000   -9999.25 1401.73840 1450.92750    8.65370    0.02280   94.94110   12.96530    5.46090  -69.87720    0.01930
 10481.50000   -9999.25 1426.15860 1465.92500    8.64270    0.01010   94.71300   13.06780    5.49300  -69.89570    0.01800
 10482.00000   -9999.25 1428.84620 1473.08930    8.64270    0.00390   94.76280   12.32820    5.46630  -69.91420    0.01590
 10482.50000   -9999.25 1428.84620 1478.46050    8.64270    0.00260   94.63460   11.89810    5.37920  -69.93270    0.01370
 10483.00000   -9999.25 1434.21750 1489.20700    8.64270    0.00610   94.52170   11.89810    5.27360  -69.95120    0.01010
 10483.50000   -9999.25 1457.98180 1527.82150    8.63930    0.00620   94.36150   12.76030    5.16970  -69.96980    0.00880
 10484.00000   -9999.25 1481.74610 1566.43610    8.63600    0.00600   94.20840   12.86020    5.12210  -69.98830    0.00860
 10484.50000   -9999.25 1496.00470 1605.05060    8.63260    0.00830   94.23700   12.14530    5.12220  -70.00680    0.00820
 10485.00000   -9999.25 1511.04650 1615.46110    8.64270    0.00850   94.26560   11.01740    5.16550  -70.01420    0.00780
 10485.50000   -9999.25 1535.22280 1615.46110    8.64290    0.00770   94.29420   11.16780    5.20100  -70.01420    0.00740
 10486.00000   -9999.25 1559.39910 1626.20680    8.64310    0.00650   94.30010   11.89810    5.22420  -70.01420    0.00710
 10486.50000   -9999.25 1576.29300 1659.78400    8.64330    0.00690   94.21520   12.32980    5.25390  -70.01420    0.00700
 10487.00000   -9999.25 1582.26320 1693.36120    8.64360    0.00820   94.55540   12.25290    5.26090  -70.01420    0.00700
 10487.50000   -9999.25 1568.21650 1686.27930    8.64380    0.00950   94.46000   12.48210    5.27230  -70.01420    0.00750
 10488.00000   -9999.25 1545.30440 1650.86980    8.64400    0.00960   94.38440   12.78980    5.27000  -70.01420    0.00800
 10488.50000   -9999.25 1522.39240 1615.46030    8.65290    0.01090   94.60430   13.06780    5.26760  -70.01420    0.00860
 10489.00000   -9999.25 1504.06280 1580.05080    8.65980    0.01190   95.44520   12.55530    5.25610  -70.01420    0.00920
 10489.50000   -9999.25 1496.00390 1544.64130    8.66210    0.01350   96.05830   11.53610    5.20800  -70.01420    0.01020
 10490.00000   -9999.25 1506.21040 1534.87170    8.66210    0.01540   96.67140   12.51840    5.14570  -70.01420    0.01020
 10490.50000   -9999.25 1530.38680 1567.49070    8.66870    0.01640   97.28450   13.17620    5.07390  -70.01420    0.01120
 10491.00000   -9999.25 1554.56310 1600.10970    8.65810    0.01520   97.89760   14.09780    5.01070  -70.01420    0.01120
 10491.50000   -9999.25 1580.81170 1632.72870    8.64750    0.01540   98.51070   13.09870    5.04020  -70.11500    0.01320
 10492.00000   -9999.25 1615.34970 1665.34770    8.63680    0.01550   98.64780   12.48210    5.11410  -70.21590    0.01370
 10492.50000   -9999.25 1622.25720 1671.87150    8.64200    0.01570   99.30790   12.32600    5.18790  -70.25260    0.01400
 10493.00000   -9999.25 1614.19840 1657.41570    8.68010    0.01230   99.34590   13.79030    5.23220  -70.43600    0.01340
 10493.50000   -9999.25 1596.37150 1642.70540    8.68030    0.00800   99.38400   14.43810    5.23220  -70.61940    0.01250
 10494.00000   -9999.25 1571.95130 1627.99510    8.68050    0.00380   99.47400   14.53050    5.15390  -70.55630    0.01150
 10494.50000   -9999.25 1552.41520 1613.28480    8.68070    0.00210   99.02700   14.62290    5.07560  -70.24110    0.01040
 10495.00000   -9999.25 1555.09880 1604.71310    8.68090    0.00290   98.62620   14.71530    4.99730  -69.92590    0.00850
 10495.50000   -9999.25 1581.96230 1608.74180    8.68110    0.00290   98.14130   14.80770    4.95030  -69.61070    0.00660
 10496.00000   -9999.25 1609.94500 1642.58940    8.68130    0.00290   97.53010   14.90010    4.95960  -70.01420    0.00470
 10496.50000   -9999.25 1637.92760 1692.28630    8.68150    0.00370   96.91880   14.99250    4.98280  -70.01420    0.00320
