~Version ---------------------------------------------------
VERS.   2.0 : CWLS log ASCII Standard -VERSION 2.0
WRAP.    NO : One line per depth step
DLM . SPACE : Column Data Section Delimiter
~Well ------------------------------------------------------
STRT .FT                8880.0 : START DEPTH
STOP .FT               11092.0 : STOP DEPTH
STEP .FT                   0.5 : STEP
NULL .                -9999.25 : NULL VALUE
COMP .                         : COMPANY
WELL .                         : WELL
FLD  .                         : FIELD
LOC  .                         : LOCATION
PROV .                         : PROVINCE
CNTY .                         : COUNTY
STAT .                         : STATE
CTRY .                         : COUNTRY
SRVC .                         : SERVICE COMPANY
DATE .                         : DATE
UWI  .                         : UNIQUE WELL ID
API  .                         : API NUMBER
SLAT .WGS84  6.408765936937996 : SURFACE LATITUDE
SLON .WGS84 3.6245272197060956 : SURFACE LONGITUDE
DATUM.F                    nan : DEPTH DATUM ELEV
~Curve Information -----------------------------------------
DEPT   .FT    : 
AT10   .OHMM  : ARRAY INDUCTION TWO FOOT RESISTIVITY A10
AT30   .OHMM  : ARRAY INDUCTION TWO FOOT RESISTIVITY A30
AT90   .OHMM  : ARRAY INDUCTION TWO FOOT RESISTIVITY A90
CALR   .IN    : CALIPER FROM RESISTIVITY LOG
DPHZ_LS.DEC   : HGRD STANDARD RESOLUTION DENSITY POROSITY
DTSM   .US/F  : DELTA-T SHEAR
ECGRS  .GAPI  : ENVIRONMENTALLY CORRECTED GAMMA RAY FROM SONIC LOG
PEFZ   .B/E   : HRDD STANDARD RESOLUTION FORMATION PHOTOELECTRIC FACTOR
SPR    .MV    : SPONTANEOUS POTENTIAL FROM RESISTIVITY LOG
TNPH_LS.DEC   : THERMAL NEUTRON POROSITY [LIMESTONE]
~Params ----------------------------------------------------
~Other -----------------------------------------------------
~ASCII -----------------------------------------------------
# ...
 9210.00000    8.58560  800.77880  791.25470    8.85660    0.02760  122.06340   32.29040    4.49790  -20.97260    0.08910
 9210.50000    8.58570  804.81670  795.29800    8.85300    0.02880  122.61720   32.74630    4.45730  -20.77370    0.08670
 9211.00000    8.80330  810.19860  800.65850    8.84940    0.02880  122.35850   33.51500    4.51260  -20.77370    0.08620
 9211.50000    9.13400  815.58060  806.01910    8.84580    0.02810  123.00440   34.28370    4.56800  -20.77370    0.08510
 9212.00000    8.99520  815.58990  806.02840    8.84220    0.02780  123.46100   34.49510    4.60120  -20.77370    0.08520
 9212.50000    8.80280  812.54750  802.99900    8.83860    0.02730  123.64500   35.51360    4.58810  -20.95560    0.08550
 9213.00000    8.87610  809.50500  799.96960    8.83130    0.02550  123.82900   34.62510    4.56240  -20.85300    0.08560
 9213.50000    8.76060  806.46260  796.94010    8.82510    0.02410  124.09440   33.70900    4.56350  -20.76940    0.08560
 9214.00000    8.57040  803.42010  793.91070    8.82550    0.02590  124.68510   32.37290    4.56470  -20.76940    0.08350
 9214.50000    8.38030  802.20980  792.70700    8.82590    0.02890  124.59870   32.14910    4.58810  -20.76940    0.08300
 9215.00000    8.38070  800.89170  791.37540    8.82630    0.03350  125.16670   32.56500    4.56800  -20.93490    0.08390
 9215.50000    8.38110  797.58310  788.02980    8.82660    0.03260  124.77740   33.79130    4.56300  -21.01250    0.08500
 9216.00000    8.38160  794.97140  785.41730    8.82700    0.03280  124.33370   34.47130    4.56330  -21.09010    0.08560
 9216.50000    8.38160  796.19290  786.65030    8.82740    0.03260  123.93420   32.63870    4.56920  -21.16760    0.08440
 9217.00000    8.38160  797.41430  787.88340    8.79200    0.03350  123.71120   30.44020    4.57520  -21.60630    0.08340
 9217.50000    8.38160  798.63580  789.11640    8.79130    0.03250  123.46170   30.72580    4.58110  -21.57000    0.08300
 9218.00000    8.38160  799.85730  790.34940    8.79060    0.03390  122.43750   31.05520    4.59790  -21.57000    0.08300
 9218.50000    8.38160  801.07880  791.58250    8.78990    0.03460  121.41330   31.82390    4.60830  -21.73470    0.08320
 9219.00000    8.38900  802.30030  792.81700    8.78930    0.03310  120.30120   33.70560    4.58470  -21.76880    0.08360
 9219.50000    8.40110  802.31110  792.82850    8.78860    0.03050  118.29460   33.97620    4.56120  -21.74630    0.08400
 9220.00000    8.41330  804.25720  794.72560    8.78790    0.03010  115.67070   31.18080    4.58510  -21.59970    0.08430
 9220.50000    8.42070  805.43300  795.86930    8.78730    0.03120  113.04690   24.97680    4.59380  -21.51490    0.08460
 9221.00000    8.72760  813.12610  803.56500    8.78660    0.03200  111.74430   20.54060    4.61130  -21.46030    0.08190
 9221.50000    9.86180  838.78100  829.21980    8.78590    0.02750  112.15540   18.58840    4.67170  -21.32670    0.06500
 9222.00000   12.95490  895.75070  875.07830    8.78530    0.01780  115.96010   19.78890    4.78820  -21.19310    0.04290
 9222.50000   17.62790  965.14530  945.16830    8.78460    0.00670  118.81640   23.06080    4.91450  -21.05950    0.02080
 9223.00000   37.69850 1126.65630 1045.17730    8.78390   -0.00440  121.97170   27.74990    5.04070  -20.92590    0.00950
 9223.50000   42.29000 1130.06750 1082.50800    8.78330    0.00090  124.40300   31.55640    5.09120  -20.73620    0.01270
 9224.00000   23.46600 1021.61770  997.77800    8.79360    0.00980  127.14700   34.28760    5.03330  -20.29030    0.03080
 9224.50000   13.97730  846.79130  837.23020    8.80390    0.01870  129.88550   37.06640    4.93870  -19.99410    0.04270
 9225.00000    6.82240  759.71510  750.15410    8.81410    0.02220  130.49280   39.05580    4.82940  -20.40440    0.06420
 9225.50000    5.98670  731.29820  721.73720    8.82440    0.02220  129.72480   37.60200    4.62800  -19.98440    0.08560
 9226.00000    5.60580  717.00580  707.44480    8.82460    0.02410  127.79280   35.70110    4.54750  -20.01050    0.09950
 9226.50000    5.40210  708.95780  699.39680    8.81880    0.02740  121.93830   34.37600    4.54750  -20.06200    0.10710
 9227.00000    5.53970  714.18600  704.62500    8.81300    0.02850  118.89820   36.90340    4.55220  -20.07690    0.10710
 9227.50000    6.94990  758.27300  748.71190    8.80720    0.03230  116.37010   35.86750    4.56040  -20.10070    0.10550
 9228.00000   10.39610  851.40090  841.83980    8.80140    0.03110  110.50320   33.18450    4.55760  -20.12460    0.10280
 9228.50000    9.96290  813.15130  803.59030    8.79550    0.02820  108.45250   29.33410    4.55490  -20.14840    0.09410
 9229.00000   11.24750  770.98720  761.42570    8.78970    0.01900  106.00870   26.50940    4.61900  -20.17230    0.08380
 9229.50000   16.35090  863.23600  853.67430    8.78390    0.00290  103.76460   23.77180    4.70260  -20.19610    0.06920
 9230.00000   29.64140 1031.65740 1021.79830    8.77810   -0.00710  104.07300   22.71610    4.80270  -20.22000    0.05460
 9230.50000   40.27400 1086.44070 1075.09170    8.77230   -0.01230  104.38140   22.01550    4.90530  -20.24380    0.04000
 9231.00000   42.71130 1141.22400 1121.08830    8.76640   -0.00760  104.79190   21.99620    5.01400  -20.26760    0.03370
 9231.50000   45.57010 1165.83700 1139.24090    8.76060   -0.00440  106.25030   21.93410    5.01400  -20.29150    0.03120
 9232.00000   40.11330 1138.30100 1092.25230    8.75480   -0.00260  108.13510   23.21450    5.00950  -20.31530    0.03150
 9232.50000   34.11470 1106.90780 1064.36590    8.74900   -0.00080  109.48030   22.78260    4.99910  -20.33920    0.03210
 9233.00000   31.40720 1074.21760 1031.55270    8.74670    0.00350  110.67860   22.00550    4.99910  -20.36300    0.03290
 9233.50000   30.13900 1052.26810 1012.17210    8.74670    0.00960  111.84830   22.51850    4.99910  -20.38690    0.03510
 9234.00000   24.18550 1007.86050  988.11170    8.74670    0.01600  114.14090   24.13700    4.99790  -20.41070    0.03730
 9234.50000   16.97590  963.45300  950.98080    8.74670    0.01710  115.41970   25.47230    4.99590  -20.43460    0.03940
 9235.00000   19.02630  954.20890  944.64760    8.74670    0.01040  116.53870   26.59680    5.01400  -20.45840    0.04000
 9235.50000   22.00250 1010.19380 1000.63230    8.74770    0.00720  118.29290   27.29300    5.01400  -20.48230    0.04010
 9236.00000   20.30230  990.40000  980.83900    8.74790    0.00920  119.71340   28.74470    4.97010  -20.50610    0.04410
 9236.50000   17.46800  961.87820  952.31720    8.74790    0.01490  120.18040   27.88310    4.92370  -20.53000    0.05170
 9237.00000   15.57430  933.35650  923.79540    8.74790    0.01980  120.99470   29.12610    4.87740  -20.55380    0.05640
 9237.50000   14.21890  910.48100  900.92000    8.74860    0.01980  121.41220   31.05520    4.81600  -20.57760    0.06060
 9238.00000   12.76340  896.07510  886.51400    8.74880    0.01400  121.82970   33.23830    4.77090  -20.60150    0.06360
 9238.50000   12.05980  881.66910  872.10790    8.77020    0.00820  122.24720   33.16140    4.78250  -20.62530    0.06910
 9239.00000   11.54410  867.26310  857.70190    8.79160    0.00640  122.61370   32.13140    4.74100  -20.64920    0.07450
 9239.50000   10.83980  852.85710  843.29590    8.81310    0.01200  123.14890   32.13140    4.68880  -20.67300    0.08270
 9240.00000   10.11320  838.45120  828.88990    8.83030    0.01640  123.31920   33.32640    4.61470  -20.69690    0.09160
 9240.50000    9.99040  833.10030  823.53870    8.83050    0.02010  123.66670   34.28370    4.60120  -20.72070    0.08910
 9241.00000    9.86760  835.80560  826.24450    8.84880    0.02330  123.96780   33.66880    4.60290  -20.74460    0.08510
 9241.50000    9.96680  841.79600  832.23500    8.84400    0.02460  123.88140   32.90010    4.64860  -20.76840    0.08460
 9242.00000   10.09060  846.59110  837.03010    8.83910    0.02410  123.87220   32.41410    4.66160  -20.79230    0.08460
 9242.50000   10.09100  846.30410  836.74310    8.83430    0.02280  124.48160   31.90600    4.65040  -20.81610    0.08640
