~Version ---------------------------------------------------
VERS.   2.0 : CWLS log ASCII Standard -VERSION 2.0
WRAP.    NO : One line per depth step
DLM . SPACE : Column Data Section Delimiter
~Well ------------------------------------------------------
STRT .FT                8880.0 : START DEPTH
STOP .FT               11092.0 : STOP DEPTH
STEP .FT                   0.5 : STEP
NULL .                -9999.25 : NULL VALUE
COMP .                         : COMPANY
WELL .                         : WELL
FLD  .                         : FIELD
LOC  .                         : LOCATION
PROV .                         : PROVINCE
CNTY .                         : COUNTY
STAT .                         : STATE
CTRY .                         : COUNTRY
SRVC .                         : SERVICE COMPANY
DATE .                         : DATE
UWI  .                         : UNIQUE WELL ID
API  .                         : API NUMBER
SLAT .WGS84  6.408765936937996 : SURFACE LATITUDE
SLON .WGS84 3.6245272197060956 : SURFACE LONGITUDE
DATUM.F                    nan : DEPTH DATUM ELEV
~Curve Information -----------------------------------------
DEPT   .FT    : 
AT10   .OHMM  : ARRAY INDUCTION TWO FOOT RESISTIVITY A10
AT30   .OHMM  : ARRAY INDUCTION TWO FOOT RESISTIVITY A30
AT90   .OHMM  : ARRAY INDUCTION TWO FOOT RESISTIVITY A90
CALR   .IN    : CALIPER FROM RESISTIVITY LOG
DPHZ_LS.DEC   : HGRD STANDARD RESOLUTION DENSITY POROSITY
DTSM   .US/F  : DELTA-T SHEAR
ECGRS  .GAPI  : ENVIRONMENTALLY CORRECTED GAMMA RAY FROM SONIC LOG
PEFZ   .B/E   : HRDD STANDARD RESOLUTION FORMATION PHOTOELECTRIC FACTOR
SPR    .MV    : SPONTANEOUS POTENTIAL FROM RESISTIVITY LOG
TNPH_LS.DEC   : THERMAL NEUTRON POROSITY [LIMESTONE]
~Params ----------------------------------------------------
~Other -----------------------------------------------------
~ASCII -----------------------------------------------------
# ...
 10068.00000   -9999.25 1718.62870 1679.93010    8.65870   -0.00330   91.02590   31.71440    4.43310  -57.52570    0.00430
 10068.50000   -9999.25 1713.59200 1696.53760    8.67180   -0.00780   91.26050   34.19620    4.28400  -57.22750    0.00390
 10069.00000   -9999.25 1739.11040 1725.84250    8.67560   -0.00540   91.60310   34.59560    4.18360  -56.92940    0.00450
 10069.50000   -9999.25 1764.62870 1755.14740    8.67780   -0.00290   91.44500   31.63020    4.12160  -56.63120    0.00680
 10070.00000   -9999.25 1759.25750 1755.14740    8.67590   -0.00170   91.60840   28.19060    4.14490  -56.33300    0.00890
 10070.50000   -9999.25 1728.63800 1739.47920    8.67410    0.00060   92.02070   24.65970    4.21890  -56.09440    0.01090
 10071.00000   -9999.25 1717.62360 1728.28750    8.66890    0.00300   92.43310   26.70960    4.27900  -56.05540    0.01300
 10071.50000   -9999.25 1737.38830 1735.00250    8.67900    0.00540   92.84550   29.97900    4.32940  -55.86020    0.01440
 10072.00000   -9999.25 1761.94940 1843.79920    8.68540    0.00810   93.24740   35.01660    4.32940  -55.66490    0.01280
 10072.50000   -9999.25 1711.64010 1683.15860    8.68820    0.01160   93.04150   35.56780    4.31600  -55.46970    0.01010
 10073.00000   -9999.25 1599.30490 1551.20000    8.68690    0.01610   92.83570   34.51490    4.29920  -55.27450    0.00790
 10073.50000   -9999.25 1506.74920 1506.77240    8.68560    0.01970   92.82550   33.46200    4.28240  -55.07930    0.00790
 10074.00000   -9999.25 1494.39330 1462.34480    8.68430    0.01970   92.68310   32.40910    4.27900  -54.88400    0.00790
 10074.50000   -9999.25 1497.42750 1465.03240    8.68300    0.01970   92.93950   31.35620    4.23340  -54.88400    0.00920
 10075.00000   -9999.25 1517.96960 1497.65100    8.68170    0.01960   92.53520   30.30330    4.20050  -54.88400    0.01140
 10075.50000   -9999.25 1538.51170 1530.26960    8.68040    0.01950   92.61020   29.67160    4.20160  -54.88400    0.01360
 10076.00000   -9999.25 1559.05380 1556.36450    8.67920    0.01940   92.52800   29.67160    4.20860  -54.88400    0.01600
 10076.50000   -9999.25 1563.16220 1556.36450    8.67790    0.01940   92.57470   29.67160    4.19250  -54.88400    0.01600
 10077.00000   -9999.25 1571.22110 1556.36450    8.67660    0.01940   92.62140   30.71700    4.16160  -54.88400    0.01600
 10077.50000   -9999.25 1581.96760 1561.73970    8.67530    0.01700   92.66820   31.82390    4.14820  -54.88400    0.01600
 10078.00000   -9999.25 1596.74350 1592.90020    8.67400    0.01550   92.71490   31.82390    4.18480  -54.88400    0.01600
 10078.50000   -9999.25 1608.83180 1631.85080    8.69310    0.01530   92.68220   32.21940    4.26750  -54.90780    0.01610
 10079.00000   -9999.25 1525.55540 1639.64090    8.68830    0.01720   92.42530   32.61500    4.35020  -54.93740    0.01690
 10079.50000   -9999.25 1531.73510 1620.83650    8.68220    0.01780   92.06180   33.01050    4.40050  -54.96710    0.01690
 10080.00000   -9999.25 1549.19510 1612.77660    8.67620    0.01420   91.81920   31.11660    4.40220  -54.99680    0.01550
 10080.50000 1938.29120 1563.16320 1632.17900    8.67010    0.01060   91.96830   28.74910    4.40380  -55.02640    0.01390
 10081.00000 1926.39220 1557.79190 1647.70080    8.66410    0.00700   91.74960   27.33450    4.43740  -55.05610    0.01240
 10081.50000 1791.17070 1536.68490 1645.01320    8.65800    0.00410   91.46610   25.36620    4.45020  -55.08580    0.01160
 10082.00000 1646.35290 1515.57780 1627.55360    8.65200    0.00490   91.40900   25.09440    4.37420  -55.16980    0.01140
 10082.50000 1493.19710 1496.00850 1607.40640    8.64590    0.01320   91.42360   26.50490    4.18980  -55.25390    0.01130
 10083.00000 1403.22100 1514.56700 1588.60100    8.63990    0.02150   91.45620   30.13280    4.10860  -55.33790    0.01170
 10083.50000 1215.08430 1499.91450 1588.60100    8.63380    0.02980   91.48880   34.74490    4.21040  -55.42200    0.01440
 10084.00000 1222.48210 1485.26200 1583.22970    8.65280    0.02820   91.36760   35.51360    4.33840  -55.50600    0.01890
 10084.50000 1417.62670 1487.94960 1550.99420    8.62340    0.02420   91.19200   31.72670    4.44500  -55.59010    0.02350
 10085.00000 1572.87320 1564.05910 1591.82720    8.60230    0.01990   91.34080   26.28930    4.49050  -55.67420    0.02350
 10085.50000 1740.50020 1605.65590 1655.40270    8.63970    0.01430   91.11360   23.25040    4.54890  -55.75820    0.01850
 10086.00000 1876.61460 1638.62450 1718.97830    8.64270    0.00880   90.91760   22.65110    4.61130  -55.84230    0.01350
 10086.50000 1938.80280 1649.12830 1740.37910    8.65430    0.00330   90.72150   24.67500    4.57100  -55.92630    0.00850
 10087.00000 1962.38500 1613.31000 1703.03980    8.66600    0.00330   90.52550   28.13420    4.39030  -56.01040    0.00950
 10087.50000 1986.78290 1620.65310 1693.36760    8.67040    0.00590   90.36870   31.06890    4.19360  -56.09440    0.01330
 10088.00000   -9999.25 1638.38180 1698.09820    8.66350    0.01060   90.59290   30.63300    3.96730  -56.17850    0.01800
 10088.50000   -9999.25 1634.79970 1654.58040    8.66500    0.01520   90.87320   28.97270    3.91920  -56.26250    0.02190
 10089.00000   -9999.25 1614.20650 1611.06260    8.66650    0.02110   90.99920   28.84730    3.88640  -56.34660    0.02240
 10089.50000   -9999.25 1582.86640 1567.54480    8.67290    0.02740   91.03400   29.33810    3.91860  -56.43070    0.02240
 10090.00000   -9999.25 1545.70520 1524.02710    8.67290    0.02980   91.77680   28.95990    4.04830  -56.49790    0.02240
 10090.50000   -9999.25 1512.12840 1486.52520    8.67290    0.02810   92.20740   27.35550    4.26380  -56.49790    0.02070
 10091.00000   -9999.25 1521.40710 1496.93480    8.67290    0.02380   92.26850   26.91860    4.42340  -56.49790    0.01760
 10091.50000   -9999.25 1540.94440 1522.95870    8.68300    0.01950   92.67100   26.90660    4.47710  -56.49790    0.01440
 10092.00000   -9999.25 1560.48170 1548.98260    8.68090    0.01690   93.16940   26.38590    4.44490  -56.49790    0.01390
 10092.50000   -9999.25 1557.79410 1575.17300    8.67290    0.01540   93.66770   26.98860    4.40480  -56.49790    0.01420
 10093.00000   -9999.25 1534.76870 1559.05530    8.67410    0.01450   93.96680   28.28790    4.36460  -56.49790    0.01480
 10093.50000   -9999.25 1525.55850 1537.56620    8.66670    0.01450   93.79460   29.43720    4.32550  -56.52310    0.01480
 10094.00000   -9999.25 1532.27360 1545.62510    8.65930    0.01010   93.84140   29.42090    4.29220  -56.64920    0.01490
 10094.50000   -9999.25 1504.73840 1523.79810    8.67700    0.00580   93.76120   28.94120    4.25320  -56.77530    0.01700
 10095.00000   -9999.25 1504.06950 1510.70190    8.67740    0.00490   94.24620   30.88920    4.23300  -56.90140    0.01970
 10095.50000   -9999.25 1527.47820 1532.19210    8.67290    0.00960   93.93330   31.85940    4.23010  -56.90140    0.01940
 10096.00000   -9999.25 1544.36510 1540.25100    8.68020    0.01170   94.26950   31.61630    4.26530  -57.34150    0.01920
 10096.50000   -9999.25 1541.67740 1533.80540    8.67370    0.01320   94.33610   28.99720    4.27690  -57.89170    0.01920
 10097.00000   -9999.25 1553.76580 1529.50840    8.66720    0.01470   94.29140   26.95540    4.26630  -58.11180    0.01920
 10097.50000   -9999.25 1590.03080 1548.30990    8.66070    0.01620   94.56710   26.36620    4.25570  -58.11180    0.01650
 10098.00000   -9999.25 1593.38840 1573.64010    8.67700    0.01620   94.90150   25.95350    4.24510  -58.06520    0.01490
 10098.50000   -9999.25 1601.78220 1598.58380    8.68010    0.01620   95.23590   25.36690    4.23760  -57.83250    0.01260
 10099.00000   -9999.25 1596.18810 1623.52760    8.67290    0.01700   95.14860   24.79360    4.21360  -57.59980    0.01160
 10099.50000   -9999.25 1573.24210 1625.54110    8.67050    0.02220   94.71300   25.21310    4.15760  -57.36710    0.01150
 10100.00000   -9999.25 1550.29610 1608.75210    8.67760    0.02740   95.22010   27.06740    4.10740  -57.13440    0.01110
 10100.50000   -9999.25 1527.35010 1591.96310    8.67660    0.03150   95.63110   28.24230    4.15410  -56.90170    0.01080
