~Version ---------------------------------------------------
VERS.   2.0 : CWLS log ASCII Standard -VERSION 2.0
WRAP.    NO : One line per depth step
DLM . SPACE : Column Data Section Delimiter
~Well ------------------------------------------------------
STRT .FT                8880.0 : START DEPTH
STOP .FT               11092.0 : STOP DEPTH
STEP .FT                   0.5 : STEP
NULL .                -9999.25 : NULL VALUE
COMP .                         : COMPANY
WELL .                         : WELL
FLD  .                         : FIELD
LOC  .                         : LOCATION
PROV .                         : PROVINCE
CNTY .                         : COUNTY
STAT .                         : STATE
CTRY .                         : COUNTRY
SRVC .                         : SERVICE COMPANY
DATE .                         : DATE
UWI  .                         : UNIQUE WELL ID
API  .                         : API NUMBER
SLAT .WGS84  6.408765936937996 : SURFACE LATITUDE
SLON .WGS84 3.6245272197060956 : SURFACE LONGITUDE
DATUM.F                    nan : DEPTH DATUM ELEV
~Curve Information -----------------------------------------
DEPT   .FT    : 
AT10   .OHMM  : ARRAY INDUCTION TWO FOOT RESISTIVITY A10
AT30   .OHMM  : ARRAY INDUCTION TWO FOOT RESISTIVITY A30
AT90   .OHMM  : ARRAY INDUCTION TWO FOOT RESISTIVITY A90
CALR   .IN    : CALIPER FROM RESISTIVITY LOG
DPHZ_LS.DEC   : HGRD STANDARD RESOLUTION DENSITY POROSITY
DTSM   .US/F  : DELTA-T SHEAR
ECGRS  .GAPI  : ENVIRONMENTALLY CORRECTED GAMMA RAY FROM SONIC LOG
PEFZ   .B/E   : HRDD STANDARD RESOLUTION FORMATION PHOTOELECTRIC FACTOR
SPR    .MV    : SPONTANEOUS POTENTIAL FROM RESISTIVITY LOG
TNPH_LS.DEC   : THERMAL NEUTRON POROSITY [LIMESTONE]
~Params ----------------------------------------------------
~Other -----------------------------------------------------
~ASCII -----------------------------------------------------
# ...
 10332.00000   -9999.25 1597.93300 1686.87960    8.64420    0.01180   97.30590   26.11510    4.02690  -65.71510    0.01560
 10332.50000   -9999.25 1558.61770 1617.82280    8.64440    0.01470   97.73250   27.22680    4.03970  -65.57600    0.01340
 10333.00000   -9999.25 1519.30240 1556.87110    8.64470    0.01550   98.47400   27.54940    4.05250  -66.15940    0.01070
 10333.50000   -9999.25 1489.96570 1509.13640    8.64490    0.01190   98.05070   28.13560    4.07690  -66.13570    0.00810
 10334.00000   -9999.25 1473.86610 1480.50100    8.64520    0.00640   97.52300   27.98320    4.09960  -66.11200    0.00660
 10334.50000   -9999.25 1511.83120 1533.61710    8.64540    0.00420   97.31090   27.21210    3.98070  -66.08840    0.00760
 10335.00000   -9999.25 1593.27920 1622.12610    8.64570    0.01350   97.09870   25.80160    3.76920  -66.06470    0.00850
 10335.50000   -9999.25 1674.72710 1710.63500    8.64330    0.02430   96.88660   25.36690    3.80930  -66.04100    0.00950
 10336.00000   -9999.25 1739.89060 1781.44490    8.65420    0.02430   96.91410   25.87770    3.92770  -66.01740    0.01030
 10336.50000   -9999.25 1738.56770 1784.14310    8.66860    0.01470   97.30470   26.59680    4.10590  -65.99370    0.01110
 10337.00000   -9999.25 1724.35110 1784.17280    8.68300    0.00500   97.48810   26.28930    4.16440  -66.12890    0.01180
 10337.50000   -9999.25 1692.13700 1778.82290    8.68740    0.00580   96.85340   25.36690    4.05990  -66.16470    0.01260
 10338.00000   -9999.25 1672.81670 1746.60670    8.68340    0.01290   97.12870   25.09290    3.90410  -66.15650    0.01340
 10338.50000   -9999.25 1656.71650 1706.33300    8.67610    0.01870   97.42410   25.05940    3.89850  -65.97950    0.01340
 10339.00000   -9999.25 1645.99020 1672.77290    8.68220    0.01870   97.34030   24.17760    3.95800  -66.32240    0.01170
 10339.50000   -9999.25 1635.26240 1668.76020    8.68200    0.01220   96.85130   23.08330    3.96590  -66.37500    0.01000
 10340.00000   -9999.25 1624.74780 1658.03940    8.68180    0.01240   96.66200   25.28630    3.90170  -66.47960    0.00830
 10340.50000   -9999.25 1605.13660 1640.59510    8.68160    0.02110   96.61690   28.24290    4.01260  -66.67430    0.00820
 10341.00000   -9999.25 1585.52530 1607.03620    8.68140    0.02190   96.57190   31.25580    4.18450  -66.89850    0.00940
 10341.50000   -9999.25 1552.07170 1573.47740    8.68120    0.01690   96.40980   31.21180    4.27590  -67.12260    0.01050
 10342.00000   -9999.25 1511.79810 1539.92090    8.68020    0.01300   95.75710   28.24210    4.23240  -67.34680    0.01090
 10342.50000   -9999.25 1495.69950 1556.95480    8.67620    0.01590   95.01500   23.96220    4.15940  -67.57090    0.00940
 10343.00000   -9999.25 1506.46340 1580.25310    8.67210    0.01940   95.18540   22.88270    4.16690  -67.79510    0.00790
 10343.50000   -9999.25 1557.52610 1572.21650    8.66810    0.01660   94.72520   23.67570    4.23440  -67.79510    0.00640
 10344.00000   -9999.25 1543.81260 1573.00350    8.66400    0.01380   94.19850   23.86250    4.18080  -67.87580    0.00640
 10344.50000   -9999.25 1488.61670 1507.78510    8.65500    0.01500   93.39680   23.94590    4.12710  -68.04170    0.00640
 10345.00000   -9999.25 1469.14400 1529.74660    8.64320    0.02510   93.96660   23.25630    4.07340  -68.15370    0.00770
 10345.50000   -9999.25 1523.92310 1571.17860    8.64290    0.03230   93.97170   24.44440    4.09510  -68.38630    0.00870
 10346.00000   -9999.25 1578.70210 1615.29820    8.64270    0.02590   93.74050   25.67440    4.24830  -68.45010    0.00970
 10346.50000   -9999.25 1583.16700 1663.28790    8.65110    0.01780   93.72990   25.40780    4.36480  -68.52920    0.01070
 10347.00000   -9999.25 1565.72530 1686.52480    8.65950    0.01260   94.11400   25.67440    4.33110  -68.66930    0.01170
 10347.50000   -9999.25 1618.25010 1703.47070    8.66790    0.01130   94.64630   25.37770    4.27880  -68.80940    0.01170
 10348.00000   -9999.25 1680.54290 1740.73790    8.67290    0.01050   95.02160   24.98640    4.23800  -68.94950    0.01120
 10348.50000   -9999.25 1705.47350 1778.81340    8.68000    0.01050   94.96300   23.50530    4.23540  -69.71490    0.00960
 10349.00000   -9999.25 1705.49240 1816.89160    8.68000    0.00970   94.65640   23.39450    4.25260  -69.21440    0.00890
 10349.50000   -9999.25 1640.59140 1706.77350    8.68050    0.00500   94.21910   25.20700    4.28290  -69.20840    0.00850
 10350.00000   -9999.25 1615.54200 1667.83730    8.68270    0.00130   94.01830   26.75460    4.31330  -69.59540    0.00840
 10350.50000   -9999.25 1583.11760 1597.32910    8.68490   -0.00240   93.97980   25.70570    4.29940  -69.79560    0.00830
 10351.00000   -9999.25 1565.84860 1583.22750    8.68710    0.00040   94.01130   23.61470    4.19480  -69.80580    0.00810
 10351.50000   -9999.25 1595.39640 1653.07070    8.69270    0.00940   94.08950   21.32850    4.05960  -69.85880    0.00800
 10352.00000   -9999.25 1627.63190 1717.54060    8.68640    0.01840   94.16770   23.44290    4.05540  -69.97600    0.00790
 10352.50000   -9999.25 1597.69900 1624.86560    8.64760    0.02100   94.40660   26.99260    4.26250  -70.09320    0.00930
 10353.00000   -9999.25 1522.86660 1534.87430    8.66150    0.01860   94.95790   29.08550    4.40780  -70.21050    0.01150
 10353.50000   -9999.25 1522.86660 1545.46260    8.66510    0.01250   95.81670   28.12130    4.41850  -70.32770    0.01280
 10354.00000   -9999.25 1541.07430 1584.96650    8.66880    0.01000   96.05830   26.36880    4.42920  -70.44490    0.01280
 10354.50000   -9999.25 1566.44630 1624.47040    8.67250    0.01140   96.10990   25.98970    4.43990  -70.56210    0.01010
 10355.00000   -9999.25 1606.14160 1663.97420    8.64880    0.01280   95.66320   25.98500    4.48450  -70.67930    0.00850
 10355.50000   -9999.25 1637.48160 1671.87500    8.67330    0.01430   94.37440   25.98020    4.50210  -70.79650    0.00850
 10356.00000   -9999.25 1633.00550 1648.84970    8.67590    0.01430   93.71310   25.19720    4.47890  -70.94280    0.00870
 10356.50000   -9999.25 1608.83050 1634.26700    8.67860    0.01370   93.41150   24.26830    4.38480  -71.37650    0.00910
 10357.00000   -9999.25 1622.79660 1647.69840    8.68120    0.01370   93.03410   25.50970    4.32400  -71.15260    0.00950
 10357.50000   -9999.25 1630.31950 1655.75730    8.68390    0.01480   92.65670   26.81330    4.32540  -72.03000    0.00980
 10358.00000   -9999.25 1603.07190 1624.01080    8.68350    0.01590   92.30110   27.27270    4.37390  -72.14090    0.01020
 10358.50000   -9999.25 1541.67200 1592.26440    8.68230    0.01330   92.42350   26.59160    4.39990  -72.32570    0.01060
 10359.00000   -9999.25 1564.38370 1587.25690    8.68100    0.01630   92.47770   25.55930    4.44030  -72.51050    0.01100
 10359.50000   -9999.25 1602.23650 1599.88190    8.67660    0.02180   92.57190   25.05360    4.48070  -72.69530    0.01110
 10360.00000   -9999.25 1624.94820 1610.62640    8.68080    0.02180   92.68160   24.51520    4.52110  -72.88010    0.00990
 10360.50000   -9999.25 1624.94820 1618.15050    8.67750    0.01410   93.14910   24.14130    4.58060  -73.05200    0.00930
 10361.00000   -9999.25 1634.34890 1631.58070    8.67430    0.00650   93.23380   23.79200    4.63610  -73.15620    0.00830
 10361.50000   -9999.25 1652.40580 1644.07080    8.67360    0.00890   93.41520   22.75640    4.67170  -73.39470    0.00720
 10362.00000   -9999.25 1674.04600 1679.66470    8.67970    0.01290   93.31050   21.34350    4.72000  -73.41410    0.00620
 10362.50000   -9999.25 1695.68630 1715.25870    8.68360    0.01180   93.71810   19.38510    4.80330  -73.43340    0.00510
 10363.00000   -9999.25 1717.32660 1750.85270    8.68340    0.00600   94.22800   17.38880    4.88570  -73.61640    0.00320
 10363.50000   -9999.25 1721.65470 1779.32790    8.68320    0.00030   94.59430   17.41670    4.99050  -73.80490    0.00070
 10364.00000   -9999.25 1715.38670 1779.32790    8.68300   -0.00290   94.68490   19.40320    4.98470  -74.08290   -0.00180
 10364.50000   -9999.25 1699.71660 1777.26140    8.68280   -0.00040   95.04750   22.31050    4.89010  -74.29610   -0.00340
