~Version ---------------------------------------------------
VERS.   2.0 : CWLS log ASCII Standard -VERSION 2.0
WRAP.    NO : One line per depth step
DLM . SPACE : Column Data Section Delimiter
~Well ------------------------------------------------------
STRT .FT                8880.0 : START DEPTH
STOP .FT               11092.0 : STOP DEPTH
STEP .FT                   0.5 : STEP
NULL .                -9999.25 : NULL VALUE
COMP .                         : COMPANY
WELL .                         : WELL
FLD  .                         : FIELD
LOC  .                         : LOCATION
PROV .                         : PROVINCE
CNTY .                         : COUNTY
STAT .                         : STATE
CTRY .                         : COUNTRY
SRVC .                         : SERVICE COMPANY
DATE .                         : DATE
UWI  .                         : UNIQUE WELL ID
API  .                         : API NUMBER
SLAT .WGS84  6.408765936937996 : SURFACE LATITUDE
SLON .WGS84 3.6245272197060956 : SURFACE LONGITUDE
DATUM.F                    nan : DEPTH DATUM ELEV
~Curve Information -----------------------------------------
DEPT   .FT    : 
AT10   .OHMM  : ARRAY INDUCTION TWO FOOT RESISTIVITY A10
AT30   .OHMM  : ARRAY INDUCTION TWO FOOT RESISTIVITY A30
AT90   .OHMM  : ARRAY INDUCTION TWO FOOT RESISTIVITY A90
CALR   .IN    : CALIPER FROM RESISTIVITY LOG
DPHZ_LS.DEC   : HGRD STANDARD RESOLUTION DENSITY POROSITY
DTSM   .US/F  : DELTA-T SHEAR
ECGRS  .GAPI  : ENVIRONMENTALLY CORRECTED GAMMA RAY FROM SONIC LOG
PEFZ   .B/E   : HRDD STANDARD RESOLUTION FORMATION PHOTOELECTRIC FACTOR
SPR    .MV    : SPONTANEOUS POTENTIAL FROM RESISTIVITY LOG
TNPH_LS.DEC   : THERMAL NEUTRON POROSITY [LIMESTONE]
~Params ----------------------------------------------------
~Other -----------------------------------------------------
~ASCII -----------------------------------------------------
# ...
 9078.00000    7.06210  769.74820  760.18710    9.06420    0.01720  131.33610   32.13140    4.50720  -22.37290    0.10030
 9078.50000    7.04030  768.77140  759.21020    9.06640    0.02030  131.48850   33.23450    4.52100  -22.31980    0.10160
 9079.00000    7.01850  767.79460  758.23340    9.06860    0.02280  131.54560   33.90960    4.52920  -22.26670    0.10620
 9079.50000    6.99680  766.81780  757.25650    9.07090    0.02370  131.76950   33.97620    4.52900  -22.21360    0.10890
 9080.00000    6.97500  765.84100  756.27960    9.07310    0.02370  132.24370   33.65830    4.53890  -22.16050    0.10870
 9080.50000    6.95320  764.86420  755.30280    9.07530    0.02360  132.71790   34.18280    4.53120  -22.10750    0.10840
 9081.00000    6.93150  763.88730  754.32590    9.07750    0.02360  133.19620   35.62130    4.52850  -22.05440    0.10890
 9081.50000    6.90970  762.91050  753.34910    9.07970    0.02200  132.82690   35.92100    4.51670  -22.00130    0.10940
 9082.00000    6.88790  761.93370  752.37220    9.08190    0.02150  132.56130   34.14050    4.51030  -21.94820    0.10850
 9082.50000    6.86620  760.95690  751.39530    9.08420    0.02160  134.13460   34.00560    4.51640  -21.89510    0.10470
 9083.00000    6.73200  756.47980  746.91820    9.08640    0.02170  134.52580   34.41530    4.51180  -21.84200    0.10090
 9083.50000    6.59780  752.00270  742.44110    9.08860    0.02180  134.64000   36.63590    4.50450  -21.77940    0.10100
 9084.00000    6.46360  747.52560  737.96400    9.09080    0.02190  134.62900   37.05960    4.49720  -21.67850    0.10420
 9084.50000    6.32940  743.04850  733.48690    9.09300    0.02190  134.86840   37.35850    4.48990  -21.59780    0.10820
 9085.00000    6.19520  738.57130  729.00980    9.09520    0.02110  134.73630   35.90880    4.48260  -21.59780    0.11230
 9085.50000    6.14130  736.78050  727.21890    9.09620    0.02130  134.57120   35.13590    4.47620  -21.70930    0.11630
 9086.00000    6.29440  742.15330  732.59220    9.09460    0.02250  134.55410   36.23220    4.49760  -21.63650    0.11870
 9086.50000    6.41990  746.45120  736.88980    9.09290    0.02360  135.02020   36.26700    4.52020  -21.56380    0.11650
 9087.00000    6.49920  749.13760  739.57640    9.09120    0.02390  135.01250   35.16000    4.55330  -21.49100    0.11280
 9087.50000    6.53060  750.21220  740.65110    9.08950    0.02320  135.71290   33.97630    4.55420  -21.41830    0.11470
 9088.00000    6.53020  750.21220  740.65110    9.08780    0.02410  135.82500   34.89870    4.55510  -21.34550    0.11660
 9088.50000    6.58120  751.88190  742.32030    9.08620    0.02470  136.04110   36.43610    4.55600  -21.27280    0.11660
 9089.00000    6.50680  749.34080  739.77940    9.08450    0.02540  136.02660   36.84600    4.56940  -21.20000    0.11660
 9089.50000    6.43250  746.79980  737.23840    9.08280    0.02550  136.01210   36.78200    4.57650  -21.17510    0.11500
 9090.00000    6.35810  744.25880  734.69740    9.08110    0.02790  135.99760   35.72010    4.61720  -21.38720    0.11340
 9090.50000    6.28370  741.71780  732.15650    9.07940    0.03180  136.66560   35.51360    4.61850  -21.46040    0.11340
 9091.00000    6.20930  739.17670  729.61550    9.07780    0.03350  137.33360   34.62210    4.60990  -21.19430    0.11420
 9091.50000    6.13490  736.63570  727.07450    9.09660    0.03270  138.00160   34.39140    4.59460  -21.19430    0.11480
 9092.00000    6.06050  734.09470  724.53360    9.09660    0.03140  138.66960   33.85520    4.55560  -21.25840    0.11660
 9092.50000    5.96830  730.73680  721.17570    9.09660    0.03330  138.87510   34.39300    4.54530  -21.20440    0.11910
 9093.00000    5.87610  727.37890  717.81780    9.09660    0.03560  139.08060   35.51360    4.55230  -21.25480    0.12160
 9093.50000    5.83900  726.03580  716.47470    9.09660    0.03300  139.28620   36.18240    4.55050  -21.30530    0.12370
 9094.00000    5.82450  725.49850  715.93740    9.09660    0.02920  139.28620   36.12860    4.48420  -21.35570    0.12370
 9094.50000    5.78900  724.15540  714.59430    9.09660    0.02710  139.28620   35.88960    4.46750  -21.57860    0.12260
 9095.00000    5.75340  722.81230  713.25120    9.09660    0.03080  139.28620   34.93990    4.47040  -21.76460    0.12100
 9095.50000    5.71790  721.46910  711.90810    9.09660    0.03420  139.28620   35.03190    4.48100  -21.70040    0.12100
 9096.00000    5.68230  720.12600  710.56490    9.09660    0.03500  139.28620   35.91470    4.47760  -21.63630    0.12230
 9096.50000    5.64680  718.78290  709.22180    9.09660    0.03330  139.98230   35.69080    4.47410  -21.73970    0.12460
 9097.00000    5.61130  717.43980  707.87870    9.09660    0.03210  139.96840   36.74360    4.47070  -21.39600    0.12680
 9097.50000    5.57570  716.09670  706.53560    9.09660    0.03210  139.25610   37.52310    4.44290  -21.54010    0.12900
 9098.00000    5.56410  715.67450  706.11350    9.09660    0.03120  138.99380   39.67070    4.44100  -21.69550    0.13120
 9098.50000    5.58840  716.63400  707.07290    9.09660    0.02970  138.61080   38.34510    4.39270  -21.58720    0.13340
 9099.00000    5.61260  717.59340  708.03230    9.09660    0.02610  138.94220   36.23990    4.35380  -21.53440    0.13400
 9099.50000    5.62220  717.97720  708.41610    9.09660    0.02410  138.77210   35.53520    4.34980  -21.48170    0.13260
 9100.00000    5.63950  718.64870  709.08750    9.09660    0.02610  138.60200   35.80530    4.37760  -21.42890    0.12910
 9100.50000    5.65690  719.32020  709.75890    9.09660    0.02880  138.67080   36.74360    4.41350  -21.19620    0.12550
 9101.00000    5.67420  719.99180  710.43030    9.09660    0.02810  138.79980   36.81360    4.44010  -21.55610    0.12480
 9101.50000    5.69160  720.66330  711.10170    9.09660    0.02730  138.97370   37.01750    4.45390  -21.73520    0.12380
 9102.00000    5.83560  726.03590  716.47460    9.09660    0.02800  139.03110   36.14160    4.47940  -21.47060    0.11950
 9102.50000    5.97960  731.40860  721.84750    9.09660    0.02970  140.00330   35.23870    4.51040  -21.58060    0.11550
 9103.00000    5.89960  728.38650  718.82540    9.09660    0.03040  139.98570   34.98990    4.54130  -21.60840    0.11410
 9103.50000    5.76620  723.34970  713.78860    9.09660    0.02950  139.84620   36.02160    4.54290  -21.60840    0.11460
 9104.00000    5.63280  718.31290  708.75180    9.09660    0.02930  139.78820   37.87270    4.51970  -21.71330    0.12040
 9104.50000    5.55280  715.29080  705.72970    9.09660    0.02910  139.69670   39.41580    4.49640  -21.78110    0.12740
 9105.00000    5.55010  715.18330  705.62220    9.09540    0.02880  138.92950   39.94110    4.47320  -21.61460    0.13020
 9105.50000    5.53640  714.64600  705.08480    9.10450    0.02650  139.01350   39.12990    4.45000  -21.61460    0.11980
 9106.00000    5.52280  714.10880  704.54750    9.10310    0.02560  139.28620   38.52050    4.42670  -21.61460    0.10950
 9106.50000    5.50920  713.57150  704.01010    9.10160    0.02490  140.56510   37.66600    4.39450  -21.62080    0.09910
 9107.00000    5.49560  713.03420  703.47270    9.10010    0.02590  142.16370   38.55690    4.42210  -21.78940    0.09910
 9107.50000    5.50810  713.49980  703.93820    9.10200    0.02730  140.24380   39.70630    4.43370  -21.82650    0.09920
 9108.00000    5.62520  717.97700  708.41540    9.10470    0.02820  138.69820   41.69400    4.44970  -21.70730    0.10060
 9108.50000    5.74230  722.45420  712.89260    9.07440    0.02860  137.01060   41.11520    4.45680  -21.79450    0.10460
 9109.00000    5.85940  726.93130  717.36970    9.07540    0.02670  137.26110   41.05940    4.40950  -21.79450    0.10860
 9109.50000    5.91480  729.03210  719.47060    9.08110    0.02320  138.44360   39.41860    4.41910  -21.79450    0.11270
 9110.00000    5.92900  729.54880  719.98730    9.08680    0.02090  138.04060   37.64450    4.42870  -21.70120    0.11480
 9110.50000    5.94310  730.06540  720.50390    9.08230    0.02200  137.76810   36.11310    4.43830  -21.83750    0.11520
