~Version ---------------------------------------------------
VERS.   2.0 : CWLS log ASCII Standard -VERSION 2.0
WRAP.    NO : One line per depth step
DLM . SPACE : Column Data Section Delimiter
~Well ------------------------------------------------------
STRT .FT                8880.0 : START DEPTH
STOP .FT               11092.0 : STOP DEPTH
STEP .FT                   0.5 : STEP
NULL .                -9999.25 : NULL VALUE
COMP .                         : COMPANY
WELL .                         : WELL
FLD  .                         : FIELD
LOC  .                         : LOCATION
PROV .                         : PROVINCE
CNTY .                         : COUNTY
STAT .                         : STATE
CTRY .                         : COUNTRY
SRVC .                         : SERVICE COMPANY
DATE .                         : DATE
UWI  .                         : UNIQUE WELL ID
API  .                         : API NUMBER
SLAT .WGS84  6.408765936937996 : SURFACE LATITUDE
SLON .WGS84 3.6245272197060956 : SURFACE LONGITUDE
DATUM.F                    nan : DEPTH DATUM ELEV
~Curve Information -----------------------------------------
DEPT   .FT    : 
AT10   .OHMM  : ARRAY INDUCTION TWO FOOT RESISTIVITY A10
AT30   .OHMM  : ARRAY INDUCTION TWO FOOT RESISTIVITY A30
AT90   .OHMM  : ARRAY INDUCTION TWO FOOT RESISTIVITY A90
CALR   .IN    : CALIPER FROM RESISTIVITY LOG
DPHZ_LS.DEC   : HGRD STANDARD RESOLUTION DENSITY POROSITY
DTSM   .US/F  : DELTA-T SHEAR
ECGRS  .GAPI  : ENVIRONMENTALLY CORRECTED GAMMA RAY FROM SONIC LOG
PEFZ   .B/E   : HRDD STANDARD RESOLUTION FORMATION PHOTOELECTRIC FACTOR
SPR    .MV    : SPONTANEOUS POTENTIAL FROM RESISTIVITY LOG
TNPH_LS.DEC   : THERMAL NEUTRON POROSITY [LIMESTONE]
~Params ----------------------------------------------------
~Other -----------------------------------------------------
~ASCII -----------------------------------------------------
# ...
 8946.00000   -9999.25   -9999.25   -9999.25   -9999.25   -9999.25  140.01900   22.93870   -9999.25   -9999.25    0.41850
 8946.50000   -9999.25   -9999.25   -9999.25   -9999.25   -9999.25  134.98580   19.48230   -9999.25   -9999.25    0.38850
 8947.00000   -9999.25   -9999.25   -9999.25   -9999.25   -9999.25  128.56810   16.15780   -9999.25   -9999.25    0.33260
 8947.50000   -9999.25   -9999.25   -9999.25   -9999.25   -9999.25  124.08860   13.82070   -9999.25   -9999.25    0.29900
 8948.00000   -9999.25   -9999.25   -9999.25   -9999.25   -9999.25  117.56080   12.13270   -9999.25   -9999.25    0.22830
 8948.50000   -9999.25   -9999.25   -9999.25   -9999.25   -9999.25  113.03690   11.75040   -9999.25   -9999.25    0.17190
 8949.00000   -9999.25   -9999.25   -9999.25   -9999.25   -9999.25  106.16990   12.75380   -9999.25   -9999.25    0.11560
 8949.50000   -9999.25   -9999.25   -9999.25   -9999.25   -9999.25  104.02680   13.68150   -9999.25   -9999.25    0.08920
 8950.00000   -9999.25   -9999.25   -9999.25   -9999.25   -9999.25  101.81900   14.80370   -9999.25   -9999.25    0.08060
 8950.50000   -9999.25   -9999.25   -9999.25   -9999.25   -9999.25   98.52240   15.07300   -9999.25   -9999.25    0.07840
 8951.00000   -9999.25   -9999.25   -9999.25   -9999.25   -9999.25   95.50710   15.22590   -9999.25   -9999.25    0.07940
 8951.50000   -9999.25   -9999.25   -9999.25   -9999.25   -9999.25  103.23520   15.07440   -9999.25   -9999.25    0.08050
 8952.00000   -9999.25   -9999.25   -9999.25   -9999.25   -9999.25  105.16720   14.34840   -9999.25   -9999.25    0.08110
 8952.50000   -9999.25   -9999.25   -9999.25   -9999.25   -9999.25   98.11050   13.18520   -9999.25   -9999.25    0.08010
 8953.00000   -9999.25   -9999.25   -9999.25   -9999.25   -9999.25   94.47940   11.90360   -9999.25   -9999.25    0.07890
 8953.50000   -9999.25   -9999.25   -9999.25   -9999.25   -9999.25  100.44110   11.91980   -9999.25   -9999.25    0.07680
 8954.00000   -9999.25   -9999.25   -9999.25   -9999.25   -9999.25  103.98660   14.61480   -9999.25   -9999.25    0.07760
 8954.50000   -9999.25   -9999.25   -9999.25   -9999.25   -9999.25  109.44560   18.78080   -9999.25   -9999.25    0.08110
 8955.00000   -9999.25   -9999.25   -9999.25   -9999.25   -9999.25  111.12980   19.87730   -9999.25   -9999.25    0.09670
 8955.50000   -9999.25   -9999.25   -9999.25   -9999.25   -9999.25  107.32540   19.26080   -9999.25   -9999.25    0.12760
 8956.00000   -9999.25   -9999.25   -9999.25   -9999.25   -9999.25  101.15930   16.70030   -9999.25   -9999.25    0.19640
 8956.50000   -9999.25   -9999.25   -9999.25   -9999.25   -9999.25   96.98140   17.60120   -9999.25   -9999.25    0.26860
 8957.00000   -9999.25   -9999.25   -9999.25   -9999.25   -9999.25   96.12100   16.57210   -9999.25   -9999.25    0.36620
 8957.50000   -9999.25   -9999.25   -9999.25   -9999.25   -9999.25   96.58120   14.66040   -9999.25   -9999.25    0.34400
 8958.00000   -9999.25   -9999.25   -9999.25   -9999.25   -9999.25   97.78900   11.86100   -9999.25   -9999.25    0.30070
 8958.50000   -9999.25   -9999.25   -9999.25   -9999.25   -9999.25  104.61390   11.01060   -9999.25   -9999.25    0.19470
 8959.00000   -9999.25   -9999.25   -9999.25   -9999.25   -9999.25  111.16540   10.53320   -9999.25   -9999.25    0.16190
 8959.50000   -9999.25   -9999.25   -9999.25   -9999.25   -9999.25  118.59260   10.68780   -9999.25   -9999.25    0.14100
 8960.00000   -9999.25   -9999.25   -9999.25   -9999.25   -9999.25  123.66550   11.99140   -9999.25   -9999.25    0.12610
 8960.50000   -9999.25   -9999.25   -9999.25   -9999.25   -9999.25  124.48760   13.81520   -9999.25   -9999.25    0.09900
 8961.00000   -9999.25   -9999.25   -9999.25   -9999.25   -9999.25  122.74060   16.88830   -9999.25   -9999.25    0.08270
 8961.50000   -9999.25   -9999.25   -9999.25   -9999.25   -9999.25  121.28120   19.75630   -9999.25   -9999.25    0.09450
 8962.00000    1.01020  465.46500  632.64230    8.87360   -9999.25  121.61010   22.08960    7.06470  -21.36400    0.09940
 8962.50000    1.52970  531.85490  530.56300   10.26490    0.00790  125.92640   21.87410    6.60340  -21.29770    0.08910
 8963.00000    2.04920  613.21150  471.46440   11.69660    0.10150  134.88180   21.44160    6.02670  -21.23130    0.10210
 8963.50000    2.66320  614.10690  500.24620   12.36200    0.15350  143.83730   20.88200    5.80810  -21.18040    0.12370
 8964.00000    3.34020  649.28470  552.05340   13.90440    0.17360  150.59070   22.56070    5.98060  -21.13330    0.11790
 8964.50000    4.76990  749.06140  623.68820   14.04860    0.14530  130.03710   25.68890    6.07990  -21.08610    0.10360
 8965.00000    6.70150  755.20160  695.32290   11.97870    0.13910  130.45500   28.52470    6.19210  -21.03900    0.10680
 8965.50000    5.84100  699.55670  703.25400   11.97860    0.17640  130.71330   28.22000    6.41610  -21.02040    0.11760
 8966.00000    4.91930  699.17300  651.44680   12.30910    0.22200  130.41430   25.50880    6.68910  -21.02040    0.13850
 8966.50000   11.01420  792.57360  703.02370   12.80500    0.24380  128.95890   22.31010    6.88420  -21.02040    0.17140
 8967.00000   18.55640  875.22890  775.55380   12.22660    0.25260  126.44140   18.65320    6.76740  -21.02040    0.20680
 8967.50000   22.27130  919.44960  783.97060   12.05840    0.23240  117.12300   16.54820    6.51420  -21.02040    0.23790
 8968.00000   14.89360  883.72180  773.22570   12.60970    0.17890  114.43690   15.96650    6.20370  -21.02040    0.15500
 8968.50000    7.17340  828.65270  788.44800   12.05160    0.11710  117.21160   16.26180    5.89340  -21.02040    0.11040
 8969.00000   10.21080  816.92250  785.76140   11.99930    0.05530  115.32660   16.97040    5.60810  -21.32970    0.08060
 8969.50000   15.34720  876.46870  815.31110   12.00490    0.01360  111.33330   18.89210    5.38900  -21.83500    0.06770
 8970.00000   12.32270  813.07180  781.21540   12.01050    0.00320  132.52920   20.89480    5.33650  -21.64190    0.07440
 8970.50000    5.23300  716.36440  724.38940   12.01610    0.01680  145.65780   22.04280    5.41150  -21.95820    0.08190
 8971.00000    3.89000  638.73010  667.56330   12.02170    0.04420  146.58330   25.09870    5.54410  -21.97010    0.09460
 8971.50000    3.27080  594.40620  636.86260   12.26830    0.07660  148.39720   28.99030    5.74900  -22.02740    0.10100
 8972.00000    4.15960  607.83770  646.07280   12.33780    0.13840  152.30910   33.01260    6.04100  -22.15280    0.11200
 8972.50000    4.45590  634.70060  663.98150   12.12260    0.20020  156.22090   33.19250    6.30280  -22.53220    0.13520
 8973.00000    4.50320  661.56350  695.50040   12.22900    0.23730  158.81120   32.39570    6.52740  -22.58230    0.17570
 8973.50000    4.74010  688.42640  719.67710   12.38950    0.18970  159.56440   31.96870    6.48370  -22.54190    0.22770
 8974.00000    4.47040  707.23060  765.61270   13.00220    0.13340  159.75140   30.41190    6.27770  -22.50160    0.30020
 8974.50000    4.05960  700.51470  736.63950   12.44540    0.08950  159.93840   29.50630    6.08080  -22.46120    0.29960
 8975.00000    3.64880  689.32170  678.30840   12.74800    0.15510  160.12540   30.28390    6.21120  -22.42090    0.23960
 8975.50000    3.61120  680.36730  651.44530   12.02170    0.23560  160.56050   31.75750    6.41280  -22.40470    0.20730
 8976.00000    3.65590  680.36730  646.07280   11.49050    0.27450  160.88680   34.13390    6.50560  -22.33750    0.20510
 8976.50000    3.65590  662.45870  646.07280   11.63840    0.22690  161.06980   35.84540    6.22830  -22.27020    0.18570
 8977.00000    3.57550  653.50450  646.07280    8.89480    0.17940  161.06700   37.32440    5.67660  -22.20300    0.16860
 8977.50000    3.56660  656.19080  648.31100    9.01810    0.13290  160.28600   36.91620    5.39450  -22.44960    0.15520
 8978.00000    3.74750  658.87700  649.99850    9.17730    0.09070  159.04990   36.05300    5.22910  -22.67370    0.14390
 8978.50000    3.94730  665.14510  656.19760    8.98230    0.05290  156.96230   35.64750    5.07570  -22.77940    0.15770
