~Version ---------------------------------------------------
VERS.   2.0 : CWLS log ASCII Standard -VERSION 2.0
WRAP.    NO : One line per depth step
DLM . SPACE : Column Data Section Delimiter
~Well ------------------------------------------------------
STRT .FT                8880.0 : START DEPTH
STOP .FT               11092.0 : STOP DEPTH
STEP .FT                   0.5 : STEP
NULL .                -9999.25 : NULL VALUE
COMP .                         : COMPANY
WELL .                         : WELL
FLD  .                         : FIELD
LOC  .                         : LOCATION
PROV .                         : PROVINCE
CNTY .                         : COUNTY
STAT .                         : STATE
CTRY .                         : COUNTRY
SRVC .                         : SERVICE COMPANY
DATE .                         : DATE
UWI  .                         : UNIQUE WELL ID
API  .                         : API NUMBER
SLAT .WGS84  6.408765936937996 : SURFACE LATITUDE
SLON .WGS84 3.6245272197060956 : SURFACE LONGITUDE
DATUM.F                    nan : DEPTH DATUM ELEV
~Curve Information -----------------------------------------
DEPT   .FT    : 
AT10   .OHMM  : ARRAY INDUCTION TWO FOOT RESISTIVITY A10
AT30   .OHMM  : ARRAY INDUCTION TWO FOOT RESISTIVITY A30
AT90   .OHMM  : ARRAY INDUCTION TWO FOOT RESISTIVITY A90
CALR   .IN    : CALIPER FROM RESISTIVITY LOG
DPHZ_LS.DEC   : HGRD STANDARD RESOLUTION DENSITY POROSITY
DTSM   .US/F  : DELTA-T SHEAR
ECGRS  .GAPI  : ENVIRONMENTALLY CORRECTED GAMMA RAY FROM SONIC LOG
PEFZ   .B/E   : HRDD STANDARD RESOLUTION FORMATION PHOTOELECTRIC FACTOR
SPR    .MV    : SPONTANEOUS POTENTIAL FROM RESISTIVITY LOG
TNPH_LS.DEC   : THERMAL NEUTRON POROSITY [LIMESTONE]
~Params ----------------------------------------------------
~Other -----------------------------------------------------
~ASCII -----------------------------------------------------
# ...
 10893.00000    8.29940 1013.36920  913.36520    8.61280    0.14300  126.80370   -9999.25    3.32140  -31.07920    0.20220
 10893.50000    6.90920  957.85240  842.54480    8.61360    0.14140  127.19530   -9999.25    3.32200  -31.68450    0.19740
 10894.00000    6.28030 1001.72880  809.57660    8.61660    0.13740  127.58680   -9999.25    3.32090  -32.28970    0.19360
 10894.50000    5.09570  931.11760  801.51780    8.61950    0.13340  127.65510   -9999.25    3.31250  -32.82760    0.19360
 10895.00000    3.66380  794.88410  726.89870    8.62250    0.13090  127.49270   -9999.25    3.26010  -33.38800    0.19580
 10895.50000    2.80470  676.68760  641.95230    8.62550    0.12960  128.12870   -9999.25    3.20890  -34.37340    0.19810
 10896.00000    4.44120  561.17690  538.26150    8.62840    0.13170  128.66560   -9999.25    3.18290  -34.69680    0.19840
 10896.50000    3.54490  493.07200  530.20260    8.63140    0.13340  129.11630   -9999.25    3.22660  -34.99890    0.19900
 10897.00000    1.50560  384.04020  395.88810    8.63440    0.12050  129.64720   -9999.25    3.37290  -35.47960    0.21010
 10897.50000    0.85550  275.00850  261.57360    8.63730    0.06170  131.01030   -9999.25    4.00380  -36.06340    0.22530
 10898.00000    0.55270  187.78310  175.61240    8.64030   -0.00680  130.32380   -9999.25    5.39450  -36.36140    0.24790
 10898.50000    0.54090  204.79610  186.35770    8.64330   -0.09860  130.04770   -9999.25    6.78530  -36.54630    0.25800
 10899.00000    0.69530  254.94010  243.92100    8.64620   -0.09860  129.67400   -9999.25    8.17600  -35.37070    0.24430
 10899.50000    1.04210  346.68700  368.18590    8.64920   -0.09860  129.26230   -9999.25    8.47420  -34.71050    0.23330
 10900.00000    3.35060  523.36220  536.91840    8.65220   -0.09860  127.92650   -9999.25    7.31710  -32.84500    0.22690
 10900.50000    6.14960  700.03740  705.65100    8.65280   -0.07600  126.39760   -9999.25    5.94630  -31.47300    0.21990
 10901.00000    8.94850  784.13930  806.89050    8.65280   -0.02150  124.32150   -9999.25    4.81940  -30.60470    0.21990
 10901.50000   12.48750  818.38950  707.49770    8.65280    0.02280  122.10860   -9999.25    4.47030  -30.03230    0.21990
 10902.00000   12.95860  837.86480  712.87020    8.65280    0.03120  121.07890   -9999.25    4.34720  -29.45980    0.21330
 10902.50000   21.76580  945.31670  856.31810    8.65280    0.03220  120.30480   -9999.25    4.25220  -28.88740    0.20170
 10903.00000   30.57310 1028.34750  938.51850    8.65280    0.03130  119.64760   -9999.25    4.18960  -28.25500    0.18820
 10903.50000   39.38040 1111.37840  994.93060    8.65280    0.02720  119.12620   -9999.25    4.16280  -27.24630    0.18230
 10904.00000   49.22530 1194.40920 1140.96720    8.65280    0.02860  119.13870   -9999.25    4.22130  -26.24580    0.18410
 10904.50000   59.76190 1277.44000 1308.24990    8.65280    0.03220  119.24190   -9999.25    4.31020  -25.37420    0.19210
 10905.00000   72.59330 1348.93200 1519.65270    8.65280    0.03790  119.02250   -9999.25    4.35960  -25.43070    0.19970
 10905.50000   88.86670 1412.73140 1741.71920    8.65280    0.04320  120.45910   -9999.25    4.40660  -25.01080    0.20060
 10906.00000   88.86670 1463.77090 1615.46360    8.65280    0.04210  121.33590   -9999.25    4.45360  -24.70130    0.20110
 10906.50000   89.97020 1387.65760 1505.32590    8.65280    0.03520  121.51710   -9999.25    4.50060  -24.91410    0.19920
 10907.00000  112.43580 1265.28150 1439.95940    8.65280    0.02890  122.09700   -9999.25    4.59350  -24.59880    0.19680
 10907.50000  160.61720 1258.71640 1357.57960    8.65280    0.03070  122.67700   -9999.25    4.51870  -24.47960    0.19440
 10908.00000  197.69910 1316.91980 1380.02970    8.65280    0.04960  123.09740   -9999.25    4.33660  -24.35610    0.19770
 10908.50000  314.78130 1375.12330 1438.55230    8.65280    0.06680  123.72820   -9999.25    4.18900  -23.88030    0.20160
 10909.00000  503.90220 1380.49460 1497.07500    8.65280    0.07870  123.99170   -9999.25    4.15050  -23.59490    0.20160
 10909.50000  780.46010 1380.49460 1532.18860    8.65280    0.07920  124.17600   -9999.25    4.11300  -24.00650    0.20210
 10910.00000 1086.08050 1369.74810 1519.09310    8.65280    0.07940  124.32930   -9999.25    3.95040  -24.34130    0.20210
 10910.50000 1267.26700 1352.28860 1507.34040    8.65280    0.08040  123.91870   -9999.25    3.80260  -24.42200    0.20190
 10911.00000 1229.66690 1350.94470 1505.32590    8.65280    0.08320  123.68100   -9999.25    3.67430  -25.32170    0.19480
 10911.50000 1110.16200 1369.74810 1462.34490    8.65280    0.08510  122.96190   -9999.25    3.63470  -25.81230    0.19420
 10912.00000  996.27620 1410.04250 1512.65180    8.65280    0.08500  122.62630   -9999.25    3.62140  -26.04860    0.19350
 10912.50000  813.34980 1372.43570 1441.83160    8.65280    0.08500  121.82350   -9999.25    3.59440  -26.37210    0.19220
 10913.00000  723.87570 1305.27850 1371.01130    8.65280    0.08500  121.02070   -9999.25    3.55600  -26.80470    0.18880
 10913.50000  938.14280 1291.84700 1371.01130    8.65280    0.08700  121.00950   -9999.25    3.51030  -26.83650    0.18300
 10914.00000 1143.38750 1350.44700 1436.82530    8.65280    0.09100  120.71210   -9999.25    3.45810  -27.32270    0.17780
 10914.50000 1426.36110 1379.08960 1505.32590    8.65280    0.09530  120.78930   -9999.25    3.41400  -27.52560    0.17260
 10915.00000 1658.06710 1386.32530 1536.02620    8.65280    0.09870  120.70370   -9999.25    3.36990  -27.72860    0.17260
 10915.50000 1829.25510 1387.26210 1548.30640    8.65280    0.09950  120.89210   -9999.25    3.32580  -27.93150    0.17370
 10916.00000 1941.72810 1386.32530 1535.00270    8.65280    0.10030  120.99480   -9999.25    3.29230  -28.28920    0.17820
 10916.50000 1992.93440 1381.96290 1515.17540    8.65280    0.10110  121.09760   -9999.25    3.29230  -28.74980    0.18160
 10917.00000 1968.92020 1377.60050 1495.34800    8.65280    0.10850  121.83600   -9999.25    3.28250  -29.20620    0.18500
 10917.50000 1938.90240 1373.23800 1475.52070    8.65280    0.11420  122.62390   -9999.25    3.24650  -29.66270    0.18770
 10918.00000 1908.55710 1368.85360 1456.97250    8.65280    0.11810  123.25450   -9999.25    3.22400  -30.11910    0.18930
 10918.50000 1782.04900 1376.01790 1443.54120    8.65280    0.12210  123.43610   -9999.25    3.22690  -30.57560    0.19220
 10919.00000 1644.30860 1393.92470 1430.10980    8.65280    0.12370  123.41380   -9999.25    3.31190  -31.03200    0.19610
 10919.50000 1487.25950 1383.18220 1424.73720    8.65280    0.12010  123.45100   -9999.25    3.41780  -31.68450    0.19840
 10920.00000 1371.66540 1350.56250 1395.18770    8.65280    0.11350  123.34750   -9999.25    3.44580  -32.27590    0.19730
 10920.50000 1161.82460 1317.94280 1368.32500    8.65180    0.10710  122.76800  300.20290    3.45000  -32.74200    0.19410
 10921.00000 1268.15340 1291.84700 1346.83470    8.65030    0.10530  122.33070  259.76960    3.43620  -33.04170    0.19300
 10921.50000 1407.70460 1321.73330 1398.94880    8.64880    0.10750  121.82760  213.95540    3.32340  -33.47380    0.19730
 10922.00000 1552.89170 1389.73000 1476.85120    8.64730    0.11090  121.59620  177.82670    3.26060  -33.75220    0.18620
 10922.50000 1729.34730 1457.72670 1554.75360    8.64570    0.11510  122.40410  171.13120    3.27680  -34.40690    0.17640
 10923.00000 1850.49520 1512.12410 1585.91460    8.64420    0.11490  122.93230  171.77020    3.31950  -34.81440    0.17780
 10923.50000 1919.39470 1458.39170 1561.53110    8.64270    0.11440  123.93040  174.55210    3.31230  -35.46070    0.18460
 10924.00000   -9999.25 1421.92120 1525.36960    8.64120    0.11740  124.92840  174.81270    3.25430  -36.23010    0.19150
 10924.50000   -9999.25 1396.36600 1489.20810    8.63960    0.12310  125.29480  177.93220    3.16670  -36.61210    0.19840
 10925.00000   -9999.25 1386.12840 1469.57750    8.63810    0.12720  124.69440  186.58980    3.11800  -36.99410    0.20320
 10925.50000   -9999.25 1375.89070 1449.94680    8.63660    0.13230  124.47800  207.80580    3.08200  -37.37600    0.20650
