~Version ---------------------------------------------------
VERS.   2.0 : CWLS log ASCII Standard -VERSION 2.0
WRAP.    NO : One line per depth step
DLM . SPACE : Column Data Section Delimiter
~Well ------------------------------------------------------
STRT .FT                8880.0 : START DEPTH
STOP .FT               11092.0 : STOP DEPTH
STEP .FT                   0.5 : STEP
NULL .                -9999.25 : NULL VALUE
COMP .                         : COMPANY
WELL .                         : WELL
FLD  .                         : FIELD
LOC  .                         : LOCATION
PROV .                         : PROVINCE
CNTY .                         : COUNTY
STAT .                         : STATE
CTRY .                         : COUNTRY
SRVC .                         : SERVICE COMPANY
DATE .                         : DATE
UWI  .                         : UNIQUE WELL ID
API  .                         : API NUMBER
SLAT .WGS84  6.408765936937996 : SURFACE LATITUDE
SLON .WGS84 3.6245272197060956 : SURFACE LONGITUDE
DATUM.F                    nan : DEPTH DATUM ELEV
~Curve Information -----------------------------------------
DEPT   .FT    : 
AT10   .OHMM  : ARRAY INDUCTION TWO FOOT RESISTIVITY A10
AT30   .OHMM  : ARRAY INDUCTION TWO FOOT RESISTIVITY A30
AT90   .OHMM  : ARRAY INDUCTION TWO FOOT RESISTIVITY A90
CALR   .IN    : CALIPER FROM RESISTIVITY LOG
DPHZ_LS.DEC   : HGRD STANDARD RESOLUTION DENSITY POROSITY
DTSM   .US/F  : DELTA-T SHEAR
ECGRS  .GAPI  : ENVIRONMENTALLY CORRECTED GAMMA RAY FROM SONIC LOG
PEFZ   .B/E   : HRDD STANDARD RESOLUTION FORMATION PHOTOELECTRIC FACTOR
SPR    .MV    : SPONTANEOUS POTENTIAL FROM RESISTIVITY LOG
TNPH_LS.DEC   : THERMAL NEUTRON POROSITY [LIMESTONE]
~Params ----------------------------------------------------
~Other -----------------------------------------------------
~ASCII -----------------------------------------------------
# ...
 10200.00000   -9999.25 1904.99390 1953.79580    8.66560    0.01210   90.16270   23.27140    4.35130  -69.51970    0.00510
 10200.50000   -9999.25 1866.31130 1958.94890    8.68170    0.00290   90.12240   23.78610    4.41120  -69.22320    0.00240
 10201.00000   -9999.25 1827.62880 1961.99530    8.68300    0.00370   90.08200   23.64490    4.42710  -69.20420    0.00050
 10201.50000   -9999.25 1788.94620 1946.39200    8.68430    0.00800   90.04170   22.64870    4.34870  -69.18530    0.00030
 10202.00000   -9999.25 1750.26360 1905.31050    8.68560    0.01230   90.00140   22.99040    4.28380  -69.01120    0.00130
 10202.50000   -9999.25 1711.58110 1864.22890    8.68690    0.01450   89.96110   24.18020    4.28210  -69.77000    0.00240
 10203.00000   -9999.25 1695.16340 1817.47470    8.68570    0.01050   89.92670   26.91900    4.31760  -69.82110    0.00210
 10203.50000   -9999.25 1682.02930 1785.23930    8.68270    0.00580   89.79740   26.92150    4.35310  -69.90750    0.00130
 10204.00000   -9999.25 1671.95770 1763.69090    8.67180    0.00210   89.91910   25.80170    4.41430  -70.01390    0.00040
 10204.50000   -9999.25 1671.28670 1762.04390    8.67870    0.00260   90.78780   25.24460    4.41490  -70.12030    0.00030
 10205.00000   -9999.25 1683.64100 1760.39700    8.66650    0.00530   91.65660   24.35710    4.37300  -70.22670    0.00140
 10205.50000   -9999.25 1707.81760 1775.36290    8.66000    0.00800   92.10640   24.50060    4.37420  -70.33320    0.00190
 10206.00000   -9999.25 1731.27970 1795.87020    8.65360    0.01060   92.27580   25.29710    4.39990  -70.43960    0.00170
 10206.50000   -9999.25 1760.07510 1831.00980    8.64710    0.01270   91.87280   27.71120    4.39570  -70.23890    0.00080
 10207.00000   -9999.25 1790.47190 1866.14940    8.64070    0.01380   91.91300   26.61230    4.39050  -70.23890   -0.00010
 10207.50000   -9999.25 1820.86870 1901.28900    8.65860    0.01590   92.30380   25.66560    4.43060  -70.24300   -0.00030
 10208.00000   -9999.25 1851.26550 1925.05650    8.66170    0.01470   91.96980   24.78570    4.48320  -70.24480    0.00050
 10208.50000   -9999.25 1851.26550 1951.92070    8.66480    0.01160   91.75590   26.33120    4.52750  -70.24660    0.00100
 10209.00000   -9999.25 1845.89420 1948.76040    8.66780    0.00710   91.09470   26.94770    4.56300  -70.45020    0.00150
 10209.50000   -9999.25 1832.77250 1932.95910    8.67300    0.00570   91.11710   26.64360    4.43790  -70.70420    0.00200
 10210.00000   -9999.25 1816.37040 1917.15780    8.67040    0.00610   91.41150   25.68670    4.27000  -70.95820    0.00250
 10210.50000   -9999.25 1799.96830 1901.35650    8.67430    0.01110   91.59990   25.72610    4.08600  -71.21220    0.00300
 10211.00000   -9999.25 1778.50130 1879.77590    8.67300    0.01680   91.78840   26.95850    4.09440  -71.26050    0.00350
 10211.50000   -9999.25 1751.26700 1856.75060    8.67680    0.01860   92.20060   27.57500    4.23540  -71.06470    0.00440
 10212.00000   -9999.25 1729.92920 1833.72530    8.67690    0.01790   92.94860   27.57500    4.32170  -71.25380    0.00510
 10212.50000   -9999.25 1713.76550 1814.91990    8.67690    0.01820   93.66920   26.96590    4.38750  -71.22890    0.00540
 10213.00000   -9999.25 1698.14700 1804.17350    8.67700    0.01980   94.34880   24.33950    4.39580  -70.84110    0.00550
 10213.50000   -9999.25 1695.46330 1804.17350    8.67710    0.02060   94.52040   24.24220    4.39480  -71.23380    0.00550
 10214.00000   -9999.25 1700.66370 1806.86110    8.67710    0.02060   94.29300   24.09700    4.45830  -71.75970    0.00510
 10214.50000   -9999.25 1713.66470 1814.53600    8.67720    0.01350   94.41350   24.51600    4.52770  -72.29610    0.00440
 10215.00000   -9999.25 1728.22270 1833.72330    8.67730    0.00630   94.53400   24.23260    4.52070  -72.65100    0.00400
 10215.50000   -9999.25 1728.22270 1852.91060    8.67730    0.00210   94.51580   24.55180    4.50390  -73.00590    0.00350
 10216.00000   -9999.25 1728.22270 1855.21430    8.67740    0.00250   94.46300   25.30750    4.41630  -73.36070    0.00310
 10216.50000   -9999.25 1728.22270 1855.21430    8.67740    0.00850   94.41020   25.30430    4.29000  -73.59500    0.00210
 10217.00000   -9999.25 1706.66530 1846.00300    8.67750    0.01450   94.35730   25.75820    4.14310  -73.68370    0.00040
 10217.50000   -9999.25 1706.50000 1813.38470    8.67760    0.01980   95.58820   25.51510    4.13190  -73.50670    0.00030
 10218.00000   -9999.25 1716.16670 1801.48980    8.67760    0.01940   95.61710   26.07060    4.27910  -73.50670    0.00170
 10218.50000   -9999.25 1729.16860 1801.48980    8.67770    0.01650   96.10900   24.86180    4.37590  -73.51070    0.00310
 10219.00000   -9999.25 1761.09640 1818.94980    8.67780    0.01410   96.70360   24.23070    4.46960  -73.71430    0.00390
 10219.50000   -9999.25 1793.02420 1839.09780    8.67780    0.01410   96.93610   23.80520    4.50780  -73.51440    0.00390
 10220.00000   -9999.25 1810.06970 1859.24570    8.67790    0.01610   97.45290   24.27330    4.49790  -73.48290    0.00380
 10220.50000   -9999.25 1847.17350 1879.39370    8.67790    0.01740   98.05150   23.98280    4.41360  -73.78390    0.00370
 10221.00000   -9999.25 1862.01500 1887.45280    8.67960    0.01410   98.07320   23.67150    4.33250  -74.48010    0.00390
 10221.50000   -9999.25 1848.99680 1874.33660    8.67620    0.01740   98.09490   23.96150    4.33570  -75.17640    0.00410
 10222.00000   -9999.25 1827.29980 1856.95540    8.67920    0.01820   98.11660   24.29140    4.35820  -75.26470    0.00430
 10222.50000   -9999.25 1805.60280 1839.57430    8.68210    0.01440   98.13820   26.12000    4.38080  -75.20090    0.00450
 10223.00000   -9999.25 1802.91520 1825.66940    8.68050    0.01070   98.15950   26.12530    4.39990  -75.02930    0.00450
 10223.50000   -9999.25 1802.91520 1835.92580    8.67370    0.00950   98.38550   25.36520    4.38710  -74.53310    0.00460
 10224.00000   -9999.25 1826.79410 1853.01980    8.67460    0.01480   98.23650   24.02300    4.28740  -74.40510    0.00470
 10224.50000   -9999.25 1848.58490 1863.27620    8.68320    0.01900   98.88540   23.69950    4.22210  -74.55120    0.00390
 10225.00000   -9999.25 1851.26850 1804.17640    8.67460    0.01750   98.59000   24.75170    4.18540  -74.89680    0.00390
 10225.50000   -9999.25 1795.24270 1833.72900    8.67450    0.01400   97.15170   25.21600    4.14820  -74.55480    0.00410
 10226.00000   -9999.25 1727.70230 1769.25790    8.67430    0.01250   97.42920   24.63000    4.10230  -74.55600    0.00430
 10226.50000   -9999.25 1766.20500 1791.82200    8.67420    0.01200   96.97330   24.29970    4.12960  -74.55600    0.00460
 10227.00000   -9999.25 1784.11450 1805.52090    8.67400    0.01140   96.37900   24.79480    4.15940  -74.55600    0.00490
 10227.50000   -9999.25 1780.02060 1771.94160    8.67760    0.00980   95.83300   25.22830    4.16250  -74.55600    0.00570
 10228.00000   -9999.25 1741.23240 1747.18980    8.67320    0.00940   95.47980   24.82980    4.13990  -74.66460    0.00650
 10228.50000   -9999.25 1690.14250 1705.93700    8.67330    0.01290   94.59750   24.35370    4.01470  -74.45740    0.00730
 10229.00000   -9999.25 1643.45880 1664.68410    8.67330    0.01900   94.88450   24.67370    4.01270  -74.35100    0.00780
 10229.50000   -9999.25 1659.03130 1656.43350    8.67340    0.02460   95.36390   25.54810    4.02730  -74.33220    0.00780
 10230.00000   -9999.25 1670.02520 1675.23720    8.67340    0.02700   95.15330   24.24570    4.20320  -74.03470    0.00780
 10230.50000   -9999.25 1700.25040 1712.84630    8.67340    0.02340   95.02940   23.70930    4.33870  -73.69500    0.00630
 10231.00000   -9999.25 1747.11870 1753.14070    8.67350    0.01980   94.21350   23.39330    4.39990  -73.74600    0.00440
 10231.50000   -9999.25 1773.36860 1793.43520    8.67350    0.02160   93.72590   24.02300    4.39990  -73.76090    0.00400
 10232.00000   -9999.25 1714.26880 1807.76120    8.67360    0.02180   93.45700   24.94850    4.42970  -73.55260    0.00400
 10232.50000   -9999.25 1717.49390 1788.06000    8.67360    0.02000   93.18810   25.56650    4.40210  -73.50410    0.00350
