~Version ---------------------------------------------------
VERS.   2.0 : CWLS log ASCII Standard -VERSION 2.0
WRAP.    NO : One line per depth step
DLM . SPACE : Column Data Section Delimiter
~Well ------------------------------------------------------
STRT .FT                8880.0 : START DEPTH
STOP .FT               11092.0 : STOP DEPTH
STEP .FT                   0.5 : STEP
NULL .                -9999.25 : NULL VALUE
COMP .                         : COMPANY
WELL .                         : WELL
FLD  .                         : FIELD
LOC  .                         : LOCATION
PROV .                         : PROVINCE
CNTY .                         : COUNTY
STAT .                         : STATE
CTRY .                         : COUNTRY
SRVC .                         : SERVICE COMPANY
DATE .                         : DATE
UWI  .                         : UNIQUE WELL ID
API  .                         : API NUMBER
SLAT .WGS84  6.408765936937996 : SURFACE LATITUDE
SLON .WGS84 3.6245272197060956 : SURFACE LONGITUDE
DATUM.F                    nan : DEPTH DATUM ELEV
~Curve Information -----------------------------------------
DEPT   .FT    : 
AT10   .OHMM  : ARRAY INDUCTION TWO FOOT RESISTIVITY A10
AT30   .OHMM  : ARRAY INDUCTION TWO FOOT RESISTIVITY A30
AT90   .OHMM  : ARRAY INDUCTION TWO FOOT RESISTIVITY A90
CALR   .IN    : CALIPER FROM RESISTIVITY LOG
DPHZ_LS.DEC   : HGRD STANDARD RESOLUTION DENSITY POROSITY
DTSM   .US/F  : DELTA-T SHEAR
ECGRS  .GAPI  : ENVIRONMENTALLY CORRECTED GAMMA RAY FROM SONIC LOG
PEFZ   .B/E   : HRDD STANDARD RESOLUTION FORMATION PHOTOELECTRIC FACTOR
SPR    .MV    : SPONTANEOUS POTENTIAL FROM RESISTIVITY LOG
TNPH_LS.DEC   : THERMAL NEUTRON POROSITY [LIMESTONE]
~Params ----------------------------------------------------
~Other -----------------------------------------------------
~ASCII -----------------------------------------------------
# ...
 10761.00000   -9999.25 1502.32350 1734.15650    8.63260    0.03830   83.84980   21.29660    2.82760  -60.20350    0.01010
 10761.50000   -9999.25 1500.99990 1709.06710    8.63260    0.03990   83.86960   20.36990    2.66650  -59.92000    0.01120
 10762.00000   -9999.25 1492.90780 1719.79290    8.63260    0.04130   83.91600   21.83450    2.60960  -59.63640    0.01460
 10762.50000   -9999.25 1471.72600 1692.38710    8.63260    0.03940   84.19640   23.37650    2.65870  -59.35290    0.01800
 10763.00000   -9999.25 1438.42920 1570.52930    8.63260    0.03650   83.96070   24.79380    2.71530  -59.06930    0.01940
 10763.50000   -9999.25 1411.06070 1509.11180    8.63260    0.03360   83.89890   25.18000    2.75070  -58.78580    0.01940
 10764.00000   -9999.25 1408.91340 1507.56140    8.63260    0.03190   83.97720   25.05080    2.73020  -58.50220    0.01970
 10764.50000   -9999.25 1434.21170 1534.40750    8.62890    0.03870   84.38680   25.17850    2.75690  -58.21870    0.01850
 10765.00000   -9999.25 1444.28770 1561.25360    8.62510    0.04710   84.79630   24.16650    2.78630  -57.93510    0.01740
 10765.50000   -9999.25 1448.57550 1578.69830    8.62920    0.04960   85.20580   22.33710    2.82800  -57.70830    0.01610
 10766.00000   -9999.25 1446.41310 1599.79560    8.63340    0.04960   84.94770   21.57360    2.88800  -57.30480    0.01400
 10766.50000   -9999.25 1455.70470 1629.05290    8.63750    0.04260   85.31450   21.73090    2.95340  -57.30480    0.01180
 10767.00000   -9999.25 1463.74730 1652.45390    8.64170    0.03550   85.68400   23.10940    3.00840  -57.55310    0.00960
 10767.50000   -9999.25 1455.97470 1649.75050    8.64580    0.03300   86.22390   23.99400    3.01240  -57.66950    0.00920
 10768.00000   -9999.25 1456.78420 1655.10610    8.65000    0.03220   86.01490   23.72440    3.16500  -57.78590    0.00930
 10768.50000   -9999.25 1460.83780 1663.14520    8.65410    0.03230   85.87110   23.43030    3.19650  -57.90230    0.00960
 10769.00000   -9999.25 1464.89140 1652.38300    8.65830    0.03370   85.72740   21.30240    3.08770  -58.01870    0.00980
 10769.50000   -9999.25 1468.59590 1663.10880    8.66240    0.04000   85.64120   20.24920    2.88740  -58.11180    0.01010
 10770.00000   -9999.25 1474.38940 1674.37520    8.66660    0.04640   85.64120   19.63840    2.77380  -57.57380    0.01030
 10770.50000   -9999.25 1481.77010 1677.25100    8.67070    0.04590   85.69610   19.61900    2.83120  -57.52580    0.01050
 10771.00000   -9999.25 1485.52370 1661.13340    8.67490    0.04190   85.83340   19.04840    2.95320  -57.54980    0.01070
 10771.50000   -9999.25 1489.27730 1666.50600    8.67900    0.03690   85.97060   18.47390    3.03290  -57.57380    0.01090
 10772.00000   -9999.25 1492.29590 1683.69830    8.68320    0.04100   86.10780   18.45560    2.91890  -57.59780    0.01250
 10772.50000   -9999.25 1487.79700 1648.77640    8.68730    0.04410   86.24510   19.86470    2.80010  -57.62180    0.01440
 10773.00000   -9999.25 1494.28830 1618.15270    8.69150    0.04150   86.38230   22.06790    2.77320  -57.64590    0.01520
 10773.50000   -9999.25 1516.19170 1615.46610    8.69150    0.03720   86.56720   24.29530    2.85370  -57.66990    0.01520
 10774.00000   -9999.25 1538.09510 1618.15270    8.68890    0.03390   86.82360   26.06200    2.92500  -57.69390    0.01520
 10774.50000   -9999.25 1581.75540 1643.40370    8.68620    0.03690   87.08000   25.76690    2.89470  -57.68140    0.01420
 10775.00000   -9999.25 1602.52340 1671.60980    8.68360    0.04290   87.08000   23.40600    2.79640  -57.54690    0.01200
 10775.50000   -9999.25 1622.38010 1677.25160    8.68090    0.04900   87.03450   22.67510    2.72250  -57.41240    0.01090
 10776.00000   -9999.25 1606.14610 1656.49370    8.67830    0.05380   87.39210   22.09050    2.80510  -57.30480    0.00990
 10776.50000   -9999.25 1573.91060 1627.18870    8.67560    0.05040   87.62080   23.13940    2.90960  -57.30480    0.01200
 10777.00000   -9999.25 1598.66320 1621.84680    8.67290    0.04460   87.15050   22.06430    2.95130  -57.46000    0.01350
 10777.50000   -9999.25 1639.91750 1667.17800    8.67030    0.04180   87.57630   20.82570    2.93530  -57.61520    0.01510
 10778.00000   -9999.25 1681.17170 1696.05550    8.66760    0.03980   87.46740   20.26950    2.91930  -57.50660    0.01500
 10778.50000   -9999.25 1689.42260 1773.95830    8.66500    0.03840   87.80060   20.89200    2.90330  -57.40570    0.01310
 10779.00000   -9999.25 1642.63470 1709.48720    8.66230    0.03400   87.86000   22.04940    2.89680  -57.02660    0.01400
 10779.50000   -9999.25 1601.22210 1689.34000    8.65970    0.03340   87.92380   21.43290    2.87520  -56.67880    0.01550
 10780.00000   -9999.25 1576.59820 1628.00320    8.65700    0.03470   88.23170   20.78560    2.84020  -56.33090    0.01640
 10780.50000   -9999.25 1563.50160 1596.66340    8.65440    0.03940   88.53960   22.44110    2.83140  -55.98310    0.01580
 10781.00000   -9999.25 1537.47770 1648.71020    8.65170    0.03940   88.72430   24.75810    2.80480  -55.63530    0.01530
 10781.50000   -9999.25 1511.45380 1646.35970    8.64910    0.03850   88.72430   26.40020    2.82780  -55.62660    0.01530
 10782.00000   -9999.25 1485.26340 1653.07560    8.64640    0.03750   88.72430   25.96050    2.89030  -55.12020    0.01580
 10782.50000   -9999.25 1482.57580 1618.15360    8.64370    0.03800   89.05520   24.63060    2.95290  -54.77570    0.01580
 10783.00000   -9999.25 1481.23270 1572.48660    8.64110    0.03890   89.38600   22.72470    2.99040  -54.68110    0.01810
 10783.50000   -9999.25 1474.51690 1545.62390    8.63840    0.04030   89.67520   22.01790    2.94190  -54.67910    0.02500
 10784.00000   -9999.25 1451.53560 1593.97720    8.63580    0.03950   89.90210   21.80650    2.95020  -54.45330    0.02340
 10784.50000   -9999.25 1426.16360 1567.78580    8.63310    0.04030   90.00410   22.07260    2.84240  -54.17160    0.02010
 10785.00000   -9999.25 1418.10470 1508.01560    8.63260    0.03940   90.24510   23.12760    2.79260  -53.88990    0.01750
 10785.50000   -9999.25 1438.52240 1569.80090    8.63120    0.03790   90.52780   24.76110    2.80470  -53.60820    0.01750
 10786.00000   -9999.25 1446.31330 1618.15450    8.62950    0.03580   90.81040   24.95040    2.83400  -53.32650    0.01850
 10786.50000   -9999.25 1431.53930 1525.35500    8.62780    0.03580   91.09310   25.10140    2.84200  -53.14000    0.02020
 10787.00000   -9999.25 1367.06820 1432.55550    8.62600    0.03620   91.37570   23.87000    2.79370  -52.97730    0.02020
 10787.50000   -9999.25 1435.83740 1475.39700    8.62430    0.04370   91.60180   22.63850    2.78140  -52.81460    0.02030
 10788.00000   -9999.25 1521.79890 1559.82340    8.62260    0.05160   91.60180   22.22340    2.76900  -52.65190    0.02040
 10788.50000   -9999.25 1607.76040 1644.24980    8.62080    0.05750   91.66470   22.63570    2.75660  -52.48920    0.02050
 10789.00000   -9999.25 1614.68150 1658.44900    8.61910    0.05420   91.89740   22.63570    2.77290  -52.32650    0.02060
 10789.50000   -9999.25 1563.32520 1627.10880    8.61740    0.05310   91.54480   21.80800    2.78800  -52.16380    0.02070
 10790.00000   -9999.25 1511.96890 1598.45530    8.61560    0.05070   91.52950   20.45390    2.74710  -52.00110    0.02040
 10790.50000   -9999.25 1460.61260 1569.80180    8.61390    0.04280   91.53950   21.37330    2.64590  -51.83850    0.01960
 10791.00000   -9999.25 1443.35750 1559.05630    8.61220    0.03620   91.91140   22.44240    2.66530  -51.67580    0.01910
 10791.50000   -9999.25 1453.02770 1559.05630    8.61050    0.02970   92.27110   24.00990    2.82080  -51.51310    0.02030
 10792.00000   -9999.25 1466.45920 1556.37010    8.60870    0.02580   92.84880   23.94790    2.94940  -51.35040    0.02190
 10792.50000   -9999.25 1472.50330 1585.91950    8.60700    0.03070   93.11700   25.36840    2.96160  -51.22020    0.02340
 10793.00000   -9999.25 1502.72420 1625.61700    8.60530    0.03700   93.12540   25.32170    2.89460  -51.05750    0.02400
 10793.50000   -9999.25 1504.06990 1582.33770    8.60350    0.03950   93.13370   26.14530    2.82750  -50.89490    0.02460
