~Version ---------------------------------------------------
VERS.   2.0 : CWLS log ASCII Standard -VERSION 2.0
WRAP.    NO : One line per depth step
DLM . SPACE : Column Data Section Delimiter
~Well ------------------------------------------------------
STRT .FT                8880.0 : START DEPTH
STOP .FT               11092.0 : STOP DEPTH
STEP .FT                   0.5 : STEP
NULL .                -9999.25 : NULL VALUE
COMP .                         : COMPANY
WELL .                         : WELL
FLD  .                         : FIELD
LOC  .                         : LOCATION
PROV .                         : PROVINCE
CNTY .                         : COUNTY
STAT .                         : STATE
CTRY .                         : COUNTRY
SRVC .                         : SERVICE COMPANY
DATE .                         : DATE
UWI  .                         : UNIQUE WELL ID
API  .                         : API NUMBER
SLAT .WGS84  6.408765936937996 : SURFACE LATITUDE
SLON .WGS84 3.6245272197060956 : SURFACE LONGITUDE
DATUM.F                    nan : DEPTH DATUM ELEV
~Curve Information -----------------------------------------
DEPT   .FT    : 
AT10   .OHMM  : ARRAY INDUCTION TWO FOOT RESISTIVITY A10
AT30   .OHMM  : ARRAY INDUCTION TWO FOOT RESISTIVITY A30
AT90   .OHMM  : ARRAY INDUCTION TWO FOOT RESISTIVITY A90
CALR   .IN    : CALIPER FROM RESISTIVITY LOG
DPHZ_LS.DEC   : HGRD STANDARD RESOLUTION DENSITY POROSITY
DTSM   .US/F  : DELTA-T SHEAR
ECGRS  .GAPI  : ENVIRONMENTALLY CORRECTED GAMMA RAY FROM SONIC LOG
PEFZ   .B/E   : HRDD STANDARD RESOLUTION FORMATION PHOTOELECTRIC FACTOR
SPR    .MV    : SPONTANEOUS POTENTIAL FROM RESISTIVITY LOG
TNPH_LS.DEC   : THERMAL NEUTRON POROSITY [LIMESTONE]
~Params ----------------------------------------------------
~Other -----------------------------------------------------
~ASCII -----------------------------------------------------
# ...
 9639.00000   10.88120  852.64450  843.08330    8.82120    0.05170  115.58110   90.39870    2.97410  -20.26800    0.09640
 9639.50000   10.65560  849.28660  839.72550    8.80410    0.05230  115.51140   88.92210    2.95630  -20.30920    0.10040
 9640.00000   10.43000  845.92870  836.36760    8.80190    0.05290  115.36180   90.81660    2.91640  -20.35030    0.10440
 9640.50000   10.20440  848.61430  839.05320    8.79400    0.05120  115.08700   90.29150    2.88980  -20.39150    0.10690
 9641.00000   10.20440  848.61430  839.05320    8.79400    0.04810  114.97320   87.39840    2.92110  -20.43270    0.10870
 9641.50000   10.44930  853.98660  845.06510    8.80710    0.04570  114.20040   81.32810    2.95760  -20.47390    0.10950
 9642.00000   10.85740  857.34440  848.26300    8.81640    0.04870  113.54270   79.34930    2.96030  -20.51500    0.10820
 9642.50000   11.26560  860.70230  851.46100    8.83430    0.05090  112.62150   79.83670    2.96300  -20.55620    0.10470
 9643.00000   11.26560  864.06010  854.65890    8.83430    0.05250  112.02450   81.62030    2.96570  -20.58910    0.10130
 9643.50000   11.47290  867.41800  857.85690    8.82680    0.05470  111.38310   81.65270    2.96840  -20.58910    0.09780
 9644.00000   11.64080  874.06300  865.76230    8.82090    0.05450  111.60150   79.39430    2.97110  -20.72750    0.09530
 9644.50000   11.80870  879.01130  872.28610    8.81510    0.05450  111.07370   74.33740    2.97370  -20.85310    0.09720
 9645.00000   12.11770  883.95950  878.80990    8.80920    0.05380  111.06250   70.36710    2.97640  -20.97860    0.09720
 9645.50000   12.63670  888.90780  885.33370    8.80330    0.05070  111.05140   71.33920    3.01030  -21.10420    0.09690
 9646.00000   13.42630  896.58280  891.85750    8.79750    0.05070  111.57150   73.25680    3.03060  -20.98680    0.09380
 9646.50000   13.90830  904.25780  898.38130    8.79400    0.05070  112.09170   73.15030    3.03060  -20.97710    0.09020
 9647.00000   14.08890  910.39790  903.60040    8.80340    0.05070  112.86300   72.15630    3.03060  -20.96740    0.09020
 9647.50000   13.87670  910.39790  903.60040    8.80030    0.05160  115.18490   72.91860    3.01860  -20.95770    0.09020
 9648.00000   13.74230  910.39790  903.60040    8.79710    0.05310  116.73250   75.53910    3.00370  -20.73770    0.09020
 9648.50000   13.57320  907.17430  897.61320    8.79400    0.05480  118.17970   78.15960    2.98880  -20.67130    0.09240
 9649.00000   12.79270  891.05650  881.49540    8.76620    0.05370  119.07760   80.91310    2.97690  -20.60490    0.09590
 9649.50000   12.01210  874.93870  865.37760    8.77780    0.05230  120.03130   84.40300    2.97690  -20.54660    0.10280
 9650.00000   11.23150  858.82090  849.25980    8.78790    0.05300  121.06880   87.03480    2.97980  -20.50050    0.10970
 9650.50000   10.45090  843.81600  834.25500    8.79500    0.05230  121.95980   88.12350    2.98730  -20.45440    0.11440
 9651.00000    9.67040  833.26280  823.70180    8.79770    0.04980  122.81410   85.48800    2.99480  -20.40820    0.11670
 9651.50000    9.10710  822.70960  813.14860    8.80030    0.04900  123.66850   82.75360    3.00220  -20.36210    0.11980
 9652.00000    9.01730  816.37770  806.81660    8.80300    0.05060  124.52290   81.27390    3.00970  -20.31600    0.12300
 9652.50000    9.04540  818.31190  808.75080    8.79800    0.05230  125.18960   81.36400    3.01710  -20.26990    0.12610
 9653.00000    9.12950  823.14720  813.58610    8.79630    0.05090  126.51630   83.02550    3.00590  -20.22380    0.12920
 9653.50000    9.38240  827.98250  818.42140    8.80220    0.04930  126.70570   81.43570    2.99480  -20.17760    0.13050
 9654.00000    9.69860  832.81790  823.25680    8.79690    0.04640  126.84220   80.93920    2.98360  -20.13150    0.12890
 9654.50000   10.01470  837.65320  828.09210    8.81150    0.04360  127.84950   81.17450    2.97240  -20.08540    0.12500
 9655.00000   10.20440  840.55440  830.99330    8.82610    0.04290  128.99790   85.60380    2.96120  -20.03930    0.12100
 9655.50000    9.82550  840.55440  830.99330    8.84070    0.04500  130.37100   89.07000    2.96310  -19.99320    0.11870
 9656.00000    9.19400  824.43660  814.87550    8.83620    0.04700  131.96850   89.05950    2.99490  -19.37870    0.12290
 9656.50000    8.58210  804.28940  794.72830    8.83810    0.05050  133.35640   87.62270    3.02670  -19.30110    0.13060
 9657.00000    7.84080  784.14210  774.58100    8.85700    0.05230  134.85870   85.88640    3.05850  -19.22350    0.13680
 9657.50000    6.95480  765.33770  755.77660    8.86510    0.05110  136.20440   86.91100    3.13120  -19.14600    0.14730
 9658.00000    6.86930  762.65130  753.09990    8.86590    0.05070  137.76270   88.90540    3.19600  -19.06840    0.15680
 9658.50000    6.86930  762.65130  753.14800    8.86670    0.05290  139.17510   90.91110    3.24110  -18.99080    0.15680
 9659.00000    6.86930  762.65130  751.50950    8.86760    0.05630  140.19330   92.19760    3.21280  -18.97530    0.15680
 9659.50000    6.83560  758.55160  748.99050    8.86840    0.05860  140.63490   92.70490    3.23900  -18.99280    0.15770
 9660.00000    6.61920  751.48230  741.92120    8.87900    0.06090  141.22850   93.62740    3.25650  -19.08050    0.15950
 9660.50000    6.34300  744.41300  734.85190    8.82580    0.06320  141.67950   93.42000    3.28230  -19.16820    0.16880
 9661.00000    6.14820  737.34370  727.78260    8.83670    0.06350  140.26600   95.18230    3.36640  -19.25590    0.17480
 9661.50000    6.07020  733.10210  723.54100    8.84120    0.05640  137.00790   94.48430    3.41890  -19.34360    0.17830
 9662.00000    6.07020  733.10210  723.54100    8.84580    0.04940  134.73140   95.16480    3.46210  -19.37870    0.18040
 9662.50000    6.07020  733.10210  723.54100    8.88200    0.04720  130.59500   86.06560    3.50520  -19.37870    0.17950
 9663.00000    6.07020  733.10210  723.54100    8.87820    0.05310  123.25440   77.79220    3.50730  -19.37870    0.17820
 9663.50000    6.07020  733.10210  723.54100    8.88230    0.06290  123.20910   68.72150    3.46950  -19.37870    0.17530
 9664.00000    6.07020  738.47460  728.91360    8.84380    0.06490  122.01210   67.43340    3.50880  -19.37870    0.17250
 9664.50000    8.05850  781.45550  771.89440    8.80940    0.06040  113.87010   65.75440    3.60450  -19.37870    0.16970
 9665.00000   10.44940  840.06570  825.65250    8.77500    0.04180  111.69890   57.28260    3.72930  -19.37870    0.13600
 9665.50000   13.27750  898.67580  879.41050    8.75360    0.02050  110.99320   46.71970    3.69070  -19.63090    0.10950
 9666.00000   13.73060  903.41360  892.31770    8.78920    0.02000  111.24130   35.87250    3.54990  -19.88310    0.09660
 9666.50000   13.73060  900.99610  879.42370    8.84710    0.02940  114.02850   29.67170    3.29110  -20.13520    0.08860
 9667.00000   15.31820  921.14340  904.04780    8.87470    0.04390  116.02610   39.75170    3.20520  -19.99270    0.08680
 9667.50000   17.57830  941.29060  908.97260    8.85630    0.05130  128.13120   58.42100    3.35270  -19.37870    0.08650
 9668.00000   21.79530  969.67570  932.76560    8.81050    0.05120  142.70560   81.36330    3.63470  -19.14620    0.08590
 9668.50000   24.85960 1000.12030  972.10060    8.77380    0.03790  152.08200   97.62460    4.27910  -18.91360    0.06720
 9669.00000   25.62550 1030.56490 1011.43570    8.76280    0.02450  156.49780  101.80120    4.75170  -18.68100    0.05050
 9669.50000   26.77440 1039.34020 1024.48350    8.74450    0.01530  162.11280  106.23400    5.01550  -18.44850    0.04890
 9670.00000   17.30010  879.28000  874.94430    8.86350    0.01960  165.59600  107.21900    4.91450  -18.21590    0.07520
 9670.50000    7.82580  719.21990  691.37820    9.08760    0.03070  169.34690  108.23850    4.63480  -17.75260    0.13580
 9671.00000    3.79670  640.22920  630.66820    9.22430    0.04170  173.60080  104.96250    4.30930  -17.59670    0.19520
 9671.50000    3.61100  617.58740  608.02640    9.19750    0.06270  176.15880  102.32870    4.12800  -17.66010    0.25020
