~Version ---------------------------------------------------
VERS.   2.0 : CWLS log ASCII Standard -VERSION 2.0
WRAP.    NO : One line per depth step
DLM . SPACE : Column Data Section Delimiter
~Well ------------------------------------------------------
STRT .F                 2977.0 : START DEPTH
STOP .F                 9110.0 : STOP DEPTH
STEP .F                    0.5 : STEP
NULL .                -9999.25 : NULL VALUE
COMP .                         : COMPANY
WELL .                         : WELL
FLD  .                         : FIELD
LOC  .                         : LOCATION
PROV .                         : PROVINCE
CNTY .                         : COUNTY
STAT .                         : STATE
CTRY .                         : COUNTRY
SRVC .                         : SERVICE COMPANY
DATE .                         : DATE
UWI  .                         : UNIQUE WELL ID
API  .                         : API NUMBER
SLAT .WGS84 3.2384937972768952 : SURFACE LATITUDE
SLON .WGS84   6.18895645037901 : SURFACE LONGITUDE
DATUM.F                2911.17 : DEPTH DATUM ELEV
~Curve Information -----------------------------------------
DEPT.F     : 
GRD .GAPI  : GAMMA RAY FROM DENSITY LOG
TNPH.DEC   : THERMAL NEUTRON POROSITY LIMESTONE
CALD.IN    : CALIPER FROM DENSITY LOG
DPHZ.DEC   : DENSITY POROSITY LIMESTONE
HDRA.G/C3  : DELTA RHO HIP TOOL
PEFZ.B/E   : HILT PHOTOELECTRIC FACTOR
RHOZ.G/C3  : HILT BULK DENSITY
DT4P.US/F  : COMPRESSIONAL-WAVE INTERVAL TRANSIT TIME ACOUSTIC SLOWNESS, P&S MODE
DT4S.US/F  : SHEAR-WAVE INTERVAL TRANSIT TIME ACOUSTIC SLOWNESS, P&S MODE
DTCO.US/F  : COMPRESSIONAL-WAVE INTERVAL TRANSIT TIME ACOUSTIC SLOWNESS
DTRP.US/F  : COMPRESSIONAL-WAVE INTERVAL TRANSIT TIME DELTA-T, RECEIVER ARRAY
DTRS.US/F  : INTERVAL TRANSIT TIME FOR RECEIVER ARRAY
DTSM.US/F  : SHEAR-WAVE INTERVAL TRANSIT TIME DELTA-T
AF10.OHMM  : 10-IN. RESISTIVITY, 4-FT RESOLUTION
AF30.OHMM  : 30-IN. RESISTIVITY, 4-FT RESOLUTION
AF90.OHMM  : 90-IN. RESISTIVITY, 4-FT RESOLUTION
SPR .MV    : SPONTANEOUS POTENTIAL FROM RES.
~Params ----------------------------------------------------
~Other -----------------------------------------------------
~ASCII -----------------------------------------------------
# ...
 4740.00000   37.75080    0.09130    9.10900    0.07080    0.00000    4.17180    2.60510   -9999.25   -9999.25   -9999.25   -9999.25   -9999.25   -9999.25   25.72110   22.50120   26.66390  -22.87480
 4740.50000   36.64580    0.07950    9.10970    0.06900   -0.00150    4.31660    2.61700   -9999.25   -9999.25   -9999.25   -9999.25   -9999.25   -9999.25   26.26330   22.50510   26.65480  -24.84900
 4741.00000   34.74190    0.06720    9.11030    0.05750   -0.00300    4.37670    2.62170   -9999.25   -9999.25   -9999.25   -9999.25   -9999.25   -9999.25   25.90310   22.50890   26.64560  -26.47170
 4741.50000   34.13900    0.06840    9.09580    0.05300   -0.00450    4.36150    2.59910   -9999.25   -9999.25   -9999.25   -9999.25   -9999.25   -9999.25   25.19700   22.51280   26.63650  -28.43690
 4742.00000   36.10940    0.07980    9.09640    0.06720   -0.00680    4.30100    2.59160   -9999.25   -9999.25   -9999.25   -9999.25   -9999.25   -9999.25   24.68030   22.51660   26.44350  -30.70470
 4742.50000   37.62530    0.09170    9.09700    0.07500   -0.00830    4.21040    2.59250   -9999.25   -9999.25   -9999.25   -9999.25   -9999.25   -9999.25   24.00710   22.99360   26.25190  -32.21610
 4743.00000   39.74630    0.10280    9.08240    0.07170   -0.00600    4.10470    2.60810   -9999.25   -9999.25   -9999.25   -9999.25   -9999.25   -9999.25   23.19110   23.31850   25.34910  -33.27360
 4743.50000   41.86720    0.10030    9.08300    0.05850   -0.00210    4.14980    2.61820   -9999.25   -9999.25   -9999.25   -9999.25   -9999.25   -9999.25   22.87300   23.97810   25.16540  -34.78500
 4744.00000   42.32410    0.09220    9.08370    0.05150    0.00010    4.22500    2.63150   -9999.25   -9999.25   -9999.25   -9999.25   -9999.25   -9999.25   23.19430   24.82780   25.15670  -36.14510
 4744.50000   38.99880    0.08190    9.08430    0.04670    0.00010    4.30030    2.64300   -9999.25   -9999.25   -9999.25   -9999.25   -9999.25   -9999.25   24.68870   25.17860   25.12740  -37.35390
 4745.00000   34.16060    0.07680    9.08490    0.04190   -0.00070    4.27000    2.65020   -9999.25   -9999.25   -9999.25   -9999.25   -9999.25   -9999.25   25.20910   24.83630   24.96570  -38.41140
 4745.50000   33.25510    0.08650    9.08550    0.03680   -0.00220    4.23970    2.64580   -9999.25   -9999.25   -9999.25   -9999.25   -9999.25   -9999.25   23.52280   24.49860   24.44190  -39.46890
 4746.00000   36.43580    0.09670    9.07080    0.03560   -0.00370    4.20930    2.62890   -9999.25   -9999.25   -9999.25   -9999.25   -9999.25   -9999.25   22.25570   24.33360   24.09720  -40.37510
 4746.50000   39.46450    0.09520    9.05630    0.04230   -0.00290    4.20920    2.62770   -9999.25   -9999.25   -9999.25   -9999.25   -9999.25   -9999.25   22.41390   24.84910   24.42510  -41.13010
 4747.00000   40.07980    0.08890    9.02670    0.04980   -0.00060    4.19400    2.63230   -9999.25   -9999.25   -9999.25   -9999.25   -9999.25   -9999.25   24.03920   25.39020   24.92970  -41.73370
 4747.50000   36.43280    0.08130    9.02730    0.04760    0.00240    4.19380    2.63380   -9999.25   -9999.25   -9999.25   -9999.25   -9999.25   -9999.25   25.42820   26.31980   26.34190  -42.18850
 4748.00000   32.73290    0.07590    9.02790    0.04580    0.01750    4.21020    2.63530   -9999.25   -9999.25   -9999.25   -9999.25   -9999.25   -9999.25   26.65730   27.90970   28.41880  -42.65040
 4748.50000   30.52860    0.07190    9.05880    0.04500    0.01900    4.25610    2.63820   -9999.25   -9999.25   -9999.25   -9999.25   -9999.25   -9999.25   26.65950   29.16430   29.00840  -43.24210
 4749.00000   30.09970    0.07010    9.05940    0.04260    0.01530    4.28390    2.64560   -9999.25   -9999.25   -9999.25   -9999.25   -9999.25   -9999.25   26.11270   28.17590   27.81500  -44.14800
 4749.50000   29.80010    0.07070    9.09030    0.03590    0.00170    4.29880    2.64810   -9999.25   -9999.25   -9999.25   -9999.25   -9999.25   -9999.25   25.05090   26.29390   26.12420  -45.50800
 4750.00000   28.89610    0.08190    9.10610    0.03760   -0.00360    4.23830    2.63190   -9999.25   -9999.25   -9999.25   -9999.25   -9999.25   -9999.25   22.89420   24.85690   24.99680  -47.01940
 4750.50000   29.50420    0.08850    9.09460    0.04380   -0.00430    4.22310    2.62290   -9999.25   -9999.25   -9999.25   -9999.25   -9999.25   -9999.25   20.74150   22.89400   23.53400  -47.77450
 4751.00000   30.86880    0.09610    9.08310    0.05280   -0.00430    4.19870    2.62020   -9999.25   -9999.25   -9999.25   -9999.25   -9999.25   -9999.25   19.79040   22.11420   22.41650  -48.22690
 4751.50000   31.48120    0.09460    9.07160    0.05410   -0.00590    4.25830    2.62090   -9999.25   -9999.25   -9999.25   -9999.25   -9999.25   -9999.25   20.34500   22.73580   22.56940  -48.07410
 4752.00000   28.30870    0.08850    9.06300    0.05500   -0.00650    4.41930    2.62090   -9999.25   -9999.25   -9999.25   -9999.25   -9999.25   -9999.25   21.35490   23.53750   23.04040  -47.77000
 4752.50000   25.59000    0.08100    9.07880    0.05130   -0.00430    4.46460    2.63230   -9999.25   -9999.25   -9999.25   -9999.25   -9999.25   -9999.25   22.26010   24.37010   24.19100  -47.31470
 4753.00000   24.98930    0.07350    9.08130    0.04080   -0.00270    4.47960    2.65020   -9999.25   -9999.25   -9999.25   -9999.25   -9999.25   -9999.25   23.04340   25.78790   25.07590  -46.85210
 4753.50000   24.99390    0.06680    9.09530    0.03360   -0.00270    4.52490    2.65710   -9999.25   -9999.25   -9999.25   -9999.25   -9999.25   -9999.25   23.20240   26.69410   26.45410  -46.70650
 4754.00000   24.99940    0.06350    9.11100    0.03000   -0.00200    4.55510    2.65750   -9999.25   -9999.25   -9999.25   -9999.25   -9999.25   -9999.25   23.04020   25.93560   26.45050  -47.03400
 4754.50000   24.85140    0.06650    9.14190    0.03570   -0.00120    4.58520    2.64570   -9999.25   -9999.25   -9999.25   -9999.25   -9999.25   -9999.25   22.87960   26.11600   26.44690  -47.61090
 4755.00000   24.85700    0.06930    9.18800    0.04470    0.00030    4.58520    2.62700   -9999.25   -9999.25   -9999.25   -9999.25   -9999.25   -9999.25   22.87800   26.48050   26.44330  -47.76110
 4755.50000   23.80250    0.06990    9.21890    0.04960    0.00110    4.47960    2.62800   -9999.25   -9999.25   -9999.25   -9999.25   -9999.25   -9999.25   22.87650   26.85010   26.80870  -47.75920
 4756.00000   22.74790    0.06780    9.26490    0.05020    0.00030    4.41930    2.62620   -9999.25   -9999.25   -9999.25   -9999.25   -9999.25   -9999.25   22.87490   27.22480   27.17920  -47.45520
 4756.50000   23.96270    0.06570    9.26550    0.04900   -0.00120    4.35900    2.61990   -9999.25   -9999.25   -9999.25   -9999.25   -9999.25   -9999.25   23.19260   27.47720   27.74640  -46.69720
 4757.00000   26.38770    0.06780    9.22060    0.05650   -0.00190    4.31370    2.60810   -9999.25   -9999.25   -9999.25   -9999.25   -9999.25   -9999.25   23.86270   28.18470   28.13080  -45.78800
 4757.50000   28.51020    0.07290    9.19090    0.06140   -0.00270    4.28360    2.61120   -9999.25   -9999.25   -9999.25   -9999.25   -9999.25   -9999.25   25.37520   29.38140   29.32020  -45.18140
 4758.00000   29.11980    0.07770    9.16120    0.05970   -0.00260    4.26850    2.62960   -9999.25   -9999.25   -9999.25   -9999.25   -9999.25   -9999.25   26.26810   29.99870   29.93210  -44.42350
 4758.50000   29.27560    0.07760    9.14670    0.04820   -0.00260    4.26850    2.64680   -9999.25   -9999.25   -9999.25   -9999.25   -9999.25   -9999.25   26.81820   30.41740   30.13620  -43.36300
 4759.00000   29.43130    0.07120    9.11620    0.03700   -0.00260    4.28360    2.65790   -9999.25   -9999.25   -9999.25   -9999.25   -9999.25   -9999.25   26.63120   29.58580   29.69770  -42.30250
 4759.50000   29.73830    0.06650    9.08730    0.02850   -0.00180    4.32880    2.65990   -9999.25   -9999.25   -9999.25   -9999.25   -9999.25   -9999.25   25.36830   27.22480   27.67670  -41.24200
 4760.00000   30.04540    0.06810    9.07270    0.03430    0.00120    4.35900    2.65180   -9999.25   -9999.25   -9999.25   -9999.25   -9999.25   -9999.25   22.70420   25.20310   25.50710  -40.18150
