~Version ---------------------------------------------------
VERS.   2.0 : CWLS log ASCII Standard -VERSION 2.0
WRAP.    NO : One line per depth step
DLM . SPACE : Column Data Section Delimiter
~Well ------------------------------------------------------
STRT .F                 2977.0 : START DEPTH
STOP .F                 9110.0 : STOP DEPTH
STEP .F                    0.5 : STEP
NULL .                -9999.25 : NULL VALUE
COMP .                         : COMPANY
WELL .                         : WELL
FLD  .                         : FIELD
LOC  .                         : LOCATION
PROV .                         : PROVINCE
CNTY .                         : COUNTY
STAT .                         : STATE
CTRY .                         : COUNTRY
SRVC .                         : SERVICE COMPANY
DATE .                         : DATE
UWI  .                         : UNIQUE WELL ID
API  .                         : API NUMBER
SLAT .WGS84 3.2384937972768952 : SURFACE LATITUDE
SLON .WGS84   6.18895645037901 : SURFACE LONGITUDE
DATUM.F                2911.17 : DEPTH DATUM ELEV
~Curve Information -----------------------------------------
DEPT.F     : 
GRD .GAPI  : GAMMA RAY FROM DENSITY LOG
TNPH.DEC   : THERMAL NEUTRON POROSITY LIMESTONE
CALD.IN    : CALIPER FROM DENSITY LOG
DPHZ.DEC   : DENSITY POROSITY LIMESTONE
HDRA.G/C3  : DELTA RHO HIP TOOL
PEFZ.B/E   : HILT PHOTOELECTRIC FACTOR
RHOZ.G/C3  : HILT BULK DENSITY
DT4P.US/F  : COMPRESSIONAL-WAVE INTERVAL TRANSIT TIME ACOUSTIC SLOWNESS, P&S MODE
DT4S.US/F  : SHEAR-WAVE INTERVAL TRANSIT TIME ACOUSTIC SLOWNESS, P&S MODE
DTCO.US/F  : COMPRESSIONAL-WAVE INTERVAL TRANSIT TIME ACOUSTIC SLOWNESS
DTRP.US/F  : COMPRESSIONAL-WAVE INTERVAL TRANSIT TIME DELTA-T, RECEIVER ARRAY
DTRS.US/F  : INTERVAL TRANSIT TIME FOR RECEIVER ARRAY
DTSM.US/F  : SHEAR-WAVE INTERVAL TRANSIT TIME DELTA-T
AF10.OHMM  : 10-IN. RESISTIVITY, 4-FT RESOLUTION
AF30.OHMM  : 30-IN. RESISTIVITY, 4-FT RESOLUTION
AF90.OHMM  : 90-IN. RESISTIVITY, 4-FT RESOLUTION
SPR .MV    : SPONTANEOUS POTENTIAL FROM RES.
~Params ----------------------------------------------------
~Other -----------------------------------------------------
~ASCII -----------------------------------------------------
# ...
 8778.50000   24.68060    0.00380    9.09970    0.00630    0.00810    4.96660    2.69480   49.52240   94.04380   49.89080   48.00920   94.18960   93.41310   67.69190  513.15200  185.64140 -214.39390
 8779.00000   25.28940    0.00980    9.14360    0.00300   -0.00180    4.86060    2.69840   50.09800   95.10760   50.75190   49.03610   95.08880   94.31500   64.48210  425.04640  155.03170 -210.00000
 8779.50000   30.73870    0.01800    9.15910    0.00030   -0.01080    4.75450    2.71060   50.55010   95.99030   51.20300   49.63860   95.69750   94.99160   67.21530  316.57350  132.18910 -206.96970
 8780.00000   41.02910    0.02760    9.15940    0.00270   -0.00990    4.64850    2.71590   50.70080   96.29600   51.35340   50.24100   95.97600   95.29280   80.48100  239.18230  104.43910 -203.93940
 8780.50000   43.75530    0.02860    9.15970    0.00090   -0.00100    4.58770    2.71820   50.85150   96.45110   51.27820   50.99400   94.91910   95.21450   84.47580  196.93950   86.57860 -201.21210
 8781.00000   39.82480    0.02550    9.09930   -0.00240    0.00280    4.55720    2.71820   50.70080   95.85200   50.97740   50.84340   94.31470   94.68690   72.02410  146.13550   75.13740 -198.78790
 8781.50000   31.50710    0.02340    9.03890   -0.00090    0.00350    4.66230    2.71630   50.70080   96.00820   50.67670   50.39160   94.76540   94.61990   61.82800  126.31170   62.11280 -195.75760
 8782.00000   22.88670    0.02500    8.96330    0.01120    0.00200    4.73720    2.68730   50.70080   98.12110   51.12780   50.84340   99.43610   95.07150   57.50200  108.42260   50.44710 -192.84650
 8782.50000   22.28380    0.04070    8.91800    0.06810    0.00050    4.78200    2.62940   51.30370  103.09550   52.63160   51.59640  102.44890   96.49890   44.63830   77.71100   43.31320 -189.60630
 8783.00000   21.98500    0.05390    8.93360    0.10270    0.00810    4.78160    2.53580   54.01660  105.50960   54.88720   53.25300  105.91390  100.25350   38.05860   58.46950   37.44680 -186.36610
 8783.50000   19.71870    0.06210    8.96420    0.10950    0.03450    4.87200    2.52740   55.97590  108.52610   57.36840   56.86750  108.02250  103.55780   36.00350   49.84180   32.82690 -183.12590
 8784.00000   17.75490    0.07020    8.97970    0.12610    0.04730    4.93270    2.49740   58.23660  110.94020   59.02260   58.97590  110.13100  105.73590   39.66910   43.68230   27.60480 -179.84850
 8784.50000   17.14080    0.07840    8.96480    0.13030    0.03370    4.97630    2.48660   59.74380  112.14950   59.92900   59.87950  111.93810  107.68880   43.70790   35.71880   24.36740 -177.42420
 8785.00000   16.52190    0.08290    8.85890    0.13270    0.01560    4.96070    2.48890   59.59310  112.15400   59.66880   60.03010  111.78590  108.66570   42.21650   32.59180   20.77700 -175.45450
 8785.50000   16.09970    0.08050    8.70530    0.12040    0.00660    4.96020    2.51850   59.14090  109.74880   58.57140   59.87950  110.27720  108.21610   35.99380   29.65570   18.08790 -173.33330
 8786.00000   16.70860    0.07600    8.71160    0.09600    0.00050    5.05030    2.54980   58.68880  108.09660   58.12030   59.42770  109.82360  106.64050   28.83270   24.38050   15.42280 -171.06060
 8786.50000   19.28340    0.07000    8.85980    0.07700   -0.00020    5.14040    2.57390   57.78450  107.79970   57.66920   58.37350  109.67140  105.36510   22.93680   18.09110   12.70250 -169.09090
 8787.00000   25.03530    0.06870    8.96640    0.06620    0.00200    5.17020    2.59460   57.48300  107.65360   57.66920   58.06750  109.66990  105.21570   20.38620   15.63700   10.82680 -167.57580
 8787.50000   25.94520    0.06940    8.98180    0.06470    0.00200    5.10930    2.59810   57.33230  107.65820   57.59400   57.46990  109.51770  105.06670   19.55460   14.58730    9.09290 -166.36360
 8788.00000   25.19250    0.06790    8.92140    0.07880    0.00050    5.07870    2.59230   57.50340  107.96390   57.51880   57.46990  109.36550  104.84220   19.87260   14.38440    8.71770 -165.00000
 8788.50000   25.04350    0.06610    8.89130    0.08340   -0.00100    5.00280    2.58130   57.63380  107.96840   57.21800   57.46990  109.19770  104.54300   21.84430   14.48300    8.49810 -163.62430
 8789.00000   25.65230    0.06360    8.89170    0.08280   -0.00250    4.97220    2.57390   57.18160  107.37040   56.91730   57.46990  108.73470  103.86830   23.90210   14.78500    8.79770 -162.35150
 8789.50000   28.07590    0.05950    8.92230    0.07920   -0.00250    4.91140    2.57340   56.72950  107.36200   56.39100   56.56630  107.40140  103.64400   27.07590   15.09380    8.98260 -160.45450
 8790.00000   28.53270    0.05470    8.96820    0.06920   -0.00100    4.83560    2.58550   56.12660  106.90750   56.09020   55.81330  106.64630  103.87010   30.88440   15.40910    9.23510 -159.24240
 8790.50000   28.83830    0.05080    8.98360    0.05760   -0.00020    4.77480    2.60940   56.12660  106.30350   56.31580   55.81330  105.89120  103.94610   31.97180   15.51420    8.98260 -157.72730
 8791.00000   28.86280    0.04990    8.92320    0.05480    0.00130    4.72910    2.62400   56.12660  106.03290   57.22280   55.81330  106.34190  103.64670   30.45520   14.00730    8.43940 -156.81820
 8791.50000   28.23910    0.05260    8.86280    0.05450    0.00430    4.72870    2.62330   56.72950  108.14690   58.67940   57.46990  107.84760  104.69160   26.32850   10.44500    7.82000 -155.60610
 8792.00000   27.03180    0.05990    8.80240    0.05600    0.00510    4.74330    2.59530   59.29160  110.41040   60.27370   59.42770  110.25750  107.32750   19.27330    8.96570    6.66780 -154.09090
 8792.50000   25.96740    0.07310    8.74200    0.07770    0.00510    4.74140    2.55070   59.74380  112.07150   61.12780   60.63250  111.46180  109.20530   16.66180    7.80340    5.80480 -153.18180
 8793.00000   25.20560    0.08460    8.68060    0.11150    0.00350    4.69710    2.50880   60.34660  112.52780   61.12780   61.23490  112.36460  111.08310   13.32060    6.79180    5.05350 -152.57580
 8793.50000   24.77140    0.09490    8.61930    0.14650    0.00510    4.66640    2.45370   60.64810  113.13470   60.97740   60.93370  112.96600  111.98490   12.08520    5.99400    4.61730 -152.87880
 8794.00000   24.62310    0.09940    8.56090    0.14980    0.00880    4.62070    2.50680   60.94950  114.79580   60.90230   60.78310  114.17020  113.03690   11.14450    5.40100    4.17960 -153.03030
 8794.50000   24.92940    0.10090    8.54600    0.12960    0.01940    4.54490    2.52280   61.55240  116.30630   61.65410   61.38550  116.27870  114.38920    9.90520    4.96250    3.73490 -153.33330
 8795.00000   25.08370    0.10120    8.51590    0.10850    0.03600    4.52930    2.52450   62.30600  117.81670   63.00750   62.13860  118.68870  115.74150    8.68260    4.43010    3.33430 -153.33330
 8795.50000   24.93460    0.10280    8.51630    0.11600    0.02980    4.54410    2.47560   63.36100  119.77910   64.06020   62.89160  120.04370  117.39410    7.40280    4.00650    3.11100 -153.18180
 8796.00000   23.72810    0.11490    8.54690    0.13470    0.02200    4.57370    2.44010   63.96380  121.13890   64.73680   63.94580  121.09720  119.12170    6.53410    3.68610    2.90270 -153.18180
 8796.50000   18.73860    0.12440    8.62310    0.15770    0.00580    4.60340    2.43560   64.41600  121.89640   64.81200   64.09880  122.00000  119.64820    5.92960    3.41480    2.65260 -153.03030
 8797.00000   17.83390    0.12570    8.82070    0.15920    0.00280    4.66330    2.45310   64.56670  121.90090   64.81200   63.64460  122.45060  119.49890    5.57060    3.20780    2.54460 -152.72730
 8797.50000   18.29070    0.12360    9.04860    0.15280    0.00200    4.69310    2.46040   64.41600  121.90540   64.81200   63.49400  121.51280  118.14850    5.23340    3.05530    2.44100 -152.57580
 8798.00000   19.95780    0.12540    8.95780    0.14740    0.00280    4.69260    2.46120   64.26530  122.06040   64.80900   63.45330  120.01820  116.94820    4.98530    2.93040    2.35780 -153.48480
 8798.50000   20.86850    0.13030    8.82160    0.14530    0.00950    4.67710    2.46020   64.41600  121.76370   64.58650   63.04220  119.55640  115.37260    4.74680    2.86970    2.37420 -154.09090
