~Version ---------------------------------------------------
VERS.   2.0 : CWLS log ASCII Standard -VERSION 2.0
WRAP.    NO : One line per depth step
DLM . SPACE : Column Data Section Delimiter
~Well ------------------------------------------------------
STRT .F                 2977.0 : START DEPTH
STOP .F                 9110.0 : STOP DEPTH
STEP .F                    0.5 : STEP
NULL .                -9999.25 : NULL VALUE
COMP .                         : COMPANY
WELL .                         : WELL
FLD  .                         : FIELD
LOC  .                         : LOCATION
PROV .                         : PROVINCE
CNTY .                         : COUNTY
STAT .                         : STATE
CTRY .                         : COUNTRY
SRVC .                         : SERVICE COMPANY
DATE .                         : DATE
UWI  .                         : UNIQUE WELL ID
API  .                         : API NUMBER
SLAT .WGS84 3.2384937972768952 : SURFACE LATITUDE
SLON .WGS84   6.18895645037901 : SURFACE LONGITUDE
DATUM.F                2911.17 : DEPTH DATUM ELEV
~Curve Information -----------------------------------------
DEPT.F     : 
GRD .GAPI  : GAMMA RAY FROM DENSITY LOG
TNPH.DEC   : THERMAL NEUTRON POROSITY LIMESTONE
CALD.IN    : CALIPER FROM DENSITY LOG
DPHZ.DEC   : DENSITY POROSITY LIMESTONE
HDRA.G/C3  : DELTA RHO HIP TOOL
PEFZ.B/E   : HILT PHOTOELECTRIC FACTOR
RHOZ.G/C3  : HILT BULK DENSITY
DT4P.US/F  : COMPRESSIONAL-WAVE INTERVAL TRANSIT TIME ACOUSTIC SLOWNESS, P&S MODE
DT4S.US/F  : SHEAR-WAVE INTERVAL TRANSIT TIME ACOUSTIC SLOWNESS, P&S MODE
DTCO.US/F  : COMPRESSIONAL-WAVE INTERVAL TRANSIT TIME ACOUSTIC SLOWNESS
DTRP.US/F  : COMPRESSIONAL-WAVE INTERVAL TRANSIT TIME DELTA-T, RECEIVER ARRAY
DTRS.US/F  : INTERVAL TRANSIT TIME FOR RECEIVER ARRAY
DTSM.US/F  : SHEAR-WAVE INTERVAL TRANSIT TIME DELTA-T
AF10.OHMM  : 10-IN. RESISTIVITY, 4-FT RESOLUTION
AF30.OHMM  : 30-IN. RESISTIVITY, 4-FT RESOLUTION
AF90.OHMM  : 90-IN. RESISTIVITY, 4-FT RESOLUTION
SPR .MV    : SPONTANEOUS POTENTIAL FROM RES.
~Params ----------------------------------------------------
~Other -----------------------------------------------------
~ASCII -----------------------------------------------------
# ...
 5027.00000   46.65720    0.15050    9.28910    0.09190    0.01180    3.95870    2.56480   -9999.25   -9999.25   -9999.25   -9999.25   -9999.25   -9999.25   13.51240   14.59100   14.73920  -27.88830
 5027.50000   41.93760    0.14610    9.30460    0.08890    0.01180    3.98870    2.57230   -9999.25   -9999.25   -9999.25   -9999.25   -9999.25   -9999.25   13.69920   14.59100   14.73820  -27.88980
 5028.00000   39.52300    0.13340    9.32000    0.07890    0.01330    4.03410    2.58720   -9999.25   -9999.25   -9999.25   -9999.25   -9999.25   -9999.25   13.79260   14.59100   14.63540  -28.19380
 5028.50000   38.92240    0.13460    9.33550    0.07200    0.01320    4.11040    2.59190   -9999.25   -9999.25   -9999.25   -9999.25   -9999.25   -9999.25   13.88660   14.49020   14.43300  -28.49750
 5029.00000   41.80430    0.14540    9.35090    0.07050    0.01020    4.17140    2.58650   -9999.25   -9999.25   -9999.25   -9999.25   -9999.25   -9999.25   13.88460   14.19210   14.43200  -28.34770
 5029.50000   46.50010    0.15180    9.35120    0.07560   -0.00110    4.24450    2.57380   -9999.25   -9999.25   -9999.25   -9999.25   -9999.25   -9999.25   13.88230   14.09410   14.43100  -28.19790
 5030.00000   49.38050    0.15480    9.36670    0.08260   -0.00410    4.30460    2.56470   -9999.25   -9999.25   -9999.25   -9999.25   -9999.25   -9999.25   13.68940   14.39020   14.39900  -28.50230
 5030.50000   48.32750    0.14720    9.38210    0.08470   -0.00490    4.31960    2.56540   -9999.25   -9999.25   -9999.25   -9999.25   -9999.25   -9999.25   13.49910   14.39020   14.32940  -28.95770
 5031.00000   46.51810    0.14210    9.38240    0.08350   -0.00340    4.33450    2.55680   -9999.25   -9999.25   -9999.25   -9999.25   -9999.25   -9999.25   13.12830   14.19210   14.13120  -29.41300
 5031.50000   47.12920    0.14510    9.38270    0.09250   -0.00020    4.34950    2.55110   -9999.25   -9999.25   -9999.25   -9999.25   -9999.25   -9999.25   12.94580   14.29080   14.13020  -29.26320
 5032.00000   49.70700    0.15090    9.38300    0.09520    0.00660    4.34930    2.57070   -9999.25   -9999.25   -9999.25   -9999.25   -9999.25   -9999.25   13.03400   14.49020   14.24440  -29.11340
 5032.50000   51.83100    0.14910    9.36820    0.09280    0.01610    4.34920    2.58970   -9999.25   -9999.25   -9999.25   -9999.25   -9999.25   -9999.25   14.06460   15.00110   14.83040  -29.13240
 5033.00000   51.53440    0.14060    9.35230    0.07860    0.01910    4.37920    2.60910   -9999.25   -9999.25   -9999.25   -9999.25   -9999.25   -9999.25   16.72300   17.11240   16.34030  -29.44610
 5033.50000   49.87630    0.12800    9.32330    0.06240    0.01010    4.40920    2.61800   -9999.25   -9999.25   -9999.25   -9999.25   -9999.25   -9999.25   19.34010   19.38590   19.43010  -30.47990
 5034.00000   44.88980    0.11260    9.27820    0.04820    0.00480    4.46940    2.62560   -9999.25   -9999.25   -9999.25   -9999.25   -9999.25   -9999.25   21.30780   23.86600   24.42120  -32.14550
 5034.50000   36.87760    0.09310    9.24820    0.04730    0.00480    4.49940    2.62820   -9999.25   -9999.25   -9999.25   -9999.25   -9999.25   -9999.25   21.90370   27.81060   27.66390  -33.81110
 5035.00000   31.28600    0.08110    9.21820    0.04880    0.00320    4.48420    2.61550   -9999.25   -9999.25   -9999.25   -9999.25   -9999.25   -9999.25   22.51630   28.99780   28.83650  -34.56900
 5035.50000   31.59460    0.07730    9.20330    0.05730   -0.00050    4.42370    2.60090   -9999.25   -9999.25   -9999.25   -9999.25   -9999.25   -9999.25   23.02070   30.06680   29.85120  -34.87310
 5036.00000   34.66400    0.08750    9.18840    0.06330    0.00250    4.34810    2.60910   -9999.25   -9999.25   -9999.25   -9999.25   -9999.25   -9999.25   25.14900   31.70880   31.55080  -34.87460
 5036.50000   37.05280    0.08660    9.17360    0.06090    0.01530    4.31710    2.61680   -9999.25   -9999.25   -9999.25   -9999.25   -9999.25   -9999.25   28.09430   34.22060   33.57910  -35.17870
 5037.00000   34.88720    0.08180    9.15870    0.05430    0.02510    4.28750    2.62420   -9999.25   -9999.25   -9999.25   -9999.25   -9999.25   -9999.25   30.73880   37.70730   36.99790  -35.48270
 5037.50000   33.20760    0.07670    9.14390    0.04790    0.02430    4.32000    2.62840   -9999.25   -9999.25   -9999.25   -9999.25   -9999.25   -9999.25   33.63220   40.69420   41.04810  -36.54320
 5038.00000   31.77730    0.07370    9.14430    0.04940    0.00990    4.39270    2.62700   -9999.25   -9999.25   -9999.25   -9999.25   -9999.25   -9999.25   32.70820   38.49940   38.29710  -37.30110
 5038.50000   32.23710    0.07670    9.12940    0.04820   -0.00210    4.40770    2.61820   -9999.25   -9999.25   -9999.25   -9999.25   -9999.25   -9999.25   31.15510   34.93960   35.97890  -37.15130
 5039.00000   32.54570    0.08090    9.12970    0.05070   -0.00440    4.43770    2.61750   -9999.25   -9999.25   -9999.25   -9999.25   -9999.25   -9999.25   29.67580   33.51650   33.09130  -36.85030
 5039.50000   32.85270    0.08330    9.11480    0.05430   -0.00370    4.37720    2.61750   -9999.25   -9999.25   -9999.25   -9999.25   -9999.25   -9999.25   28.26660   29.38140   30.18920  -37.00360
 5040.00000   30.59090    0.08550    9.10000    0.05400   -0.00140    4.30160    2.60960   -9999.25   -9999.25   -9999.25   -9999.25   -9999.25   -9999.25   26.73850   26.29760   27.18910  -37.76100
 5040.50000   29.53690    0.09000    9.10030    0.05640   -0.00150    4.27130    2.59460   -9999.25   -9999.25   -9999.25   -9999.25   -9999.25   -9999.25   24.77250   24.53680   23.89710  -37.74270
 5041.00000   32.73690    0.09900    9.09860    0.06210   -0.00070    4.21080    2.58890   -9999.25   -9999.25   -9999.25   -9999.25   -9999.25   -9999.25   23.59620   23.21350   23.24220  -37.31040
 5041.50000   36.66080    0.11350    9.08570    0.07180    0.00300    4.22580    2.60010   -9999.25   -9999.25   -9999.25   -9999.25   -9999.25   -9999.25   23.75710   23.53750   23.72880  -37.46320
 5042.00000   35.75910    0.11350    9.08610    0.06970    0.00530    4.31610    2.61370   -9999.25   -9999.25   -9999.25   -9999.25   -9999.25   -9999.25   24.10330   23.86600   24.05840  -38.06980
 5042.50000   32.73930    0.09950    9.10160    0.06090    0.00380    4.34620    2.60070   -9999.25   -9999.25   -9999.25   -9999.25   -9999.25   -9999.25   24.41820   24.54500   24.56210  -37.92000
 5043.00000   31.38370    0.09940    9.10190    0.05820    0.00150    4.34600    2.58960   -9999.25   -9999.25   -9999.25   -9999.25   -9999.25   -9999.25   23.41970   24.87930   25.07680  -37.76990
 5043.50000   33.65900    0.10150    9.10220    0.06850    0.00070    4.33080    2.59870   -9999.25   -9999.25   -9999.25   -9999.25   -9999.25   -9999.25   23.09420   25.22650   24.90150  -37.77170
 5044.00000   38.20360    0.09880    9.10250    0.07210    0.00150    4.30050    2.59800   -9999.25   -9999.25   -9999.25   -9999.25   -9999.25   -9999.25   23.57620   24.70750   24.89980  -38.37840
 5044.50000   39.11580    0.09540    9.10280    0.06880    0.00140    4.30030    2.59180   -9999.25   -9999.25   -9999.25   -9999.25   -9999.25   -9999.25   24.57380   25.05230   25.24560  -38.83370
 5045.00000   37.15650    0.09300    9.10310    0.06610    0.00070    4.34640    2.56700   -9999.25   -9999.25   -9999.25   -9999.25   -9999.25   -9999.25   25.43680   25.57860   25.95350  -38.98650
 5045.50000   35.64960    0.09910    9.08820    0.07000   -0.00160    4.40750    2.56330   -9999.25   -9999.25   -9999.25   -9999.25   -9999.25   -9999.25   26.14830   26.29760   26.86670  -39.13930
 5046.00000   34.89920    0.10240    9.08850    0.08510   -0.00390    4.43560    2.57530   -9999.25   -9999.25   -9999.25   -9999.25   -9999.25   -9999.25   27.44430   26.85010   27.42930  -39.44330
 5046.50000   33.24100    0.10000    9.08880    0.08580   -0.00620    4.39020    2.60020   -9999.25   -9999.25   -9999.25   -9999.25   -9999.25   -9999.25   28.40810   27.99010   28.39450  -39.74740
 5047.00000   31.88540    0.09240    9.07390    0.07480   -0.00260    4.39000    2.62730   -9999.25   -9999.25   -9999.25   -9999.25   -9999.25   -9999.25   28.40420   28.18470   28.59000  -40.35400
