~Version ---------------------------------------------------
VERS.   2.0 : CWLS log ASCII Standard -VERSION 2.0
WRAP.    NO : One line per depth step
DLM . SPACE : Column Data Section Delimiter
~Well ------------------------------------------------------
STRT .F                 2977.0 : START DEPTH
STOP .F                 9110.0 : STOP DEPTH
STEP .F                    0.5 : STEP
NULL .                -9999.25 : NULL VALUE
COMP .                         : COMPANY
WELL .                         : WELL
FLD  .                         : FIELD
LOC  .                         : LOCATION
PROV .                         : PROVINCE
CNTY .                         : COUNTY
STAT .                         : STATE
CTRY .                         : COUNTRY
SRVC .                         : SERVICE COMPANY
DATE .                         : DATE
UWI  .                         : UNIQUE WELL ID
API  .                         : API NUMBER
SLAT .WGS84 3.2384937972768952 : SURFACE LATITUDE
SLON .WGS84   6.18895645037901 : SURFACE LONGITUDE
DATUM.F                2911.17 : DEPTH DATUM ELEV
~Curve Information -----------------------------------------
DEPT.F     : 
GRD .GAPI  : GAMMA RAY FROM DENSITY LOG
TNPH.DEC   : THERMAL NEUTRON POROSITY LIMESTONE
CALD.IN    : CALIPER FROM DENSITY LOG
DPHZ.DEC   : DENSITY POROSITY LIMESTONE
HDRA.G/C3  : DELTA RHO HIP TOOL
PEFZ.B/E   : HILT PHOTOELECTRIC FACTOR
RHOZ.G/C3  : HILT BULK DENSITY
DT4P.US/F  : COMPRESSIONAL-WAVE INTERVAL TRANSIT TIME ACOUSTIC SLOWNESS, P&S MODE
DT4S.US/F  : SHEAR-WAVE INTERVAL TRANSIT TIME ACOUSTIC SLOWNESS, P&S MODE
DTCO.US/F  : COMPRESSIONAL-WAVE INTERVAL TRANSIT TIME ACOUSTIC SLOWNESS
DTRP.US/F  : COMPRESSIONAL-WAVE INTERVAL TRANSIT TIME DELTA-T, RECEIVER ARRAY
DTRS.US/F  : INTERVAL TRANSIT TIME FOR RECEIVER ARRAY
DTSM.US/F  : SHEAR-WAVE INTERVAL TRANSIT TIME DELTA-T
AF10.OHMM  : 10-IN. RESISTIVITY, 4-FT RESOLUTION
AF30.OHMM  : 30-IN. RESISTIVITY, 4-FT RESOLUTION
AF90.OHMM  : 90-IN. RESISTIVITY, 4-FT RESOLUTION
SPR .MV    : SPONTANEOUS POTENTIAL FROM RES.
~Params ----------------------------------------------------
~Other -----------------------------------------------------
~ASCII -----------------------------------------------------
# ...
 6175.00000   79.13090    0.17090    9.95460    0.12560    0.01110    2.74500    2.53000   -9999.25   -9999.25   -9999.25   -9999.25   -9999.25   -9999.25    2.77480    2.80390    2.84960  -59.80350
 6175.50000   72.17240    0.15460    9.93970    0.12100    0.01710    2.79000    2.55140   -9999.25   -9999.25   -9999.25   -9999.25   -9999.25   -9999.25    3.03580    3.00510    2.99450  -60.71270
 6176.00000   67.63810    0.13440    9.94000    0.11240    0.01870    2.89530    2.55970   -9999.25   -9999.25   -9999.25   -9999.25   -9999.25   -9999.25    3.39110    3.22070    3.18700  -60.56290
 6176.50000   62.95230    0.12450    9.94030    0.09430    0.01630    3.01570    2.55690   -9999.25   -9999.25   -9999.25   -9999.25   -9999.25   -9999.25    3.68440    3.50000    3.46930  -59.35410
 6177.00000   59.02410    0.12570    9.92550    0.08970    0.00530    3.13600    2.54930   -9999.25   -9999.25   -9999.25   -9999.25   -9999.25   -9999.25    4.03090    3.85660    3.91150  -57.84270
 6177.50000   55.39900    0.12990    9.92580    0.09100   -0.00630    3.21110    2.53040   -9999.25   -9999.25   -9999.25   -9999.25   -9999.25   -9999.25    4.28950    4.37110    4.41310  -56.93650
 6178.00000   56.01620    0.13620    9.92610    0.09770   -0.00310    3.28630    2.52200   -9999.25   -9999.25   -9999.25   -9999.25   -9999.25   -9999.25    4.40920    4.43000    4.35200  -56.18150
 6178.50000   60.57290    0.14540    9.92700    0.10590    0.00140    3.36140    2.50780   -9999.25   -9999.25   -9999.25   -9999.25   -9999.25   -9999.25    3.92440    4.07650    4.08860  -55.88050
 6179.00000   68.61430    0.15660    9.94180    0.11420    0.00140    3.28570    2.49820   -9999.25   -9999.25   -9999.25   -9999.25   -9999.25   -9999.25    3.43400    3.83000    3.73610  -56.03330
 6179.50000   74.68610    0.16330    9.92700    0.12530   -0.00540    3.16470    2.49490   -9999.25   -9999.25   -9999.25   -9999.25   -9999.25   -9999.25    3.18130    3.42800    3.43770  -56.03510
 6180.00000   80.45490    0.16460    9.94240    0.12470   -0.00910    2.95320    2.50020   -9999.25   -9999.25   -9999.25   -9999.25   -9999.25   -9999.25    3.05110    3.22070    3.25210  -56.18780
 6180.50000   88.04190    0.15680    9.92750    0.12350   -0.00840    2.84740    2.50140   -9999.25   -9999.25   -9999.25   -9999.25   -9999.25   -9999.25    2.98780    3.15440    3.16300  -56.18930
 6181.00000   90.78030    0.15620    9.92790    0.12380   -0.00530    2.89430    2.49770   -9999.25   -9999.25   -9999.25   -9999.25   -9999.25   -9999.25    3.00790    3.15440    3.16280  -56.19080
 6181.50000   90.94320    0.16160    9.92820    0.12750   -0.00610    2.96740    2.49420   -9999.25   -9999.25   -9999.25   -9999.25   -9999.25   -9999.25    3.04930    3.15440    3.16250  -56.04060
 6182.00000   88.91510    0.17430    9.92850    0.13050   -0.00830    2.98220    2.49280   -9999.25   -9999.25   -9999.25   -9999.25   -9999.25   -9999.25    3.11270    3.17640    3.18430  -55.58860
 6182.50000   86.34110    0.18310    9.91360    0.12720   -0.00980    2.89140    2.50100   -9999.25   -9999.25   -9999.25   -9999.25   -9999.25   -9999.25    3.22180    3.22070    3.20620  -54.98500
 6183.00000   85.97660    0.18790    9.91390    0.12540   -0.01130    2.78550    2.50920   -9999.25   -9999.25   -9999.25   -9999.25   -9999.25   -9999.25    3.38130    3.26570    3.29750  -54.68390
 6183.50000   86.29360    0.19570    9.89910    0.12050   -0.00980    2.70980    2.51420   -9999.25   -9999.25   -9999.25   -9999.25   -9999.25   -9999.25    3.65050    3.55090    3.47680  -54.53400
 6184.00000   90.09270    0.20570    9.86910    0.11540   -0.00900    2.69440    2.51610   -9999.25   -9999.25   -9999.25   -9999.25   -9999.25   -9999.25    4.28480    4.08880    4.25890  -53.02270
 6184.50000   97.37660    0.21990    9.83910    0.11540   -0.00970    2.78460    2.51650   -9999.25   -9999.25   -9999.25   -9999.25   -9999.25   -9999.25    5.80170    4.86530    5.09950  -51.01950
 6185.00000  102.68990    0.21900    9.77880    0.11480   -0.00750    2.95020    2.51880   -9999.25   -9999.25   -9999.25   -9999.25   -9999.25   -9999.25    6.80290    6.26460    6.54410  -47.78070
 6185.50000  104.23460    0.21390    9.71840    0.11000   -0.00290    3.26660    2.53270   -9999.25   -9999.25   -9999.25   -9999.25   -9999.25   -9999.25    7.39130    7.71230    7.78150  -44.70680
 6186.00000  101.48290    0.20120    9.64310    0.09190    0.00760    3.62830    2.55880   -9999.25   -9999.25   -9999.25   -9999.25   -9999.25   -9999.25    7.92010    9.23510    8.75400  -43.19540
 6186.50000   99.39010    0.19190    9.59780    0.08290    0.01290    3.82410    2.56730   -9999.25   -9999.25   -9999.25   -9999.25   -9999.25   -9999.25    7.80950    9.04500    8.57320  -41.98660
 6187.00000  107.73650    0.20780    9.56790    0.09890    0.01300    3.79370    2.53910   -9999.25   -9999.25   -9999.25   -9999.25   -9999.25   -9999.25    7.13520    8.32320    8.22340  -41.38290
 6187.50000  110.92950    0.21750    9.55300    0.12190    0.01000    3.59730    2.50030   -9999.25   -9999.25   -9999.25   -9999.25   -9999.25   -9999.25    6.47410    7.65910    7.51440  -41.23280
 6188.00000  103.06190    0.18670    9.56850    0.11760    0.00020    3.33750    2.51860   -9999.25   -9999.25   -9999.25   -9999.25   -9999.25   -9999.25    6.16630    6.99920    6.81910  -41.99100
 6188.50000   87.92070    0.16550    9.58520    0.09410   -0.00740    3.20050    2.55310   -9999.25   -9999.25   -9999.25   -9999.25   -9999.25   -9999.25    6.33840    6.71410    6.18820  -43.65670
 6189.00000   75.81070    0.13510    9.59940    0.07780   -0.00580    3.17410    2.57790   -9999.25   -9999.25   -9999.25   -9999.25   -9999.25   -9999.25    6.51610    6.39620    5.97700  -44.41460
 6189.50000   64.11320    0.10250    9.61490    0.06630   -0.00280    3.26420    2.59860   -9999.25   -9999.25   -9999.25   -9999.25   -9999.25   -9999.25    6.49890    6.00940    5.68920  -44.86990
 6190.00000   58.05920    0.09220    9.61520    0.05880   -0.00050    3.33930    2.61180   -9999.25   -9999.25   -9999.25   -9999.25   -9999.25   -9999.25    5.55270    5.52220    5.29760  -45.32530
 6190.50000   56.90490    0.09130    9.61550    0.06720    0.00100    3.42950    2.58850   -9999.25   -9999.25   -9999.25   -9999.25   -9999.25   -9999.25    4.63620    4.95400    4.65630  -45.62930
 6191.00000   61.91880    0.09830    9.61580    0.08680    0.00100    3.42920    2.56150   -9999.25   -9999.25   -9999.25   -9999.25   -9999.25   -9999.25    4.12010    4.33880    4.25480  -45.63090
 6191.50000   69.65730    0.11700    9.61610    0.10790   -0.00370    3.26300    2.51690   -9999.25   -9999.25   -9999.25   -9999.25   -9999.25   -9999.25    3.71250    3.83000    3.80800  -45.63270
 6192.00000   71.63540    0.13180    9.60120    0.12150   -0.00950    3.02140    2.50140   -9999.25   -9999.25   -9999.25   -9999.25   -9999.25   -9999.25    3.46330    3.45180    3.43180  -45.63410
 6192.50000   68.92210    0.13540    9.60150    0.12480   -0.00800    2.91550    2.49960   -9999.25   -9999.25   -9999.25   -9999.25   -9999.25   -9999.25    3.34460    3.40430    3.40790  -45.48400
 6193.00000   68.77900    0.14450    9.60180    0.12330   -0.00720    2.88500    2.49960   -9999.25   -9999.25   -9999.25   -9999.25   -9999.25   -9999.25    3.43790    3.57350    3.57700  -45.18320
 6193.50000   78.03540    0.15110    9.57180    0.12450   -0.00800    2.89990    2.49240   -9999.25   -9999.25   -9999.25   -9999.25   -9999.25   -9999.25    3.84030    3.91040    3.86010  -42.91540
 6194.00000  100.62230    0.18370    9.54180    0.13090   -0.01020    2.89950    2.46690   -9999.25   -9999.25   -9999.25   -9999.25   -9999.25   -9999.25    4.47190    4.71510    4.43370  -40.34510
 6194.50000  115.33050    0.20910    9.51060    0.14780   -0.00720    2.97470    2.43780   -9999.25   -9999.25   -9999.25   -9999.25   -9999.25   -9999.25    5.70230    5.60710    5.57260  -37.92600
 6195.00000  139.43260    0.23870    9.47930    0.18110   -0.00260    3.12520    2.40870   -9999.25   -9999.25   -9999.25   -9999.25   -9999.25   -9999.25    7.51300    7.24600    7.00400  -36.71710
