~Version ---------------------------------------------------
VERS.   2.0 : CWLS log ASCII Standard -VERSION 2.0
WRAP.    NO : One line per depth step
DLM . SPACE : Column Data Section Delimiter
~Well ------------------------------------------------------
STRT .F                 2977.0 : START DEPTH
STOP .F                 9110.0 : STOP DEPTH
STEP .F                    0.5 : STEP
NULL .                -9999.25 : NULL VALUE
COMP .                         : COMPANY
WELL .                         : WELL
FLD  .                         : FIELD
LOC  .                         : LOCATION
PROV .                         : PROVINCE
CNTY .                         : COUNTY
STAT .                         : STATE
CTRY .                         : COUNTRY
SRVC .                         : SERVICE COMPANY
DATE .                         : DATE
UWI  .                         : UNIQUE WELL ID
API  .                         : API NUMBER
SLAT .WGS84 3.2384937972768952 : SURFACE LATITUDE
SLON .WGS84   6.18895645037901 : SURFACE LONGITUDE
DATUM.F                2911.17 : DEPTH DATUM ELEV
~Curve Information -----------------------------------------
DEPT.F     : 
GRD .GAPI  : GAMMA RAY FROM DENSITY LOG
TNPH.DEC   : THERMAL NEUTRON POROSITY LIMESTONE
CALD.IN    : CALIPER FROM DENSITY LOG
DPHZ.DEC   : DENSITY POROSITY LIMESTONE
HDRA.G/C3  : DELTA RHO HIP TOOL
PEFZ.B/E   : HILT PHOTOELECTRIC FACTOR
RHOZ.G/C3  : HILT BULK DENSITY
DT4P.US/F  : COMPRESSIONAL-WAVE INTERVAL TRANSIT TIME ACOUSTIC SLOWNESS, P&S MODE
DT4S.US/F  : SHEAR-WAVE INTERVAL TRANSIT TIME ACOUSTIC SLOWNESS, P&S MODE
DTCO.US/F  : COMPRESSIONAL-WAVE INTERVAL TRANSIT TIME ACOUSTIC SLOWNESS
DTRP.US/F  : COMPRESSIONAL-WAVE INTERVAL TRANSIT TIME DELTA-T, RECEIVER ARRAY
DTRS.US/F  : INTERVAL TRANSIT TIME FOR RECEIVER ARRAY
DTSM.US/F  : SHEAR-WAVE INTERVAL TRANSIT TIME DELTA-T
AF10.OHMM  : 10-IN. RESISTIVITY, 4-FT RESOLUTION
AF30.OHMM  : 30-IN. RESISTIVITY, 4-FT RESOLUTION
AF90.OHMM  : 90-IN. RESISTIVITY, 4-FT RESOLUTION
SPR .MV    : SPONTANEOUS POTENTIAL FROM RES.
~Params ----------------------------------------------------
~Other -----------------------------------------------------
~ASCII -----------------------------------------------------
# ...
 5601.00000   35.03130    0.11840    8.97320    0.08480   -0.00250    3.67840    2.56590   -9999.25   -9999.25   -9999.25   -9999.25   -9999.25   -9999.25   23.18790   25.93180   25.91650  -60.18150
 5601.50000   34.69520    0.11960    8.97490    0.08450   -0.00100    3.64960    2.55750   -9999.25   -9999.25   -9999.25   -9999.25   -9999.25   -9999.25   22.41790   25.22110   25.19890  -60.18150
 5602.00000   32.91060    0.11990    8.97660    0.08990   -0.00020    3.69470    2.54660   -9999.25   -9999.25   -9999.25   -9999.25   -9999.25   -9999.25   21.95510   24.19220   24.53680  -59.87900
 5602.50000   31.55440    0.12050    8.97830    0.09750   -0.00090    3.75490    2.54260   -9999.25   -9999.25   -9999.25   -9999.25   -9999.25   -9999.25   21.35340   23.04500   23.53750  -59.42510
 5603.00000   31.56190    0.12320    8.98000    0.09810   -0.00090    3.76980    2.55660   -9999.25   -9999.25   -9999.25   -9999.25   -9999.25   -9999.25   20.76820   22.56930   22.73580  -58.82000
 5603.50000   32.78150    0.12600    8.98170    0.09300   -0.00090    3.73950    2.56600   -9999.25   -9999.25   -9999.25   -9999.25   -9999.25   -9999.25   20.19900   22.10340   22.11420  -58.21480
 5604.00000   33.09010    0.12810    8.98340    0.08540   -0.00320    3.72430    2.56870   -9999.25   -9999.25   -9999.25   -9999.25   -9999.25   -9999.25   19.78210   21.34910   21.96150  -57.60970
 5604.50000   32.19040    0.12870    8.98510    0.08090   -0.00320    3.72410    2.57090   -9999.25   -9999.25   -9999.25   -9999.25   -9999.25   -9999.25   19.78070   20.76400   21.80980  -56.85330
 5605.00000   30.53120    0.12860    8.98680    0.08150   -0.00390    3.73900    2.57280   -9999.25   -9999.25   -9999.25   -9999.25   -9999.25   -9999.25   19.50710   20.33540   20.77700  -56.24810
 5605.50000   30.38530    0.12870    8.97300    0.07970   -0.00470    3.76910    2.57420   -9999.25   -9999.25   -9999.25   -9999.25   -9999.25   -9999.25   18.58210   19.91560   19.79320  -55.64300
 5606.00000   31.00070    0.13020    8.98850    0.07910   -0.00380    3.75380    2.57650   -9999.25   -9999.25   -9999.25   -9999.25   -9999.25   -9999.25   17.82400   19.10320   19.11910  -54.58400
 5606.50000   32.52330    0.13410    8.98880    0.08000   -0.00090    3.72350    2.56000   -9999.25   -9999.25   -9999.25   -9999.25   -9999.25   -9999.25   17.21580   18.44770   18.21370  -53.82750
 5607.00000   34.80350    0.13900    9.00480    0.08310   -0.00010    3.69320    2.55090   -9999.25   -9999.25   -9999.25   -9999.25   -9999.25   -9999.25   16.74400   17.93580   17.71570  -53.52500
 5607.50000   37.84130    0.14260    9.01970    0.09150   -0.00240    3.67800    2.54790   -9999.25   -9999.25   -9999.25   -9999.25   -9999.25   -9999.25   16.62720   17.68090   17.47190  -53.37370
 5608.00000   38.60630    0.14320    9.03520    0.09660   -0.00390    3.66270    2.56030   -9999.25   -9999.25   -9999.25   -9999.25   -9999.25   -9999.25   16.74170   17.30970   17.11240  -53.37370
 5608.50000   37.09870    0.14140    9.03550    0.09120   -0.00390    3.58720    2.57100   -9999.25   -9999.25   -9999.25   -9999.25   -9999.25   -9999.25   16.62470   16.74030   16.64450  -52.91980
 5609.00000   35.28790    0.13960    9.03580    0.08280   -0.00310    3.52670    2.57810   -9999.25   -9999.25   -9999.25   -9999.25   -9999.25   -9999.25   16.16900   16.05740   15.85630  -52.01210
 5609.50000   35.60210    0.13900    9.03610    0.07880   -0.00230    3.40590    2.57210   -9999.25   -9999.25   -9999.25   -9999.25   -9999.25   -9999.25   14.67300   14.47100   14.99990  -51.40700
 5610.00000   38.57650    0.15010    9.03640    0.08460   -0.00310    3.30020    2.55480   -9999.25   -9999.25   -9999.25   -9999.25   -9999.25   -9999.25   13.22340   13.13200   13.30930  -50.80180
 5610.50000   47.64740    0.17160    9.03670    0.08850   -0.00380    3.25480    2.53590   -9999.25   -9999.25   -9999.25   -9999.25   -9999.25   -9999.25   12.08330   11.99980   12.15530  -50.34800
 5611.00000   56.33930    0.18720    9.03700    0.10330   -0.00460    3.25310    2.53290   -9999.25   -9999.25   -9999.25   -9999.25   -9999.25   -9999.25   11.67100   11.51030   11.68890  -50.19670
 5611.50000   64.56960    0.19930    9.05250    0.10540   -0.00530    3.23940    2.53660   -9999.25   -9999.25   -9999.25   -9999.25   -9999.25   -9999.25   11.50950   11.75130   12.01740  -50.19670
 5612.00000   63.81950    0.19750    9.05280    0.10390   -0.00610    3.28440    2.54920   -9999.25   -9999.25   -9999.25   -9999.25   -9999.25   -9999.25   11.75050   12.24940   12.44110  -50.34800
 5612.50000   58.22090    0.19030    9.05310    0.09010   -0.00610    3.31450    2.56740   -9999.25   -9999.25   -9999.25   -9999.25   -9999.25   -9999.25   12.76860   13.49650   13.52000  -51.25570
 5613.00000   51.10720    0.17640    9.05340    0.08100   -0.00230    3.37460    2.57060   -9999.25   -9999.25   -9999.25   -9999.25   -9999.25   -9999.25   13.87500   14.67730   14.79460  -52.46600
 5613.50000   45.35710    0.15230    9.03840    0.08070   -0.00080    3.46500    2.55850   -9999.25   -9999.25   -9999.25   -9999.25   -9999.25   -9999.25   14.97310   15.75260   16.30200  -53.52500
 5614.00000   41.12220    0.14900    9.02360    0.09310   -0.00150    3.55530    2.54270   -9999.25   -9999.25   -9999.25   -9999.25   -9999.25   -9999.25   16.27040   16.90140   17.59340  -54.88650
 5614.50000   38.09930    0.14900    8.99360    0.09910   -0.00300    3.64570    2.54390   -9999.25   -9999.25   -9999.25   -9999.25   -9999.25   -9999.25   17.44450   18.94860   19.11910  -55.95510
 5615.00000   37.19580    0.14770    8.97880    0.09580   -0.00380    3.61540    2.54990   -9999.25   -9999.25   -9999.25   -9999.25   -9999.25   -9999.25   18.45520   20.44820   20.34950  -57.33720
 5615.50000   37.65970    0.14550    8.97910    0.09040   -0.00380    3.60010    2.55930   -9999.25   -9999.25   -9999.25   -9999.25   -9999.25   -9999.25   19.25650   21.61250   21.50960  -58.69450
 5616.00000   39.48540    0.13940    8.96420    0.08620   -0.00300    3.58490    2.56490   -9999.25   -9999.25   -9999.25   -9999.25   -9999.25   -9999.25   20.44540   22.84300   23.21350  -59.72770
 5616.50000   38.43230    0.13450    8.96450    0.08380   -0.00300    3.55460    2.56830   -9999.25   -9999.25   -9999.25   -9999.25   -9999.25   -9999.25   21.31200   24.14360   24.70750  -60.63540
 5617.00000   37.22760    0.13300    8.96480    0.08290   -0.00220    3.56960    2.56310   -9999.25   -9999.25   -9999.25   -9999.25   -9999.25   -9999.25   22.36990   25.34200   25.57860  -61.54310
 5617.50000   35.56840    0.13060    8.98040    0.08680   -0.00220    3.62970    2.56000   -9999.25   -9999.25   -9999.25   -9999.25   -9999.25   -9999.25   23.31810   26.59980   26.48050  -62.29950
 5618.00000   34.81830    0.12700    8.98190    0.08950   -0.00220    3.73510    2.55630   -9999.25   -9999.25   -9999.25   -9999.25   -9999.25   -9999.25   23.97190   27.72730   27.60480  -62.90470
 5618.50000   33.76520    0.12330    8.99570    0.09190   -0.00520    3.82550    2.55260   -9999.25   -9999.25   -9999.25   -9999.25   -9999.25   -9999.25   24.47380   28.11290   28.18470  -63.66110
 5619.00000   32.69540    0.11970    8.99500    0.09340   -0.00750    3.93090    2.54790   -9999.25   -9999.25   -9999.25   -9999.25   -9999.25   -9999.25   24.81410   28.11050   28.18010  -64.41750
 5619.50000   31.81050    0.11940    8.99430    0.09890   -0.00670    3.97600    2.54200   -9999.25   -9999.25   -9999.25   -9999.25   -9999.25   -9999.25   24.81200   28.10860   27.78160  -64.87140
 5620.00000   32.42420    0.12030    8.99360    0.09800   -0.00520    4.00600    2.54750   -9999.25   -9999.25   -9999.25   -9999.25   -9999.25   -9999.25   24.81030   27.91250   27.22480  -65.17400
 5620.50000   32.76300    0.12180    8.99290    0.09350   -0.00370    3.95990    2.55440   -9999.25   -9999.25   -9999.25   -9999.25   -9999.25   -9999.25   24.63730   26.96000   27.03680  -65.17400
 5621.00000   33.65290    0.12370    8.99220    0.08930   -0.00220    3.86840    2.56160   -9999.25   -9999.25   -9999.25   -9999.25   -9999.25   -9999.25   23.96210   26.40350   26.85010  -65.17400
