~Version ---------------------------------------------------
VERS.   2.0 : CWLS log ASCII Standard -VERSION 2.0
WRAP.    NO : One line per depth step
DLM . SPACE : Column Data Section Delimiter
~Well ------------------------------------------------------
STRT .F                 2977.0 : START DEPTH
STOP .F                 9110.0 : STOP DEPTH
STEP .F                    0.5 : STEP
NULL .                -9999.25 : NULL VALUE
COMP .                         : COMPANY
WELL .                         : WELL
FLD  .                         : FIELD
LOC  .                         : LOCATION
PROV .                         : PROVINCE
CNTY .                         : COUNTY
STAT .                         : STATE
CTRY .                         : COUNTRY
SRVC .                         : SERVICE COMPANY
DATE .                         : DATE
UWI  .                         : UNIQUE WELL ID
API  .                         : API NUMBER
SLAT .WGS84 3.2384937972768952 : SURFACE LATITUDE
SLON .WGS84   6.18895645037901 : SURFACE LONGITUDE
DATUM.F                2911.17 : DEPTH DATUM ELEV
~Curve Information -----------------------------------------
DEPT.F     : 
GRD .GAPI  : GAMMA RAY FROM DENSITY LOG
TNPH.DEC   : THERMAL NEUTRON POROSITY LIMESTONE
CALD.IN    : CALIPER FROM DENSITY LOG
DPHZ.DEC   : DENSITY POROSITY LIMESTONE
HDRA.G/C3  : DELTA RHO HIP TOOL
PEFZ.B/E   : HILT PHOTOELECTRIC FACTOR
RHOZ.G/C3  : HILT BULK DENSITY
DT4P.US/F  : COMPRESSIONAL-WAVE INTERVAL TRANSIT TIME ACOUSTIC SLOWNESS, P&S MODE
DT4S.US/F  : SHEAR-WAVE INTERVAL TRANSIT TIME ACOUSTIC SLOWNESS, P&S MODE
DTCO.US/F  : COMPRESSIONAL-WAVE INTERVAL TRANSIT TIME ACOUSTIC SLOWNESS
DTRP.US/F  : COMPRESSIONAL-WAVE INTERVAL TRANSIT TIME DELTA-T, RECEIVER ARRAY
DTRS.US/F  : INTERVAL TRANSIT TIME FOR RECEIVER ARRAY
DTSM.US/F  : SHEAR-WAVE INTERVAL TRANSIT TIME DELTA-T
AF10.OHMM  : 10-IN. RESISTIVITY, 4-FT RESOLUTION
AF30.OHMM  : 30-IN. RESISTIVITY, 4-FT RESOLUTION
AF90.OHMM  : 90-IN. RESISTIVITY, 4-FT RESOLUTION
SPR .MV    : SPONTANEOUS POTENTIAL FROM RES.
~Params ----------------------------------------------------
~Other -----------------------------------------------------
~ASCII -----------------------------------------------------
# ...
 7056.50000   85.89870    0.15280    9.37470    0.06880   -0.00170    3.20270    2.59530   -9999.25   -9999.25   -9999.25   -9999.25   -9999.25   -9999.25    9.09970    9.10350    8.97440  -68.35100
 7057.00000   82.12320    0.13090    9.37510    0.06790   -0.00100    3.18690    2.59640   -9999.25   -9999.25   -9999.25   -9999.25   -9999.25   -9999.25    8.78910    8.85120    8.78920  -68.80480
 7057.50000   84.70630    0.13060    9.37570    0.06920   -0.00200    3.17110    2.58250   -9999.25   -9999.25   -9999.25   -9999.25   -9999.25   -9999.25    8.60770    8.55720    8.60770  -68.95610
 7058.00000   93.94370    0.14220    9.37610    0.08280   -0.00550    3.11000    2.53460   -9999.25   -9999.25   -9999.25   -9999.25   -9999.25   -9999.25    8.48860    8.55720    8.54770  -68.80480
 7058.50000  102.12140    0.17010    9.37650    0.10590   -0.00700    3.18460    2.49360   -9999.25   -9999.25   -9999.25   -9999.25   -9999.25   -9999.25    8.60670    8.67660    8.72670  -68.35100
 7059.00000  125.27710    0.22240    9.36170    0.12970   -0.00700    3.27460    2.48680   -9999.25   -9999.25   -9999.25   -9999.25   -9999.25   -9999.25    8.78670    8.92050    8.97140  -67.89710
 7059.50000  137.69150    0.25290    9.36230    0.13360   -0.00480    3.22840    2.48740   -9999.25   -9999.25   -9999.25   -9999.25   -9999.25   -9999.25    8.97070    9.17130    9.28780  -67.59460
 7060.00000  139.66720    0.25620    9.36270    0.13300   -0.00480    3.18240    2.50190   -9999.25   -9999.25   -9999.25   -9999.25   -9999.25   -9999.25    9.22220    9.49460    9.55190  -67.74580
 7060.50000  138.71110    0.23900    9.36320    0.12880   -0.00480    3.16650    2.51290   -9999.25   -9999.25   -9999.25   -9999.25   -9999.25   -9999.25    9.68000    9.89780    9.88340  -68.37140
 7061.00000  134.37650    0.21220    9.36360    0.12030   -0.00400    3.15070    2.52980   -9999.25   -9999.25   -9999.25   -9999.25   -9999.25   -9999.25   10.23960   10.24670   10.18470  -69.14720
 7061.50000  125.73780    0.19460    9.36400    0.10590   -0.00170    3.15000    2.55190   -9999.25   -9999.25   -9999.25   -9999.25   -9999.25   -9999.25   10.75740   10.83090   10.88870  -70.01510
 7062.00000  113.23020    0.18170    9.36450    0.09440    0.01030    3.22460    2.57650   -9999.25   -9999.25   -9999.25   -9999.25   -9999.25   -9999.25   11.37990   11.52800   11.83220  -70.62030
 7062.50000   99.77330    0.16450    9.36490    0.07360    0.01860    3.43500    2.60110   -9999.25   -9999.25   -9999.25   -9999.25   -9999.25   -9999.25   12.33370   12.35520   12.94680  -71.48090
 7063.00000   81.93050    0.14720    9.36540    0.06040    0.01490    3.64540    2.62440   -9999.25   -9999.25   -9999.25   -9999.25   -9999.25   -9999.25   11.99560   13.24180   13.40260  -72.72080
 7063.50000   68.77520    0.13430    9.36590    0.04830    0.00640    3.85590    2.63300   -9999.25   -9999.25   -9999.25   -9999.25   -9999.25   -9999.25   11.42680   12.87980   12.76680  -73.96060
 7064.00000   69.62440    0.12760    9.36640    0.04410   -0.00210    3.82490    2.63540   -9999.25   -9999.25   -9999.25   -9999.25   -9999.25   -9999.25   10.73510   12.18510   12.24600  -75.20040
 7064.50000   80.57570    0.12760    9.35150    0.04350   -0.00320    3.77890    2.61470   -9999.25   -9999.25   -9999.25   -9999.25   -9999.25   -9999.25    9.87780   11.77010   11.82810  -76.44030
 7065.00000   91.42120    0.13730    9.35210    0.05440   -0.00250    3.70280    2.58850   -9999.25   -9999.25   -9999.25   -9999.25   -9999.25   -9999.25   10.51280   11.60810   12.07580  -77.68010
 7065.50000   93.47300    0.15280    9.33740    0.07010   -0.00780    3.55120    2.57520   -9999.25   -9999.25   -9999.25   -9999.25   -9999.25   -9999.25   11.58310   12.52770   13.03150  -78.91990
 7066.00000   89.85340    0.15090    9.33780    0.08060   -0.00550    3.59570    2.57320   -9999.25   -9999.25   -9999.25   -9999.25   -9999.25   -9999.25   13.03060   14.79460   14.76180  -80.16390
 7066.50000   78.96980    0.14300    9.30790    0.07600   -0.00480    3.67040    2.58800   -9999.25   -9999.25   -9999.25   -9999.25   -9999.25   -9999.25   14.25810   16.52950   17.67520  -82.15940
 7067.00000   73.98630    0.14060    9.29320    0.07300   -0.00550    3.76010    2.59170   -9999.25   -9999.25   -9999.25   -9999.25   -9999.25   -9999.25   14.47410   16.99420   17.92070  -84.00370
 7067.50000   73.99530    0.14270    9.26330    0.07120   -0.00630    3.81970    2.59160   -9999.25   -9999.25   -9999.25   -9999.25   -9999.25   -9999.25   14.15770   17.11240   18.04410  -85.44630
 7068.00000   76.12220    0.14630    9.21820    0.07240   -0.00100    3.81890    2.57210   -9999.25   -9999.25   -9999.25   -9999.25   -9999.25   -9999.25   14.05890   16.99420   18.04280  -86.20270
 7068.50000   85.05710    0.15090    9.17190    0.07780    0.00140    3.74280    2.53790   -9999.25   -9999.25   -9999.25   -9999.25   -9999.25   -9999.25   14.05800   17.11240   17.79320  -87.11040
 7069.00000   89.75590    0.15900    9.12550    0.09350    0.00130    3.59120    2.53130   -9999.25   -9999.25   -9999.25   -9999.25   -9999.25   -9999.25   14.98410   17.71570   18.42540  -87.86690
 7069.50000   85.37760    0.15420    9.08310    0.10890    0.00200    3.19830    2.56180   -9999.25   -9999.25   -9999.25   -9999.25   -9999.25   -9999.25   16.81080   19.93080   20.35140  -88.62330
 7070.00000   70.56050    0.13220    9.05320    0.09890    0.00130    3.32680    2.60660   -9999.25   -9999.25   -9999.25   -9999.25   -9999.25   -9999.25   21.15450   24.87930   24.00580  -89.37970
 7070.50000   49.54070    0.09500    9.03830    0.07450   -0.00020    3.97570    2.60580   -9999.25   -9999.25   -9999.25   -9999.25   -9999.25   -9999.25   24.46690   29.79150   30.53400  -89.98490
 7071.00000   49.09360    0.08900    9.03890    0.05800   -0.00250    4.36770    2.59750   -9999.25   -9999.25   -9999.25   -9999.25   -9999.25   -9999.25   26.77170   33.79460   35.07980  -89.68230
 7071.50000   52.79120    0.09110    9.03930    0.06490   -0.00700    4.60890    2.59590   -9999.25   -9999.25   -9999.25   -9999.25   -9999.25   -9999.25   29.90910   37.66620   40.29240  -89.53100
 7072.00000   51.08050    0.09410    9.03980    0.06730   -0.00550    4.91040    2.60460   -9999.25   -9999.25   -9999.25   -9999.25   -9999.25   -9999.25   34.35340   47.83450   49.94560  -89.53100
 7072.50000   38.23010    0.09560    9.04020    0.06350   -0.00400    4.98570    2.61580   -9999.25   -9999.25   -9999.25   -9999.25   -9999.25   -9999.25   39.45800   55.20300   57.76700  -88.92590
 7073.00000   27.49780    0.09260    9.04070    0.05460    0.00130    4.98550    2.62620   -9999.25   -9999.25   -9999.25   -9999.25   -9999.25   -9999.25   41.70460   55.97350   56.57360  -87.86690
 7073.50000   28.27040    0.09390    9.05630    0.05010   -0.00020    4.84960    2.62150   -9999.25   -9999.25   -9999.25   -9999.25   -9999.25   -9999.25   41.41380   51.86510   53.89090  -86.80790
 7074.00000   33.18580    0.11340    9.05680    0.05250   -0.00100    4.59280    2.60590   -9999.25   -9999.25   -9999.25   -9999.25   -9999.25   -9999.25   37.58180   44.84040   45.94740  -85.77260
 7074.50000   47.08030    0.12070    9.05720    0.06400   -0.00170    4.54630    2.59770   -9999.25   -9999.25   -9999.25   -9999.25   -9999.25   -9999.25   31.82100   39.58160   41.12200  -84.68280
 7075.00000   51.13430    0.11890    9.04250    0.06580    0.00050    4.49720    2.60100   -9999.25   -9999.25   -9999.25   -9999.25   -9999.25   -9999.25   24.79320   33.98430   34.10210  -83.59300
 7075.50000   50.84070    0.10830    9.04300    0.06280    0.00810    4.41160    2.60440   -9999.25   -9999.25   -9999.25   -9999.25   -9999.25   -9999.25   19.31750   28.38080   30.30990  -82.50330
 7076.00000   53.12120    0.10560    9.05860    0.06250    0.01030    4.21540    2.59750   -9999.25   -9999.25   -9999.25   -9999.25   -9999.25   -9999.25   16.69990   23.37490   24.96210  -81.41350
 7076.50000   64.02270    0.11190    9.05910    0.06970    0.01110    3.79290    2.57600   -9999.25   -9999.25   -9999.25   -9999.25   -9999.25   -9999.25   14.73800   19.79320   20.41590  -80.15130
