~Version ---------------------------------------------------
VERS.   2.0 : CWLS log ASCII Standard -VERSION 2.0
WRAP.    NO : One line per depth step
DLM . SPACE : Column Data Section Delimiter
~Well ------------------------------------------------------
STRT .F                 2977.0 : START DEPTH
STOP .F                 9110.0 : STOP DEPTH
STEP .F                    0.5 : STEP
NULL .                -9999.25 : NULL VALUE
COMP .                         : COMPANY
WELL .                         : WELL
FLD  .                         : FIELD
LOC  .                         : LOCATION
PROV .                         : PROVINCE
CNTY .                         : COUNTY
STAT .                         : STATE
CTRY .                         : COUNTRY
SRVC .                         : SERVICE COMPANY
DATE .                         : DATE
UWI  .                         : UNIQUE WELL ID
API  .                         : API NUMBER
SLAT .WGS84 3.2384937972768952 : SURFACE LATITUDE
SLON .WGS84   6.18895645037901 : SURFACE LONGITUDE
DATUM.F                2911.17 : DEPTH DATUM ELEV
~Curve Information -----------------------------------------
DEPT.F     : 
GRD .GAPI  : GAMMA RAY FROM DENSITY LOG
TNPH.DEC   : THERMAL NEUTRON POROSITY LIMESTONE
CALD.IN    : CALIPER FROM DENSITY LOG
DPHZ.DEC   : DENSITY POROSITY LIMESTONE
HDRA.G/C3  : DELTA RHO HIP TOOL
PEFZ.B/E   : HILT PHOTOELECTRIC FACTOR
RHOZ.G/C3  : HILT BULK DENSITY
DT4P.US/F  : COMPRESSIONAL-WAVE INTERVAL TRANSIT TIME ACOUSTIC SLOWNESS, P&S MODE
DT4S.US/F  : SHEAR-WAVE INTERVAL TRANSIT TIME ACOUSTIC SLOWNESS, P&S MODE
DTCO.US/F  : COMPRESSIONAL-WAVE INTERVAL TRANSIT TIME ACOUSTIC SLOWNESS
DTRP.US/F  : COMPRESSIONAL-WAVE INTERVAL TRANSIT TIME DELTA-T, RECEIVER ARRAY
DTRS.US/F  : INTERVAL TRANSIT TIME FOR RECEIVER ARRAY
DTSM.US/F  : SHEAR-WAVE INTERVAL TRANSIT TIME DELTA-T
AF10.OHMM  : 10-IN. RESISTIVITY, 4-FT RESOLUTION
AF30.OHMM  : 30-IN. RESISTIVITY, 4-FT RESOLUTION
AF90.OHMM  : 90-IN. RESISTIVITY, 4-FT RESOLUTION
SPR .MV    : SPONTANEOUS POTENTIAL FROM RES.
~Params ----------------------------------------------------
~Other -----------------------------------------------------
~ASCII -----------------------------------------------------
# ...
 6462.00000   51.88370    0.18720   10.64000    0.21160   -0.01000    2.40950    2.36070   -9999.25   -9999.25   -9999.25   -9999.25   -9999.25   -9999.25    4.64250    4.98390    1.47180  -75.68530
 6462.50000   51.89490    0.19080   10.62500    0.19740   -0.00780    2.40700    2.36970   -9999.25   -9999.25   -9999.25   -9999.25   -9999.25   -9999.25    4.57820    4.71510    1.47180  -74.93200
 6463.00000   52.20690    0.20070   10.62410    0.19500   -0.00630    2.40540    2.37600   -9999.25   -9999.25   -9999.25   -9999.25   -9999.25   -9999.25    4.57790    4.61810    1.48200  -73.27080
 6463.50000   52.67040    0.19890   10.61020    0.19290   -0.00480    2.40510    2.37940   -9999.25   -9999.25   -9999.25   -9999.25   -9999.25   -9999.25    4.60950    4.65020    1.51320  -70.50750
 6464.00000   53.74000    0.19460   10.61030    0.19320   -0.00320    2.38970    2.38300   -9999.25   -9999.25   -9999.25   -9999.25   -9999.25   -9999.25    4.73860    4.71510    1.53430  -68.06620
 6464.50000   54.35500    0.19580   10.61050    0.19110   -0.00170    2.38940    2.38500   -9999.25   -9999.25   -9999.25   -9999.25   -9999.25   -9999.25    4.87150    4.85340    1.57740  -66.77520
 6465.00000   54.51550    0.19520   10.61060    0.18990   -0.00100    2.32880    2.38550   -9999.25   -9999.25   -9999.25   -9999.25   -9999.25   -9999.25    5.00810    5.01860    1.62180  -66.62610
 6465.50000   55.58510    0.19220   10.59560    0.19180   -0.00250    2.40530    2.38280   -9999.25   -9999.25   -9999.25   -9999.25   -9999.25   -9999.25    5.14850    5.15960    1.66730  -66.47780
 6466.00000   56.50320    0.18680   10.59010    0.19850   -0.00550    2.44890    2.36950   -9999.25   -9999.25   -9999.25   -9999.25   -9999.25   -9999.25    5.25640    5.37870    1.72610  -66.48150
 6466.50000   56.36060    0.17920   10.57180    0.20410   -0.00850    2.47870    2.36100   -9999.25   -9999.25   -9999.25   -9999.25   -9999.25   -9999.25    5.36640    5.56830    1.81190  -66.48450
 6467.00000   54.35190    0.17710   10.55060    0.20130   -0.01080    2.47840    2.37450   -9999.25   -9999.25   -9999.25   -9999.25   -9999.25   -9999.25    5.44090    5.72490    1.87580  -66.48740
 6467.50000   51.36620    0.17620   10.53410    0.19690   -0.01150    2.46300    2.37530   -9999.25   -9999.25   -9999.25   -9999.25   -9999.25   -9999.25    5.51650    5.88580    1.94200  -66.64170
 6468.00000   50.93300    0.17770   10.51680    0.19570   -0.00920    2.44770    2.37220   -9999.25   -9999.25   -9999.25   -9999.25   -9999.25   -9999.25    5.51610    5.92670    1.99750  -67.09850
 6468.50000   50.76290    0.19370   10.49150    0.19850   -0.00620    2.49260    2.37010   -9999.25   -9999.25   -9999.25   -9999.25   -9999.25   -9999.25    5.39580    5.60710    2.05460  -67.70660
 6469.00000   50.04410    0.19920   10.46510    0.19940   -0.00320    2.52240    2.37030   -9999.25   -9999.25   -9999.25   -9999.25   -9999.25   -9999.25    5.14600    5.34150    2.08130  -67.70960
 6469.50000   49.14400    0.19860   10.46050    0.19790   -0.00170    2.56740    2.37530   -9999.25   -9999.25   -9999.25   -9999.25   -9999.25   -9999.25    4.83450    4.94950    2.06690  -67.41000
 6470.00000   49.91060    0.19060   10.44360    0.19250   -0.00100    2.56710    2.39130   -9999.25   -9999.25   -9999.25   -9999.25   -9999.25   -9999.25    4.41770    4.74790    2.02440  -66.94950
 6470.50000   54.61650    0.18120   10.42020    0.18340   -0.00400    2.55170    2.41570   -9999.25   -9999.25   -9999.25   -9999.25   -9999.25   -9999.25    4.03680    4.36900    2.01040  -65.70870
 6471.00000   70.38310    0.17260   10.38160    0.16110   -0.00630    2.53630    2.47410   -9999.25   -9999.25   -9999.25   -9999.25   -9999.25   -9999.25    3.76630    4.02040    2.01040  -63.48620
 6471.50000   76.30120    0.16080   10.35500    0.12160   -0.00550    2.50590    2.50130   -9999.25   -9999.25   -9999.25   -9999.25   -9999.25   -9999.25    3.66300    3.69950    2.01040  -59.40450
 6472.00000   75.09800    0.14880   10.32490    0.10480   -0.00170    2.52070    2.53000   -9999.25   -9999.25   -9999.25   -9999.25   -9999.25   -9999.25    4.09230    3.94100    2.02440  -55.77660
 6472.50000   67.68280    0.13460   10.30350    0.10270   -0.00020    2.73150    2.53520   -9999.25   -9999.25   -9999.25   -9999.25   -9999.25   -9999.25    4.60370    4.08170    2.08130  -53.35900
 6473.00000   63.44930    0.12130   10.26670    0.10390    0.00050    2.95750    2.54000   -9999.25   -9999.25   -9999.25   -9999.25   -9999.25   -9999.25    5.07240    4.30890    2.18480  -50.94130
 6473.50000   61.64010    0.11190   10.21920    0.09880    0.00050    3.18340    2.54570   -9999.25   -9999.25   -9999.25   -9999.25   -9999.25   -9999.25    5.32420    4.49180    2.26180  -49.28020
 6474.00000   60.89150    0.11070   10.20430    0.09400    0.00050    3.24430    2.54970   -9999.25   -9999.25   -9999.25   -9999.25   -9999.25   -9999.25    5.47390    4.71510    2.39070  -48.07290
 6474.50000   59.68840    0.11400   10.18800    0.08970    0.00050    3.27500    2.54850   -9999.25   -9999.25   -9999.25   -9999.25   -9999.25   -9999.25    5.70910    4.88130    2.44100  -47.62120
 6475.00000   58.48520    0.11710   10.16970    0.09520    0.00050    3.28810    2.52920   -9999.25   -9999.25   -9999.25   -9999.25   -9999.25   -9999.25    5.91310    4.98390    2.47500  -47.47350
 6475.50000   56.22150    0.12040   10.15920    0.10640    0.00130    3.30290    2.52570   -9999.25   -9999.25   -9999.25   -9999.25   -9999.25   -9999.25    6.07180    4.98390    2.50960  -47.47660
 6476.00000   54.86680    0.12280   10.14820    0.10970    0.00130    3.33280    2.53070   -9999.25   -9999.25   -9999.25   -9999.25   -9999.25   -9999.25    6.24200    4.98390    2.52700  -47.47960
 6476.50000   54.57270    0.12430   10.14440    0.10050    0.00050    3.15140    2.54420   -9999.25   -9999.25   -9999.25   -9999.25   -9999.25   -9999.25    6.41700    4.98390    2.45790  -47.16070
 6477.00000   55.97430    0.12460   10.14450    0.09520   -0.00020    3.04550    2.54880   -9999.25   -9999.25   -9999.25   -9999.25   -9999.25   -9999.25    6.59690    4.94950    2.45790  -46.10300
 6477.50000   59.47710    0.12490   10.15060    0.09850   -0.00400    2.96980    2.52620   -9999.25   -9999.25   -9999.25   -9999.25   -9999.25   -9999.25    6.55090    4.91530    2.42410  -45.06870
 6478.00000   59.90270    0.13260   10.17840    0.11750   -0.00780    2.98460    2.50120   -9999.25   -9999.25   -9999.25   -9999.25   -9999.25   -9999.25    6.19720    4.61810    2.37420  -44.61780
 6478.50000   59.76020    0.14570   10.20560    0.13990   -0.00850    2.98430    2.47770   -9999.25   -9999.25   -9999.25   -9999.25   -9999.25   -9999.25    5.74190    4.16210    2.29340  -44.77200
 6479.00000   60.98350    0.14970   10.23670    0.13650   -0.00930    2.90860    2.47640   -9999.25   -9999.25   -9999.25   -9999.25   -9999.25   -9999.25    4.82820    3.67340    2.14340  -44.92630
 6479.50000   67.96220    0.15240   10.25530    0.12150   -0.00780    2.72730    2.49460   -9999.25   -9999.25   -9999.25   -9999.25   -9999.25   -9999.25    4.05980    3.39800    1.96910  -44.47540
 6480.00000   75.09240    0.15840   10.26670    0.10850   -0.00480    2.60630    2.51880   -9999.25   -9999.25   -9999.25   -9999.25   -9999.25   -9999.25    3.46140    2.98860    1.86290  -42.66290
 6480.50000   74.04080    0.17110   10.26680    0.10160   -0.00170    2.47030    2.53840   -9999.25   -9999.25   -9999.25   -9999.25   -9999.25   -9999.25    3.20630    2.68970    1.74780  -40.54790
 6481.00000   72.98920    0.18290   10.28210    0.09890    0.00050    2.45260    2.54210   -9999.25   -9999.25   -9999.25   -9999.25   -9999.25   -9999.25    3.07630    2.63430    1.69060  -39.03800
 6481.50000   72.54360    0.19250   10.28230    0.10890   -0.00020    2.49980    2.51500   -9999.25   -9999.25   -9999.25   -9999.25   -9999.25   -9999.25    3.16970    2.67110    1.70240  -38.58710
 6482.00000   71.34040    0.19650   10.27710    0.13780   -0.00400    2.55990    2.46780   -9999.25   -9999.25   -9999.25   -9999.25   -9999.25   -9999.25    3.55770    2.76530    1.75020  -38.89270
