~Version ---------------------------------------------------
VERS.   2.0 : CWLS log ASCII Standard -VERSION 2.0
WRAP.    NO : One line per depth step
DLM . SPACE : Column Data Section Delimiter
~Well ------------------------------------------------------
STRT .F                 2977.0 : START DEPTH
STOP .F                 9110.0 : STOP DEPTH
STEP .F                    0.5 : STEP
NULL .                -9999.25 : NULL VALUE
COMP .                         : COMPANY
WELL .                         : WELL
FLD  .                         : FIELD
LOC  .                         : LOCATION
PROV .                         : PROVINCE
CNTY .                         : COUNTY
STAT .                         : STATE
CTRY .                         : COUNTRY
SRVC .                         : SERVICE COMPANY
DATE .                         : DATE
UWI  .                         : UNIQUE WELL ID
API  .                         : API NUMBER
SLAT .WGS84 3.2384937972768952 : SURFACE LATITUDE
SLON .WGS84   6.18895645037901 : SURFACE LONGITUDE
DATUM.F                2911.17 : DEPTH DATUM ELEV
~Curve Information -----------------------------------------
DEPT.F     : 
GRD .GAPI  : GAMMA RAY FROM DENSITY LOG
TNPH.DEC   : THERMAL NEUTRON POROSITY LIMESTONE
CALD.IN    : CALIPER FROM DENSITY LOG
DPHZ.DEC   : DENSITY POROSITY LIMESTONE
HDRA.G/C3  : DELTA RHO HIP TOOL
PEFZ.B/E   : HILT PHOTOELECTRIC FACTOR
RHOZ.G/C3  : HILT BULK DENSITY
DT4P.US/F  : COMPRESSIONAL-WAVE INTERVAL TRANSIT TIME ACOUSTIC SLOWNESS, P&S MODE
DT4S.US/F  : SHEAR-WAVE INTERVAL TRANSIT TIME ACOUSTIC SLOWNESS, P&S MODE
DTCO.US/F  : COMPRESSIONAL-WAVE INTERVAL TRANSIT TIME ACOUSTIC SLOWNESS
DTRP.US/F  : COMPRESSIONAL-WAVE INTERVAL TRANSIT TIME DELTA-T, RECEIVER ARRAY
DTRS.US/F  : INTERVAL TRANSIT TIME FOR RECEIVER ARRAY
DTSM.US/F  : SHEAR-WAVE INTERVAL TRANSIT TIME DELTA-T
AF10.OHMM  : 10-IN. RESISTIVITY, 4-FT RESOLUTION
AF30.OHMM  : 30-IN. RESISTIVITY, 4-FT RESOLUTION
AF90.OHMM  : 90-IN. RESISTIVITY, 4-FT RESOLUTION
SPR .MV    : SPONTANEOUS POTENTIAL FROM RES.
~Params ----------------------------------------------------
~Other -----------------------------------------------------
~ASCII -----------------------------------------------------
# ...
 9065.50000   17.83190    0.01440    8.75130    0.02390    0.00150    4.32420    2.66530   -9999.25   -9999.25   -9999.25   -9999.25   -9999.25   -9999.25  320.26790  465.11900  366.29330 -287.56750
 9066.00000   18.14340    0.01320    8.75150    0.02550    0.00000    4.26360    2.66920   -9999.25   -9999.25   -9999.25   -9999.25   -9999.25   -9999.25  313.65660  446.13090  414.87370 -288.62950
 9066.50000   18.30360    0.01320    8.75160    0.02670   -0.00070    4.23330    2.66350   -9999.25   -9999.25   -9999.25   -9999.25   -9999.25   -9999.25  372.96610  419.10630  432.42200 -289.84280
 9067.00000   18.76640    0.01290    8.75180    0.03670   -0.00150    4.17280    2.65160   -9999.25   -9999.25   -9999.25   -9999.25   -9999.25   -9999.25  537.34110  424.93130  408.99510 -291.20730
 9067.50000   19.22920    0.01050    8.75190    0.03580   -0.00150    4.14250    2.64990   -9999.25   -9999.25   -9999.25   -9999.25   -9999.25   -9999.25  717.20070  461.77840  426.27300 -293.64540
 9068.00000   20.14580    0.00840    8.76720    0.03310   -0.00150    4.23290    2.65440   -9999.25   -9999.25   -9999.25   -9999.25   -9999.25   -9999.25  999.72680  528.20500  482.80830 -295.34850
 9068.50000   21.26170    0.00630    8.76740    0.03190   -0.00150    4.29310    2.65790   -9999.25   -9999.25   -9999.25   -9999.25   -9999.25   -9999.25 1178.06010  590.79960  503.23010 -296.53890
 9069.00000   20.76870    0.00450    8.76750    0.03430   -0.00750    4.32310    2.65580   -9999.25   -9999.25   -9999.25   -9999.25   -9999.25   -9999.25 1137.86040  695.10140  475.96710 -298.93550
 9069.50000   19.26480    0.00330    8.76770    0.03640   -0.00970    4.33800    2.65230   -9999.25   -9999.25   -9999.25   -9999.25   -9999.25   -9999.25  658.09200  657.54000  453.33510 -301.05650
 9070.00000   16.84360    0.00300    8.76780    0.03250   -0.00670    4.33680    2.64960   -9999.25   -9999.25   -9999.25   -9999.25   -9999.25   -9999.25  407.92670  580.33080  386.46080 -303.02620
 9070.50000   16.40810    0.00390    8.76800    0.03040   -0.00520    4.32260    2.65540   -9999.25   -9999.25   -9999.25   -9999.25   -9999.25   -9999.25  333.63290  498.17390  329.45130 -304.54200
 9071.00000   16.41930    0.00450    8.76820    0.02860   -0.00670    4.37050    2.66160   -9999.25   -9999.25   -9999.25   -9999.25   -9999.25   -9999.25  296.53300  448.92170  313.58280 -306.66300
 9071.50000   16.42820    0.00470    8.76830    0.03620   -0.00820    4.45800    2.65710   -9999.25   -9999.25   -9999.25   -9999.25   -9999.25   -9999.25  272.85130  455.16100  331.60630 -308.93520
 9072.00000   17.04220    0.00410    8.76850    0.03750   -0.00290    4.35230    2.65060   -9999.25   -9999.25   -9999.25   -9999.25   -9999.25   -9999.25  322.20420  568.22590  378.30390 -310.75360
 9072.50000   19.47170    0.00260    8.76860    0.02990    0.00160    4.21640    2.65560   -9999.25   -9999.25   -9999.25   -9999.25   -9999.25   -9999.25  413.47930  755.06670  453.45520 -312.57200
 9073.00000   20.23710    0.00140    8.76880    0.01440    0.00460    4.26150    2.67200   -9999.25   -9999.25   -9999.25   -9999.25   -9999.25   -9999.25  505.48450  942.62990  541.50180 -314.54170
 9073.50000   20.09250   -0.00010    8.76890    0.01090   -0.00060    4.33680    2.68690   -9999.25   -9999.25   -9999.25   -9999.25   -9999.25   -9999.25  588.69930 1176.78530  649.24570 -316.81400
 9074.00000   21.46520   -0.00070    8.76910    0.01450    0.00010    4.39700    2.68980   -9999.25   -9999.25   -9999.25   -9999.25   -9999.25   -9999.25  511.96870 1342.44480  815.50490 -319.23750
 9074.50000   22.22830   -0.00040    8.76920    0.01390    0.00400    4.47220    2.68440   -9999.25   -9999.25   -9999.25   -9999.25   -9999.25   -9999.25  428.97340 1641.40690  956.23020 -321.38740
 9075.00000   21.18040   -0.00040    8.76940    0.01970    0.00770    4.56260    2.68120   -9999.25   -9999.25   -9999.25   -9999.25   -9999.25   -9999.25  362.79090 1808.65320 1046.16600 -323.38950
 9075.50000   19.37390   -0.00160    8.78470    0.01730    0.00690    4.65290    2.67970   -9999.25   -9999.25   -9999.25   -9999.25   -9999.25   -9999.25  326.53990 1926.71980 1097.94350 -325.44990
 9076.00000   18.17250   -0.00250    8.78480    0.01940    0.00540    4.65280    2.67900   -9999.25   -9999.25   -9999.25   -9999.25   -9999.25   -9999.25  317.59060 1965.35340 1053.00920 -326.51190
 9076.50000   17.87880   -0.00280    8.80020    0.01400    0.00470    4.60740    2.67970   -9999.25   -9999.25   -9999.25   -9999.25   -9999.25   -9999.25  317.56890 1992.63460  975.51820 -327.57390
 9077.00000   18.03930   -0.00280    8.81550    0.00710    0.00920    4.56200    2.68940   -9999.25   -9999.25   -9999.25   -9999.25   -9999.25   -9999.25  308.86540 2000.00000  922.71590 -328.48460
 9077.50000   18.35270   -0.00240    8.80050    0.00500    0.01230    4.48640    2.70150   -9999.25   -9999.25   -9999.25   -9999.25   -9999.25   -9999.25  294.21940 2000.00000  814.33440 -329.24390
 9078.00000   19.42060   -0.00180    8.80060    0.00590    0.00920    4.41050    2.70460   -9999.25   -9999.25   -9999.25   -9999.25   -9999.25   -9999.25  286.15580 1937.71800  786.43880 -329.70080
 9078.50000   19.73210   -0.00030    8.78560    0.00620    0.00170    4.38050    2.70360   -9999.25   -9999.25   -9999.25   -9999.25   -9999.25   -9999.25  272.58660 1833.00900  718.53610 -330.00000
 9079.00000   20.34620    0.00120    8.77050    0.01250   -0.00050    4.36530    2.69740   -9999.25   -9999.25   -9999.25   -9999.25   -9999.25   -9999.25  254.31800 1710.07230  647.45970 -330.00000
 9079.50000   21.56540    0.00330    8.75560    0.01560   -0.00200    4.42550    2.68950   -9999.25   -9999.25   -9999.25   -9999.25   -9999.25   -9999.25  240.58540 1541.00540  595.67070 -330.00000
 9080.00000   21.72550    0.00450    8.74050    0.02100   -0.00430    4.53090    2.68500   -9999.25   -9999.25   -9999.25   -9999.25   -9999.25   -9999.25  237.25760 1304.62390  522.06410 -330.00000
 9080.50000   21.42970    0.00480    8.74070    0.02260   -0.00580    4.60620    2.67140   -9999.25   -9999.25   -9999.25   -9999.25   -9999.25   -9999.25  245.60630 1127.72360  532.92270 -329.71550
 9081.00000   21.74340    0.00460    8.72560    0.02670   -0.00880    4.63620    2.67060   -9999.25   -9999.25   -9999.25   -9999.25   -9999.25   -9999.25  272.52400 1217.04220  544.00690 -329.11110
 9081.50000   22.05480    0.00460    8.72580    0.01740   -0.00400    4.63600    2.67790   -9999.25   -9999.25   -9999.25   -9999.25   -9999.25   -9999.25  292.51480 1322.57570  591.06150 -328.66260
 9082.00000   22.06370    0.00550    8.71080    0.00900   -0.00050    4.60570    2.70010   -9999.25   -9999.25   -9999.25   -9999.25   -9999.25   -9999.25  308.65520 1427.32700  674.10780 -328.64160
 9082.50000   21.77010    0.00580    8.71090    0.00450   -0.00350    4.59050    2.70160   -9999.25   -9999.25   -9999.25   -9999.25   -9999.25   -9999.25  298.11760 1551.09520  807.03910 -327.61030
 9083.00000   21.00570    0.00540    8.71110    0.00330   -0.00650    4.62050    2.70050   -9999.25   -9999.25   -9999.25   -9999.25   -9999.25   -9999.25  283.98120 1700.35620 1000.25070 -327.00810
 9083.50000   20.25480    0.00450    8.71120    0.01380   -0.00730    4.65060    2.69180   -9999.25   -9999.25   -9999.25   -9999.25   -9999.25   -9999.25  278.11900 1836.95080 1253.38290 -326.70780
 9084.00000   19.98140    0.00370    8.72660    0.01930   -0.00270    4.66550    2.68070   -9999.25   -9999.25   -9999.25   -9999.25   -9999.25   -9999.25  276.17940 1976.80490 1338.12120 -326.55940
 9084.50000   20.90020    0.00340    8.72670    0.02200    0.00260    4.77090    2.67450   -9999.25   -9999.25   -9999.25   -9999.25   -9999.25   -9999.25  298.03640 1990.46110 1255.96290 -326.10930
 9085.00000   20.75560    0.00310    8.72690    0.02260    0.00630    4.74060    2.67370   -9999.25   -9999.25   -9999.25   -9999.25   -9999.25   -9999.25  332.96320 1990.29110 1154.48570 -325.50710
 9085.50000   20.91800    0.00280    8.74220    0.02170   -0.00200    4.61980    2.67340   -9999.25   -9999.25   -9999.25   -9999.25   -9999.25   -9999.25  356.83870 1976.40040 1037.45390 -325.05550
