~Version ---------------------------------------------------
VERS.   2.0 : CWLS log ASCII Standard -VERSION 2.0
WRAP.    NO : One line per depth step
DLM . SPACE : Column Data Section Delimiter
~Well ------------------------------------------------------
STRT .F                 2977.0 : START DEPTH
STOP .F                 9110.0 : STOP DEPTH
STEP .F                    0.5 : STEP
NULL .                -9999.25 : NULL VALUE
COMP .                         : COMPANY
WELL .                         : WELL
FLD  .                         : FIELD
LOC  .                         : LOCATION
PROV .                         : PROVINCE
CNTY .                         : COUNTY
STAT .                         : STATE
CTRY .                         : COUNTRY
SRVC .                         : SERVICE COMPANY
DATE .                         : DATE
UWI  .                         : UNIQUE WELL ID
API  .                         : API NUMBER
SLAT .WGS84 3.2384937972768952 : SURFACE LATITUDE
SLON .WGS84   6.18895645037901 : SURFACE LONGITUDE
DATUM.F                2911.17 : DEPTH DATUM ELEV
~Curve Information -----------------------------------------
DEPT.F     : 
GRD .GAPI  : GAMMA RAY FROM DENSITY LOG
TNPH.DEC   : THERMAL NEUTRON POROSITY LIMESTONE
CALD.IN    : CALIPER FROM DENSITY LOG
DPHZ.DEC   : DENSITY POROSITY LIMESTONE
HDRA.G/C3  : DELTA RHO HIP TOOL
PEFZ.B/E   : HILT PHOTOELECTRIC FACTOR
RHOZ.G/C3  : HILT BULK DENSITY
DT4P.US/F  : COMPRESSIONAL-WAVE INTERVAL TRANSIT TIME ACOUSTIC SLOWNESS, P&S MODE
DT4S.US/F  : SHEAR-WAVE INTERVAL TRANSIT TIME ACOUSTIC SLOWNESS, P&S MODE
DTCO.US/F  : COMPRESSIONAL-WAVE INTERVAL TRANSIT TIME ACOUSTIC SLOWNESS
DTRP.US/F  : COMPRESSIONAL-WAVE INTERVAL TRANSIT TIME DELTA-T, RECEIVER ARRAY
DTRS.US/F  : INTERVAL TRANSIT TIME FOR RECEIVER ARRAY
DTSM.US/F  : SHEAR-WAVE INTERVAL TRANSIT TIME DELTA-T
AF10.OHMM  : 10-IN. RESISTIVITY, 4-FT RESOLUTION
AF30.OHMM  : 30-IN. RESISTIVITY, 4-FT RESOLUTION
AF90.OHMM  : 90-IN. RESISTIVITY, 4-FT RESOLUTION
SPR .MV    : SPONTANEOUS POTENTIAL FROM RES.
~Params ----------------------------------------------------
~Other -----------------------------------------------------
~ASCII -----------------------------------------------------
# ...
 8204.50000  153.76030    0.34260    9.39080    0.17590    0.07900    2.95610    2.41370   96.66160  157.92170   96.38410   98.91090  163.29920  181.96700   10.96130    9.51630   10.67500  -49.24240
 8205.00000  160.59060    0.33600    9.34600    0.17310    0.06990    2.92140    2.40840   96.04530  159.42770   95.70660   96.91910  163.30070  177.46250   12.58840   11.63560   12.34650  -47.72730
 8205.50000  166.21050    0.32660    9.25570    0.19510    0.05180    2.88670    2.37660   95.26480  158.52410   94.80360   94.78880  163.14180  172.73270   14.86330   14.52590   13.60350  -46.36360
 8206.00000  172.79590    0.31670    9.19580    0.21500    0.02900    2.85200    2.34800   94.21330  156.71690   92.99840   92.62370  161.52380  170.25520   15.92680   15.91120   14.47830  -45.45450
 8206.50000  178.20720    0.30730    9.18130    0.22620    0.01150    2.81730    2.31050   92.27850  151.89760   90.36610   88.96560  151.85110  166.65170   15.48810   15.24640   13.69630  -44.69700
 8207.00000  177.42670    0.29970    9.16690    0.23480    0.00250    2.77100    2.30110   86.24840  140.51450   83.59840   77.97310  123.21650  161.99700   14.54620   14.82820   13.41380  -44.24240
 8207.50000  170.27410    0.29480    9.16770    0.24320   -0.00020    2.72550    2.29460   77.05330  126.76730   72.39470   59.60110  100.15850  159.06910   13.75350   13.93000   13.32000  -44.09090
 8208.00000  145.75310    0.28810    9.16950    0.24160   -0.00100    2.72520    2.32020   71.62600  117.56020   70.81520   58.09620   92.62420  158.24320   13.38220   13.17300   12.68840  -44.09090
 8208.50000  126.41090    0.27450    9.18440    0.21990   -0.00170    2.78520    2.39350   74.48810  124.18670   74.87440   71.04990  117.49380  157.49250   14.33880   12.81580   12.17070  -44.09090
 8209.00000   94.05810    0.24110    9.20050    0.15930   -0.00250    3.38820    2.55240   74.93920  128.55420   73.44510   76.47300  128.49750  156.59160   14.53670   12.90420   12.42560  -43.17820
 8209.50000   84.84640    0.18800    9.21640    0.11230   -0.00250    3.82530    2.59490   69.81300  125.69280   68.85790   76.62510  136.78840  155.16520   13.00760   12.81410   12.16910  -42.56370
 8210.00000   90.32070    0.20770    9.24750    0.06010   -0.00170    3.71940    2.60890   72.52440  136.83740   72.54130   77.07840  146.73710  153.03920   12.21860   12.29070   11.83560  -42.27270
 8210.50000  103.20050    0.24470    9.26340    0.10710   -0.00250    3.44760    2.48000   76.74300  144.81930   79.38270   81.59800  151.41080  152.07700   12.38660   11.87100   11.67180  -41.96970
 8211.00000  111.69490    0.26470    9.27090    0.13430   -0.00320    3.26640    2.47380   83.67440  146.77710   82.49810   84.15970  151.86440  152.53750   12.73280   11.78820   11.43090  -41.21210
 8211.50000  119.13030    0.27400    9.29080    0.14000   -0.00400    3.14540    2.48410   84.72790  146.32530   84.76730   85.81780  149.60520  152.38740   11.87730   11.86960   10.59110  -41.66670
 8212.00000  123.99390    0.28090    9.31070    0.13220   -0.00400    3.09980    2.49590   85.17860  145.87350   85.09480   85.21210  146.89380  150.96100   10.77680   11.78660   10.37250  -41.81820
 8212.50000  122.58900    0.28490    9.33060    0.12340   -0.00400    3.06940    2.50400   85.17710  147.53010   84.11640   84.14010  148.85460  147.13210   10.48000   11.22720   10.36560  -41.66670
 8213.00000  118.29890    0.28580    9.35030    0.11860   -0.00480    3.11520    2.51170   84.39930  149.03610   83.43900   83.04330  150.07140  144.05400    9.91280   10.62050   10.20180  -41.66670
 8213.50000  115.29190    0.28280    9.36590    0.11560   -0.00480    3.17600    2.51710   83.21450  148.85330   82.53600   81.45660  150.53580  144.50450    9.44150    9.97720    9.37920  -41.66670
 8214.00000  115.15740    0.27550    9.38160    0.11440   -0.00480    3.20670    2.52110   82.45940  147.46510   81.78340   80.25330  151.27080  146.68170    8.99250    9.30800    8.90310  -42.27270
 8214.50000  116.39570    0.25750    9.39720    0.11200   -0.00400    3.23410    2.52300   82.00580  146.92770   82.08340   79.35080  152.17660  149.23420    8.37630    8.62370    8.42240  -43.03030
 8215.00000  119.29250    0.25320    9.41280    0.11140   -0.00240    3.24890    2.51840   81.85400  150.54220   83.43600   79.50320  154.89100  151.41140    7.57410    7.98980    7.43410  -43.78790
 8215.50000  124.15600    0.25540    9.45880    0.11380   -0.00020    3.21840    2.50970   83.81140  154.60840   84.86380   79.80590  158.35890  154.93990    6.35480    7.19980    6.69960  -44.69700
 8216.00000  132.65040    0.26110    9.51990    0.11810    0.00050    3.14260    2.48150   85.61850  158.52410   87.19390   80.86160  160.92260  158.84380    5.41740    6.31050    6.25060  -45.60610
 8216.50000  139.93450    0.27080    9.58110    0.12830    0.00810    3.08200    2.45270   86.97350  159.12650   90.12550   83.12210  163.78770  163.94890    4.91550    5.68660    5.75140  -46.66670
 8217.00000  138.29280    0.27620    9.65740    0.14120    0.05560    3.08170    2.42500   89.38350  158.82530   92.38040   89.14770  165.14560  169.05050    4.64940    5.19600    5.29210  -48.03030
 8217.50000  130.90210    0.29880    9.76410    0.16600    0.10910    3.09660    2.42040   92.39630  156.41570   93.80830   90.95640  166.35280  175.62310    4.87950    5.05350    5.11150  -49.39390
 8218.00000  125.78080    0.32930    9.93140    0.17110    0.16790    3.11140    2.41860   93.29910  155.51210   92.60450   91.86150  166.65530  181.89190    5.64280    5.37860    5.25480  -50.45450
 8218.50000  126.40830    0.34800   10.12910    0.17050    0.18760    3.08080    2.40690   93.44840  155.51210   91.39900   92.16420  165.30080  180.54050    5.96330    5.56800    5.95260  -50.60610
 8219.00000  131.27180    0.33710   10.15990    0.17230    0.16420    3.06540    2.38550   91.93970  155.81320   90.86830   92.31630  166.05580  178.06310    6.70750    6.57590    6.78990  -50.12870
 8219.50000  138.25340    0.32480   10.14500    0.18590    0.11290    3.01990    2.37130   90.57220  156.71690   90.79770   92.31780  166.66020  175.36040    7.08850    7.39830    7.12700  -49.54550
 8220.00000  152.64790    0.31540    9.98860    0.20190    0.06160    3.01960    2.37030   90.27890  158.98550   90.42090   92.16860  166.81240  172.13210    6.89320    7.23140    7.07030  -48.93940
 8220.50000  161.89870    0.30670    9.70610    0.20220    0.01560    3.00420    2.41080   89.97560  160.99830   89.36750   90.66450  166.59910  169.12910    6.47510    6.70260    6.77810  -48.63640
 8221.00000  161.87330    0.29770    9.75210    0.19310    0.00130    3.01900    2.47250   89.22050  161.38550   88.46450   88.55750  161.87670  165.37540    6.25260    6.38040    6.50480  -48.63640
 8221.50000  156.67540    0.28290    9.81330    0.17680    0.00120    3.01870    2.49840   88.31480  160.18070   88.08800   87.65500  158.52780  160.72070    5.94940    6.09070    6.15990  -48.48480
 8222.00000  147.82270    0.27480    9.84410    0.12980    0.01330    3.03350    2.47720   88.16260  159.72890   88.68860   87.35530  159.28290  162.44740    5.62770    6.04820    6.03270  -47.12120
 8222.50000  135.21620    0.28530    9.82920    0.12320    0.03320    3.03320    2.37910   88.76390  159.42770   89.81570   87.65830  161.24370  163.69290    5.36540    6.09000    6.03230  -46.66670
 8223.00000  133.56880    0.30160    9.87530    0.15670    0.05690    3.01780    2.32370   89.66670  160.48190   91.54430   88.56340  163.35520  163.19820    5.21770    6.21750    6.11620  -47.12120
 8223.50000  135.71480    0.32120    9.93650    0.20100    0.07760    2.95460    2.29880   91.02170  161.38550   92.52100   90.22150  167.12450  166.27630    5.28940    6.21710    6.24410  -47.57580
 8224.00000  136.18540    0.31400    9.96720    0.23680    0.09860    2.86630    2.29940   92.37670  161.68680   92.82120   91.57840  167.72890  170.90090    5.90850    6.48080    6.41920  -47.87880
 8224.50000  133.03640    0.30680    9.90690    0.24500    0.10610    2.80570    2.34620   92.67700  162.13850   91.54210   92.18190  167.88110  176.97420    6.64590    7.34200    6.59920  -47.57580
