~Version ---------------------------------------------------
VERS.   2.0 : CWLS log ASCII Standard -VERSION 2.0
WRAP.    NO : One line per depth step
DLM . SPACE : Column Data Section Delimiter
~Well ------------------------------------------------------
STRT .F                 2977.0 : START DEPTH
STOP .F                 9110.0 : STOP DEPTH
STEP .F                    0.5 : STEP
NULL .                -9999.25 : NULL VALUE
COMP .                         : COMPANY
WELL .                         : WELL
FLD  .                         : FIELD
LOC  .                         : LOCATION
PROV .                         : PROVINCE
CNTY .                         : COUNTY
STAT .                         : STATE
CTRY .                         : COUNTRY
SRVC .                         : SERVICE COMPANY
DATE .                         : DATE
UWI  .                         : UNIQUE WELL ID
API  .                         : API NUMBER
SLAT .WGS84 3.2384937972768952 : SURFACE LATITUDE
SLON .WGS84   6.18895645037901 : SURFACE LONGITUDE
DATUM.F                2911.17 : DEPTH DATUM ELEV
~Curve Information -----------------------------------------
DEPT.F     : 
GRD .GAPI  : GAMMA RAY FROM DENSITY LOG
TNPH.DEC   : THERMAL NEUTRON POROSITY LIMESTONE
CALD.IN    : CALIPER FROM DENSITY LOG
DPHZ.DEC   : DENSITY POROSITY LIMESTONE
HDRA.G/C3  : DELTA RHO HIP TOOL
PEFZ.B/E   : HILT PHOTOELECTRIC FACTOR
RHOZ.G/C3  : HILT BULK DENSITY
DT4P.US/F  : COMPRESSIONAL-WAVE INTERVAL TRANSIT TIME ACOUSTIC SLOWNESS, P&S MODE
DT4S.US/F  : SHEAR-WAVE INTERVAL TRANSIT TIME ACOUSTIC SLOWNESS, P&S MODE
DTCO.US/F  : COMPRESSIONAL-WAVE INTERVAL TRANSIT TIME ACOUSTIC SLOWNESS
DTRP.US/F  : COMPRESSIONAL-WAVE INTERVAL TRANSIT TIME DELTA-T, RECEIVER ARRAY
DTRS.US/F  : INTERVAL TRANSIT TIME FOR RECEIVER ARRAY
DTSM.US/F  : SHEAR-WAVE INTERVAL TRANSIT TIME DELTA-T
AF10.OHMM  : 10-IN. RESISTIVITY, 4-FT RESOLUTION
AF30.OHMM  : 30-IN. RESISTIVITY, 4-FT RESOLUTION
AF90.OHMM  : 90-IN. RESISTIVITY, 4-FT RESOLUTION
SPR .MV    : SPONTANEOUS POTENTIAL FROM RES.
~Params ----------------------------------------------------
~Other -----------------------------------------------------
~ASCII -----------------------------------------------------
# ...
 5314.00000   46.07600    0.11830    9.12960    0.05860   -0.00040    3.69530    2.59500   -9999.25   -9999.25   -9999.25   -9999.25   -9999.25   -9999.25   12.11440   13.15040   13.28790  -37.76790
 5314.50000   55.00480    0.13310    9.11480    0.06200   -0.00350    3.57470    2.56510   -9999.25   -9999.25   -9999.25   -9999.25   -9999.25   -9999.25   11.37290   12.10100   12.39450  -37.01590
 5315.00000   60.75670    0.14240    9.11520    0.07280   -0.00730    3.60480    2.54720   -9999.25   -9999.25   -9999.25   -9999.25   -9999.25   -9999.25   11.39040   12.01740   11.99250  -37.17160
 5315.50000   61.51610    0.15330    9.11550    0.09090   -0.01180    3.65010    2.54250   -9999.25   -9999.25   -9999.25   -9999.25   -9999.25   -9999.25   12.10640   12.44110   12.41430  -37.78120
 5316.00000   60.30880    0.16410    9.11580    0.09820   -0.01330    3.71040    2.54700   -9999.25   -9999.25   -9999.25   -9999.25   -9999.25   -9999.25   13.06270   13.05960   13.30420  -38.08820
 5316.50000   58.04250    0.15600    9.11610    0.09840   -0.00950    3.77070    2.55080   -9999.25   -9999.25   -9999.25   -9999.25   -9999.25   -9999.25   14.59160   14.19210   14.45700  -38.54650
 5317.00000   55.01970    0.14910    9.10120    0.09390   -0.00800    3.78580    2.55600   -9999.25   -9999.25   -9999.25   -9999.25   -9999.25   -9999.25   15.96400   15.85630   15.60110  -39.91260
 5317.50000   51.08930    0.13820    9.08490    0.09030   -0.00650    3.78580    2.57590   -9999.25   -9999.25   -9999.25   -9999.25   -9999.25   -9999.25   17.34480   17.23140   17.30900  -42.18630
 5318.00000   45.84650    0.12310    9.04120    0.07740   -0.00430    3.75570    2.59960   -9999.25   -9999.25   -9999.25   -9999.25   -9999.25   -9999.25   18.20330   18.72570   18.80880  -44.15750
 5318.50000   40.62890    0.11350    9.01130    0.06530   -0.00350    3.74060    2.60570   -9999.25   -9999.25   -9999.25   -9999.25   -9999.25   -9999.25   17.94910   20.06940   20.43850  -44.76710
 5319.00000   37.78580    0.11200    8.98120    0.06020   -0.00280    3.72550    2.60650   -9999.25   -9999.25   -9999.25   -9999.25   -9999.25   -9999.25   17.69840   21.21350   21.15770  -44.77760
 5319.50000   39.15030    0.11770    8.96630    0.06290   -0.00050    3.69530    2.60470   -9999.25   -9999.25   -9999.25   -9999.25   -9999.25   -9999.25   17.69480   21.50960   21.01010  -45.24800
 5320.00000   40.21230    0.11760    8.93630    0.06500    0.00020    3.64800    2.58990   -9999.25   -9999.25   -9999.25   -9999.25   -9999.25   -9999.25   17.93810   21.06700   21.00870  -46.29440
 5320.50000   38.55110    0.10980    8.92150    0.07250   -0.00360    3.66520    2.57800   -9999.25   -9999.25   -9999.25   -9999.25   -9999.25   -9999.25   18.57750   21.37110   21.15450  -47.20660
 5321.00000   36.89000    0.09920    8.90660    0.07710   -0.00580    3.72550    2.57410   -9999.25   -9999.25   -9999.25   -9999.25   -9999.25   -9999.25   19.39530   21.83030   21.59630  -47.66490
 5321.50000   35.98520    0.09940    8.90700    0.08250   -0.00660    3.75570    2.59060   -9999.25   -9999.25   -9999.25   -9999.25   -9999.25   -9999.25   20.59130   22.57880   21.98930  -47.82060
 5322.00000   35.38310    0.09880    8.90730    0.07190   -0.00130    3.72550    2.61320   -9999.25   -9999.25   -9999.25   -9999.25   -9999.25   -9999.25   21.46120   23.53750   23.46550  -47.82500
 5322.50000   33.72190    0.09480    8.92270    0.05720   -0.00060    3.71040    2.62980   -9999.25   -9999.25   -9999.25   -9999.25   -9999.25   -9999.25   22.21340   24.70750   24.46060  -47.67710
 5323.00000   29.18630    0.09120    8.92300    0.04480   -0.00360    3.72550    2.62980   -9999.25   -9999.25   -9999.25   -9999.25   -9999.25   -9999.25   21.30430   23.21350   23.95520  -46.92620
 5323.50000   29.03720    0.09030    8.92330    0.04540   -0.00440    3.77070    2.60490   -9999.25   -9999.25   -9999.25   -9999.25   -9999.25   -9999.25   20.29140   22.89400   23.13780  -45.87170
 5324.00000   31.31020    0.09940    8.92360    0.06070   -0.00510    3.75570    2.57100   -9999.25   -9999.25   -9999.25   -9999.25   -9999.25   -9999.25   19.73260   22.89400   22.50360  -45.72470
 5324.50000   35.70050    0.11360    8.92390    0.07790   -0.00510    3.74060    2.56610   -9999.25   -9999.25   -9999.25   -9999.25   -9999.25   -9999.25   19.59230   22.42290   22.19240  -45.12410
 5325.00000   39.18310    0.11600    8.93940    0.08500   -0.00440    3.75570    2.56420   -9999.25   -9999.25   -9999.25   -9999.25   -9999.25   -9999.25   20.13890   22.73580   22.50060  -44.22090
 5325.50000   36.72470    0.11030    8.93970    0.08670   -0.00290    3.78580    2.57070   -9999.25   -9999.25   -9999.25   -9999.25   -9999.25   -9999.25   21.43070   23.37490   23.45430  -43.92280
 5326.00000   35.36720    0.09850    8.94000    0.08160    0.00010    3.84620    2.57860   -9999.25   -9999.25   -9999.25   -9999.25   -9999.25   -9999.25   22.80530   25.22650   25.13570  -44.25410
 5326.50000   35.25850    0.08980    8.95550    0.07770    0.00240    3.90780    2.58530   -9999.25   -9999.25   -9999.25   -9999.25   -9999.25   -9999.25   24.11440   27.41420   26.75160  -44.53790
 5327.00000   35.56480    0.08890    8.95580    0.07440    0.00840    4.06240    2.59180   -9999.25   -9999.25   -9999.25   -9999.25   -9999.25   -9999.25   25.14760   27.79680   27.69290  -44.54240
 5327.50000   34.50880    0.08950    8.95610    0.07080    0.00990    4.26170    2.59510   -9999.25   -9999.25   -9999.25   -9999.25   -9999.25   -9999.25   25.99760   27.22480   27.48770  -44.54680
 5328.00000   31.18350    0.09040    8.94120    0.06870    0.00390    4.34390    2.59360   -9999.25   -9999.25   -9999.25   -9999.25   -9999.25   -9999.25   26.17440   26.09170   26.13800  -44.85380
 5328.50000   29.06850    0.09400    8.94160    0.06780   -0.00250    4.26850    2.58840   -9999.25   -9999.25   -9999.25   -9999.25   -9999.25   -9999.25   24.07960   24.66160   24.71890  -44.55570
 5329.00000   30.28170    0.10530    8.94190    0.06930   -0.00750    4.14780    2.57390   -9999.25   -9999.25   -9999.25   -9999.25   -9999.25   -9999.25   22.00060   22.89400   22.96040  -42.44220
 5329.50000   31.94890    0.10820    8.94220    0.07290   -0.00520    4.01210    2.56110   -9999.25   -9999.25   -9999.25   -9999.25   -9999.25   -9999.25   19.96220   21.21350   21.27370  -40.93370
 5330.00000   34.67500    0.11000    8.94250    0.08470   -0.00370    3.92160    2.55570   -9999.25   -9999.25   -9999.25   -9999.25   -9999.25   -9999.25   18.49320   19.93080   19.57470  -39.57660
 5330.50000   37.24980    0.11330    8.94280    0.08860   -0.00370    3.87630    2.55520   -9999.25   -9999.25   -9999.25   -9999.25   -9999.25   -9999.25   17.49220   18.85590   19.17070  -38.67340
 5331.00000   39.37080    0.12330    8.94310    0.08980   -0.00450    3.89140    2.55550   -9999.25   -9999.25   -9999.25   -9999.25   -9999.25   -9999.25   17.98030   19.11910   18.64530  -38.22390
 5331.50000   40.28150    0.12600    8.94330    0.09010   -0.00670    3.95170    2.55760   -9999.25   -9999.25   -9999.25   -9999.25   -9999.25   -9999.25   19.26660   20.34950   19.43570  -38.22840
 5332.00000   39.22550    0.12120    8.94360    0.09100   -0.00830    4.02710    2.56040   -9999.25   -9999.25   -9999.25   -9999.25   -9999.25   -9999.25   20.78860   21.80980   20.84650  -38.53560
 5332.50000   36.95920    0.11370    8.94390    0.09100   -0.00750    4.07240    2.56550   -9999.25   -9999.25   -9999.25   -9999.25   -9999.25   -9999.25   22.79720   23.37490   23.64400  -38.54100
 5333.00000   35.13650    0.10730    8.94420    0.08590   -0.00370    4.07240    2.57960   -9999.25   -9999.25   -9999.25   -9999.25   -9999.25   -9999.25   24.76750   24.87930   25.17150  -37.94030
 5333.50000   34.09070    0.10490    8.94450    0.07530   -0.00370    4.07240    2.59950   -9999.25   -9999.25   -9999.25   -9999.25   -9999.25   -9999.25   26.11320   26.66470   26.35750  -37.33960
 5334.00000   34.69950    0.10460    8.92970    0.06690   -0.00300    4.07240    2.60990   -9999.25   -9999.25   -9999.25   -9999.25   -9999.25   -9999.25   26.47360   26.85010   26.35570  -36.88910
