~Version ---------------------------------------------------
VERS.   2.0 : CWLS log ASCII Standard -VERSION 2.0
WRAP.    NO : One line per depth step
DLM . SPACE : Column Data Section Delimiter
~Well ------------------------------------------------------
STRT .F                 2977.0 : START DEPTH
STOP .F                 9110.0 : STOP DEPTH
STEP .F                    0.5 : STEP
NULL .                -9999.25 : NULL VALUE
COMP .                         : COMPANY
WELL .                         : WELL
FLD  .                         : FIELD
LOC  .                         : LOCATION
PROV .                         : PROVINCE
CNTY .                         : COUNTY
STAT .                         : STATE
CTRY .                         : COUNTRY
SRVC .                         : SERVICE COMPANY
DATE .                         : DATE
UWI  .                         : UNIQUE WELL ID
API  .                         : API NUMBER
SLAT .WGS84 3.2384937972768952 : SURFACE LATITUDE
SLON .WGS84   6.18895645037901 : SURFACE LONGITUDE
DATUM.F                2911.17 : DEPTH DATUM ELEV
~Curve Information -----------------------------------------
DEPT.F     : 
GRD .GAPI  : GAMMA RAY FROM DENSITY LOG
TNPH.DEC   : THERMAL NEUTRON POROSITY LIMESTONE
CALD.IN    : CALIPER FROM DENSITY LOG
DPHZ.DEC   : DENSITY POROSITY LIMESTONE
HDRA.G/C3  : DELTA RHO HIP TOOL
PEFZ.B/E   : HILT PHOTOELECTRIC FACTOR
RHOZ.G/C3  : HILT BULK DENSITY
DT4P.US/F  : COMPRESSIONAL-WAVE INTERVAL TRANSIT TIME ACOUSTIC SLOWNESS, P&S MODE
DT4S.US/F  : SHEAR-WAVE INTERVAL TRANSIT TIME ACOUSTIC SLOWNESS, P&S MODE
DTCO.US/F  : COMPRESSIONAL-WAVE INTERVAL TRANSIT TIME ACOUSTIC SLOWNESS
DTRP.US/F  : COMPRESSIONAL-WAVE INTERVAL TRANSIT TIME DELTA-T, RECEIVER ARRAY
DTRS.US/F  : INTERVAL TRANSIT TIME FOR RECEIVER ARRAY
DTSM.US/F  : SHEAR-WAVE INTERVAL TRANSIT TIME DELTA-T
AF10.OHMM  : 10-IN. RESISTIVITY, 4-FT RESOLUTION
AF30.OHMM  : 30-IN. RESISTIVITY, 4-FT RESOLUTION
AF90.OHMM  : 90-IN. RESISTIVITY, 4-FT RESOLUTION
SPR .MV    : SPONTANEOUS POTENTIAL FROM RES.
~Params ----------------------------------------------------
~Other -----------------------------------------------------
~ASCII -----------------------------------------------------
# ...
 5888.00000   48.81880    0.11260    9.84490    0.06990   -0.00020    3.24640    2.61600   -9999.25   -9999.25   -9999.25   -9999.25   -9999.25   -9999.25    2.99920    2.90270    2.88740  -50.57820
 5888.50000   52.97290    0.13010    9.90560    0.11330   -0.00320    2.91450    2.51570   -9999.25   -9999.25   -9999.25   -9999.25   -9999.25   -9999.25    2.66530    2.52700    2.56640  -51.48890
 5889.00000   58.58790    0.14580    9.96640    0.13230   -0.00250    2.65790    2.48820   -9999.25   -9999.25   -9999.25   -9999.25   -9999.25   -9999.25    2.43520    2.39070    2.39440  -51.34060
 5889.50000   68.78140    0.16030   10.01200    0.12890   -0.00100    2.59740    2.48780   -9999.25   -9999.25   -9999.25   -9999.25   -9999.25   -9999.25    2.41780    2.40740    2.44450  -50.58710
 5890.00000   75.71830    0.17810   10.04240    0.12750   -0.00480    2.58220    2.50050   -9999.25   -9999.25   -9999.25   -9999.25   -9999.25   -9999.25    2.59080    2.47500    2.51300  -49.37980
 5890.50000   81.16050    0.18530   10.05770    0.12260   -0.00930    2.71780    2.51460   -9999.25   -9999.25   -9999.25   -9999.25   -9999.25   -9999.25    2.87400    2.52700    2.58350  -48.62640
 5891.00000   85.03600    0.18600   10.07300    0.11450   -0.00780    2.82320    2.52020   -9999.25   -9999.25   -9999.25   -9999.25   -9999.25   -9999.25    2.91370    2.61610    2.60130  -48.32680
 5891.50000   84.84720    0.17900   10.07320    0.10790   -0.00250    2.85320    2.52590   -9999.25   -9999.25   -9999.25   -9999.25   -9999.25   -9999.25    2.79430    2.54460    2.42690  -48.64560
 5892.00000   83.49260    0.17630   10.08850    0.10580   -0.00250    2.76260    2.52550   -9999.25   -9999.25   -9999.25   -9999.25   -9999.25   -9999.25    2.62480    2.37420    2.29590  -49.41640
 5892.50000   79.41070    0.17570   10.11900    0.12570   -0.00550    2.65690    2.49860   -9999.25   -9999.25   -9999.25   -9999.25   -9999.25   -9999.25    2.41490    2.16970    2.14200  -49.84930
 5893.00000   76.69240    0.17600   10.13430    0.13410   -0.00850    2.61150    2.45960   -9999.25   -9999.25   -9999.25   -9999.25   -9999.25   -9999.25    2.20640    1.95550    1.99850  -50.00350
 5893.50000   75.48920    0.17900   10.14960    0.15790   -0.00860    2.59620    2.43780   -9999.25   -9999.25   -9999.25   -9999.25   -9999.25   -9999.25    2.04400    1.85000    1.89060  -51.36810
 5894.00000   73.68000    0.18470   10.16490    0.16460   -0.00550    2.58100    2.42850   -9999.25   -9999.25   -9999.25   -9999.25   -9999.25   -9999.25    1.94620    1.83720    1.82600  -52.27880
 5894.50000   73.23220    0.18870   10.19530    0.16610   -0.00550    2.61270    2.43030   -9999.25   -9999.25   -9999.25   -9999.25   -9999.25   -9999.25    1.90630    1.85000    1.85140  -51.97920
 5895.00000   74.30410    0.19140   10.21060    0.16190   -0.00780    2.65610    2.43730   -9999.25   -9999.25   -9999.25   -9999.25   -9999.25   -9999.25    1.93260    1.91520    1.94330  -51.22570
 5895.50000   77.19190    0.19440   10.24110    0.16190   -0.00790    2.70120    2.44230   -9999.25   -9999.25   -9999.25   -9999.25   -9999.25   -9999.25    2.08230    2.05270    2.09710  -50.47230
 5896.00000   79.77660    0.19620   10.25640    0.15890   -0.00870    2.71610    2.44530   -9999.25   -9999.25   -9999.25   -9999.25   -9999.25   -9999.25    2.33190    2.32610    2.23190  -49.11370
 5896.50000   82.66440    0.19860   10.24130    0.15620   -0.01080    2.74610    2.45020   -9999.25   -9999.25   -9999.25   -9999.25   -9999.25   -9999.25    2.58160    2.54640    2.52880  -47.60380
 5897.00000   86.15820    0.19950   10.25660    0.14800   -0.01080    2.74600    2.46950   -9999.25   -9999.25   -9999.25   -9999.25   -9999.25   -9999.25    2.84770    2.85210    2.79000  -46.24520
 5897.50000   91.16720    0.19830   10.24160    0.13400   -0.00700    2.76100    2.48780   -9999.25   -9999.25   -9999.25   -9999.25   -9999.25   -9999.25    3.31780    3.15440    3.09490  -45.34040
 5898.00000   93.44890    0.19260   10.22660    0.12350   -0.00400    2.74570    2.49930   -9999.25   -9999.25   -9999.25   -9999.25   -9999.25   -9999.25    3.38360    3.06450    3.06290  -44.58100
 5898.50000   92.54880    0.18810   10.19650    0.11790   -0.00250    2.71540    2.50490   -9999.25   -9999.25   -9999.25   -9999.25   -9999.25   -9999.25    3.28260    2.94320    2.82390  -44.42190
 5899.00000   92.70930    0.18230   10.18150    0.12120   -0.00550    2.70010    2.50670   -9999.25   -9999.25   -9999.25   -9999.25   -9999.25   -9999.25    3.02710    2.80390    2.63470  -44.29030
 5899.50000   94.38500    0.18110   10.19680    0.12460   -0.00400    2.66980    2.50070   -9999.25   -9999.25   -9999.25   -9999.25   -9999.25   -9999.25    2.76570    2.61610    2.42420  -44.89920
 5900.00000   95.15150    0.18170   10.21630    0.13120   -0.00140    2.69980    2.48320   -9999.25   -9999.25   -9999.25   -9999.25   -9999.25   -9999.25    2.52690    2.45560    2.28080  -46.23840
 5900.50000   89.25290    0.20530   10.23340    0.13710    0.00070    2.71480    2.46890   -9999.25   -9999.25   -9999.25   -9999.25   -9999.25   -9999.25    2.40380    2.32520    2.09580  -47.78300
 5901.00000   81.23150    0.21890   10.25060    0.14360   -0.00170    2.72970    2.45870   -9999.25   -9999.25   -9999.25   -9999.25   -9999.25   -9999.25    2.29240    2.16940    1.91520  -49.32750
 5901.50000   80.17760    0.22070   10.26770    0.14900   -0.00480    2.74420    2.44990   -9999.25   -9999.25   -9999.25   -9999.25   -9999.25   -9999.25    2.40580    2.12460    1.81190  -50.95780
 5902.00000   80.94640    0.21160   10.28480    0.15650   -0.00550    2.77410    2.45200   -9999.25   -9999.25   -9999.25   -9999.25   -9999.25   -9999.25    2.59580    2.18410    1.81190  -52.32090
 5902.50000   79.74320    0.19070   10.25910    0.14330   -0.00630    2.80490    2.47960   -9999.25   -9999.25   -9999.25   -9999.25   -9999.25   -9999.25    3.21730    2.27670    1.85020  -53.38130
 5903.00000   73.84310    0.18320   10.18040    0.11510   -0.00390    2.92870    2.54480   -9999.25   -9999.25   -9999.25   -9999.25   -9999.25   -9999.25    3.77250    2.45690    1.87580  -54.59310
 5903.50000   68.09440    0.18000   10.06000    0.08750   -0.00100    3.10490    2.57480   -9999.25   -9999.25   -9999.25   -9999.25   -9999.25   -9999.25    4.24330    2.61490    1.84600  -55.95620
 5904.00000   59.92160    0.17660   10.00240    0.07780    0.00130    3.21020    2.56170   -9999.25   -9999.25   -9999.25   -9999.25   -9999.25   -9999.25    4.57850    2.56090    1.73810  -57.47050
 5904.50000   54.02140    0.16550   10.03310    0.09020    0.00280    3.22510    2.48760   -9999.25   -9999.25   -9999.25   -9999.25   -9999.25   -9999.25    4.42170    2.40590    1.55570  -58.85890
 5905.00000   54.03040    0.16700   10.10910    0.11490    0.00430    2.98340    2.45220   -9999.25   -9999.25   -9999.25   -9999.25   -9999.25   -9999.25    4.03990    2.23850    1.45150  -60.40940
 5905.50000   55.25990    0.17610   10.17000    0.14570    0.00200    2.77190    2.39040   -9999.25   -9999.25   -9999.25   -9999.25   -9999.25   -9999.25    3.74260    1.98930    1.33570  -63.22420
 5906.00000   57.77140    0.19260   10.24610    0.18640   -0.00170    2.66600    2.36550   -9999.25   -9999.25   -9999.25   -9999.25   -9999.25   -9999.25    3.54000    1.82300    1.26370  -65.04110
 5906.50000   62.40350    0.20170   10.30700    0.20110   -0.00630    2.59030    2.35270   -9999.25   -9999.25   -9999.25   -9999.25   -9999.25   -9999.25    3.53930    1.76080    1.21220  -66.10160
 5907.00000   67.55330    0.20770   10.33760    0.20400   -0.00850    2.52970    2.36250   -9999.25   -9999.25   -9999.25   -9999.25   -9999.25   -9999.25    3.61280    1.72440    1.19550  -66.55690
 5907.50000   70.59250    0.20620   10.38340    0.20140   -0.00630    2.46910    2.37290   -9999.25   -9999.25   -9999.25   -9999.25   -9999.25   -9999.25    3.66260    1.70060    1.19550  -67.01230
 5908.00000   71.81360    0.19990   10.39880    0.19930   -0.00320    2.40840    2.38090   -9999.25   -9999.25   -9999.25   -9999.25   -9999.25   -9999.25    3.71300    1.66550    1.18730  -67.01380
