~Version ---------------------------------------------------
VERS.   2.0 : CWLS log ASCII Standard -VERSION 2.0
WRAP.    NO : One line per depth step
DLM . SPACE : Column Data Section Delimiter
~Well ------------------------------------------------------
STRT .F                 2977.0 : START DEPTH
STOP .F                 9110.0 : STOP DEPTH
STEP .F                    0.5 : STEP
NULL .                -9999.25 : NULL VALUE
COMP .                         : COMPANY
WELL .                         : WELL
FLD  .                         : FIELD
LOC  .                         : LOCATION
PROV .                         : PROVINCE
CNTY .                         : COUNTY
STAT .                         : STATE
CTRY .                         : COUNTRY
SRVC .                         : SERVICE COMPANY
DATE .                         : DATE
UWI  .                         : UNIQUE WELL ID
API  .                         : API NUMBER
SLAT .WGS84 3.2384937972768952 : SURFACE LATITUDE
SLON .WGS84   6.18895645037901 : SURFACE LONGITUDE
DATUM.F                2911.17 : DEPTH DATUM ELEV
~Curve Information -----------------------------------------
DEPT.F     : 
GRD .GAPI  : GAMMA RAY FROM DENSITY LOG
TNPH.DEC   : THERMAL NEUTRON POROSITY LIMESTONE
CALD.IN    : CALIPER FROM DENSITY LOG
DPHZ.DEC   : DENSITY POROSITY LIMESTONE
HDRA.G/C3  : DELTA RHO HIP TOOL
PEFZ.B/E   : HILT PHOTOELECTRIC FACTOR
RHOZ.G/C3  : HILT BULK DENSITY
DT4P.US/F  : COMPRESSIONAL-WAVE INTERVAL TRANSIT TIME ACOUSTIC SLOWNESS, P&S MODE
DT4S.US/F  : SHEAR-WAVE INTERVAL TRANSIT TIME ACOUSTIC SLOWNESS, P&S MODE
DTCO.US/F  : COMPRESSIONAL-WAVE INTERVAL TRANSIT TIME ACOUSTIC SLOWNESS
DTRP.US/F  : COMPRESSIONAL-WAVE INTERVAL TRANSIT TIME DELTA-T, RECEIVER ARRAY
DTRS.US/F  : INTERVAL TRANSIT TIME FOR RECEIVER ARRAY
DTSM.US/F  : SHEAR-WAVE INTERVAL TRANSIT TIME DELTA-T
AF10.OHMM  : 10-IN. RESISTIVITY, 4-FT RESOLUTION
AF30.OHMM  : 30-IN. RESISTIVITY, 4-FT RESOLUTION
AF90.OHMM  : 90-IN. RESISTIVITY, 4-FT RESOLUTION
SPR .MV    : SPONTANEOUS POTENTIAL FROM RES.
~Params ----------------------------------------------------
~Other -----------------------------------------------------
~ASCII -----------------------------------------------------
# ...
 6749.00000   85.28120    0.19280    9.70350    0.13000   -0.00170    2.79060    2.49250   -9999.25   -9999.25   -9999.25   -9999.25   -9999.25   -9999.25    3.31250    3.17720    3.26570  -53.21420
 6749.50000   83.93070    0.19340    9.72220    0.12490   -0.00100    2.73020    2.50100   -9999.25   -9999.25   -9999.25   -9999.25   -9999.25   -9999.25    3.09010    3.00540    3.11100  -56.24440
 6750.00000   79.84850    0.19100    9.73580    0.11940   -0.00270    2.66970    2.50830   -9999.25   -9999.25   -9999.25   -9999.25   -9999.25   -9999.25    2.84580    2.81690    2.90270  -57.30710
 6750.50000   78.78730    0.18080    9.74750    0.11850   -0.00480    2.61650    2.50150   -9999.25   -9999.25   -9999.25   -9999.25   -9999.25   -9999.25    2.74210    2.68920    2.68920  -57.63890
 6751.00000   78.16150    0.17170    9.75930    0.12290   -0.00880    2.65620    2.50260   -9999.25   -9999.25   -9999.25   -9999.25   -9999.25   -9999.25    2.65110    2.56150    2.59730  -58.78060
 6751.50000   76.30470    0.15750    9.77100    0.12460   -0.01000    2.72950    2.51240   -9999.25   -9999.25   -9999.25   -9999.25   -9999.25   -9999.25    2.70600    2.52590    2.50850  -60.64020
 6752.00000   70.49260    0.15120    9.78970    0.12220   -0.00930    2.72940    2.52460   -9999.25   -9999.25   -9999.25   -9999.25   -9999.25   -9999.25    2.82020    2.59660    2.61460  -62.45710
 6752.50000   64.89550    0.14510    9.78850    0.11370   -0.00850    2.72920    2.53870   -9999.25   -9999.25   -9999.25   -9999.25   -9999.25   -9999.25    3.04270    2.76330    2.82140  -64.87920
 6753.00000   58.84380    0.14250    9.77040    0.10380   -0.00930    2.74420    2.55570   -9999.25   -9999.25   -9999.25   -9999.25   -9999.25   -9999.25    3.64250    3.02340    3.00250  -65.48580
 6753.50000   54.76190    0.13480    9.75240    0.09600   -0.01230    2.92500    2.57300   -9999.25   -9999.25   -9999.25   -9999.25   -9999.25   -9999.25    4.21200    3.52090    3.40100  -66.09240
 6754.00000   49.92230    0.11760    9.73100    0.08210   -0.01460    3.22650    2.58300   -9999.25   -9999.25   -9999.25   -9999.25   -9999.25   -9999.25    4.64080    3.93330    3.64460  -66.54780
 6754.50000   49.62600    0.09920    9.71620    0.07550   -0.01460    3.52800    2.57460   -9999.25   -9999.25   -9999.25   -9999.25   -9999.25   -9999.25    4.62760    3.82520    3.52000  -66.54920
 6755.00000   51.60690    0.10210    9.69820    0.08060   -0.01380    3.66370    2.52560   -9999.25   -9999.25   -9999.25   -9999.25   -9999.25   -9999.25    3.81920    3.30670    3.28140  -66.39940
 6755.50000   54.34310    0.11660    9.70020    0.10750   -0.01230    3.61820    2.47210   -9999.25   -9999.25   -9999.25   -9999.25   -9999.25   -9999.25    3.16660    2.83490    2.75330  -65.94710
 6756.00000   57.68540    0.13800    9.74780    0.13520   -0.01000    3.39180    2.47560   -9999.25   -9999.25   -9999.25   -9999.25   -9999.25   -9999.25    2.66210    2.44590    2.37540  -65.01550
 6756.50000   63.14890    0.16160    9.79380    0.13890   -0.00990    3.10510    2.47980   -9999.25   -9999.25   -9999.25   -9999.25   -9999.25   -9999.25    2.30090    2.14850    2.09200  -63.63000
 6757.00000   68.61240    0.16850    9.82620    0.13770   -0.01000    2.92400    2.48040   -9999.25   -9999.25   -9999.25   -9999.25   -9999.25   -9999.25    2.16120    2.04860    1.97890  -61.86710
 6757.50000   72.10620    0.16580    9.84510    0.13530   -0.01150    2.72780    2.47630   -9999.25   -9999.25   -9999.25   -9999.25   -9999.25   -9999.25    2.17560    1.99230    1.96490  -60.35580
 6758.00000   73.63210    0.16040    9.86410    0.13560   -0.01080    2.66700    2.46620   -9999.25   -9999.25   -9999.25   -9999.25   -9999.25   -9999.25    2.23620    1.99210    2.00590  -59.44950
 6758.50000   74.57130    0.16310    9.88660    0.13920   -0.00930    2.66710    2.46230   -9999.25   -9999.25   -9999.25   -9999.25   -9999.25   -9999.25    2.25130    2.01970    2.04780  -59.29940
 6759.00000   76.22420    0.17340    9.88700    0.14190   -0.00700    2.66700    2.46330   -9999.25   -9999.25   -9999.25   -9999.25   -9999.25   -9999.25    2.18900    2.07610    2.06180  -59.75510
 6759.50000   75.93210    0.18000    9.90260    0.14430   -0.00320    2.65170    2.46620   -9999.25   -9999.25   -9999.25   -9999.25   -9999.25   -9999.25    2.14340    2.13420    2.09020  -60.51300
 6760.00000   73.97130    0.18300    9.90300    0.14650   -0.00100    2.60630    2.47280   -9999.25   -9999.25   -9999.25   -9999.25   -9999.25   -9999.25    2.15870    2.14880    2.13390  -61.57340
 6760.50000   71.25300    0.17700    9.89340    0.14270   -0.00170    2.59110    2.48090   -9999.25   -9999.25   -9999.25   -9999.25   -9999.25   -9999.25    2.20470    2.19360    2.16340  -62.33140
 6761.00000   70.35060    0.16830    9.88880    0.13530   -0.00480    2.59090    2.48940   -9999.25   -9999.25   -9999.25   -9999.25   -9999.25   -9999.25    2.35970    2.22390    2.20850  -62.33280
 6761.50000   71.42240    0.16160    9.88920    0.12630   -0.00630    2.57570    2.49400   -9999.25   -9999.25   -9999.25   -9999.25   -9999.25   -9999.25    2.59940    2.28600    2.35030  -61.21360
 6762.00000   75.52230    0.16260    9.88970    0.12480   -0.00930    2.69620    2.50000   -9999.25   -9999.25   -9999.25   -9999.25   -9999.25   -9999.25    2.84370    2.66220    2.58990  -58.45690
 6762.50000   83.25850    0.16530    9.89850    0.12360   -0.01080    2.83180    2.50140   -9999.25   -9999.25   -9999.25   -9999.25   -9999.25   -9999.25    2.90280    2.71780    2.64350  -55.83230
 6763.00000   87.50760    0.16530    9.92100    0.12060   -0.01080    2.95230    2.50220   -9999.25   -9999.25   -9999.25   -9999.25   -9999.25   -9999.25    2.84210    2.66150    2.58320  -55.22830
 6763.50000   86.30450    0.16530    9.92140    0.12060   -0.01000    2.95220    2.49260   -9999.25   -9999.25   -9999.25   -9999.25   -9999.25   -9999.25    2.65110    2.53280    2.43180  -58.86100
 6764.00000   81.77020    0.16660    9.93700    0.12630   -0.00840    2.95200    2.47430   -9999.25   -9999.25   -9999.25   -9999.25   -9999.25   -9999.25    2.49010    2.34520    2.30030  -60.67790
 6764.50000   79.96100    0.17440    9.93740    0.14080   -0.00700    2.87650    2.46100   -9999.25   -9999.25   -9999.25   -9999.25   -9999.25   -9999.25    2.37160    2.21910    2.14600  -61.73840
 6765.00000   79.66670    0.18190    9.93790    0.14710   -0.00480    2.74060    2.45320   -9999.25   -9999.25   -9999.25   -9999.25   -9999.25   -9999.25    2.29020    2.08700    2.05830  -62.49630
 6765.50000   79.97890    0.18530    9.93840    0.14990   -0.00170    2.63480    2.45080   -9999.25   -9999.25   -9999.25   -9999.25   -9999.25   -9999.25    2.27370    2.07230    2.00180  -62.80040
 6766.00000   80.91380    0.18770    9.93880    0.15320   -0.00320    2.58940    2.44940   -9999.25   -9999.25   -9999.25   -9999.25   -9999.25   -9999.25    2.34050    2.08650    2.00150  -62.49930
 6766.50000   82.73750    0.18920    9.93920    0.15590   -0.01000    2.65100    2.45470   -9999.25   -9999.25   -9999.25   -9999.25   -9999.25   -9999.25    2.46940    2.13000    2.01520  -62.19820
 6767.00000   83.03600    0.19040    9.93970    0.14960   -0.01000    2.71210    2.46780   -9999.25   -9999.25   -9999.25   -9999.25   -9999.25   -9999.25    2.53810    2.18960    2.11500  -61.73680
 6767.50000   81.38050    0.18950    9.94020    0.13910   -0.00780    2.77000    2.48520   -9999.25   -9999.25   -9999.25   -9999.25   -9999.25   -9999.25    2.62690    2.33020    2.25080  -61.44470
 6768.00000   75.32890    0.18170    9.94060    0.12850   -0.00700    2.78490    2.49810   -9999.25   -9999.25   -9999.25   -9999.25   -9999.25   -9999.25    2.79520    2.47980    2.39540  -61.29490
 6768.50000   70.64090    0.16300    9.93780    0.12370   -0.00630    2.79990    2.50430   -9999.25   -9999.25   -9999.25   -9999.25   -9999.25   -9999.25    2.99500    2.56690    2.51410  -61.75060
 6769.00000   70.19300    0.15970    9.91980    0.11860   -0.00550    2.81480    2.50890   -9999.25   -9999.25   -9999.25   -9999.25   -9999.25   -9999.25    3.29930    2.63870    2.56660  -62.50850
