~Version ---------------------------------------------------
VERS.   2.0 : CWLS log ASCII Standard -VERSION 2.0
WRAP.    NO : One line per depth step
DLM . SPACE : Column Data Section Delimiter
~Well ------------------------------------------------------
STRT .F                 2977.0 : START DEPTH
STOP .F                 9110.0 : STOP DEPTH
STEP .F                    0.5 : STEP
NULL .                -9999.25 : NULL VALUE
COMP .                         : COMPANY
WELL .                         : WELL
FLD  .                         : FIELD
LOC  .                         : LOCATION
PROV .                         : PROVINCE
CNTY .                         : COUNTY
STAT .                         : STATE
CTRY .                         : COUNTRY
SRVC .                         : SERVICE COMPANY
DATE .                         : DATE
UWI  .                         : UNIQUE WELL ID
API  .                         : API NUMBER
SLAT .WGS84 3.2384937972768952 : SURFACE LATITUDE
SLON .WGS84   6.18895645037901 : SURFACE LONGITUDE
DATUM.F                2911.17 : DEPTH DATUM ELEV
~Curve Information -----------------------------------------
DEPT.F     : 
GRD .GAPI  : GAMMA RAY FROM DENSITY LOG
TNPH.DEC   : THERMAL NEUTRON POROSITY LIMESTONE
CALD.IN    : CALIPER FROM DENSITY LOG
DPHZ.DEC   : DENSITY POROSITY LIMESTONE
HDRA.G/C3  : DELTA RHO HIP TOOL
PEFZ.B/E   : HILT PHOTOELECTRIC FACTOR
RHOZ.G/C3  : HILT BULK DENSITY
DT4P.US/F  : COMPRESSIONAL-WAVE INTERVAL TRANSIT TIME ACOUSTIC SLOWNESS, P&S MODE
DT4S.US/F  : SHEAR-WAVE INTERVAL TRANSIT TIME ACOUSTIC SLOWNESS, P&S MODE
DTCO.US/F  : COMPRESSIONAL-WAVE INTERVAL TRANSIT TIME ACOUSTIC SLOWNESS
DTRP.US/F  : COMPRESSIONAL-WAVE INTERVAL TRANSIT TIME DELTA-T, RECEIVER ARRAY
DTRS.US/F  : INTERVAL TRANSIT TIME FOR RECEIVER ARRAY
DTSM.US/F  : SHEAR-WAVE INTERVAL TRANSIT TIME DELTA-T
AF10.OHMM  : 10-IN. RESISTIVITY, 4-FT RESOLUTION
AF30.OHMM  : 30-IN. RESISTIVITY, 4-FT RESOLUTION
AF90.OHMM  : 90-IN. RESISTIVITY, 4-FT RESOLUTION
SPR .MV    : SPONTANEOUS POTENTIAL FROM RES.
~Params ----------------------------------------------------
~Other -----------------------------------------------------
~ASCII -----------------------------------------------------
# ...
 8491.50000   69.96280    0.10700    9.94280    0.01960   -0.00070    4.24360    2.67800   68.22380  123.23240   68.27070   67.81040  128.04350  126.26130   11.26560   11.84790   11.54150  -85.27710
 8492.00000   76.19680    0.10970    9.94670    0.02510    0.00000    4.13510    2.66510   69.91290  128.35580   70.07520   69.62060  132.86490  130.09010    9.87300   10.38300   10.46240  -84.82440
 8492.50000   89.99500    0.12360    9.95830    0.03560    0.00000    4.05960    2.64330   72.68730  132.72620   72.55640   72.33440  134.97350  134.29430    8.89570    9.55190    9.54990  -84.37140
 8493.00000  104.78780    0.14740    9.95840    0.05310    0.00000    3.95380    2.62140   74.83620  135.59060   74.96240   74.45290  136.62990  136.17120    8.35560    8.78730    8.97220  -84.06940
 8493.50000  117.15660    0.17390    9.95860    0.05910   -0.00240    3.92350    2.61090   75.28690  136.64780   75.86470   75.36570  137.08090  137.22220    8.12490    8.48610    8.50580  -84.82890
 8494.00000  117.31760    0.18090    9.97390    0.06060   -0.00770    3.92340    2.60800   75.73750  136.95200   75.63910   75.80710  137.25620  137.37590    8.18050    8.48110    8.63520  -85.28490
 8494.50000  112.96940    0.18180    9.97410    0.05100   -0.00380    3.92320    2.62090   74.53030  135.14770   74.36090   73.85300  134.36470  136.76940    8.41600    8.78240    8.86570  -85.28640
 8495.00000  110.12630    0.18060    9.97420    0.04710    0.01050    3.94070    2.63200   72.26810  131.68680   73.23310   71.89810  130.74600  135.23690    8.77760    9.36230    9.24130  -85.13640
 8495.50000  107.73690    0.17790    9.98950    0.04470    0.02030    4.07370    2.63380   70.00590  130.63320   71.35340   69.94320  128.01970  133.09190    9.21760   10.39550    9.70000  -85.28940
 8496.00000   97.32680    0.16940    9.98970    0.04590    0.01720    4.29980    2.63510   68.79870  128.80740   69.62410   68.59080  127.57800  130.09010    9.78270   11.03310   10.18150  -85.76110
 8496.50000   81.01920    0.14860    9.98980    0.04010   -0.00010    4.31480    2.64710   68.19430  128.08120   68.87220   68.14120  128.86120  128.96400   10.05490   11.03090   10.25180  -86.70900
 8497.00000   74.53380    0.13180    9.99000    0.02270   -0.00090    4.22410    2.66900   69.09720  128.53670   68.64660   68.29550  130.58900  129.71470    9.77730   10.57910    9.90180  -88.17300
 8497.50000   75.93800    0.13120    9.97500    0.02330   -0.00010    4.11840    2.67210   70.30140  129.89510   69.59540   69.65390  132.84830  131.51650    9.31180   10.14580    9.49780  -89.53810
 8498.00000   81.68620    0.14410    9.97510    0.03830    0.00130    4.07300    2.65370   72.11940  131.70530   71.76250   71.46410  135.10750  133.69370    8.93010    9.52990    9.17370  -89.99420
 8498.50000   92.13150    0.16650    9.97530    0.04860    0.00360    3.99740    2.63420   73.49450  135.62390   73.28320   73.57550  136.46250  135.79580    8.62360    9.13960    8.79950  -90.14720
 8499.00000   98.75500    0.17910    9.97540    0.04380    0.01260    3.89170    2.63000   74.39370  137.58470   74.73680   74.48200  137.21460  138.34830    8.27010    8.82630    8.38220  -89.99680
 8499.50000  100.27130    0.18390    9.97560    0.04170    0.01650    3.81610    2.63650   74.96770  138.64190   75.71430   75.08740  138.26810  139.85400    8.04180    8.52370    8.20920  -89.84670
 8500.00000  105.24500    0.18460    9.97580    0.03650    0.00880    3.75560    2.64960   75.87030  139.65990   76.39100   76.44550  140.82870  140.52550    7.87470    8.00640    8.15190  -89.69670
 8500.50000  109.34840    0.18550    9.97640    0.03470   -0.00100    3.66500    2.65110   76.92380  141.06320   77.06770   76.75560  140.97830  142.25230    7.81810    8.06170    8.15140  -89.99860
 8501.00000  114.09230    0.18940    9.97700    0.04230   -0.00700    3.64010    2.63380   77.52510  141.51210   77.36840   77.36560  141.57930  143.45350    7.76250    8.06100    8.09450  -90.45170
 8501.50000  118.52940    0.19870    9.97760    0.04680   -0.00700    3.61940    2.62280   77.97620  141.68230   77.66920   77.82590  141.72890  144.12910    7.81530    8.11670    8.09400  -90.90440
 8502.00000  117.94650    0.20510    9.97820    0.05470   -0.00630    3.60420    2.62020   78.42650  141.81930   78.27070   78.10840  141.57630  144.20420    7.86810    8.17260    8.09340  -91.20630
 8502.50000  111.31220    0.20840    9.97880    0.04830   -0.00550    3.60410    2.63370   78.57570  141.67160   78.57140   78.41140  141.42410  143.82880    7.97590    8.22890    8.09290  -91.65900
 8503.00000  108.30320    0.20990    9.96830    0.04230   -0.00320    3.57370    2.63970   78.72490  141.67530   78.64660   78.56350  140.97050  143.45110    8.02970    8.22820    8.09820  -92.11200
 8503.50000  109.23890    0.20840    9.95780    0.04050   -0.00030    3.55850    2.64130   78.72340  141.82810   78.79700   78.86620  140.36610  142.99650    8.08390    8.22770    8.14810  -92.56510
 8504.00000  112.28690    0.20360    9.94730    0.04060   -0.00100    3.55840    2.64050   78.57120  141.22940   78.63440   78.86770  139.61100  142.44530    8.13840    8.22710    8.26110  -92.86670
 8504.50000  123.65560    0.19760    9.93570    0.04270   -0.00330    3.57330    2.63650   77.95740  139.72640   78.03140   77.36320  138.55450  141.20120    8.37850    8.40230    8.37580  -93.31970
 8505.00000  124.42880    0.19850    9.93630    0.04870   -0.00630    3.60330    2.63150   76.73090  137.01850   75.62390   75.40680  135.94240  135.94600    8.77910    8.76840    8.61070  -93.92420
 8505.50000  119.61550    0.19880    9.90660    0.05110   -0.00790    3.66350    2.62790   74.43570  131.44920   73.29160   72.99870  130.60880  131.14110    9.53850    9.35330    9.16420  -94.86430
 8506.00000  109.95550    0.19160    9.89180    0.05050   -0.00410    3.81470    2.62390   70.57010  124.37390   69.75630   68.78330  123.31590  124.23420   10.80360   10.92990   11.04920  -96.23480
 8506.50000   96.96720    0.15810    9.86220    0.04690    0.00340    4.08980    2.62990   66.34130  119.10580   65.69470   64.86910  116.69450  118.56790   13.48320   14.12640   13.60170  -98.16180
 8507.00000   79.89420    0.13790    9.86280    0.03720    0.00490    4.33440    2.64270   61.38030  112.78350   61.48270   61.25620  110.36300  114.18370   18.93140   18.90200   17.45480  -99.37250
 8507.50000   62.87190    0.10210    9.84830    0.02640   -0.00110    4.54630    2.66220   58.81660  110.52740   59.22550   58.39620  109.30640  111.61570   21.44220   21.26590   21.48720 -100.73460
 8508.00000   51.75350    0.06500    9.83340    0.02130   -0.00410    4.71850    2.67360   58.06150  109.92730   58.54680   57.94550  108.85320  108.79560   22.97740   23.27070   23.83950 -101.18800
 8508.50000   49.70390    0.05740    9.81910    0.01530   -0.00410    4.80890    2.68100   58.51220  110.08160   58.70820   58.24860  110.50920  107.19220   22.49890   25.46460   24.85000  -99.67100
 8509.00000   53.96780    0.05870    9.80450    0.00980   -0.00490    4.71820    2.68800   59.26430  110.53640   59.30700   58.70190  110.95990  108.09310   22.03150   25.64050   24.50620 -100.12410
 8509.50000   65.03400    0.06920    9.79000    0.01290   -0.00560    4.56720    2.69220   59.26280  111.14180   59.74560   59.00460  111.10950  109.14410   21.27680   25.11040   24.85750 -100.88010
 8510.00000   81.84900    0.08520    9.76040    0.01070   -0.00410    4.44640    2.69170   59.26130  111.29540   59.89480   59.30730  111.25870  109.21920   22.07790   25.10870   25.39060 -101.78780
 8510.50000   78.69430    0.07890    9.74580    0.00620   -0.00180    4.41620    2.69770   59.25980  111.14700   59.59220   59.61000  110.50320  108.16820   24.53890   27.09740   25.89760 -102.99840
 8511.00000   67.97540    0.06500    9.71600   -0.00190   -0.00040    4.52160    2.70790   59.10760  110.39770   58.98930   59.15970  110.04960  107.71770   26.36000   28.85030   27.75410 -104.05750
 8511.50000   65.42580    0.06110    9.68610   -0.00340   -0.00190    4.58170    2.71460   58.50320  109.79830   58.38630   58.55870  109.89740  107.71770   26.53790   29.24160   26.99350 -104.96510
