~Version ---------------------------------------------------
VERS.   2.0 : CWLS log ASCII Standard -VERSION 2.0
WRAP.    NO : One line per depth step
DLM . SPACE : Column Data Section Delimiter
~Well ------------------------------------------------------
STRT .F                 2977.0 : START DEPTH
STOP .F                 9110.0 : STOP DEPTH
STEP .F                    0.5 : STEP
NULL .                -9999.25 : NULL VALUE
COMP .                         : COMPANY
WELL .                         : WELL
FLD  .                         : FIELD
LOC  .                         : LOCATION
PROV .                         : PROVINCE
CNTY .                         : COUNTY
STAT .                         : STATE
CTRY .                         : COUNTRY
SRVC .                         : SERVICE COMPANY
DATE .                         : DATE
UWI  .                         : UNIQUE WELL ID
API  .                         : API NUMBER
SLAT .WGS84 3.2384937972768952 : SURFACE LATITUDE
SLON .WGS84   6.18895645037901 : SURFACE LONGITUDE
DATUM.F                2911.17 : DEPTH DATUM ELEV
~Curve Information -----------------------------------------
DEPT.F     : 
GRD .GAPI  : GAMMA RAY FROM DENSITY LOG
TNPH.DEC   : THERMAL NEUTRON POROSITY LIMESTONE
CALD.IN    : CALIPER FROM DENSITY LOG
DPHZ.DEC   : DENSITY POROSITY LIMESTONE
HDRA.G/C3  : DELTA RHO HIP TOOL
PEFZ.B/E   : HILT PHOTOELECTRIC FACTOR
RHOZ.G/C3  : HILT BULK DENSITY
DT4P.US/F  : COMPRESSIONAL-WAVE INTERVAL TRANSIT TIME ACOUSTIC SLOWNESS, P&S MODE
DT4S.US/F  : SHEAR-WAVE INTERVAL TRANSIT TIME ACOUSTIC SLOWNESS, P&S MODE
DTCO.US/F  : COMPRESSIONAL-WAVE INTERVAL TRANSIT TIME ACOUSTIC SLOWNESS
DTRP.US/F  : COMPRESSIONAL-WAVE INTERVAL TRANSIT TIME DELTA-T, RECEIVER ARRAY
DTRS.US/F  : INTERVAL TRANSIT TIME FOR RECEIVER ARRAY
DTSM.US/F  : SHEAR-WAVE INTERVAL TRANSIT TIME DELTA-T
AF10.OHMM  : 10-IN. RESISTIVITY, 4-FT RESOLUTION
AF30.OHMM  : 30-IN. RESISTIVITY, 4-FT RESOLUTION
AF90.OHMM  : 90-IN. RESISTIVITY, 4-FT RESOLUTION
SPR .MV    : SPONTANEOUS POTENTIAL FROM RES.
~Params ----------------------------------------------------
~Other -----------------------------------------------------
~ASCII -----------------------------------------------------
# ...
 7917.50000   99.99610    0.19250    9.11150    0.09950   -0.00580    2.97130    2.53730   -9999.25   -9999.25   -9999.25   -9999.25   -9999.25   -9999.25    7.21070    7.23020    7.22840  -43.63640
 7918.00000   98.72840    0.19010    9.11200    0.10190   -0.00500    3.00150    2.53650   -9999.25   -9999.25   -9999.25   -9999.25   -9999.25   -9999.25    7.01260    7.03140    6.93350  -43.63640
 7918.50000  100.86500    0.20040    9.11240    0.10220   -0.00420    3.04680    2.53730   -9999.25   -9999.25   -9999.25   -9999.25   -9999.25   -9999.25    6.86740    6.93360    6.83760  -43.03030
 7919.00000  105.72090    0.21360    9.11300    0.10190   -0.00350    3.09200    2.53970   -9999.25   -9999.25   -9999.25   -9999.25   -9999.25   -9999.25    6.86650    6.88480    6.83710  -43.05520
 7919.50000  113.60260    0.21880    9.11340    0.10190   -0.00730    3.10710    2.54300   -9999.25   -9999.25   -9999.25   -9999.25   -9999.25   -9999.25    6.96160    6.98000    6.98040  -44.09090
 7920.00000  112.40720    0.21580    9.11390    0.10070   -0.01110    3.10710    2.54860   -9999.25   -9999.25   -9999.25   -9999.25   -9999.25   -9999.25    7.20580    7.12580    7.12640  -45.45450
 7920.50000  103.49610    0.20500    9.11430    0.09890   -0.00960    3.10710    2.56010   -9999.25   -9999.25   -9999.25   -9999.25   -9999.25   -9999.25    7.35640    7.27460    7.17560  -46.81820
 7921.00000   90.04650    0.19530    9.11480    0.09110   -0.00730    3.15230    2.57750   -9999.25   -9999.25   -9999.25   -9999.25   -9999.25   -9999.25    7.40660    7.42650    7.22490  -47.57580
 7921.50000   84.91760    0.18810    9.11520    0.08530   -0.00580    3.19760    2.58550   -9999.25   -9999.25   -9999.25   -9999.25   -9999.25   -9999.25    7.30340    7.37420    7.12500  -47.12120
 7922.00000   85.68890    0.17990    9.11570    0.07810   -0.00210    3.21270    2.58780   -9999.25   -9999.25   -9999.25   -9999.25   -9999.25   -9999.25    7.15220    7.27160    6.97790  -46.06060
 7922.50000   89.03200    0.18090    9.10090    0.07360    0.00550    3.15110    2.58250   -9999.25   -9999.25   -9999.25   -9999.25   -9999.25   -9999.25    7.00400    7.17050    6.87980  -44.69700
 7923.00000   98.30610    0.18720    9.11650    0.07390    0.02210    3.10460    2.57180   -9999.25   -9999.25   -9999.25   -9999.25   -9999.25   -9999.25    6.76270    6.97140    6.73930  -43.48480
 7923.50000  102.37610    0.19080    9.11700    0.08010    0.01980    3.06180    2.56360   -9999.25   -9999.25   -9999.25   -9999.25   -9999.25   -9999.25    6.61940    6.72940    6.59310  -42.72730
 7924.00000  102.84480    0.19390    9.11970    0.08580    0.01220    3.10710    2.56290   -9999.25   -9999.25   -9999.25   -9999.25   -9999.25   -9999.25    6.53240    6.41450    6.37490  -42.57580
 7924.50000  103.31350    0.19760    9.13320    0.08330   -0.00740    3.07690    2.57560   -9999.25   -9999.25   -9999.25   -9999.25   -9999.25   -9999.25    6.62270    6.15220    6.03060  -42.87880
 7925.00000  105.90010    0.20190    9.14880    0.07300   -0.00710    3.07690    2.58850   -9999.25   -9999.25   -9999.25   -9999.25   -9999.25   -9999.25    6.66780    6.10890    5.90620  -43.33330
 7925.50000  116.07550    0.20990    9.14920    0.07150   -0.00290    3.06180    2.58790   -9999.25   -9999.25   -9999.25   -9999.25   -9999.25   -9999.25    6.52950    6.10800    6.07170  -43.78790
 7926.00000  117.42750    0.21990    9.13440    0.07390   -0.00360    3.04680    2.58180   -9999.25   -9999.25   -9999.25   -9999.25   -9999.25   -9999.25    6.43880    6.14990    6.15610  -44.54550
 7926.50000  116.38340    0.22980    9.13490    0.08030   -0.00520    3.03170    2.56900   -9999.25   -9999.25   -9999.25   -9999.25   -9999.25   -9999.25    6.30540    6.23500    6.28510  -45.30300
 7927.00000  116.54950    0.23950    9.12010    0.08660   -0.00520    3.07690    2.54710   -9999.25   -9999.25   -9999.25   -9999.25   -9999.25   -9999.25    6.34860    6.40950    6.41670  -45.45450
 7927.50000  116.87060    0.24620    9.10540    0.09510   -0.00590    3.16740    2.52770   81.76780  144.66870   -9999.25   81.45330  144.48500  143.37170    6.57140    6.63450    6.59650  -45.30300
 7928.00000  118.70090    0.24560    9.10590    0.10620   -0.00890    3.21270    2.52150   81.61250  144.66870   -9999.25   81.44550  144.32510  143.37360    6.89710    6.86770    6.82860  -45.15150
 7928.50000  124.16200    0.24040    9.09120    0.10860   -0.01050    3.27300    2.52380   81.60870  144.66870   -9999.25   81.13690  144.16690  143.37540    7.13930    7.15850    7.06890  -45.00000
 7929.00000  126.14350    0.22990    9.07650    0.10830   -0.00970    3.28810    2.53430   81.45430  144.51810   -9999.25   80.82820  144.00880  143.37720    7.39000    7.35890    7.31760  -45.15150
 7929.50000  123.88910    0.21960    9.06170    0.10190   -0.00600    3.22780    2.54730   81.60130  144.51810   -9999.25   80.97130  144.00140  143.37910    7.70270    7.61750    7.62780  -45.45450
 7930.00000  120.57560    0.21290    9.04700    0.09770   -0.00220    3.10710    2.55010   81.59760  144.51810   -9999.25   81.11450  143.99400  143.38090    8.14840    7.94380    7.95110  -46.66670
 7930.50000  114.84160    0.20710    9.03230    0.09630   -0.00370    3.00150    2.53730   81.74460  144.51810   -9999.25   80.95630  143.98640  143.38280    8.55270    8.35840    8.34580  -48.05580
 7931.00000  105.32540    0.19880    9.00240    0.10200   -0.00610    2.91100    2.53500   81.59000  144.36750   -9999.25   80.94880  143.97890  143.38470    9.02980    8.86920    8.46170  -50.07610
 7931.50000   91.42440    0.18590    8.98760    0.10320   -0.00900    2.83560    2.53420   81.58630  144.21690   -9999.25   80.79090  143.96990  143.38690    9.09160    9.05450    8.39600  -51.51520
 7932.00000   89.46880    0.17710    8.98820    0.10390   -0.01350    2.85070    2.53200   81.58180  144.06630   -9999.25   80.93400  143.96250  143.38870    8.78050    8.92850    8.28640  -51.81820
 7932.50000   94.47980    0.17620    8.98860    0.10570   -0.01500    2.91100    2.52790   81.42730  144.21690   -9999.25   81.07710  144.10760  143.39060    8.48030    8.56340    8.11520  -51.06060
 7933.00000  101.75760    0.18980    9.00430    0.10780   -0.00910    2.98640    2.52150   81.42360  144.36750   80.34560   81.06780  144.25090  143.39240    8.19040    8.27040    7.94770  -49.69700
 7933.50000  106.76490    0.20250    9.00470    0.10990   -0.00450    3.07690    2.52000   81.57150  144.51810   80.34560   80.90970  144.24170  143.31890    7.96530    8.09900    7.62350  -48.78790
 7934.00000  112.52850    0.22910    9.00530    0.11350   -0.00450    3.12220    2.52670   81.56690  144.51810   80.34560   81.05470  144.08350  143.32100    7.80040    7.82190    7.57030  -48.33330
 7934.50000  114.05250    0.23510    9.02080    0.10960   -0.00450    3.15360    2.54180   81.56320  144.51810   80.34560   81.19780  144.07610  143.32280    7.85360    7.65980    7.56980  -48.03030
 7935.00000  113.01210    0.23510    9.02130    0.10450   -0.00430    3.16740    2.55550   81.55940  144.21690   80.27050   80.88730  143.61660  143.32460    8.53350    7.71210    7.72830  -47.87880
 7935.50000  112.11550    0.23200    9.03700    0.08790    0.02340    3.13730    2.55450   81.40500  144.06630   80.27050   80.57860  142.40340  143.32650    9.27220    8.20770    8.00030  -47.72730
 7936.00000  112.28530    0.22450    9.02210    0.08830    0.02410    3.09200    2.54190   80.79840  143.61450   80.27050   80.27000  141.03960  143.40350    9.86760    8.91880    8.69340  -47.57580
 7936.50000  113.81300    0.22730    9.02270    0.09730    0.01660    3.07690    2.52330   80.49330  141.95780   80.27050   80.26250  139.82640  143.41160    9.86490    9.55930    8.87550  -47.24740
 7937.00000  115.94580    0.23370    9.02310    0.11630    0.00220    3.09200    2.50640   80.33880  141.20480   80.49590   80.70680  140.42190  143.64520    9.38590    9.69020    8.75270  -45.68150
 7937.50000  116.56580    0.23790    9.02360    0.11960   -0.00830    3.10710    2.49510   80.93800  141.18630   80.79640   81.00060  144.33310  144.01050    8.88970    9.15530    8.63160  -44.24240
