~Version ---------------------------------------------------
VERS.   2.0 : CWLS log ASCII Standard -VERSION 2.0
WRAP.    NO : One line per depth step
DLM . SPACE : Column Data Section Delimiter
~Well ------------------------------------------------------
STRT .F                 2977.0 : START DEPTH
STOP .F                 9110.0 : STOP DEPTH
STEP .F                    0.5 : STEP
NULL .                -9999.25 : NULL VALUE
COMP .                         : COMPANY
WELL .                         : WELL
FLD  .                         : FIELD
LOC  .                         : LOCATION
PROV .                         : PROVINCE
CNTY .                         : COUNTY
STAT .                         : STATE
CTRY .                         : COUNTRY
SRVC .                         : SERVICE COMPANY
DATE .                         : DATE
UWI  .                         : UNIQUE WELL ID
API  .                         : API NUMBER
SLAT .WGS84 3.2384937972768952 : SURFACE LATITUDE
SLON .WGS84   6.18895645037901 : SURFACE LONGITUDE
DATUM.F                2911.17 : DEPTH DATUM ELEV
~Curve Information -----------------------------------------
DEPT.F     : 
GRD .GAPI  : GAMMA RAY FROM DENSITY LOG
TNPH.DEC   : THERMAL NEUTRON POROSITY LIMESTONE
CALD.IN    : CALIPER FROM DENSITY LOG
DPHZ.DEC   : DENSITY POROSITY LIMESTONE
HDRA.G/C3  : DELTA RHO HIP TOOL
PEFZ.B/E   : HILT PHOTOELECTRIC FACTOR
RHOZ.G/C3  : HILT BULK DENSITY
DT4P.US/F  : COMPRESSIONAL-WAVE INTERVAL TRANSIT TIME ACOUSTIC SLOWNESS, P&S MODE
DT4S.US/F  : SHEAR-WAVE INTERVAL TRANSIT TIME ACOUSTIC SLOWNESS, P&S MODE
DTCO.US/F  : COMPRESSIONAL-WAVE INTERVAL TRANSIT TIME ACOUSTIC SLOWNESS
DTRP.US/F  : COMPRESSIONAL-WAVE INTERVAL TRANSIT TIME DELTA-T, RECEIVER ARRAY
DTRS.US/F  : INTERVAL TRANSIT TIME FOR RECEIVER ARRAY
DTSM.US/F  : SHEAR-WAVE INTERVAL TRANSIT TIME DELTA-T
AF10.OHMM  : 10-IN. RESISTIVITY, 4-FT RESOLUTION
AF30.OHMM  : 30-IN. RESISTIVITY, 4-FT RESOLUTION
AF90.OHMM  : 90-IN. RESISTIVITY, 4-FT RESOLUTION
SPR .MV    : SPONTANEOUS POTENTIAL FROM RES.
~Params ----------------------------------------------------
~Other -----------------------------------------------------
~ASCII -----------------------------------------------------
# ...
 7343.50000   90.23930    0.18230    9.74610    0.11600   -0.01800    2.80920    2.51200   -9999.25   -9999.25   -9999.25   -9999.25   -9999.25   -9999.25    2.99510    3.16960    3.01320  -57.85930
 7344.00000   89.62330    0.18410    9.74630    0.11420   -0.00770    2.90100    2.51440   -9999.25   -9999.25   -9999.25   -9999.25   -9999.25   -9999.25    3.12140    3.19100    3.03350  -56.95170
 7344.50000   86.75630    0.18500    9.74650    0.11490   -0.00540    2.99270    2.51540   -9999.25   -9999.25   -9999.25   -9999.25   -9999.25   -9999.25    3.20820    3.19030    3.07620  -56.49820
 7345.00000   83.73800    0.18500    9.73140    0.11370   -0.01070    3.06330    2.51930   -9999.25   -9999.25   -9999.25   -9999.25   -9999.25   -9999.25    3.22970    3.21330    3.14130  -57.25760
 7345.50000   80.11460    0.18320    9.71640    0.10850   -0.01070    3.07830    2.53620   -9999.25   -9999.25   -9999.25   -9999.25   -9999.25   -9999.25    3.29950    3.30440    3.23020  -58.31970
 7346.00000   76.64240    0.17080    9.70140    0.09890   -0.00920    3.07810    2.56100   -9999.25   -9999.25   -9999.25   -9999.25   -9999.25   -9999.25    3.41500    3.42170    3.33970  -59.68490
 7346.50000   70.90100    0.15330    9.64080    0.08410   -0.00770    3.06290    2.58220   -9999.25   -9999.25   -9999.25   -9999.25   -9999.25   -9999.25    3.55560    3.53700    3.48080  -59.05310
 7347.00000   65.91600    0.13760    9.59550    0.07210   -0.00620    3.06270    2.59450   -9999.25   -9999.25   -9999.25   -9999.25   -9999.25   -9999.25    3.67990    3.63570    3.67850  -57.21900
 7347.50000   62.03980    0.13150    9.55010    0.06580   -0.00470    3.06260    2.60100   -9999.25   -9999.25   -9999.25   -9999.25   -9999.25   -9999.25    3.83510    3.73720    3.70350  -55.90180
 7348.00000   61.84430    0.12850    9.53500    0.06520   -0.00400    3.04740    2.59800   -9999.25   -9999.25   -9999.25   -9999.25   -9999.25   -9999.25    3.83410    3.81520    3.65150  -53.63060
 7348.50000   67.29990    0.13090    9.53520    0.06740   -0.00700    3.09250    2.59010   -9999.25   -9999.25   -9999.25   -9999.25   -9999.25   -9999.25    3.65150    3.63350    3.50210  -51.51080
 7349.00000   73.81270    0.13460    9.55050    0.07210   -0.00780    3.12250    2.58730   -9999.25   -9999.25   -9999.25   -9999.25   -9999.25   -9999.25    3.42980    3.43670    3.33560  -50.90620
 7349.50000   76.84580    0.14480    9.58100    0.07270   -0.00400    3.09210    2.57840   -9999.25   -9999.25   -9999.25   -9999.25   -9999.25   -9999.25    3.15520    3.20580    3.09010  -50.60430
 7350.00000   79.12450    0.15990    9.61150    0.07330   -0.00020    3.03170    2.55850   -9999.25   -9999.25   -9999.25   -9999.25   -9999.25   -9999.25    2.88260    2.99030    2.88270  -51.21210
 7350.50000   80.80060    0.16430    9.63550    0.09200    0.00510    2.95610    2.52710   -9999.25   -9999.25   -9999.25   -9999.25   -9999.25   -9999.25    2.63350    2.71310    2.54090  -51.53680
 7351.00000   85.19990    0.16750    9.65950    0.10860   -0.00020    2.84950    2.51170   -9999.25   -9999.25   -9999.25   -9999.25   -9999.25   -9999.25    2.40600    2.46150    2.32280  -52.46650
 7351.50000   84.90930    0.16990    9.68350    0.11580   -0.00700    2.72910    2.50620   -9999.25   -9999.25   -9999.25   -9999.25   -9999.25   -9999.25    2.21340    2.21790    2.15420  -53.78790
 7352.00000   83.86220    0.17140    9.70640    0.11710   -0.01080    2.62320    2.49920   -9999.25   -9999.25   -9999.25   -9999.25   -9999.25   -9999.25    2.07900    2.08320    2.06630  -55.00000
 7352.50000   82.51260    0.17200    9.70730    0.12490   -0.01080    2.59270    2.49170   -9999.25   -9999.25   -9999.25   -9999.25   -9999.25   -9999.25    1.99380    2.02580    1.96840  -56.51520
 7353.00000   80.55780    0.16930    9.72340    0.12790   -0.01000    2.56230    2.49170   -9999.25   -9999.25   -9999.25   -9999.25   -9999.25   -9999.25    1.99320    2.01140    2.00960  -57.87880
 7353.50000   77.69540    0.16180    9.73940    0.12850   -0.00850    2.56200    2.49170   -9999.25   -9999.25   -9999.25   -9999.25   -9999.25   -9999.25    2.03450    2.02620    2.03750  -58.03030
 7354.00000   73.32000    0.16720    9.75550    0.12730   -0.00700    2.56170    2.49040   -9999.25   -9999.25   -9999.25   -9999.25   -9999.25   -9999.25    2.09100    2.06830    2.08020  -57.27270
 7354.50000   72.57250    0.16960    9.75640    0.12820   -0.00400    2.57650    2.48870   -9999.25   -9999.25   -9999.25   -9999.25   -9999.25   -9999.25    2.10510    2.09690    2.13850  -56.66670
 7355.00000   73.79780    0.16930    9.77250    0.12940   -0.00320    2.60640    2.48950   -9999.25   -9999.25   -9999.25   -9999.25   -9999.25   -9999.25    2.14860    2.14060    2.16820  -56.66670
 7355.50000   73.96100    0.16810    9.77340    0.13010   -0.00400    2.65130    2.49640   -9999.25   -9999.25   -9999.25   -9999.25   -9999.25   -9999.25    2.19320    2.20050    2.21360  -56.81820
 7356.00000   74.12430    0.16720    9.75890    0.12570   -0.00640    2.65100    2.50300   -9999.25   -9999.25   -9999.25   -9999.25   -9999.25   -9999.25    2.28570    2.26210    2.27560  -56.81820
 7356.50000   74.59010    0.16750    9.76000    0.12040   -0.00780    2.65010    2.50580   -9999.25   -9999.25   -9999.25   -9999.25   -9999.25   -9999.25    2.41530    2.34160    2.38860  -56.51520
 7357.00000   75.98770    0.17180    9.76090    0.11920   -0.00630    2.62020    2.51160   -9999.25   -9999.25   -9999.25   -9999.25   -9999.25   -9999.25    2.55230    2.44080    2.54210  -55.00000
 7357.50000   80.84910    0.18270    9.76180    0.11830   -0.00550    2.63500    2.52480   -9999.25   -9999.25   -9999.25   -9999.25   -9999.25   -9999.25    2.79220    2.65230    2.74830  -53.30440
 7358.00000   85.57990    0.20490    9.76270    0.10510   -0.00480    2.63460    2.53950   -9999.25   -9999.25   -9999.25   -9999.25   -9999.25   -9999.25    3.14040    2.94260    2.98850  -51.44300
 7358.50000   87.43040    0.21340    9.76360    0.09210   -0.00400    2.61930    2.55490   -9999.25   -9999.25   -9999.25   -9999.25   -9999.25   -9999.25    3.36490    3.17550    3.30730  -49.24240
 7359.00000   89.93270    0.21160    9.76450    0.08970   -0.00400    2.63400    2.55300   -9999.25   -9999.25   -9999.25   -9999.25   -9999.25   -9999.25    3.34070    3.33300    3.26160  -46.96970
 7359.50000   95.08840    0.20680    9.78060    0.09790   -0.00400    2.69410    2.53830   -9999.25   -9999.25   -9999.25   -9999.25   -9999.25   -9999.25    3.20380    3.24000    3.10690  -46.81820
 7360.00000   98.88250    0.18750    9.78150    0.11050   -0.00480    2.75410    2.51730   -9999.25   -9999.25   -9999.25   -9999.25   -9999.25   -9999.25    3.05120    3.08450    2.98020  -49.09090
 7360.50000   97.68410    0.17480    9.79780    0.11500   -0.00630    2.75380    2.51420   -9999.25   -9999.25   -9999.25   -9999.25   -9999.25   -9999.25    2.91660    2.92020    2.85860  -51.51520
 7361.00000   96.18320    0.17030    9.79870    0.11410   -0.00850    2.75350    2.51340   -9999.25   -9999.25   -9999.25   -9999.25   -9999.25   -9999.25    2.79400    2.80080    2.72300  -51.96970
 7361.50000   96.34650    0.16570    9.81470    0.11660   -0.01000    2.75320    2.51100   -9999.25   -9999.25   -9999.25   -9999.25   -9999.25   -9999.25    2.69540    2.68630    2.68540  -51.51520
 7362.00000   95.45070    0.16240    9.81560    0.11840   -0.01080    2.75290    2.50940   -9999.25   -9999.25   -9999.25   -9999.25   -9999.25   -9999.25    2.65770    2.63060    2.62990  -51.36360
 7362.50000   90.92410    0.15880    9.81650    0.11840   -0.01150    2.75260    2.50780   -9999.25   -9999.25   -9999.25   -9999.25   -9999.25   -9999.25    2.63880    2.63030    2.64800  -51.96970
 7363.00000   83.52300    0.15550    9.81730    0.11590   -0.01240    2.76860    2.50990   -9999.25   -9999.25   -9999.25   -9999.25   -9999.25   -9999.25    2.69370    2.83840    2.79880  -53.78790
 7363.50000   75.51680    0.15250    9.80310    0.10860   -0.01300    2.86500    2.52610   -9999.25   -9999.25   -9999.25   -9999.25   -9999.25   -9999.25    2.98820    3.06300    2.97870  -55.45450
