~Version ---------------------------------------------------
VERS.   2.0 : CWLS log ASCII Standard -VERSION 2.0
WRAP.    NO : One line per depth step
DLM . SPACE : Column Data Section Delimiter
~Well ------------------------------------------------------
STRT .F                 2977.0 : START DEPTH
STOP .F                 9110.0 : STOP DEPTH
STEP .F                    0.5 : STEP
NULL .                -9999.25 : NULL VALUE
COMP .                         : COMPANY
WELL .                         : WELL
FLD  .                         : FIELD
LOC  .                         : LOCATION
PROV .                         : PROVINCE
CNTY .                         : COUNTY
STAT .                         : STATE
CTRY .                         : COUNTRY
SRVC .                         : SERVICE COMPANY
DATE .                         : DATE
UWI  .                         : UNIQUE WELL ID
API  .                         : API NUMBER
SLAT .WGS84 3.2384937972768952 : SURFACE LATITUDE
SLON .WGS84   6.18895645037901 : SURFACE LONGITUDE
DATUM.F                2911.17 : DEPTH DATUM ELEV
~Curve Information -----------------------------------------
DEPT.F     : 
GRD .GAPI  : GAMMA RAY FROM DENSITY LOG
TNPH.DEC   : THERMAL NEUTRON POROSITY LIMESTONE
CALD.IN    : CALIPER FROM DENSITY LOG
DPHZ.DEC   : DENSITY POROSITY LIMESTONE
HDRA.G/C3  : DELTA RHO HIP TOOL
PEFZ.B/E   : HILT PHOTOELECTRIC FACTOR
RHOZ.G/C3  : HILT BULK DENSITY
DT4P.US/F  : COMPRESSIONAL-WAVE INTERVAL TRANSIT TIME ACOUSTIC SLOWNESS, P&S MODE
DT4S.US/F  : SHEAR-WAVE INTERVAL TRANSIT TIME ACOUSTIC SLOWNESS, P&S MODE
DTCO.US/F  : COMPRESSIONAL-WAVE INTERVAL TRANSIT TIME ACOUSTIC SLOWNESS
DTRP.US/F  : COMPRESSIONAL-WAVE INTERVAL TRANSIT TIME DELTA-T, RECEIVER ARRAY
DTRS.US/F  : INTERVAL TRANSIT TIME FOR RECEIVER ARRAY
DTSM.US/F  : SHEAR-WAVE INTERVAL TRANSIT TIME DELTA-T
AF10.OHMM  : 10-IN. RESISTIVITY, 4-FT RESOLUTION
AF30.OHMM  : 30-IN. RESISTIVITY, 4-FT RESOLUTION
AF90.OHMM  : 90-IN. RESISTIVITY, 4-FT RESOLUTION
SPR .MV    : SPONTANEOUS POTENTIAL FROM RES.
~Params ----------------------------------------------------
~Other -----------------------------------------------------
~ASCII -----------------------------------------------------
# ...
 7630.50000  102.64430    0.20010    8.95640    0.07200    0.00140    3.53350    2.59890   -9999.25   -9999.25   -9999.25   -9999.25   -9999.25   -9999.25   19.14100   17.38260   18.56780  -72.51670
 7631.00000   79.41760    0.16030    8.95690    0.04800    0.00370    3.76160    2.62900   -9999.25   -9999.25   -9999.25   -9999.25   -9999.25   -9999.25   22.28910   19.28580   20.31560  -71.76070
 7631.50000   74.44910    0.15850    8.94220    0.04280    0.00450    3.81600    2.63960   -9999.25   -9999.25   -9999.25   -9999.25   -9999.25   -9999.25   23.23190   20.66800   20.03320  -71.00460
 7632.00000   79.01160    0.18030    8.94270    0.08560    0.00300    3.77070    2.57230   -9999.25   -9999.25   -9999.25   -9999.25   -9999.25   -9999.25   21.97330   20.52240   19.48280  -70.09700
 7632.50000   95.22170    0.21190    8.94320    0.12810   -0.00230    3.65010    2.47990   -9999.25   -9999.25   -9999.25   -9999.25   -9999.25   -9999.25   19.79980   19.68320   19.07930  -68.88640
 7633.00000  110.91390    0.23580    8.92830    0.15970   -0.01360    3.52940    2.42930   -9999.25   -9999.25   -9999.25   -9999.25   -9999.25   -9999.25   17.96530   18.23490   18.15650  -67.67580
 7633.50000  122.35390    0.25570    8.91370    0.16550   -0.01130    3.28810    2.43120   -9999.25   -9999.25   -9999.25   -9999.25   -9999.25   -9999.25   16.18820   16.09270   16.76170  -66.61310
 7634.00000  126.23320    0.27200    8.89900    0.16150   -0.00820    3.21270    2.43460   -9999.25   -9999.25   -9999.25   -9999.25   -9999.25   -9999.25   14.79050   14.40040   14.75740  -65.07970
 7634.50000  129.20890    0.27720    8.89940    0.16310   -0.00590    3.09200    2.43300   -9999.25   -9999.25   -9999.25   -9999.25   -9999.25   -9999.25   14.48320   13.90770   13.76740  -63.54810
 7635.00000  134.22530    0.27930    8.88460    0.16520   -0.00780    2.98640    2.42870   -9999.25   -9999.25   -9999.25   -9999.25   -9999.25   -9999.25   14.48020   14.19820   14.05470  -62.37870
 7635.50000  146.20080    0.28170    8.88520    0.16580   -0.01200    2.91100    2.41950   -9999.25   -9999.25   -9999.25   -9999.25   -9999.25   -9999.25   15.51550   15.00620   14.85390  -62.38030
 7636.00000  157.41990    0.28590    8.88560    0.17150   -0.00590    2.88080    2.39910   -9999.25   -9999.25   -9999.25   -9999.25   -9999.25   -9999.25   16.85750   15.97940   15.91770  -62.23020
 7636.50000  171.36210    0.30800    8.88610    0.18240   -0.00440    2.97130    2.38410   -9999.25   -9999.25   -9999.25   -9999.25   -9999.25   -9999.25   18.06360   17.15380   16.59130  -62.08020
 7637.00000  175.31950    0.33370    8.88650    0.19110   -0.00510    3.00150    2.39230   -9999.25   -9999.25   -9999.25   -9999.25   -9999.25   -9999.25   18.56850   18.21500   17.29330  -61.77870
 7637.50000  168.23300    0.34310    8.88700    0.18840   -0.00440    3.00150    2.39640   -9999.25   -9999.25   -9999.25   -9999.25   -9999.25   -9999.25   18.43550   18.21190   17.29100  -61.47710
 7638.00000  159.63360    0.33400    8.87220    0.18360   -0.00360    3.00250    2.39420   -9999.25   -9999.25   -9999.25   -9999.25   -9999.25   -9999.25   17.92790   17.71120   17.16920  -61.32710
 7638.50000  157.98740    0.33590    8.87270    0.18290   -0.00430    3.04680    2.37650   -9999.25   -9999.25   -9999.25   -9999.25   -9999.25   -9999.25   17.19420   17.22430   16.93060  -61.17710
 7639.00000  159.98400    0.34510    8.85800    0.19960   -0.00730    3.09200    2.36950   -9999.25   -9999.25   -9999.25   -9999.25   -9999.25   -9999.25   16.37660   16.63500   16.58000  -61.17900
 7639.50000  159.70540    0.33130    8.86060    0.20080   -0.00580    3.10710    2.37570   -9999.25   -9999.25   -9999.25   -9999.25   -9999.25   -9999.25   15.81560   16.17760   16.12450  -61.18050
 7640.00000  157.61130    0.29990    8.87410    0.19350   -0.00350    3.13730    2.40540   -9999.25   -9999.25   -9999.25   -9999.25   -9999.25   -9999.25   15.48710   15.95260   15.25270  -61.18200
 7640.50000  147.49910    0.28660    8.87460    0.18120   -0.00280    3.18250    2.42720   -9999.25   -9999.25   -9999.25   -9999.25   -9999.25   -9999.25   15.82760   15.73120   15.80320  -61.18350
 7641.00000  142.68180    0.26250    8.89020    0.16660   -0.00950    3.34840    2.43070   -9999.25   -9999.25   -9999.25   -9999.25   -9999.25   -9999.25   16.88220   16.74160   16.58600  -61.03350
 7641.50000  139.68000    0.26580    8.89070    0.16400   -0.01030    3.39370    2.43470   -9999.25   -9999.25   -9999.25   -9999.25   -9999.25   -9999.25   18.79120   18.19210   17.63440  -60.88350
 7642.00000  136.37570    0.26640    8.89110    0.16400   -0.00880    3.43890    2.44460   -9999.25   -9999.25   -9999.25   -9999.25   -9999.25   -9999.25   20.99050   19.63160   19.56360  -59.06680
 7642.50000  128.68400    0.26340    8.89160    0.15380   -0.00800    3.52940    2.46170   -9999.25   -9999.25   -9999.25   -9999.25   -9999.25   -9999.25   23.93980   22.70650   23.42300  -57.25010
 7643.00000  115.30690    0.23600    8.89200    0.11910   -0.00720    3.65010    2.49460   -9999.25   -9999.25   -9999.25   -9999.25   -9999.25   -9999.25   26.92770   26.65600   27.27720  -55.88800
 7643.50000   93.94300    0.19990    8.90760    0.06880   -0.00490    3.86120    2.59270   -9999.25   -9999.25   -9999.25   -9999.25   -9999.25   -9999.25   32.01510   31.72790   30.47170  -54.67730
 7644.00000   66.83560    0.12190    8.90810    0.03380    0.00120    4.29860    2.66780   -9999.25   -9999.25   -9999.25   -9999.25   -9999.25   -9999.25   33.36930   33.46930   32.88210  -53.76980
 7644.50000   37.09000    0.05840    8.90850    0.00250    0.00720    4.70590    2.70590   -9999.25   -9999.25   -9999.25   -9999.25   -9999.25   -9999.25   26.35750   30.15730   27.26600  -52.71060
 7645.00000   36.21670    0.05480    8.90900   -0.00210    0.01020    4.66060    2.71630   -9999.25   -9999.25   -9999.25   -9999.25   -9999.25   -9999.25   21.85500   24.31980   22.29870  -51.95460
 7645.50000   50.01360    0.06570    8.90940    0.00070    0.00790    4.41320    2.68960   -9999.25   -9999.25   -9999.25   -9999.25   -9999.25   -9999.25   19.15480   20.30420   19.14270  -51.19850
 7646.00000   67.28410    0.10100    8.92510    0.02360    0.00640    3.80170    2.61280   -9999.25   -9999.25   -9999.25   -9999.25   -9999.25   -9999.25   16.90490   17.79500   17.49110  -50.13400
 7646.50000  100.58900    0.18190    8.92550    0.07330    0.01020    3.31830    2.49260   -9999.25   -9999.25   -9999.25   -9999.25   -9999.25   -9999.25   15.31220   16.14620   16.20510  -48.29160
 7647.00000  111.95930    0.24830    8.92590    0.13150    0.01100    3.09200    2.42170   -9999.25   -9999.25   -9999.25   -9999.25   -9999.25   -9999.25   14.37490   14.95820   15.11800  -45.85870
 7647.50000  133.16330    0.29540    8.94160    0.18480    0.00050    3.07690    2.37870   -9999.25   -9999.25   -9999.25   -9999.25   -9999.25   -9999.25   13.62770   14.24740   14.00640  -44.82060
 7648.00000  139.08740    0.29940    8.94200    0.19690   -0.00630    3.07690    2.37490   -9999.25   -9999.25   -9999.25   -9999.25   -9999.25   -9999.25   13.34460   13.75990   13.52160  -44.36160
 7648.50000  140.21230    0.29240    8.95770    0.19540   -0.00780    3.06180    2.37880   -9999.25   -9999.25   -9999.25   -9999.25   -9999.25   -9999.25   13.34180   13.56850   13.63250  -43.63210
 7649.00000  138.98390    0.29240    8.95820    0.19450   -0.01010    3.06180    2.37270   -9999.25   -9999.25   -9999.25   -9999.25   -9999.25   -9999.25   14.09960   13.94830   14.00020  -43.17910
 7649.50000  138.70500    0.29310    8.95870    0.19630   -0.01230    3.07690    2.37060   -9999.25   -9999.25   -9999.25   -9999.25   -9999.25   -9999.25   15.31910   14.33870   14.39180  -42.72600
 7650.00000  140.24210    0.29280    8.95910    0.19930   -0.00860    3.12220    2.36960   -9999.25   -9999.25   -9999.25   -9999.25   -9999.25   -9999.25   15.42330   14.53700   14.69240  -42.27260
 7650.50000  146.03770    0.29030    8.96090    0.20010   -0.00420    3.19760    2.37100   -9999.25   -9999.25   -9999.25   -9999.25   -9999.25   -9999.25   14.79140   14.73840   14.28970  -42.58030
