~Version ---------------------------------------------------
VERS.   2.0 : CWLS log ASCII Standard -VERSION 2.0
WRAP.    NO : One line per depth step
DLM . SPACE : Column Data Section Delimiter
~Well ------------------------------------------------------
STRT .FT                8824.0 : START DEPTH
STOP .FT               14284.0 : STOP DEPTH
STEP .FT                   0.5 : STEP
NULL .                -9999.25 : NULL VALUE
COMP .                         : COMPANY
WELL .                         : WELL
FLD  .                         : FIELD
LOC  .                         : LOCATION
PROV .                         : PROVINCE
CNTY .                         : COUNTY
STAT .                         : STATE
CTRY .                         : COUNTRY
SRVC .                         : SERVICE COMPANY
DATE .                         : DATE
UWI  .                         : UNIQUE WELL ID
API  .                         : API NUMBER
SLAT .WGS84  6.408765936937996 : SURFACE LATITUDE
SLON .WGS84 3.6245272197060956 : SURFACE LONGITUDE
DATUM.F                    nan : DEPTH DATUM ELEV
~Curve Information -----------------------------------------
DEPT   .FT    : 
DPHZ_LS.DEC   : HGRD STANDARD RESOLUTION DENSITY POROSITY
DTCO   .US/F  : DELTA-T COMPRESSIONAL
DTSM   .US/F  : DELTA-T SHEAR
ECGRR  .GAPI  : ENVIRONMENTALLY CORRECTED GAMMA RAY FROM RESISTIVITY LOG
HCALR  .IN    : HRCC CALIPER CALIBRATED FROM RESISTIVITY LOG
PEFZ   .B/E   : HRDD STANDARD RESOLUTION FORMATION PHOTOELECTRIC FACTOR
RLA1   .OHMM  : APPARENT RESISTIVITY FROM COMPUTED FOCUSING MODE 1
RLA3   .OHMM  : APPARENT RESISTIVITY FROM COMPUTED FOCUSING MODE 3
RLA5   .OHMM  : APPARENT RESISTIVITY FROM COMPUTED FOCUSING MODE 5
TNPH_LS.DEC   : THERMAL NEUTRON POROSITY [LIMESTONE]
~Params ----------------------------------------------------
~Other -----------------------------------------------------
~ASCII -----------------------------------------------------
# ...
 12811.00000    0.02160   50.17770   67.17810   25.13820    8.76440    6.94890  359.13650 1003.77050 1340.49870    0.01290
 12811.50000    0.02220   50.94610   67.36520   25.31040    8.52940    6.87900  362.67010 1003.77050 1389.32850    0.01340
 12812.00000    0.00950   52.09070   67.55220   25.27770    8.57140    6.81040  366.00680  991.10980 1438.15830    0.01310
 12812.50000   -0.00310   52.34620   67.62270   25.76480    8.65800    6.39200  367.30120  968.98120 1486.98800    0.01200
 12813.00000   -0.00460   51.89380   67.29730   26.18440    8.69790    5.97360  348.02030  943.32280 1516.56020    0.01100
 12813.50000    0.00950   51.15230   66.63940   24.55750    8.72610    5.69840  324.12970  900.92120 1116.32120    0.00990
 12814.00000    0.01890   50.41090   66.22850   23.12620    8.75430    5.65890  323.95630  901.11170 1110.01000    0.00880
 12814.50000    0.02270   50.41460   66.32180   20.96530    8.78250    5.78690  319.94380  936.13200 1134.82100    0.00880
 12815.00000    0.02640   50.37240   66.41500   20.59580    8.83440    5.95650  312.45890  980.85410 1159.66720    0.00840
 12815.50000    0.02270   50.29750   66.50830   24.46170    8.92190    6.31880  303.79400 1017.18290 1249.09560    0.00770
 12816.00000    0.01750   50.22260   66.60150   26.92140    9.00930    6.51980  294.95270 1017.57490 1342.84260    0.00670
 12816.50000    0.01230   50.14770   66.69480   28.79420    9.07930    6.60990  281.67270 1020.85370 1383.18980    0.00530
 12817.00000    0.00700   50.07280   66.83320   28.32550    9.05360    6.70010  268.39270 1004.75040 1396.29450    0.00340
 12817.50000    0.00180   49.99780   66.98300   27.85920    9.01930    6.79840  257.66960  988.64710 1351.33200    0.00180
 12818.00000    0.00510   49.92290   67.13270   27.35330    9.06930    6.85940  249.79850  964.57010 1310.62690    0.00010
 12818.50000    0.01350   49.84800   67.44480   27.53740    9.11930    6.85770  245.42480  952.37190 1280.67900   -0.00190
 12819.00000    0.01570   49.85680   67.73100   27.30500    9.16930    6.82880  244.96170  947.73340 1235.04510   -0.00250
 12819.50000    0.00900   49.82630   68.26290   27.41620    9.21930    6.79980  245.30410  971.61090 1203.00580   -0.00130
 12820.00000    0.00630   49.83350   68.07730   27.84160    9.25930    6.77090  247.85580  986.54010 1186.34830   -0.00060
 12820.50000    0.00580   49.84190   67.89170   28.26070    9.29930    6.71280  254.11480 1001.46930 1186.37600   -0.00100
 12821.00000    0.00840   49.85040   67.70610   27.96470    9.27930    6.66750  269.67890 1016.39850 1164.44540   -0.00170
 12821.50000    0.00840   49.85880   67.52050   26.90040    9.09940    6.64070  284.53350 1031.32780 1115.72790   -0.00280
 12822.00000    0.01020   49.86730   67.34780   26.48510    9.12930    6.67860  275.23400 1046.25700 1115.72790   -0.00330
 12822.50000    0.01230   49.80530   67.39220   26.08330    9.15930    6.79970  268.55290 1061.18620 1129.50050   -0.00330
 12823.00000    0.01270   49.72960   67.43660   25.45390    9.12510    6.92480  263.82150 1076.11540 1171.96060   -0.00330
 12823.50000    0.01270   49.71520   67.48100   26.39490    9.07940    7.07400  273.50150 1114.56180 1225.08770   -0.00220
 12824.00000    0.01220   49.75070   67.52540   26.75840    9.06340    6.99900  289.26930 1140.70250 1308.36440   -0.00170
 12824.50000    0.01370   49.71140   67.56970   26.93470    9.04340    6.88820  302.76830 1161.61500 1341.40000    0.00040
 12825.00000    0.01480   49.72200   67.34300   25.34510    9.02340    6.75460  316.26730 1186.43980 1359.28160    0.00180
 12825.50000    0.01460   49.73940   67.14020   23.13820    9.01940    6.66120  327.06910 1216.36020 1381.63360    0.00260
 12826.00000    0.01330   49.76680   67.11920   21.93640    9.01940    6.60830  335.87190 1239.07950 1403.98570    0.00260
 12826.50000    0.01270   49.79420   67.13130   22.96520    9.03270    6.61480  345.95520 1262.00830 1426.33770    0.00260
 12827.00000    0.01430   49.82160   67.15240   24.72640    9.03720    6.58770  353.97610 1262.00830 1435.11410    0.00320
 12827.50000    0.01570   49.83750   67.42830   26.69480    9.02620    6.50560  351.80550 1262.00830 1479.94260    0.00390
 12828.00000    0.01510   49.90020   67.56210   27.10740    9.01520    6.45560  349.11380 1262.00830 1552.12460    0.00460
 12828.50000    0.01430   50.22010   67.56290   26.11560    9.00430    6.39870  348.98770 1262.00830 1563.94820    0.00470
 12829.00000    0.01750   50.54000   67.56370   25.12370    9.04050    6.35150  341.21640 1194.96960 1426.62160    0.00390
 12829.50000    0.02420   50.85980   67.56440   24.81500    9.04940    6.31500  344.86880 1150.96520 1341.40000    0.00320
 12830.00000    0.02820   51.17970   67.56520   24.88510    9.02010    6.43150  368.85490 1172.36330 1806.06490    0.00200
 12830.50000    0.02620   51.30790   67.56600   24.51840    8.97130    6.48490  394.69820 1841.03570 2241.01340    0.00160
 12831.00000    0.01610   51.10440   67.50880   24.00270    8.91160    6.37000  421.67910 1892.61470 2614.06930    0.00150
 12831.50000    0.00600   50.62820   67.35210   22.89680    8.88660    6.28600  417.17840 2220.52550 2566.35720    0.00150
 12832.00000    0.00580   50.33270   67.28370   22.65550    8.87230    6.38850  416.00470 2325.17570 2582.16270    0.00150
 12832.50000    0.01290   50.11300   67.21520   23.80510    8.90350    6.55330  414.83110 2605.47800 3047.77990    0.00180
 12833.00000    0.01410   50.02930   67.20280   26.32930    8.96020    6.77600  402.60350 2719.29150 3104.44240    0.00200
 12833.50000    0.01480   50.01390   67.15620   27.43770    8.99560    6.96770  380.69910 2101.14380 2460.38600    0.00260
 12834.00000    0.01300   50.01460   67.20730   26.35780    8.98030    6.97900  357.29750 1715.47480 2007.47480    0.00260
 12834.50000    0.01060   50.01740   67.19750   24.41110    8.98360    6.93210  341.64590 1471.50940 1632.00940    0.00260
 12835.00000    0.00840   50.23790   67.17260   23.86030    8.98690    6.89890  328.87430 1227.54390 1272.25430    0.00260
 12835.50000    0.00640   50.51320   67.18570   24.40640    8.99020    6.95130  329.82310 1140.41310 1226.23560    0.00260
 12836.00000    0.00580   50.78840   67.19890   25.71240    8.99350    6.98990  333.99750 1172.36330 1317.97100    0.00390
 12836.50000    0.00660   50.84380   67.21200   26.23420    8.99680    7.04820  331.91730  966.90570 1276.22970    0.00470
 12837.00000    0.00440   50.84380   67.22520   26.38710    9.00010    7.09000  321.63690  857.16060 1061.47070    0.00470
 12837.50000    0.00110   50.74570   67.32600   26.68410    9.00490    7.08760  345.38920 1000.39040 1319.59380    0.00520
 12838.00000    0.00060   50.64490   67.48530   26.48290    9.00140    7.03550  408.27960 1431.12150 1729.45740    0.00520
 12838.50000    0.00600   50.33880   67.42440   26.66450    8.99170    6.98000  414.74310 1588.77430 1750.92030    0.00520
 12839.00000    0.01440   50.07380   67.36360   25.59000    8.98200    6.89670  428.17200 1577.69780 1736.71660    0.00520
 12839.50000    0.02280   50.03460   67.18760   25.03810    8.94880    6.84310  441.60090 1583.51350 1783.35580    0.00520
 12840.00000    0.03130   50.68500   67.14210   24.16390    8.88040    6.70540  436.97790 1540.64360 1735.27470    0.00520
 12840.50000    0.03520   51.33540   67.13140   24.43090    8.83940    6.56050  425.42040 1411.34440 1678.81230    0.00520
 12841.00000    0.02710   51.59190   67.20320   23.64580    8.85760    6.41560  418.79140 1331.93310 1504.65210    0.00520
 12841.50000    0.01780   51.74580   67.19040   23.77020    8.87570    6.27070  430.83410 1666.90740 1948.81120    0.00520
 12842.00000    0.00840   51.81420   67.17760   24.74670    8.87790    6.23300  458.69040 2001.48070 5436.92040    0.00520
 12842.50000    0.01230   51.79710   67.16470   26.99600    8.87620    6.34780  473.96860 6218.90860 7984.41980    0.00340
 12843.00000    0.02120   51.43800   67.13650   27.81550    8.87090    6.55460  475.64670 5456.88760 6849.67720    0.00160
 12843.50000    0.01960   50.82240   67.10570   26.54460    8.84050    6.75760  469.99280 4302.26530 5119.85830   -0.00020
