~Version ---------------------------------------------------
VERS.   2.0 : CWLS log ASCII Standard -VERSION 2.0
WRAP.    NO : One line per depth step
DLM . SPACE : Column Data Section Delimiter
~Well ------------------------------------------------------
STRT .FT                8824.0 : START DEPTH
STOP .FT               14284.0 : STOP DEPTH
STEP .FT                   0.5 : STEP
NULL .                -9999.25 : NULL VALUE
COMP .                         : COMPANY
WELL .                         : WELL
FLD  .                         : FIELD
LOC  .                         : LOCATION
PROV .                         : PROVINCE
CNTY .                         : COUNTY
STAT .                         : STATE
CTRY .                         : COUNTRY
SRVC .                         : SERVICE COMPANY
DATE .                         : DATE
UWI  .                         : UNIQUE WELL ID
API  .                         : API NUMBER
SLAT .WGS84  6.408765936937996 : SURFACE LATITUDE
SLON .WGS84 3.6245272197060956 : SURFACE LONGITUDE
DATUM.F                    nan : DEPTH DATUM ELEV
~Curve Information -----------------------------------------
DEPT   .FT    : 
DPHZ_LS.DEC   : HGRD STANDARD RESOLUTION DENSITY POROSITY
DTCO   .US/F  : DELTA-T COMPRESSIONAL
DTSM   .US/F  : DELTA-T SHEAR
ECGRR  .GAPI  : ENVIRONMENTALLY CORRECTED GAMMA RAY FROM RESISTIVITY LOG
HCALR  .IN    : HRCC CALIPER CALIBRATED FROM RESISTIVITY LOG
PEFZ   .B/E   : HRDD STANDARD RESOLUTION FORMATION PHOTOELECTRIC FACTOR
RLA1   .OHMM  : APPARENT RESISTIVITY FROM COMPUTED FOCUSING MODE 1
RLA3   .OHMM  : APPARENT RESISTIVITY FROM COMPUTED FOCUSING MODE 3
RLA5   .OHMM  : APPARENT RESISTIVITY FROM COMPUTED FOCUSING MODE 5
TNPH_LS.DEC   : THERMAL NEUTRON POROSITY [LIMESTONE]
~Params ----------------------------------------------------
~Other -----------------------------------------------------
~ASCII -----------------------------------------------------
# ...
 10012.00000    0.01960   58.21030   74.14260   62.22120    8.81060    3.31150   22.94250   24.39340   25.26820    0.09790
 10012.50000    0.02270   57.11130   74.00470   58.88260    8.71600    3.33230   23.73800   25.13000   26.46400    0.09250
 10013.00000    0.02760   55.96090   74.00350   58.86380    8.67070    3.35310   25.47400   26.86050   27.55150    0.08980
 10013.50000    0.02740   56.36980   74.13920   61.02640    8.70750    3.38570   27.46390   28.71060   31.20940    0.08810
 10014.00000    0.02500   58.20730   74.48000   63.89300    8.83190    3.42500   28.25990   29.45070   32.89400    0.08980
 10014.50000    0.02400   60.04480   74.82080   64.10450    8.96830    3.37940   22.77580   25.44710   29.50250    0.09100
 10015.00000    0.02660   60.88130   75.06160   66.99120    8.99450    3.28400   19.82710   21.02240   22.36650    0.09180
 10015.50000    0.02750   60.70050   75.58660   67.16100    8.99280    3.21020   19.41700   20.88420   21.73640    0.09250
 10016.00000    0.02930   60.57100   76.11160   70.89680    8.96760    3.14530   14.50140   17.97690   21.23060    0.09300
 10016.50000    0.03320   60.81010   76.32100   70.04780    8.91060    3.13920   13.90920   16.82310   21.95380    0.09430
 10017.00000    0.03560   61.28220   75.38710   71.67300    8.93890    3.14430    9.75810   19.80830   22.83790    0.09680
 10017.50000    0.03860   61.75430   74.45320   71.68230    8.90990    3.16040   25.72930   32.52100   44.50620    0.09940
 10018.00000    0.03550   61.74510   74.66550   72.25320    8.88090    3.19000   17.13390   23.03890   27.39990    0.10290
 10018.50000    0.03770   60.92760   75.66390   71.57570    8.82530    3.21970   16.95620   17.76160   19.39690    0.10690
 10019.00000    0.04540   60.11010   76.66240   71.70460    8.77770    3.25540   18.23990   19.50710   20.29010    0.10850
 10019.50000    0.05110   59.94530   76.86130   71.17970    8.80360    3.28250   17.99670   20.20530   21.01070    0.10370
 10020.00000    0.04970   60.96890   76.81730   70.49770    8.87290    3.32580   16.78040   19.07200   20.06120    0.10420
 10020.50000    0.04470   62.50440   76.75940   70.71490    8.97060    3.45430   17.45390   17.93870   19.32950    0.10640
 10021.00000    0.04160   64.04000   77.14730   73.69670    9.05150    3.59920    6.56640   18.85060   21.93120    0.10600
 10021.50000    0.03670   64.65570   77.79370   76.09890    9.12950    3.65390   21.77680   25.75140   61.48660    0.10580
 10022.00000    0.02820   64.40010   77.99170   74.61760    9.13840    3.58200   10.28050   19.41980 100228.43700    0.10190
 10022.50000    0.02630   63.78530   77.99210   71.47020    9.13960    3.48150   16.14110   18.48780   19.26290    0.09240
 10023.00000    0.02440   62.34760   76.98930   67.86980    9.12380    3.22320   15.84530   18.51100   19.61200    0.08190
 10023.50000    0.02710   60.99900   75.77370   63.89080    9.09800    3.15560   19.21620   20.47780   21.44940    0.06600
 10024.00000    0.02500   59.65040   74.74230   60.74020    9.01150    3.20230   22.85390   24.16870   25.80890    0.05930
 10024.50000    0.02330   59.17660   73.75700   57.23270    9.06570    3.26550   27.76970   29.90600   30.39640    0.05180
 10025.00000    0.02240   58.35740   72.77170   53.04590    9.11990    3.30910   30.71920   32.20100   32.94760    0.04740
 10025.50000    0.02020   57.58940   72.18060   48.45510    9.12210    3.30720   29.46460   30.90310   32.21660    0.04530
 10026.00000    0.01630   56.82130   71.83900   46.51380    9.07260    3.25710   32.11030   33.10070   34.70050    0.04500
 10026.50000    0.01210   56.05330   71.70260   47.40380    9.04610    3.19960   34.09470   35.91220   36.51000    0.04620
 10027.00000    0.01140   55.79810   71.30500   48.81810    9.19080    3.17530   35.17790   36.24590   37.07210    0.04900
 10027.50000    0.01270   56.86900   70.80800   46.99820    9.44190    3.20620   35.54660   36.66300   37.96940    0.05340
 10028.00000    0.01470   58.05410   70.47260   46.83800    9.56020    3.23700   35.77950   36.99660   38.86680    0.05610
 10028.50000    0.01050   59.23930   71.46480   48.68560    9.33160    3.24880   35.91930   36.27030   38.46380    0.06020
 10029.00000    0.00800   59.24070   72.45690   51.20000    9.14280    3.23540   33.29420   35.38230   35.77990    0.06180
 10029.50000    0.01170   58.63660   72.45630   49.81970    9.09400    3.25520   31.19260   32.73170   33.72970    0.06190
 10030.00000    0.01760   58.14160   72.28330   49.64200    9.02020    3.24530   31.94760   32.59050   34.02990    0.06030
 10030.50000    0.02250   57.64660   72.11040   50.70930    9.00810    3.23540   32.70270   33.17400   34.25230    0.05890
 10031.00000    0.02580   57.17040   71.93740   51.99910    9.04170    3.20830   32.02790   32.36300   33.76880    0.05740
 10031.50000    0.03140   56.53690   71.96950   52.75890    9.14810    3.22020   25.63160   29.74610   36.13200    0.06130
 10032.00000    0.03960   55.90330   72.51000   54.79970    9.19060    3.26350   35.17850   35.20770   37.42810    0.07430
 10032.50000    0.04450   56.27850   73.50940   58.24320    9.19060    3.35410   36.29620   38.11440   40.10220    0.08560
 10033.00000    0.04890   57.65550   74.50870   63.52390    9.25740    3.58410   27.55280   30.30590   38.46440    0.09830
 10033.50000    0.04370   59.03260   75.58660   69.16680    9.34190    3.76330   17.75720   19.04350   22.83940    0.11170
 10034.00000    0.03380   60.40960   77.91450   74.05040    9.38620    3.81090    8.26190   13.22900   17.05750    0.11220
 10034.50000    0.02330   60.30360   80.24250   75.99160    9.43060    3.65400    1.40370   12.51810   19.94480    0.10840
 10035.00000    0.02030   59.54440   80.24150   73.71130    9.41620    3.42100   11.89660   14.42380   16.19120    0.10190
 10035.50000    0.02500   58.79410   79.29680   70.10240    9.45050    3.27550   16.70590   24.15910   31.32240    0.09830
 10036.00000    0.03240   60.00170   77.83700   67.02160    9.42430    3.20650   12.12390   18.29920 1918.11210    0.11210
 10036.50000    0.03900   62.75980   76.60010   70.60850    9.43060    3.21190   16.36130   16.90370 2031.12760    0.14020
 10037.00000    0.04040   65.51790   77.56620   74.97680    9.53230    3.22610   14.08210   15.29080   16.42780    0.14250
 10037.50000    0.03900   67.82600   78.77420   78.53880    9.74050    3.25530   13.34540   14.42390   16.02350    0.13490
 10038.00000    0.03240   67.29020   79.80850   75.09910    9.31860    3.24420   15.03200   15.52640   16.71950    0.13890
 10038.50000    0.02780   65.90600   79.58410   72.45530    9.26020    3.18700   15.69320   16.73710   17.59970    0.12790
 10039.00000    0.02320   64.52180   78.47080   71.45070    9.19540    3.13990   15.85770   17.44900   20.21900    0.11490
 10039.50000    0.02000   63.76140   78.02410   68.97250    9.14800    3.18470   16.02390   18.48180   21.67990    0.09950
 10040.00000    0.01870   63.46380   79.39630   65.65770    9.22010    3.23370   17.78200   19.03980   19.94520    0.08740
 10040.50000    0.01880   63.27080   79.51830   61.73540    9.29370    3.26220   19.03170   20.06410   22.00370    0.08160
 10041.00000    0.02420   63.07780   77.37670   60.34940    9.29560    3.28550   20.75010   22.31090   24.06220    0.08000
 10041.50000    0.03570   62.88470   75.09870   61.68580    9.28310    3.36310   22.36920   23.44750   24.56920    0.08900
 10042.00000    0.05080   61.98970   74.96530   63.93040    9.28060    3.55700   18.96740   22.31340   24.06230    0.10350
 10042.50000    0.06040   60.60880   74.96910   67.05650    9.46520    3.64580   13.03070   14.28190   18.55010    0.11780
 10043.00000    0.06280   60.76680   75.24610   69.87060    9.48470    3.66830   13.28630   15.04810   15.76640    0.13930
 10043.50000    0.07200   63.11990   75.93390   72.08650    9.46730    3.63930   15.21030   16.18200   16.94580    0.15820
 10044.00000    0.08410   66.61230   78.18250   74.45810    9.60060    3.54580   13.01440   14.60460   16.15910    0.16670
 10044.50000    0.08660   68.26820   80.58740   85.20300    9.33400    3.57620    8.91480   10.09420   11.12520    0.17630
