~Version ---------------------------------------------------
VERS.   2.0 : CWLS log ASCII Standard -VERSION 2.0
WRAP.    NO : One line per depth step
DLM . SPACE : Column Data Section Delimiter
~Well ------------------------------------------------------
STRT .FT                8824.0 : START DEPTH
STOP .FT               14284.0 : STOP DEPTH
STEP .FT                   0.5 : STEP
NULL .                -9999.25 : NULL VALUE
COMP .                         : COMPANY
WELL .                         : WELL
FLD  .                         : FIELD
LOC  .                         : LOCATION
PROV .                         : PROVINCE
CNTY .                         : COUNTY
STAT .                         : STATE
CTRY .                         : COUNTRY
SRVC .                         : SERVICE COMPANY
DATE .                         : DATE
UWI  .                         : UNIQUE WELL ID
API  .                         : API NUMBER
SLAT .WGS84  6.408765936937996 : SURFACE LATITUDE
SLON .WGS84 3.6245272197060956 : SURFACE LONGITUDE
DATUM.F                    nan : DEPTH DATUM ELEV
~Curve Information -----------------------------------------
DEPT   .FT    : 
DPHZ_LS.DEC   : HGRD STANDARD RESOLUTION DENSITY POROSITY
DTCO   .US/F  : DELTA-T COMPRESSIONAL
DTSM   .US/F  : DELTA-T SHEAR
ECGRR  .GAPI  : ENVIRONMENTALLY CORRECTED GAMMA RAY FROM RESISTIVITY LOG
HCALR  .IN    : HRCC CALIPER CALIBRATED FROM RESISTIVITY LOG
PEFZ   .B/E   : HRDD STANDARD RESOLUTION FORMATION PHOTOELECTRIC FACTOR
RLA1   .OHMM  : APPARENT RESISTIVITY FROM COMPUTED FOCUSING MODE 1
RLA3   .OHMM  : APPARENT RESISTIVITY FROM COMPUTED FOCUSING MODE 3
RLA5   .OHMM  : APPARENT RESISTIVITY FROM COMPUTED FOCUSING MODE 5
TNPH_LS.DEC   : THERMAL NEUTRON POROSITY [LIMESTONE]
~Params ----------------------------------------------------
~Other -----------------------------------------------------
~ASCII -----------------------------------------------------
# ...
 13171.50000    0.03200   49.21720   68.63000   30.81520    8.51830    3.93880  230.32330  519.86720  538.52010    0.02450
 13172.00000    0.03680   49.37110   68.63000   32.52370    8.45430    4.00760  221.82320  525.61730  541.05720    0.02510
 13172.50000    0.03150   49.62760   68.52740   33.41140    8.43510    4.07640  213.27220  535.26890  547.64690    0.02560
 13173.00000    0.03760   49.80550   68.34280   33.62430    8.46160    4.16390  219.32150  549.10220  568.07920    0.02560
 13173.50000    0.04000   50.18160   68.11190   33.77080    8.49470    4.25790  221.84130  574.86470  582.09030    0.02600
 13174.00000    0.03350   50.55780   67.88110   32.78060    8.52790    4.30670  220.46940  574.76180  585.58320    0.02610
 13174.50000    0.02260   50.85880   67.65030   33.09650    8.56100    4.23910  208.44740  574.68130  606.75920    0.02620
 13175.00000    0.01330   51.44870   67.60410   34.16990    8.59420    4.14560  202.57740  574.53270  614.80390    0.02620
 13175.50000    0.02300   51.91890   67.60410   35.51700    8.58600    4.07070  212.03440  560.49300  586.12530    0.02620
 13176.00000    0.03750   52.29510   67.70670   36.45380    8.56590    4.02470  214.39420  538.43940  553.63780    0.02560
 13176.50000    0.04910   52.08990   67.70670   36.50580    8.54570    4.01500  211.63030  533.39720  525.44180    0.02460
 13177.00000    0.04540   51.63390   67.70670   34.75380    8.53350    4.11570  203.54040  508.57180  500.09460    0.02400
 13177.50000    0.03930   51.26920   67.70670   33.15850    8.51340    4.27980  202.87290  518.69500  502.56940    0.02350
 13178.00000    0.03290   51.34240   67.70670   31.44180    8.51320    4.47340  212.04190  571.11000  543.10280    0.02330
 13178.50000    0.02640   51.70890   67.70670   31.29670    8.51310    4.57990  221.85920  666.10080  662.28770    0.02240
 13179.00000    0.02240   51.78210   67.70670   34.39330    8.51310    4.57020  236.98720  761.09160  794.40990    0.02080
 13179.50000    0.02190   51.64550   67.89890   36.89000    8.51260    4.44490  250.58940  798.97150  804.06490    0.02080
 13180.00000    0.03230   51.41770   68.13910   36.20640    8.49910    4.38960  266.74460  923.36740  937.28030    0.02390
 13180.50000    0.04030   51.39960   68.37940   34.50110    8.46830    4.33430  276.07680 1014.95310 1034.62880    0.02700
 13181.00000    0.03950   51.92340   68.53170   32.79580    8.47990    4.32280  276.07680 1014.95310 1037.52090    0.02550
 13181.50000    0.02750   52.26770   68.53370   32.25690    8.53660    4.49850  286.69080 1014.95310 1040.41300    0.02350
 13182.00000    0.03130   52.35550   68.31590   32.26320    8.57080    4.76110  318.82080 1092.56170 1201.53570    0.02150
 13182.50000    0.02950   51.99880   68.12740   32.16950    8.54720    5.04820  350.95090 1464.96060 1506.73000    0.02110
 13183.00000    0.02960   51.72750   68.05250   31.44630    8.47160    5.22040  370.19730 1608.59230 1628.80770    0.02110
 13183.50000    0.03210   51.56730   68.02890   30.30910    8.41190    5.22040  367.65220 1653.65910 1679.59960    0.02220
 13184.00000    0.04020   51.39010   68.02980   29.09210    8.53890    5.06830  358.45060 1916.22280 1970.34240    0.02400
 13184.50000    0.04780   51.38800   68.03310   29.26560    8.79260    4.87830  347.78450 1699.98860 1742.63230    0.02530
 13185.00000    0.04100   51.33900   68.05080   29.17650    8.65300    4.67950  360.05250 1916.22280 1958.25760    0.02650
 13185.50000    0.02540   51.35290   68.07240   29.03220    8.65330    4.46760  384.05220 1951.84800 4141.95880    0.02700
 13186.00000    0.02480   51.35880   68.09400   28.88790    8.67810    4.33940  418.57420 2859.67700 4129.28450    0.02810
 13186.50000    0.02750   51.36940   68.11570   29.06880    8.73800    4.28950  412.85500 3009.15820 5665.07640    0.02810
 13187.00000    0.02700   51.03070   68.13730   27.73370    8.82710    4.30060  408.27960 2596.83900 5218.83000    0.02810
 13187.50000    0.02380   50.82780   68.15890   26.31710    8.93450    4.30240  393.04880 2120.53060 2987.59780    0.02750
 13188.00000    0.02560   50.96530   68.18060   25.84700    8.92210    4.24550  354.97180 1731.93590 2082.27830    0.02650
 13188.50000    0.02800   51.10290   68.20220   27.44820    8.84210    4.11680  306.87230  715.23040  711.00030    0.02430
 13189.00000    0.02880   51.24040   68.21480   29.22090    8.75050    4.01830  334.70600 1006.47130  922.00860    0.02270
 13189.50000    0.02960   51.37150   67.96150   31.27300    8.65440    3.83580  373.01490 1072.62020 1092.80250    0.02220
 13190.00000    0.03230   51.27720   67.86630   32.68430    8.63190    3.69590  356.28490 1065.24490 1072.85660    0.02250
 13190.50000    0.03780   51.04980   67.77110   33.19830    8.63980    3.65160  332.82180 1092.56170 1092.80250    0.02330
 13191.00000    0.04190   50.79320   67.67590   34.36670    8.64760    3.65320  303.93030 1092.56170 1119.96840    0.02590
 13191.50000    0.03700   50.80050   67.67840   34.03260    8.66770    3.64690  289.05090 1062.78640 1060.24090    0.02700
 13192.00000    0.03020   50.81860   68.05170   33.27090    8.67820    3.61670  282.48620 1009.20950 1027.70820    0.02700
 13192.50000    0.02960   51.72250   68.42500   32.07080    8.73840    3.61470  270.25130  942.85730 1034.05040    0.02650
 13193.00000    0.02980   52.40690   68.75920   32.18100    8.79530    3.64680  256.99980  867.85260  925.15180    0.02430
 13193.50000    0.03070   53.12060   68.93660   32.81230    8.88510    3.69170  241.37360  875.88280  865.37780    0.02220
 13194.00000    0.03210   53.31270   68.63480   32.88750    8.94390    3.71860  247.35720  931.71800 1021.42330    0.02220
 13194.50000    0.03300   53.29400   68.30030   34.52010    8.95620    4.01960  263.08650 1024.77660 1040.41300    0.02310
 13195.00000    0.03230   52.38860   67.70630   34.55530    8.99100    4.30610  269.85040  944.93580 1053.27480    0.02420
 13195.50000    0.02700   51.79290   67.62530   32.33600    8.99520    4.73560  254.79590  806.20590  818.85260    0.02530
 13196.00000    0.02160   51.29560   67.86950   28.70560    8.98540    4.95850  259.02370  821.19440  854.81040    0.02650
 13196.50000    0.01580   51.83010   68.11370   26.25980    8.96680    5.13910  280.38170 1426.94770 1240.30770    0.02650
 13197.00000    0.00990   52.33610   68.26680   25.84380    8.97230    5.14970  332.87740 1969.90830 1934.37960    0.02650
 13197.50000   -0.00720   52.80840   68.42740   25.57670    9.03330    5.14610  362.93090 7136.16230 8814.66420    0.02650
 13198.00000   -0.00400   52.41090   68.27770   24.95040    9.05090    5.10870  368.94160 14402.73710 26705.34380    0.02430
 13198.50000    0.01040   52.19140   67.80140   24.05660    8.97370    5.06830  350.37140 11035.19950 23977.04060    0.02430
 13199.00000    0.02590   51.62180   67.32520   23.91270    8.97320    5.08020  331.80110 8136.63870 10404.13010    0.02430
 13199.50000    0.03130   51.29300   67.32110   25.03970    8.99110    5.13630  313.23090 10857.69260 14405.87890    0.02430
 13200.00000    0.03930   51.34160   67.66620   26.35200    9.12020    5.16030  294.66060 13379.65860 16388.52090    0.02180
 13200.50000    0.04730   51.40070   68.01130   26.84460    9.24930    5.16030  276.09030 11960.83490 15172.25520    0.01900
 13201.00000    0.04830   51.98850   68.17450   26.25540    9.08680    5.18040  260.65220 10542.01110 12663.09190    0.01740
 13201.50000    0.04500   52.64540   68.17330   25.26950    8.57440    5.21040  261.62710 9123.18730 11212.57030    0.01890
 13202.00000    0.04350   53.30220   67.97490   26.48080    8.29880    5.27250  265.97840 7914.89270 10404.13010    0.02250
 13202.50000    0.05150   53.55500   67.73700   27.57370    8.15320    5.33360  250.12190 8807.59550 10662.82490    0.02330
 13203.00000    0.04990   53.64220   67.72010   29.15800    8.12250    5.44030  241.64290 10149.50900 13715.31460    0.02330
 13203.50000    0.03850   53.72940   67.74050   30.74230    8.36000    5.49530  250.72610 9800.39920 12683.35230    0.02110
