~Version ---------------------------------------------------
VERS.   2.0 : CWLS log ASCII Standard -VERSION 2.0
WRAP.    NO : One line per depth step
DLM . SPACE : Column Data Section Delimiter
~Well ------------------------------------------------------
STRT .FT                8824.0 : START DEPTH
STOP .FT               14284.0 : STOP DEPTH
STEP .FT                   0.5 : STEP
NULL .                -9999.25 : NULL VALUE
COMP .                         : COMPANY
WELL .                         : WELL
FLD  .                         : FIELD
LOC  .                         : LOCATION
PROV .                         : PROVINCE
CNTY .                         : COUNTY
STAT .                         : STATE
CTRY .                         : COUNTRY
SRVC .                         : SERVICE COMPANY
DATE .                         : DATE
UWI  .                         : UNIQUE WELL ID
API  .                         : API NUMBER
SLAT .WGS84  6.408765936937996 : SURFACE LATITUDE
SLON .WGS84 3.6245272197060956 : SURFACE LONGITUDE
DATUM.F                    nan : DEPTH DATUM ELEV
~Curve Information -----------------------------------------
DEPT   .FT    : 
DPHZ_LS.DEC   : HGRD STANDARD RESOLUTION DENSITY POROSITY
DTCO   .US/F  : DELTA-T COMPRESSIONAL
DTSM   .US/F  : DELTA-T SHEAR
ECGRR  .GAPI  : ENVIRONMENTALLY CORRECTED GAMMA RAY FROM RESISTIVITY LOG
HCALR  .IN    : HRCC CALIPER CALIBRATED FROM RESISTIVITY LOG
PEFZ   .B/E   : HRDD STANDARD RESOLUTION FORMATION PHOTOELECTRIC FACTOR
RLA1   .OHMM  : APPARENT RESISTIVITY FROM COMPUTED FOCUSING MODE 1
RLA3   .OHMM  : APPARENT RESISTIVITY FROM COMPUTED FOCUSING MODE 3
RLA5   .OHMM  : APPARENT RESISTIVITY FROM COMPUTED FOCUSING MODE 5
TNPH_LS.DEC   : THERMAL NEUTRON POROSITY [LIMESTONE]
~Params ----------------------------------------------------
~Other -----------------------------------------------------
~ASCII -----------------------------------------------------
# ...
 10373.00000    0.01820   51.22470   69.20540   18.82750    9.19850    5.30610  295.35590 2529.91740 3600.20030    0.00570
 10373.50000    0.01710   51.05760   68.83710   19.54650    9.14910    5.33640  295.51930 2545.67720 3713.33220    0.00530
 10374.00000    0.00980   50.22120   68.70020   20.71340    9.16280    5.34840  310.25760 2580.59460 4230.22370    0.00600
 10374.50000    0.00650   49.38470   68.55320   21.09850    9.19410    5.28970  328.82430 4268.70310 5894.40860    0.00660
 10375.00000    0.00650   48.54830   68.40630   21.36480    9.22530    5.19680  336.68020 4724.42480 6051.26640    0.00710
 10375.50000    0.01290   48.21370   68.38920   21.77930    9.23120    5.17240  334.94910 4327.03090 6926.69310    0.00750
 10376.00000    0.01890   48.28560   68.59730   21.17950    9.22420    5.17250  325.20540 6360.82770 8904.84020    0.00810
 10376.50000    0.02180   48.38310   68.80550   21.83830    9.25130    5.17210  329.22630 6954.44750 9721.22660    0.00970
 10377.00000    0.02620   48.48060   69.01360   20.20810    9.28070    5.18150  326.80870 6954.46780 9926.00540    0.01170
 10377.50000    0.02540   48.57810   69.22170   21.15910    9.31290    5.17750  328.80970 5953.27760 9037.26550    0.01380
 10378.00000    0.01710   48.67560   69.42980   20.21560    9.34510    5.15770  330.81060 4787.55080 7017.69920    0.01570
 10378.50000    0.00840   48.77310   69.63790   20.84290    9.34150    5.13790  329.50000 3813.87480 5752.10580    0.01740
 10379.00000    0.00270   48.74710   69.84610   22.62390    9.34130    5.11810  326.81000 3221.10290 4989.16100    0.01980
 10379.50000    0.00330   48.91160   69.99820   24.58020    9.33500    5.13310  320.41900 2849.63220 4314.06360    0.02390
 10380.00000    0.00470   49.07620   69.96650   25.91710    9.31210    5.15800  307.75230 3087.22130 4495.79470    0.02570
 10380.50000    0.00950   49.24070   69.79550   25.26410    9.33480    5.19700  300.15230 3024.28930 4735.85460    0.02640
 10381.00000    0.01190   49.40520   69.76130   25.88750    9.36400    5.23530  307.42340 2221.20240 2812.36740    0.02540
 10381.50000    0.01110   49.56970   69.76130   27.72800    9.39320    5.20280  319.54170 2213.89580 2812.37040    0.02440
 10382.00000    0.01030   49.84790   70.00450   30.85770    9.40150    5.11700  335.76650 2206.58920 2783.22660    0.02490
 10382.50000    0.00910   50.58070   70.30850   30.61410    9.37150    4.99080  342.14090 2202.20770 2430.55010    0.02930
 10383.00000    0.01330   51.31360   70.61250   30.77780    9.34260    4.90510  357.66350 2366.62540 2573.98040    0.03220
 10383.50000    0.01850   51.79880   70.85570   31.48390    9.29580    4.77440  352.76820 2132.16570 2614.52810    0.03450
 10384.00000    0.02370   51.94820   70.85570   33.45220    9.18160    4.50590  335.39050 1178.40070 1993.90530    0.03540
 10384.50000    0.02410   52.23890   70.65700   35.41700    9.18160    4.31920  312.46780 1072.60440 1298.57130    0.03600
 10385.00000    0.02620   52.36730   70.49420   36.62670    9.15670    4.29720  240.34620  568.19800  794.91210    0.03700
 10385.50000    0.03000   52.30390   70.33130   35.52490    9.17020    4.42730  195.77620  256.01920  722.17140    0.04000
 10386.00000    0.03020   51.90630   70.16850   34.12430    9.15600    4.62220  343.71230 2012.72000 2042.81050    0.03960
 10386.50000    0.02490   51.08450   70.10330   32.64310    9.16660    4.66990  347.31240 2353.18490 2470.56030    0.03850
 10387.00000    0.01420   50.54410   70.04900   33.40480    9.17910    4.61160  340.11200 1994.42750 2190.04350    0.03730
 10387.50000    0.01110   50.11170   70.08400   33.47750    9.19160    4.55270  342.44080 1786.96620 2019.68870    0.03630
 10388.00000    0.01750   50.73070   70.11910   34.13620    9.17820    4.42480  361.22830 1667.17620 1868.07990    0.03590
 10388.50000    0.02360   51.76220   70.15420   34.45710    9.11550    4.23710  363.84070 1476.35830 1615.66040    0.03550
 10389.00000    0.02540   52.79380   70.18930   36.22610    9.05630    3.87870  329.84040 1084.23820 1291.39460    0.03700
 10389.50000    0.02670   53.09940   70.22440   37.81990    9.06780    3.68710  266.31110  554.74370  907.29660    0.03890
 10390.00000    0.03070   52.54570   70.25940   38.79670    9.09470    3.45020  169.68010  221.13990  397.61710    0.03900
 10390.50000    0.03410   51.92310   70.29450   40.02080    9.12160    3.37210  117.48080  131.20150  131.74900    0.03980
 10391.00000    0.03150   51.85460   70.26230   41.15930    9.14040    3.31800  112.68290  126.64810  133.12950    0.04080
 10391.50000    0.02700   51.85460   70.18530   41.57920    9.15240    3.27590  137.34000  165.69300  194.06320    0.04220
 10392.00000    0.02530   51.65000   70.10820   42.01280    9.15420    3.24980  138.80110  186.42630  206.25010    0.04390
 10392.50000    0.03120   51.14840   70.03120   41.10790    9.15530    3.30660  100.47790  122.93580  144.04860    0.04550
 10393.00000    0.03660   50.86550   69.82690   41.05300    9.12340    3.39560   98.87320  131.66980  134.23640    0.04720
 10393.50000    0.03700   50.84070   69.77340   42.69760    9.09160    3.45620  111.36730  142.58710  147.24540    0.04770
 10394.00000    0.03250   50.81590   69.73210   45.70970    9.10420    3.45130  111.09740  146.95400  157.29010    0.04860
 10394.50000    0.03020   50.74190   69.72870   47.79370    9.12620    3.42620  103.16550  146.95410  150.86910    0.04970
 10395.00000    0.02800   51.00340   69.29130   48.66810    9.09500    3.40110   96.37500  146.95450  153.26480    0.05150
 10395.50000    0.03050   50.93970   69.27650   47.81910    9.09050    3.37610   95.71600  146.95470  155.66060    0.05290
 10396.00000    0.03600   50.88060   69.29460   50.02650    9.11270    3.36560   94.06830  139.24920  150.94350    0.05470
 10396.50000    0.04200   51.35750   69.41030   48.90590    9.13500    3.36500   92.36930  133.08490  146.22650    0.05460
 10397.00000    0.04870   51.88760   70.08670   47.98890    9.19270    3.36430   90.63600  133.76190  146.22670    0.05420
 10397.50000    0.04170   52.43470   70.43790   45.78150    9.26830    3.36360   89.59610  135.30450  147.00030    0.05430
 10398.00000    0.03120   52.82190   70.71890   47.47960    9.28160    3.34230   89.59610  134.41260  143.20880    0.05460
 10398.50000    0.02630   52.82440   70.50170   50.02670    9.22830    3.28640   89.59640  139.08170  148.02860    0.05450
 10399.00000    0.03040   52.36860   70.13960   51.21530    9.16160    3.27830   97.16500  148.41930  152.45130    0.05430
 10399.50000    0.03870   52.33450   69.77750   51.82180    9.15160    3.30220   95.81580  144.20920  148.82840    0.05240
 10400.00000    0.04010   52.30050   69.48780   52.06440    9.15190    3.32150   88.66640  130.47360  138.61530    0.05170
 10400.50000    0.03420   52.30250   69.52070   52.06640    9.15220    3.33100   88.66650  127.91210  134.53010    0.05190
 10401.00000    0.02790   51.81750   69.67740   51.51400    9.18180    3.34040   88.66670  129.63710  134.73160    0.05230
 10401.50000    0.02650   51.21050   69.81120   50.62460    9.21560    3.35670   91.46310  132.51190  135.73850    0.05200
 10402.00000    0.02570   50.50440   70.19920   48.86590    9.24560    3.46800   94.25950  133.08700  137.36370    0.04880
 10402.50000    0.02860   49.77360   70.65940   48.58920    9.27560    3.66340   99.43950  137.10640  144.75140    0.04440
 10403.00000    0.02600   49.04280   70.66130   48.59590    9.28160    3.86320  109.61400  146.95780  170.37010    0.04040
 10403.50000    0.02090   48.83030   69.94390   45.17580    9.25700    4.12500  131.75680  177.41760  187.78920    0.03560
 10404.00000    0.01220   49.17470   69.04680   41.41460    9.26790    4.59320  121.53910  155.40460  165.71040    0.03110
 10404.50000    0.00320   49.68350   68.38180   38.36140    9.28660    4.82210  160.34380  276.53580  515.94230    0.03070
 10405.00000    0.00770   49.72500   68.19440   36.06250    9.29500    4.95860  279.48510  856.60640  944.65310    0.03030
 10405.50000    0.01110   49.72500   68.20110   34.80500    9.32160    5.01800  371.01970 1973.25250 17129.56380    0.03040
