~Version ---------------------------------------------------
VERS.   2.0 : CWLS log ASCII Standard -VERSION 2.0
WRAP.    NO : One line per depth step
DLM . SPACE : Column Data Section Delimiter
~Well ------------------------------------------------------
STRT .FT                8824.0 : START DEPTH
STOP .FT               14284.0 : STOP DEPTH
STEP .FT                   0.5 : STEP
NULL .                -9999.25 : NULL VALUE
COMP .                         : COMPANY
WELL .                         : WELL
FLD  .                         : FIELD
LOC  .                         : LOCATION
PROV .                         : PROVINCE
CNTY .                         : COUNTY
STAT .                         : STATE
CTRY .                         : COUNTRY
SRVC .                         : SERVICE COMPANY
DATE .                         : DATE
UWI  .                         : UNIQUE WELL ID
API  .                         : API NUMBER
SLAT .WGS84  6.408765936937996 : SURFACE LATITUDE
SLON .WGS84 3.6245272197060956 : SURFACE LONGITUDE
DATUM.F                    nan : DEPTH DATUM ELEV
~Curve Information -----------------------------------------
DEPT   .FT    : 
DPHZ_LS.DEC   : HGRD STANDARD RESOLUTION DENSITY POROSITY
DTCO   .US/F  : DELTA-T COMPRESSIONAL
DTSM   .US/F  : DELTA-T SHEAR
ECGRR  .GAPI  : ENVIRONMENTALLY CORRECTED GAMMA RAY FROM RESISTIVITY LOG
HCALR  .IN    : HRCC CALIPER CALIBRATED FROM RESISTIVITY LOG
PEFZ   .B/E   : HRDD STANDARD RESOLUTION FORMATION PHOTOELECTRIC FACTOR
RLA1   .OHMM  : APPARENT RESISTIVITY FROM COMPUTED FOCUSING MODE 1
RLA3   .OHMM  : APPARENT RESISTIVITY FROM COMPUTED FOCUSING MODE 3
RLA5   .OHMM  : APPARENT RESISTIVITY FROM COMPUTED FOCUSING MODE 5
TNPH_LS.DEC   : THERMAL NEUTRON POROSITY [LIMESTONE]
~Params ----------------------------------------------------
~Other -----------------------------------------------------
~ASCII -----------------------------------------------------
# ...
 10701.50000    0.01440   52.02190   70.02950   29.49160    8.87500    4.50190  223.14730  344.25910  501.80230    0.02340
 10702.00000    0.01100   52.28470   69.91250   29.51630    8.86330    4.46550  251.57470  481.75320  629.45650    0.02290
 10702.50000    0.01220   52.35310   69.79560   32.34490    8.86530    4.46180  245.49970  471.59050  559.41820    0.02250
 10703.00000    0.01620   52.37920   69.75150   31.82890    8.87510    4.47810  235.94900  376.83750  533.63740    0.02130
 10703.50000    0.01780   52.31250   69.89210   29.38560    8.89250    4.50580  289.63750  571.11740  877.11840    0.01980
 10704.00000    0.01280   52.18730   69.92390   27.03360    8.89400    4.50410  329.31680  913.21940 1214.09160    0.01840
 10704.50000    0.00640   51.83250   69.97410   27.85720    8.90110    4.49780  306.94560  717.40190  910.02340    0.01780
 10705.00000    0.00460   51.33820   70.02440   27.23250    8.90820    4.49330  240.13300  472.63000  605.95520    0.02140
 10705.50000    0.00810   51.26490   70.07460   27.83470    8.91250    4.48870  217.08860  325.76700  433.09510    0.02400
 10706.00000    0.01190   51.29080   70.13070   29.78790    8.91250    4.48420  248.49040  453.77510  542.78260    0.02520
 10706.50000    0.01530   51.99640   70.21050   32.02050    8.88380    4.47960  260.80020  530.58110  679.89190    0.02510
 10707.00000    0.02220   53.58240   70.29020   32.29090    8.85160    4.46740  223.15040  350.09140  517.85410    0.02480
 10707.50000    0.02530   54.45000   70.37000   32.06900    8.86480    4.42210  233.90680  349.22880  437.05220    0.02430
 10708.00000    0.02900   54.59100   70.40400   31.18430    8.89250    4.38400  231.26290  345.81530  454.63370    0.02390
 10708.50000    0.02580   54.45710   70.14530   32.50570    8.89940    4.34420  221.92890  268.51750  393.41870    0.02350
 10709.00000    0.02350   54.11680   69.71060   31.08370    8.90490    4.45210  278.30990  428.80590  559.08980    0.02300
 10709.50000    0.02320   53.93080   69.27590   29.48770    8.91250    4.57140  263.62750  477.10540  538.79830    0.02260
 10710.00000    0.02340   53.44820   69.21760   27.84190    8.91080    4.66490  253.83980  413.84240  546.41030    0.02260
 10710.50000    0.02190   53.28950   69.60350   28.56420    8.90790    4.73890  278.09280  535.76520  675.32000    0.02290
 10711.00000    0.01600   53.34100   70.06900   29.76810    8.90500    4.79820  302.34590  699.30460  804.22970    0.02330
 10711.50000    0.01420   53.34060   70.25520   30.97190    8.90790    4.79820  244.18650  443.82650  750.35660    0.02370
 10712.00000    0.01360   52.93630   70.15160   32.08120    8.93800    4.81490  203.53210  289.18080  328.60840    0.02410
 10712.50000    0.01680   52.32080   69.89510   32.65550    8.91250    4.94510  215.95170  367.54400  403.73530    0.02510
 10713.00000    0.01940   51.82640   69.63850   32.16750    8.90520    5.00840  228.37140  445.90730  497.64380    0.02560
 10713.50000    0.01810   52.25730   69.67900   31.15660    8.88330    4.99570  235.82320  497.48290  540.15590    0.02410
 10714.00000    0.01650   52.88860   70.18410   30.43200    8.88500    4.90290  231.52270  451.17740  486.06470    0.02340
 10714.50000    0.01650   53.59160   71.20800   32.24730    8.88680    4.79390  210.62000  374.00000  418.44950    0.02320
 10715.00000    0.01810   54.29450   71.41220   32.93070    8.91260    4.74890  189.71740  303.69650  358.15850    0.02300
 10715.50000    0.01940   54.40560   70.25020   32.47140    8.89660    4.76500  172.99530  278.59170  313.83200    0.02280
 10716.00000    0.01980   53.91680   69.08820   30.21520    8.90460    4.78110  196.35480  322.79060  377.25750    0.02260
 10716.50000    0.02050   53.81470   69.47400   29.63980    8.92220    4.79650  167.69070  240.44590  275.89230    0.02240
 10717.00000    0.01740   53.80770   69.95640   31.07500    8.93820    4.80930  198.21630  315.52490  405.98330    0.02220
 10717.50000    0.01430   53.80060   70.24560   31.99140    8.94150    4.81480  231.56330  427.99770  518.39810    0.02200
 10718.00000    0.01450   53.75190   70.13890   32.03920    8.92810    4.82020  198.75020  299.25960  409.58350    0.02190
 10718.50000    0.01450   53.31940   69.87350   30.66590    8.91840    4.85030  178.47890  278.91790  306.71900    0.02180
 10719.00000    0.01670   53.39190   69.60810   29.84190    8.90640    4.95230  184.39970  305.45080  334.71870    0.02170
 10719.50000    0.01920   53.54360   69.34280   31.24160    8.89020    4.99070  178.62630  291.09140  325.43710    0.02200
 10720.00000    0.02180   54.05950   69.24830   32.07480    8.88200    5.00460  172.46280  263.48660  313.83500    0.02230
 10720.50000    0.02430   54.22460   69.43500   34.15780    8.89260    5.01230  157.62870  223.38010  245.33330    0.02250
 10721.00000    0.02530   53.76460   70.03260   35.62910    8.86910    5.01850  164.84040  241.78530  274.18540    0.02500
 10721.50000    0.02270   53.68390   70.63030   35.83190    8.85260    5.01850  177.29170  278.59560  316.73790    0.02810
 10722.00000    0.01950   53.26710   70.74910   34.76600    8.85260    5.00130  171.27630  265.82190  284.48470    0.03110
 10722.50000    0.01620   53.43170   70.29100   33.75880    8.83590    4.95170  161.60630  244.53220  256.31230    0.03180
 10723.00000    0.01440   53.86220   69.64210   32.68160    8.80810    4.84790  162.61730  231.75860  249.36480    0.03310
 10723.50000    0.01740   54.38980   69.51130   31.57330    8.80840    4.83830  169.97110  231.75860  256.31320    0.03210
 10724.00000    0.02340   54.91750   70.49570   32.85790    8.79070    4.84600  170.95420  231.75890  247.04910    0.03340
 10724.50000    0.02850   55.05210   71.22260   35.76120    8.76270    4.88290  180.81300  249.46730  275.04550    0.03490
 10725.00000    0.02780   54.32660   70.99010   38.56510    8.75260    4.89350  174.84920  235.48720  258.94000    0.03460
 10725.50000    0.02600   53.74590   70.17320   37.88510    8.79590    4.86920  165.95070  207.52680  231.63600    0.03330
 10726.00000    0.02950   53.39220   69.84540   36.39120    8.83910    4.81460  171.02110  207.52700  237.04000    0.03210
 10726.50000    0.03420   53.26610   70.21350   36.61070    8.88070    4.73130  161.02670  201.37930  223.12520    0.03100
 10727.00000    0.03700   53.36670   71.13570   36.61070    8.89210    4.64800  150.60330  193.69450  201.76820    0.02980
 10727.50000    0.03100   53.80840   72.05790   36.11790    8.89400    4.60140  141.24390  187.54670  211.74290    0.02860
 10728.00000    0.02360   54.42210   72.24150   35.22040    8.87260    4.63650  167.53710  236.98110  289.32410    0.02750
 10728.50000    0.01800   54.65720   71.24540   35.36810    8.86660    4.70520  177.12870  298.77410  402.37330    0.02630
 10729.00000    0.00920   53.78950   70.24920   36.51160    8.85160    4.77800  169.76800  268.53070  331.65960    0.02490
 10729.50000    0.00610   53.23500   69.25310   35.05440    8.84870    4.79820  182.73940  299.88740  461.93890    0.02350
 10730.00000    0.00590   53.27830   68.25690   36.02780    8.88200    4.78230  134.52060  222.25710  370.21130    0.02200
 10730.50000    0.01060   53.40760   67.66010   37.02340    8.91220    4.78820  145.66850  265.23260  366.16250    0.02050
 10731.00000    0.01340   53.31140   68.56500   37.34590    8.91190    4.81820  165.19720  307.60100  421.32400    0.01990
 10731.50000    0.01490   53.41860   70.07140   36.64100    8.87490    4.74640  157.45130  289.93480  365.65650    0.02090
 10732.00000    0.01640   53.80590   71.57770   36.47150    8.82840    4.54410  148.44050  278.60270  324.62160    0.02310
 10732.50000    0.01860   54.44950   72.24960   35.92140    8.78190    4.29580  138.50970  259.28920  308.12030    0.02540
 10733.00000    0.02000   54.45170   71.51830   35.91250    8.77450    4.14160  125.26340  213.07020  240.86640    0.02760
 10733.50000    0.02180   53.39370   70.52620   35.90360    8.77680    4.10200  125.62760  194.58300  234.87310    0.02820
 10734.00000    0.02170   52.69560   69.79500   36.48450    8.77920    4.15000  129.88740  240.45610  263.49550    0.02790
