~Version ---------------------------------------------------
VERS.   2.0 : CWLS log ASCII Standard -VERSION 2.0
WRAP.    NO : One line per depth step
DLM . SPACE : Column Data Section Delimiter
~Well ------------------------------------------------------
STRT .FT                8824.0 : START DEPTH
STOP .FT               14284.0 : STOP DEPTH
STEP .FT                   0.5 : STEP
NULL .                -9999.25 : NULL VALUE
COMP .                         : COMPANY
WELL .                         : WELL
FLD  .                         : FIELD
LOC  .                         : LOCATION
PROV .                         : PROVINCE
CNTY .                         : COUNTY
STAT .                         : STATE
CTRY .                         : COUNTRY
SRVC .                         : SERVICE COMPANY
DATE .                         : DATE
UWI  .                         : UNIQUE WELL ID
API  .                         : API NUMBER
SLAT .WGS84  6.408765936937996 : SURFACE LATITUDE
SLON .WGS84 3.6245272197060956 : SURFACE LONGITUDE
DATUM.F                    nan : DEPTH DATUM ELEV
~Curve Information -----------------------------------------
DEPT   .FT    : 
DPHZ_LS.DEC   : HGRD STANDARD RESOLUTION DENSITY POROSITY
DTCO   .US/F  : DELTA-T COMPRESSIONAL
DTSM   .US/F  : DELTA-T SHEAR
ECGRR  .GAPI  : ENVIRONMENTALLY CORRECTED GAMMA RAY FROM RESISTIVITY LOG
HCALR  .IN    : HRCC CALIPER CALIBRATED FROM RESISTIVITY LOG
PEFZ   .B/E   : HRDD STANDARD RESOLUTION FORMATION PHOTOELECTRIC FACTOR
RLA1   .OHMM  : APPARENT RESISTIVITY FROM COMPUTED FOCUSING MODE 1
RLA3   .OHMM  : APPARENT RESISTIVITY FROM COMPUTED FOCUSING MODE 3
RLA5   .OHMM  : APPARENT RESISTIVITY FROM COMPUTED FOCUSING MODE 5
TNPH_LS.DEC   : THERMAL NEUTRON POROSITY [LIMESTONE]
~Params ----------------------------------------------------
~Other -----------------------------------------------------
~ASCII -----------------------------------------------------
# ...
 8956.00000   -9999.25   -9999.25   -9999.25   26.51500   -9999.25   -9999.25   -9999.25   -9999.25   -9999.25    0.26130
 8956.50000   -9999.25   -9999.25   -9999.25   29.12970   -9999.25   -9999.25   -9999.25   -9999.25   -9999.25    0.30020
 8957.00000   -9999.25   -9999.25   -9999.25   27.38260   -9999.25   -9999.25   -9999.25   -9999.25   -9999.25    0.37070
 8957.50000   -9999.25   -9999.25   -9999.25   24.28600   -9999.25   -9999.25   -9999.25   -9999.25   -9999.25    0.34710
 8958.00000   -9999.25   -9999.25   -9999.25   19.85740   -9999.25   -9999.25   -9999.25   -9999.25   -9999.25    0.29970
 8958.50000   -9999.25   -9999.25   -9999.25   18.31230   -9999.25   -9999.25   -9999.25   -9999.25   -9999.25    0.21180
 8959.00000   -9999.25   -9999.25   -9999.25   18.48880   -9999.25   -9999.25   -9999.25   -9999.25   -9999.25    0.19060
 8959.50000   -9999.25   -9999.25   -9999.25   17.60670   -9999.25   -9999.25   -9999.25   -9999.25   -9999.25    0.18440
 8960.00000   -9999.25   -9999.25   -9999.25   14.96860   -9999.25   -9999.25   -9999.25   -9999.25   -9999.25    0.16410
 8960.50000   -9999.25   -9999.25   -9999.25   12.57290   -9999.25   -9999.25   -9999.25   -9999.25   -9999.25    0.13770
 8961.00000   -9999.25   -9999.25   -9999.25   12.18300   -9999.25   -9999.25   -9999.25   -9999.25   -9999.25    0.11930
 8961.50000   -9999.25   -9999.25   -9999.25   12.30310   -9999.25   -9999.25   -9999.25   -9999.25   -9999.25    0.10920
 8962.00000   -0.02590   -9999.25   -9999.25   14.12300    9.97150    7.51580    0.20560    3.08130    6.55780    0.09920
 8962.50000    0.03640   -9999.25   -9999.25   18.13220   11.31970    5.96510    7.10450   12.13020   17.35940    0.09360
 8963.00000    0.09170   -9999.25   -9999.25   23.32080   11.86690    5.59350    9.74900   15.08920   19.44920    0.11370
 8963.50000    0.12420   -9999.25   -9999.25   27.30540   12.32530    5.43300    4.71590    6.95920   11.61870    0.14730
 8964.00000    0.15070   -9999.25   -9999.25   28.50050   12.99040    5.38380    8.07910   12.53270   18.53440    0.17530
 8964.50000    0.10060   -9999.25   -9999.25   26.91970   12.22810    5.32170   16.48700   21.93620   34.12960    0.16850
 8965.00000    0.08660   -9999.25   -9999.25   26.73960   12.20750    5.27530   18.66910   24.05440   41.21880    0.15440
 8965.50000    0.17160   -9999.25   -9999.25   28.82170   12.19520    5.22900    6.76390   13.39250   23.71920    0.15820
 8966.00000    0.24200   -9999.25   -9999.25   31.51780   12.20650    5.17090    4.18910    5.37690    7.07060    0.20630
 8966.50000    0.27350   -9999.25   -9999.25   35.48430   12.56120    5.16100    4.66000    6.46280    8.88260    0.25340
 8967.00000    0.24720   -9999.25   -9999.25   36.18050   12.98760    5.19840    5.64020    7.38620   10.62050    0.29170
 8967.50000    0.19570   -9999.25   -9999.25   32.49670   12.91970    5.27180    5.13950    9.85440   12.21040    0.26400
 8968.00000    0.11590   -9999.25   -9999.25   27.43840   12.26310    5.29210   11.67720   18.74550   30.37160    0.19480
 8968.50000    0.07110   -9999.25   -9999.25   22.42430   12.21330    5.27980   29.36630   46.33860   58.61220    0.13210
 8969.00000    0.02440   -9999.25   -9999.25   19.26190   12.15100    5.21500   57.24480   75.64860   86.84780    0.09520
 8969.50000    0.00990   -9999.25   -9999.25   17.97870   12.13250    5.11960   80.52980   92.73070  115.06340    0.08760
 8970.00000    0.01510   -9999.25   -9999.25   17.65520   12.14120    5.02430   67.34310   93.65640  120.70660    0.08660
 8970.50000    0.03440   -9999.25   -9999.25   18.46440   12.14990    4.99950   37.27090   63.81780   80.46000    0.09730
 8971.00000    0.05270   -9999.25   -9999.25   20.26980   12.14990    5.03950    9.26850   20.16090   16.12010    0.11960
 8971.50000    0.06130   -9999.25   -9999.25   22.92130   12.68200    5.07960   12.28570   15.00750   18.04890    0.14200
 8972.00000    0.07750   -9999.25   -9999.25   25.90040   12.08650    5.11960   16.51020   18.95790   23.22380    0.14960
 8972.50000    0.16970   -9999.25   -9999.25   31.60940   12.05930    5.15970   11.27880   14.31340   19.05840    0.16030
 8973.00000    0.27010   -9999.25   -9999.25   37.31850   12.20410    5.14630    3.55530    5.88210    8.63680    0.22430
 8973.50000    0.29700   -9999.25   -9999.25   39.58430   12.96830    5.01840    3.55540    4.18580    4.91690    0.28620
 8974.00000    0.22350   -9999.25   -9999.25   40.82200   13.51940    4.89050    5.44280    6.11740    6.78230    0.30610
 8974.50000    0.14380   -9999.25   -9999.25   39.56810   12.89540    4.80760    6.02960    6.82290    7.60650    0.29780
 8975.00000    0.13220   -9999.25   -9999.25   38.66830   12.02750    4.81050    8.19720    9.75200   11.18950    0.23560
 8975.50000    0.19740   -9999.25   -9999.25   37.85290   11.90090    4.86890    4.95370    6.38110    6.43730    0.24150
 8976.00000    0.25110   -9999.25   -9999.25   36.94660   11.74240    4.90870    6.35180    6.81240    8.43720    0.23490
 8976.50000    0.24890   -9999.25   -9999.25   35.96270   10.30470    4.91940    6.18860    7.30530    9.87300    0.20780
 8977.00000    0.21000   -9999.25   -9999.25   36.90420   10.02170    4.84950    4.65870    5.11690    5.56260    0.20570
 8977.50000    0.16520   -9999.25   -9999.25   38.21850   10.80280    4.78340    7.57060    8.08810    9.24090    0.19740
 8978.00000    0.14460   -9999.25   -9999.25   39.09520    9.90850    4.73270    6.19270    8.08680    9.00600    0.19070
 8978.50000    0.12230   -9999.25   -9999.25   40.46560   10.01040    4.69240    4.17110    4.36590    4.80680    0.19690
 8979.00000    0.10540   -9999.25   -9999.25   41.85460   10.33950    4.63400    4.43270    5.00830    5.49060    0.20370
 8979.50000    0.08460   -9999.25   -9999.25   40.50450    9.88970    4.57560    5.74060    5.82150    6.17430    0.19770
 8980.00000    0.07410   -9999.25   -9999.25   38.94600    9.61090    4.51250    5.88340    6.18590    6.43810    0.18110
 8980.50000    0.06880   -9999.25   -9999.25   39.58530    9.54630    4.44850    6.09810    6.62290    7.38640    0.17720
 8981.00000    0.05850   -9999.25   -9999.25   40.31820    9.49770    4.38050    6.00410    6.46990    7.38500    0.17190
 8981.50000    0.05080   -9999.25   -9999.25   39.90790    9.47860    4.35240    5.91020    6.24020    6.64210    0.16690
 8982.00000    0.03680   -9999.25   -9999.25   38.08900    9.44790    4.35100    6.37490    6.62240    7.09210    0.16490
 8982.50000    0.03080   -9999.25   -9999.25   36.51520    9.42750    4.35370    6.83960    7.25940    7.65470    0.16080
 8983.00000    0.03500   -9999.25   -9999.25   38.63330    9.40700    4.37220    6.70910    7.16260    7.74230    0.15750
 8983.50000    0.04440   -9999.25   -9999.25   40.70860    9.37770    4.42060    6.41120    6.55770    7.21050    0.15840
 8984.00000    0.05030   -9999.25   -9999.25   41.05020    9.34890    4.45550    6.29200    6.75040    7.10780    0.16190
 8984.50000    0.05050   -9999.25   -9999.25   39.74480    9.34290    4.42880    6.67460    7.06860    7.65800    0.16690
 8985.00000    0.04450   -9999.25   -9999.25   37.50810    9.34930    4.40200    7.05710    7.38690    8.26890    0.16140
 8985.50000    0.03680   -9999.25   -9999.25   37.16900    9.35320    4.37530    7.13110    7.35150    8.20720    0.16940
 8986.00000    0.03230   -9999.25   -9999.25   36.67320    9.35710    4.33890    6.90300    7.17450    7.89850    0.17210
 8986.50000    0.03550   -9999.25   -9999.25   36.33850    9.36100    4.37430    6.64620    6.99750    7.58970    0.17480
 8987.00000    0.03550   -9999.25   -9999.25   36.69550    9.38660    4.40540    6.49210    7.15960    7.52800    0.16630
 8987.50000    0.03550   -9999.25   -9999.25   37.20610    9.38880    4.40520    7.75180    8.23880    8.89550    0.15770
 8988.00000    0.03520   -9999.25   -9999.25   37.75760    9.39700    4.40490    7.47890    8.01650    8.66300    0.15130
 8988.50000    0.03760   -9999.25   -9999.25   38.69870    9.39370    4.38830    7.20600    7.46060    7.84880    0.15530
