~Version ---------------------------------------------------
VERS.   2.0 : CWLS log ASCII Standard -VERSION 2.0
WRAP.    NO : One line per depth step
DLM . SPACE : Column Data Section Delimiter
~Well ------------------------------------------------------
STRT .FT                8824.0 : START DEPTH
STOP .FT               14284.0 : STOP DEPTH
STEP .FT                   0.5 : STEP
NULL .                -9999.25 : NULL VALUE
COMP .                         : COMPANY
WELL .                         : WELL
FLD  .                         : FIELD
LOC  .                         : LOCATION
PROV .                         : PROVINCE
CNTY .                         : COUNTY
STAT .                         : STATE
CTRY .                         : COUNTRY
SRVC .                         : SERVICE COMPANY
DATE .                         : DATE
UWI  .                         : UNIQUE WELL ID
API  .                         : API NUMBER
SLAT .WGS84  6.408765936937996 : SURFACE LATITUDE
SLON .WGS84 3.6245272197060956 : SURFACE LONGITUDE
DATUM.F                    nan : DEPTH DATUM ELEV
~Curve Information -----------------------------------------
DEPT   .FT    : 
DPHZ_LS.DEC   : HGRD STANDARD RESOLUTION DENSITY POROSITY
DTCO   .US/F  : DELTA-T COMPRESSIONAL
DTSM   .US/F  : DELTA-T SHEAR
ECGRR  .GAPI  : ENVIRONMENTALLY CORRECTED GAMMA RAY FROM RESISTIVITY LOG
HCALR  .IN    : HRCC CALIPER CALIBRATED FROM RESISTIVITY LOG
PEFZ   .B/E   : HRDD STANDARD RESOLUTION FORMATION PHOTOELECTRIC FACTOR
RLA1   .OHMM  : APPARENT RESISTIVITY FROM COMPUTED FOCUSING MODE 1
RLA3   .OHMM  : APPARENT RESISTIVITY FROM COMPUTED FOCUSING MODE 3
RLA5   .OHMM  : APPARENT RESISTIVITY FROM COMPUTED FOCUSING MODE 5
TNPH_LS.DEC   : THERMAL NEUTRON POROSITY [LIMESTONE]
~Params ----------------------------------------------------
~Other -----------------------------------------------------
~ASCII -----------------------------------------------------
# ...
 13533.50000    0.00500   54.84860   75.81890   68.25630    8.70550    3.91060   52.53400   68.24440   86.96840    0.07340
 13534.00000    0.00250   54.77370   75.92250   67.43200    8.71680    4.02100   51.24060   67.57740   85.77660    0.07540
 13534.50000    0.00320   54.89760   75.87230   69.23620    8.72180    4.16490   50.79110   69.30930   85.06130    0.07660
 13535.00000    0.00480   55.50880   75.71940   66.83670    8.72080    4.26090   50.90410   70.69270   89.89330    0.07580
 13535.50000    0.00800   56.12000   75.38330   65.29780    8.71980    4.37720   51.20150   72.07620   91.56390    0.07180
 13536.00000    0.00990   56.73120   75.23780   63.37950    8.73490    4.40490   51.25850   71.45510   91.56350    0.07040
 13536.50000    0.01380   56.45970   75.12740   65.44500    8.76060    4.40470   51.31550   70.67890   91.56330    0.07080
 13537.00000    0.01520   56.01710   75.31310   66.43680    8.78640    4.33450   51.37250   69.90280   90.72330    0.07200
 13537.50000    0.01520   55.81320   75.48510   67.87070    8.79840    4.24500   51.41810   69.12660   87.47500    0.07190
 13538.00000    0.01300   55.91860   75.62300   67.23550    8.81080    4.17630   51.39250   68.35040   85.49020    0.07180
 13538.50000    0.01200   56.00280   75.62400   66.13680    8.81340    4.23060   51.26580   67.57420   87.64890    0.07170
 13539.00000    0.01280   55.98430   75.62400   64.63710    8.78840    4.31750   51.03330   67.57400   89.80760    0.07300
 13539.50000    0.01580   55.66830   75.62600   64.09710    8.78330    4.40450   50.72010   68.07600   91.96630    0.07290
 13540.00000    0.01980   55.38060   75.55510   63.96250    8.77820    4.40260   51.74230   68.82930   94.12500    0.07080
 13540.50000    0.02410   55.04310   75.31080   64.55530    8.79250    4.42360   54.41350   70.26780   96.98510    0.06930
 13541.00000    0.02740   54.87740   75.12240   65.97620    8.78140    4.38710   54.95210   71.27000   98.55960    0.06850
 13541.50000    0.02720   54.80180   74.93410   67.18660    8.78510    4.30040   54.30590   71.41100   98.55940    0.06900
 13542.00000    0.02420   54.80180   74.82970   66.54070    8.79740    4.24050   54.42360   70.75600   98.55870    0.06960
 13542.50000    0.02000   54.79710   74.75100   65.33950    8.84010    4.12540   54.94540   69.46430   99.47000    0.06990
 13543.00000    0.01580   54.79670   74.72390   64.03230    8.91690    3.95770   55.46730   68.19620   97.35860    0.06940
 13543.50000    0.01730   54.79250   74.75590   65.62980    8.95430    3.85590   49.79960   63.25450   84.81170    0.07290
 13544.00000    0.02210   54.79110   74.92510   67.07620    8.94590    3.71820   44.85000   58.31290   70.09690    0.07630
 13544.50000    0.02730   54.74060   75.12850   67.58260    8.89450    3.67430   44.08060   58.31270   68.18630    0.08040
 13545.00000    0.03220   54.61990   75.43450   68.86100    8.90620    3.67430   44.57470   57.24800   68.18600    0.08540
 13545.50000    0.03300   54.50430   75.57640   70.88710    8.92150    3.72250   44.70950   53.61420   67.56050    0.08860
 13546.00000    0.03480   54.01270   75.62590   72.83550    8.94080    3.75570   42.77380   49.72810   62.41750    0.09230
 13546.50000    0.03960   53.30450   76.24990   73.53120    8.94400    3.76370   39.36220   48.27960   58.30310    0.09710
 13547.00000    0.04520   52.59640   76.53800   74.27070    8.94300    3.75450   40.26560   48.05700   57.23870    0.09850
 13547.50000    0.04760   52.31170   76.82620   74.31000    8.90480    3.75510   42.96230   50.78700   61.34310    0.09780
 13548.00000    0.04420   53.45660   77.11430   73.43400    8.78880    3.76440   45.94060   58.41770   68.18380    0.09700
 13548.50000    0.03400   55.36640   77.40250   70.78270    8.69510    3.80200   46.24550   61.62280   70.09370    0.09630
 13549.00000    0.02110   57.02420   77.77980   68.13130    8.78030    3.77310   47.20020   61.36600   71.00480    0.09550
 13549.50000    0.01260   57.32970   77.95090   66.60410    8.82010    3.74430   48.76110   60.08330   73.39610    0.09270
 13550.00000    0.01710   57.65110   77.78740   69.23000    8.88370    3.71550   50.00980   58.80050   74.07480    0.08940
 13550.50000    0.02370   57.88630   77.62390   71.51160    8.94730    3.67940   46.78130   57.77420   70.58960    0.08830
 13551.00000    0.02750   58.05710   77.46050   73.91320    8.95090    3.64870   44.19840   56.71950   66.32370    0.08840
 13551.50000    0.02780   58.19360   77.29700   74.84370    9.02630    3.64430   46.44230   57.51000   70.74000    0.08930
 13552.00000    0.02880   57.07690   77.29640   75.23500    9.03250    3.62970   48.62590   60.29550   80.79330    0.08910
 13552.50000    0.03150   56.08080   77.29640   77.85220    9.05110    3.63220   51.71880   68.49990   91.99310    0.08890
 13553.00000    0.03070   55.08480   77.29470   79.50150    9.03310    3.66750   59.55050   79.01540  103.19280    0.08770
 13553.50000    0.02450   54.08870   77.37090   81.00700    9.00140    3.73410   59.37080   79.01500  105.53670    0.08700
 13554.00000    0.01590   53.94480   77.49830   81.52380    8.95630    3.79280   59.19110   82.19820  104.62520    0.08700
 13554.50000    0.01400   53.78040   77.69140   80.93790    8.94110    3.76180   59.01130   85.05570  103.71370    0.08730
 13555.00000    0.01720   54.05380   77.91860   78.46340    8.90620    3.71370   58.99920   86.63660  102.80230    0.08750
 13555.50000    0.02490   54.90850   78.21420   74.97610    8.87940    3.66560   55.30280   83.25540  101.89080    0.08720
 13556.00000    0.03040   55.76320   78.33150   73.77390    8.84380    3.65830   54.21270   81.22660  100.97930    0.08500
 13556.50000    0.03190   55.93390   78.33230   74.79040    8.79940    3.68230   55.03700   84.33150  100.25000    0.08020
 13557.00000    0.03130   55.58480   78.43980   74.75030    8.80940    3.71440   55.81390   87.43650  100.33400    0.07540
 13557.50000    0.03030   55.30760   78.86190   72.99890    8.84320    3.75380   56.50420   87.43610  100.54480    0.07170
 13558.00000    0.02430   55.76900   78.88690   71.21230    8.87130    3.83330   57.19460   84.34440  100.75560    0.06790
 13558.50000    0.01920   56.13810   79.08600   70.41910    8.90280    3.91210   57.88500   80.48000  100.96640    0.06210
 13559.00000    0.01400   56.03520   79.02570   69.48600    8.89870    3.93390   58.57530   79.01060  101.17710    0.05720
 13559.50000    0.01250   55.72720   78.96540   68.75900    8.85250    3.88840   60.10990   81.22380  101.30330    0.05500
 13560.00000    0.01080   54.23550   78.90510   69.94950    8.84470    3.93110   61.85550   87.48710  101.30290    0.05460
 13560.50000    0.00940   53.93770   78.84490   70.31300    8.78880    4.01240   64.74240   92.84600  109.99250    0.05480
 13561.00000    0.00840   53.94030   78.55070   68.36900    8.72390    4.11310   68.65710   97.65470  115.09710    0.05530
 13561.50000    0.00710   53.98560   78.18070   65.78430    8.68940    4.23220   68.35210   97.65830  114.00940    0.05360
 13562.00000    0.00750   54.05660   77.81870   63.31110    8.70030    4.37250   68.23290   96.16570  113.13910    0.05040
 13562.50000    0.00960   54.12770   77.75500   60.83790    8.71400    4.46450   68.63620   95.86690  114.77580    0.04730
 13563.00000    0.01350   54.15710   77.35920   61.30450    8.71400    4.48180   69.68190   96.50300  117.50410    0.04530
 13563.50000    0.01740   54.16030   77.27810   60.93410    8.71600    4.47440   70.88830   97.13900  120.23240    0.04430
 13564.00000    0.01800   54.08400   77.05510   62.89910    8.71790    4.44700   71.61190   97.64780  122.96070    0.04410
 13564.50000    0.01770   54.00780   76.87730   63.45760    8.70490    4.43030   71.20120   97.39270  123.48300    0.04430
 13565.00000    0.01640   53.86050   76.59500   64.42570    8.70360    4.42060   70.95460   96.96790  119.59450    0.04430
 13565.50000    0.01740   53.40880   76.26720   65.59570    8.70770    4.41100   70.62900   96.54310  116.03860    0.04390
 13566.00000    0.01880   52.94190   76.29900   67.11750    8.71190    4.42790   69.02020   96.11830  115.23840    0.04510
