~Version ---------------------------------------------------
VERS.   2.0 : CWLS log ASCII Standard -VERSION 2.0
WRAP.    NO : One line per depth step
DLM . SPACE : Column Data Section Delimiter
~Well ------------------------------------------------------
STRT .FT                8824.0 : START DEPTH
STOP .FT               14284.0 : STOP DEPTH
STEP .FT                   0.5 : STEP
NULL .                -9999.25 : NULL VALUE
COMP .                         : COMPANY
WELL .                         : WELL
FLD  .                         : FIELD
LOC  .                         : LOCATION
PROV .                         : PROVINCE
CNTY .                         : COUNTY
STAT .                         : STATE
CTRY .                         : COUNTRY
SRVC .                         : SERVICE COMPANY
DATE .                         : DATE
UWI  .                         : UNIQUE WELL ID
API  .                         : API NUMBER
SLAT .WGS84  6.408765936937996 : SURFACE LATITUDE
SLON .WGS84 3.6245272197060956 : SURFACE LONGITUDE
DATUM.F                    nan : DEPTH DATUM ELEV
~Curve Information -----------------------------------------
DEPT   .FT    : 
DPHZ_LS.DEC   : HGRD STANDARD RESOLUTION DENSITY POROSITY
DTCO   .US/F  : DELTA-T COMPRESSIONAL
DTSM   .US/F  : DELTA-T SHEAR
ECGRR  .GAPI  : ENVIRONMENTALLY CORRECTED GAMMA RAY FROM RESISTIVITY LOG
HCALR  .IN    : HRCC CALIPER CALIBRATED FROM RESISTIVITY LOG
PEFZ   .B/E   : HRDD STANDARD RESOLUTION FORMATION PHOTOELECTRIC FACTOR
RLA1   .OHMM  : APPARENT RESISTIVITY FROM COMPUTED FOCUSING MODE 1
RLA3   .OHMM  : APPARENT RESISTIVITY FROM COMPUTED FOCUSING MODE 3
RLA5   .OHMM  : APPARENT RESISTIVITY FROM COMPUTED FOCUSING MODE 5
TNPH_LS.DEC   : THERMAL NEUTRON POROSITY [LIMESTONE]
~Params ----------------------------------------------------
~Other -----------------------------------------------------
~ASCII -----------------------------------------------------
# ...
 9649.00000   -0.00890   59.44440   75.48810   38.58060   10.19330    5.12380   37.48840   71.69730   80.83900    0.02940
 9649.50000   -0.01190   54.41220   73.48790   29.12690   10.38580    5.30360   76.15910  120.44280  163.40940    0.02250
 9650.00000    0.03130   50.75290   70.39820   29.89830   10.48770    5.36080   85.05960  115.14250  253.58380    0.02360
 9650.50000    0.08590   50.07390   69.02680   37.82650   10.60930    5.30740   17.80080   34.40620   99.25680    0.05050
 9651.00000    0.11220   53.64940   71.60500   45.41110   10.82730    5.22730    8.66900   10.38100   13.53960    0.09190
 9651.50000    0.08730   57.99030   75.52890   45.91470   10.41980    5.09380    9.85560   13.00850   18.05410    0.11270
 9652.00000    0.06150   61.50210   76.21480   48.07100   11.50650    4.89360   14.60160   17.21510   22.33450    0.11490
 9652.50000    0.07400   63.72690   77.24290   57.14240   10.47640    4.55320    9.50330   13.53260   14.81370    0.13740
 9653.00000    0.08880   67.41210   78.40760   69.67180   10.60910    4.21440    7.26090    8.05360    8.38100    0.16500
 9653.50000    0.09240   72.51870   86.57240   76.15990   10.99760    4.08930    7.18560    7.63340    8.34070    0.19250
 9654.00000    0.08570   76.04510   93.32990   80.39090   11.08380    4.03920    7.21790    7.77450    8.39900    0.20620
 9654.50000    0.07650   76.71400   97.56060   77.33440   11.03800    4.07930    7.37090    7.95100    8.45720    0.20400
 9655.00000    0.06970   77.38290  100.30490   79.03250   10.98580    4.12670    7.81080    8.10150    8.55770    0.20130
 9655.50000    0.06290   77.02570  100.34150   77.50430   10.92540    4.21610    7.41400    8.02160    8.64740    0.19900
 9656.00000    0.06640   75.96210   98.08570   79.54200   10.78200    4.32400    8.82860    9.95170   11.09810    0.19270
 9656.50000    0.08320   73.94080   95.75090   75.97610   11.15560    4.39690   10.24330   10.98540   11.70080    0.19110
 9657.00000    0.10050   73.03060   93.67850   76.99490   10.81320    4.37830    8.62220    9.15970    9.23380    0.20870
 9657.50000    0.09750   74.94620   96.02150   78.31940   10.88840    4.27350    7.64960    8.26390    8.66570    0.21920
 9658.00000    0.08330   77.79530  100.85040   81.57970   11.13300    4.18260    7.91030    8.33920    8.75680    0.22780
 9658.50000    0.07640   78.93620  102.98830   79.00430   10.92070    4.12260    7.93410    8.41440    9.01580    0.22880
 9659.00000    0.06940   78.67240  102.51170   75.46680   11.11260    4.03590    8.71210    9.34400   10.03510    0.21190
 9659.50000    0.06200   78.23150   99.84060   73.20270   10.75940    3.93580   10.35080   10.77730   12.71890    0.17820
 9660.00000    0.05460   77.81360   96.86870   74.31210   10.65750    3.79310    9.91360   10.89300   11.26780    0.15080
 9660.50000    0.05120   77.53950   93.89680   77.05260   10.18210    3.59770    9.99970    9.87920   11.08950    0.14620
 9661.00000    0.05190   77.26540   90.92490   77.23880   10.51710    3.40230   11.88730   12.78530   13.82550    0.12910
 9661.50000    0.05230   76.89520   87.95300   76.71390    9.98960    3.23560   13.12530   13.56920   14.04480    0.11130
 9662.00000    0.05190   74.42030   85.25430   73.47030    9.83110    3.13570   12.61890   13.45760   14.23080    0.11110
 9662.50000    0.05200   71.90450   83.41470   72.52490    9.53250    3.05740   12.61890   13.43530   14.41680    0.10810
 9663.00000    0.05390   69.38860   82.08190   73.85550    9.48750    3.03920   13.39490   14.00550   14.56550    0.10110
 9663.50000    0.05240   66.87280   80.96650   73.59910    9.48010    3.02740   14.15260   14.57580   15.35260    0.09230
 9664.00000    0.05120   65.43280   80.00730   69.46180    9.20860    3.08480   15.35600   15.43660   16.94870    0.08330
 9664.50000    0.04880   64.32590   77.94230   64.26430    9.04960    3.19380   17.80190   18.09130   18.51330    0.07420
 9665.00000    0.04810   63.21900   76.04830   59.50260    8.92740    3.24740   18.17700   19.67280   21.00570    0.06460
 9665.50000    0.05010   62.11210   74.15430   56.23700    8.91300    3.24430   22.62770   25.09630   26.49200    0.06130
 9666.00000    0.05010   61.00520   73.25420   52.64470    8.92120    3.20640   24.85300   25.85420   27.42880    0.05770
 9666.50000    0.04640   59.68780   72.77350   49.48630    8.92940    3.18390   25.68680   27.60740   28.38950    0.05600
 9667.00000    0.03680   58.29820   72.47090   51.09640    9.04440    3.21480   27.23630   28.68190   29.76420    0.05400
 9667.50000    0.02480   58.42670   72.26380   51.99480    9.10120    3.22270   28.75950   29.34170   30.53930    0.05340
 9668.00000    0.01960   59.07720   72.26210   52.94320    9.11180    3.24500   28.75960   30.00150   30.53930    0.05450
 9668.50000    0.01970   59.72770   72.17120   54.28300    9.11530    3.25200   28.16610   30.00150   30.53940    0.05540
 9669.00000    0.01990   60.12760   72.16690   55.89310    9.11890    3.25360   24.95920   26.49800   28.01270    0.05670
 9669.50000    0.01630   60.31810   72.24620   57.26800    9.10600    3.25510   24.34050   24.84890   26.11770    0.05800
 9670.00000    0.01480   60.59150   72.46770   55.66430    9.08340    3.29060   25.10480   26.46820   26.89100    0.05930
 9670.50000    0.01690   60.99840   72.19680   54.63990    9.06130    3.34900   27.01560   27.43980   28.38990    0.06010
 9671.00000    0.02130   61.51160   71.92590   53.93970    9.03970    3.40750   25.80570   26.67180   27.74430    0.05980
 9671.50000    0.01970   61.08080   71.65500   53.96790    9.01470    3.38970   24.59580   25.71160   26.66820    0.05570
 9672.00000    0.01580   60.02070   71.38410   50.13600    9.00480    3.36660   28.52300   28.46740   30.54170    0.05170
 9672.50000    0.01440   58.96050   71.11310   45.81900    9.02730    3.42040   33.43200   33.00940   36.53140    0.04830
 9673.00000    0.01830   58.53660   70.84220   44.48580    9.05530    3.53080   38.34110   40.39860   41.54430    0.04760
 9673.50000    0.02350   58.98580   70.78830   47.56800    9.08330    3.61540   40.57250   41.42050   42.65020    0.04810
 9674.00000    0.02270   59.48320   70.78860   54.30460    9.11130    3.58590   37.69480   42.03360   43.53490    0.04980
 9674.50000    0.02300   59.98060   70.91550   62.43000    9.13930    3.48840   24.93040   28.72160   32.20020    0.05270
 9675.00000    0.02740   60.28230   71.23200   65.88900    9.16720    3.29280   23.30070   24.16110   25.91500    0.05510
 9675.50000    0.03890   60.28980   71.54860   63.41900    9.18980    3.05310   23.59140   24.36150   25.57920    0.05060
 9676.00000    0.04660   60.32670   71.69050   59.93910    9.19050    2.95280   21.73980   22.95420   25.05140    0.04810
 9676.50000    0.04810   60.46250   71.97860   60.23730    9.22210    2.89640   20.03390   21.41090   22.68050    0.04920
 9677.00000    0.04600   61.31600   72.49180   60.59150    9.23790    2.89540   18.70490   19.77320   20.56950    0.05370
 9677.50000    0.04900   62.22250   72.92240   60.69520    9.25370    2.92280   17.62730   18.48600   18.95710    0.05830
 9678.00000    0.05030   63.12900   73.35300   60.43470    9.26950    2.89580   16.54970   17.38680   18.09260    0.05980
 9678.50000    0.05340   63.51560   73.78360   61.81770    9.28250    2.88900   16.26480   16.81830   17.57390    0.06200
 9679.00000    0.05330   62.84900   74.00680   64.22300    9.33650    2.85040   16.51760   16.81250   17.85310    0.06420
 9679.50000    0.05400   61.78830   73.75040   66.02300    9.39960    2.82450   17.07570   17.56200   18.13230    0.07200
 9680.00000    0.05870   60.72760   73.10920   68.09140    9.50420    2.88730   16.72330   17.38870   17.75820    0.08340
 9680.50000    0.06770   60.15060   72.93030   71.54340    9.67060    2.99190   15.83110   16.02850   16.78130    0.09850
 9681.00000    0.07220   60.87020   74.52720   75.89570    9.79810    3.12920   14.46450   15.05800   15.66960    0.10870
 9681.50000    0.06150   63.38180   76.84640   79.88320    9.90950    3.31520   12.23120   13.08700   13.83910    0.11110
