~Version ---------------------------------------------------
VERS.   2.0 : CWLS log ASCII Standard -VERSION 2.0
WRAP.    NO : One line per depth step
DLM . SPACE : Column Data Section Delimiter
~Well ------------------------------------------------------
STRT .FT                8824.0 : START DEPTH
STOP .FT               14284.0 : STOP DEPTH
STEP .FT                   0.5 : STEP
NULL .                -9999.25 : NULL VALUE
COMP .                         : COMPANY
WELL .                         : WELL
FLD  .                         : FIELD
LOC  .                         : LOCATION
PROV .                         : PROVINCE
CNTY .                         : COUNTY
STAT .                         : STATE
CTRY .                         : COUNTRY
SRVC .                         : SERVICE COMPANY
DATE .                         : DATE
UWI  .                         : UNIQUE WELL ID
API  .                         : API NUMBER
SLAT .WGS84  6.408765936937996 : SURFACE LATITUDE
SLON .WGS84 3.6245272197060956 : SURFACE LONGITUDE
DATUM.F                    nan : DEPTH DATUM ELEV
~Curve Information -----------------------------------------
DEPT   .FT    : 
DPHZ_LS.DEC   : HGRD STANDARD RESOLUTION DENSITY POROSITY
DTCO   .US/F  : DELTA-T COMPRESSIONAL
DTSM   .US/F  : DELTA-T SHEAR
ECGRR  .GAPI  : ENVIRONMENTALLY CORRECTED GAMMA RAY FROM RESISTIVITY LOG
HCALR  .IN    : HRCC CALIPER CALIBRATED FROM RESISTIVITY LOG
PEFZ   .B/E   : HRDD STANDARD RESOLUTION FORMATION PHOTOELECTRIC FACTOR
RLA1   .OHMM  : APPARENT RESISTIVITY FROM COMPUTED FOCUSING MODE 1
RLA3   .OHMM  : APPARENT RESISTIVITY FROM COMPUTED FOCUSING MODE 3
RLA5   .OHMM  : APPARENT RESISTIVITY FROM COMPUTED FOCUSING MODE 5
TNPH_LS.DEC   : THERMAL NEUTRON POROSITY [LIMESTONE]
~Params ----------------------------------------------------
~Other -----------------------------------------------------
~ASCII -----------------------------------------------------
# ...
 13863.00000    0.02300   48.20360   70.01620   15.01180    8.97140    5.19610  714.02310 5600.10470 6939.20230    0.00180
 13863.50000    0.02620   48.38210   70.09850   15.00650    8.94660    5.20470  726.44520 5033.03310 6088.90860    0.00330
 13864.00000    0.02580   48.74120   70.32440   15.00120    8.91470    5.18360  769.62790 4465.96150 5544.55190    0.00280
 13864.50000    0.02200   48.58220   70.52190   14.95080    8.88280    5.15250 1026.37840 3898.89000 5000.19530    0.00350
 13865.00000    0.01690   48.49610   70.71940   14.72010    8.86960    5.12150 1475.58370 3616.21090 4783.22230    0.00300
 13865.50000    0.01180   48.22460   70.83800   14.48940    8.84540    5.09040  901.26200 3788.14370 4829.84170    0.00440
 13866.00000    0.01120   47.66400   70.78690   14.59710    8.81770    5.05940  912.44530 3413.19340 4700.24200    0.00420
 13866.50000    0.01180   47.22620   70.73580   14.69700    8.79740    5.02830  901.32820 2815.87330 3634.18560    0.00390
 13867.00000    0.01280   47.24540   70.38710   13.79720    8.73740    5.01890  893.10020 2697.33960 2995.18950    0.00430
 13867.50000    0.00960   47.45880   70.22320   13.99720    8.68940    5.02400  997.53820 3458.37100 3950.41650    0.00480
 13868.00000    0.00260   47.76260   69.81200   14.39710    8.71310    5.06480 1103.95640 5819.31740 9395.23210    0.00700
 13868.50000   -0.00490   48.00910   69.41100   14.53830    8.73670    5.08450 1117.64520 7237.27150 7690.45880    0.00840
 13869.00000   -0.00640   48.20630   69.03810   14.39130    8.79160    5.10030 1348.90890 4962.71410 6356.29000    0.00840
 13869.50000   -0.00510   48.41150   68.88900   14.35100    8.80890    5.10810 1510.07350 6815.39870 12514.12230    0.00850
 13870.00000    0.00150   48.95010   68.98510   15.88340    8.70650    5.12750  649.60090 6983.50350 11911.85170    0.00920
 13870.50000    0.01450   50.03990   69.22530   17.41580    8.70930    5.14690 1096.88660 5637.26240 9456.45980    0.00940
 13871.00000    0.01820   50.37310   69.46560   18.59630    8.67210    5.21460  854.29150 4382.47870 7001.06780    0.00970
 13871.50000    0.01040   49.34160   69.41040   18.43580    8.63340    5.22770  757.74330 3192.34680 4069.86760    0.00950
 13872.00000   -0.00040   48.51530   68.89680   17.52000    8.76840    5.16670  696.55240 4787.51410 5632.23840    0.00910
 13872.50000   -0.00240   47.68900   68.58830   16.94660    8.84140    5.14490  649.61190 5446.40670 6631.01920    0.00870
 13873.00000   -0.00090   47.19320   68.58780   16.34670    8.83180    5.13750  602.98440 7736.31450 11118.90300    0.00830
 13873.50000    0.00090   47.29580   68.58710   15.84860    8.84420    5.13010  573.61640 11697.95840 13476.59840    0.00400
 13874.00000    0.00210   47.92070   68.68900   15.88580    8.86590    5.13950    6.29510 11915.43970 20663.30160    0.00320
 13874.50000    0.00330   48.57360   68.85940   15.75730    8.90400    5.17420  509.33740 14112.38580 20174.50320    0.00230
 13875.00000    0.00460   48.83480   69.09810   15.50890    8.88770    5.18260  548.28400 13185.90890 18489.65640    0.00150
 13875.50000    0.00540   48.74170   69.09750   14.78010    8.86060    5.17900  470.93790 10002.53480 17705.38200    0.00070
 13876.00000    0.00520   48.78340   68.78910   14.34470    8.81760    5.16360  383.15580 8319.74610 12290.80380   -0.00020
 13876.50000    0.00450   48.81590   68.27550   15.08250    8.78240    5.14940  423.64840 8474.42170 10506.29770   -0.00050
 13877.00000    0.00300   48.82740   68.06960   16.00180    8.81480    5.13100  333.43060 7449.20750 11630.01530   -0.00120
 13877.50000    0.00210   48.76820   68.21890   16.35490    8.85140    5.13090  315.50450 7449.20750 9762.93250   -0.00020
 13878.00000    0.00360   48.78650   68.45510   16.48770    8.90650    5.13080  291.48730 4269.83530 7352.25840    0.00080
 13878.50000    0.00510   48.80480   68.69120   16.76690    8.96150    5.13070  272.27360 1872.14030 1965.98540    0.00110
 13879.00000    0.00700   48.76740   68.78530   17.02950    9.00940    5.13060  427.56830 1852.43040 1877.50780    0.00060
 13879.50000    0.00700   48.67470   68.85790   17.17100    9.11540    5.13060  277.33550 1994.07690 2002.54250   -0.00050
 13880.00000    0.00110   48.35480   68.88660   16.72100    9.19960    5.13050  309.14300 3175.68760 7048.91760   -0.00100
 13880.50000   -0.00050   48.03490   69.04300   15.98880    9.24350    5.13040  395.26780 5393.07050 10094.73730   -0.00150
 13881.00000    0.00240   47.71500   69.30210   15.14500    9.31470    5.13030  476.19860 6975.82250 11004.75270   -0.00210
 13881.50000    0.00540   47.39510   69.56120   15.24280    9.38580    5.13030  523.10580 6736.86320 8125.70390   -0.00210
 13882.00000    0.00640   47.13970   69.76900   16.34050    9.37890    5.13020  524.50580 6338.59760 7543.62840   -0.00210
 13882.50000    0.00700   47.14180   69.77160   16.40640    9.25720    5.13010  523.60710 5855.92390 6466.74090   -0.00130
 13883.00000    0.00800   47.12380   69.56890   15.89170    9.21450    5.13000  696.63540 4805.85690 5033.38120   -0.00050
 13883.50000    0.01260   47.04440   69.04830   15.09260    9.17750    5.13700  595.66970 3941.06720 3886.69340    0.00000
 13884.00000    0.01760   47.04700   68.69180   15.01700    9.14050    5.17500  610.19580 4002.46290 4502.01360    0.00100
 13884.50000    0.01760   47.15820   68.44770   15.02360    9.17440    5.16760  649.60690 4335.41390 5768.08730    0.00110
 13885.00000    0.01200   47.43240   68.45080   15.11880    9.15900    5.16010  668.39000 4524.75870 6332.57420    0.00110
 13885.50000    0.00000   47.70660   68.70970   15.06970    9.13270    5.15270  656.41120 3308.22790 4032.55480    0.00110
 13886.00000    0.00050   47.98070   68.96850   15.02060    9.11560    5.14530  676.16210 4171.51820 4770.96800    0.00110
 13886.50000    0.00290   48.29110   69.24460   15.19800    9.10360    5.12130  691.48650 4739.60190 7317.43530    0.00110
 13887.00000    0.00540   48.52820   69.41820   16.00180    9.09170    5.09740  706.81080 4566.62570 7754.97290    0.00110
 13887.50000    0.00640   48.80930   69.48920   15.75970    9.10530    5.07360  752.94430 5182.06860 6877.80250    0.00120
 13888.00000    0.00520   48.96580   69.49020   15.77160    9.11930    5.04970  778.04650 5670.22150 6509.98950    0.00130
 13888.50000    0.00480   49.01970   69.49440   15.78350    9.13180    5.04020  701.26520 5439.95640 6882.19120    0.00130
 13889.00000    0.00620   49.02080   69.59960   16.04680    9.14430    5.06820  670.34660 6014.05570 8365.82580    0.00140
 13889.50000    0.00960   49.02490   69.70470   16.22480    9.15680    5.11490  664.80190 7040.36900 10078.79620    0.00150
 13890.00000    0.01230   48.71890   69.88200   15.48980    9.12120    5.16160  657.35090 6390.65970 11313.06510    0.00160
 13890.50000    0.01280   48.57950   70.06460   14.98360    9.05760    5.16820  656.52210 5740.95040 10364.49720    0.00170
 13891.00000    0.01210   48.60190   70.24730   15.02510    8.98570    5.12000  649.49220 5091.24110 7993.07750    0.00180
 13891.50000    0.00950   48.83250   70.31970   15.48540    8.90140    5.14630  608.51350 4803.07310 6391.16880    0.00180
 13892.00000    0.00630   49.01640   69.95850   15.75150    8.88460    5.17350  568.94740 4521.22140 5937.18090    0.00190
 13892.50000    0.00430   48.83800   69.73110   15.91040    8.88380    5.17240  547.91580 4239.36960 5515.44150    0.00200
 13893.00000    0.00430   48.60090   69.55200   15.82770    8.88230    5.14290  545.79550 4126.62890 5315.94260    0.00210
 13893.50000    0.00490   48.59840   69.37290   14.43850    8.88090    5.14130  549.46760 4404.50080 6370.57570    0.00220
 13894.00000    0.00540   48.59730   69.19380   13.91360    8.88010    5.18140  540.72620 5053.53670 6943.52950    0.00220
 13894.50000    0.00670   48.59320   69.01470   13.38880    8.88010    5.22530  521.05840 4374.73770 5606.16650    0.00220
 13895.00000    0.00940   48.59800   68.89160   13.74310    8.88010    5.22410  491.34930 3526.23890 4803.74870    0.00250
