~Version ---------------------------------------------------
VERS.   2.0 : CWLS log ASCII Standard -VERSION 2.0
WRAP.    NO : One line per depth step
DLM . SPACE : Column Data Section Delimiter
~Well ------------------------------------------------------
STRT .FT                8824.0 : START DEPTH
STOP .FT               14284.0 : STOP DEPTH
STEP .FT                   0.5 : STEP
NULL .                -9999.25 : NULL VALUE
COMP .                         : COMPANY
WELL .                         : WELL
FLD  .                         : FIELD
LOC  .                         : LOCATION
PROV .                         : PROVINCE
CNTY .                         : COUNTY
STAT .                         : STATE
CTRY .                         : COUNTRY
SRVC .                         : SERVICE COMPANY
DATE .                         : DATE
UWI  .                         : UNIQUE WELL ID
API  .                         : API NUMBER
SLAT .WGS84  6.408765936937996 : SURFACE LATITUDE
SLON .WGS84 3.6245272197060956 : SURFACE LONGITUDE
DATUM.F                    nan : DEPTH DATUM ELEV
~Curve Information -----------------------------------------
DEPT   .FT    : 
DPHZ_LS.DEC   : HGRD STANDARD RESOLUTION DENSITY POROSITY
DTCO   .US/F  : DELTA-T COMPRESSIONAL
DTSM   .US/F  : DELTA-T SHEAR
ECGRR  .GAPI  : ENVIRONMENTALLY CORRECTED GAMMA RAY FROM RESISTIVITY LOG
HCALR  .IN    : HRCC CALIPER CALIBRATED FROM RESISTIVITY LOG
PEFZ   .B/E   : HRDD STANDARD RESOLUTION FORMATION PHOTOELECTRIC FACTOR
RLA1   .OHMM  : APPARENT RESISTIVITY FROM COMPUTED FOCUSING MODE 1
RLA3   .OHMM  : APPARENT RESISTIVITY FROM COMPUTED FOCUSING MODE 3
RLA5   .OHMM  : APPARENT RESISTIVITY FROM COMPUTED FOCUSING MODE 5
TNPH_LS.DEC   : THERMAL NEUTRON POROSITY [LIMESTONE]
~Params ----------------------------------------------------
~Other -----------------------------------------------------
~ASCII -----------------------------------------------------
# ...
 11425.00000    0.01980   55.93460   71.56250   71.89030    8.96450    3.62160   42.80680   61.77010   94.62450    0.07130
 11425.50000    0.02540   56.04180   71.47570   73.80660    8.96480    3.65970   41.78590   62.29430   92.52960    0.07210
 11426.00000    0.03160   56.10110   71.38880   71.00220    8.96510    3.67410   42.66590   62.81850   92.39290    0.07170
 11426.50000    0.03670   55.91020   71.24770   68.31110    8.96540    3.67310   44.97860   63.34270   98.02700    0.07130
 11427.00000    0.03470   55.96330   71.26120   66.68470    8.98960    3.66740   43.78340   63.86690   98.37130    0.06940
 11427.50000    0.02850   55.56130   71.27480   67.04080    9.00490    3.66470   43.75520   64.39110   94.45830    0.06910
 11428.00000    0.01980   55.15920   71.28830   67.56200    9.02050    3.64430   45.31370   64.91520   92.11060    0.07010
 11428.50000    0.01420   54.99990   71.30180   65.59660    9.03660    3.64830   46.14800   65.24310   97.04760    0.07290
 11429.00000    0.01150   54.93430   71.31530   65.74950    9.05270    3.66460   47.10750   65.27650  100.99730    0.07530
 11429.50000    0.01350   54.80020   71.32880   65.74200    9.07590    3.68950   46.89950   65.30990  100.99730    0.07210
 11430.00000    0.01860   54.30230   71.34230   66.79000    9.07770    3.71390   45.92150   65.34330   98.70410    0.06980
 11430.50000    0.02420   53.58460   71.37860   66.88990    9.07670    3.80570   47.25370   65.37660   95.83770    0.06860
 11431.00000    0.02880   53.38080   71.41490   66.34680    9.05810    3.89750   48.05560   65.41000   94.74960    0.06880
 11431.50000    0.03150   53.37570   71.45120   66.12720    9.03000    3.94120   48.72620   65.38220   94.84690    0.07100
 11432.00000    0.03400   53.37050   71.48740   67.37120    9.00190    3.97780   48.16590   65.10940   94.94430    0.07200
 11432.50000    0.03290   53.39070   71.47890   69.23240    9.02370    3.97750   48.73290   64.83660   95.04170    0.07190
 11433.00000    0.03280   53.51200   71.45920   70.60600    9.03680    3.97730   49.44120   66.25830   95.13900    0.07170
 11433.50000    0.02970   53.38190   71.43950   70.98370    9.03730    3.92860   50.39870   67.68000   95.23640    0.07250
 11434.00000    0.02820   53.42290   71.41970   69.77090    9.03300    3.91460   51.35610   69.10170   95.33370    0.07250
 11434.50000    0.02950   53.47600   71.40000   67.84790    9.05410    3.92460   52.31360   70.52350   95.43110    0.07250
 11435.00000    0.03010   53.14220   71.24940   64.53860    9.07510    3.90860   53.27110   71.75000   95.52840    0.07320
 11435.50000    0.02960   52.86230   71.27730   63.74740    9.09760    3.88510   54.22860   71.75000   95.21850    0.07290
 11436.00000    0.02610   52.84530   71.68180   62.38840    9.12560    3.86660   55.18610   71.10110   94.63710    0.07120
 11436.50000    0.02600   52.65470   71.88200   60.32220    9.15370    3.89170   56.47150   70.29010   94.05560    0.06930
 11437.00000    0.03400   52.46720   71.84910   58.55470    9.17630    3.91670   53.87040   69.47910   89.30310    0.06950
 11437.50000    0.04110   52.40390   71.76490   61.22520    9.13100    4.04890   53.63810   69.15470   84.78310    0.07210
 11438.00000    0.03610   52.36420   71.74900   62.03480    9.06700    4.15380   60.10080   78.53200   92.56210    0.07460
 11438.50000    0.02140   52.89510   72.05840   61.08820    9.04090    4.14870   60.10080   76.52820   96.45160    0.07550
 11439.00000    0.01250   52.87120   72.36750   59.16240    9.04700    4.12810   70.03090   86.43580  130.13410    0.07300
 11439.50000    0.01180   52.55300   72.33970   58.18070    9.02000    4.10750   77.53780   97.23480  131.74160    0.07100
 11440.00000    0.01190   51.77310   72.26840   57.46110    8.99340    4.12460   71.48010   84.68800  118.91920    0.06910
 11440.50000    0.01260   51.04000   72.19710   57.36320    8.96950    4.18750   71.20670   90.91610  116.85230    0.06710
 11441.00000    0.01490   50.50040   72.12580   57.87810    8.97570    4.32930   76.09680  102.65730  132.36190    0.06520
 11441.50000    0.02340   50.28400   72.05830   57.39200    8.99110    4.52360   79.93450  108.55580  141.63180    0.06490
 11442.00000    0.02800   50.89940   71.99170   55.40630    9.01060    4.65530   82.19330  110.55930  126.69710    0.06340
 11442.50000    0.03130   51.51920   71.95580   52.22130    9.02110    4.81920   84.45200  112.56290  146.69140    0.06120
 11443.00000    0.03250   51.91470   71.92750   49.22570    9.04050    5.01500   86.71080  115.83630  149.50390    0.05970
 11443.50000    0.03420   52.37820   71.89920   48.71000    9.04750    5.17500   88.96960  124.18920  159.36310    0.05920
 11444.00000    0.03500   53.06460   71.87080   50.20450    9.05440    5.26830   90.30020  130.86040  169.64080    0.05870
 11444.50000    0.03290   53.33950   71.86320   50.80400    9.08860    5.24690   89.38220  129.51950  160.03130    0.05820
 11445.00000    0.03230   53.39110   71.85550   50.07960    9.10430    5.21980   87.45100  123.33270  148.12360    0.05690
 11445.50000    0.03350   53.78790   71.84780   48.22370    9.10790    5.19280   85.51980  117.14600  140.69360    0.05840
 11446.00000    0.03440   53.74740   71.84010   46.76250    9.10080    5.18790   84.33000  114.60090  137.99140    0.05950
 11446.50000    0.03200   53.54460   71.83240   49.34540    9.09360    5.18850   86.09960  117.37730  141.31050    0.05770
 11447.00000    0.02630   53.38000   71.82470   51.19980    9.08650    5.17010   90.63890  122.05480  146.93880    0.05530
 11447.50000    0.02360   53.36180   71.81710   51.45360    9.07930    5.16950   94.00700  126.73230  146.82870    0.05480
 11448.00000    0.02140   53.28660   71.80940   49.04040    9.07930    5.12860   92.68990  128.80750  145.20320    0.05420
 11448.50000    0.02330   53.43530   71.80170   47.02260    9.05840    5.07780   91.37280  125.32230  142.56170    0.05390
 11449.00000    0.02290   52.91160   71.79400   46.03090    9.02360    5.02690   90.05570  119.67880  135.80650    0.05580
 11449.50000    0.02780   52.79370   71.78630   45.95920    9.00270    5.02690   88.73860  114.03520  129.05130    0.05830
 11450.00000    0.02970   52.81550   71.77860   46.64960    9.02940    5.02690   87.67690  111.71860  124.95490    0.05830
 11450.50000    0.02510   52.85180   71.77090   49.24450    9.09630    5.02690   87.71970  115.59990  127.68140    0.05430
 11451.00000    0.01760   52.97530   71.76330   48.42070    9.16330    4.99630   92.47120  120.30910  134.40900    0.05260
 11451.50000    0.01550   53.35270   71.75560   47.59620    9.17320    4.95940   97.22340  125.01840  141.13660    0.05370
 11452.00000    0.01810   53.30800   71.74790   46.77170    9.16440    4.91080   98.08920  129.72760  147.86420    0.05490
 11452.50000    0.01960   53.38520   71.74660   45.61100    9.15550    4.87070   99.16430  134.73970  148.30560    0.05500
 11453.00000    0.01390   53.80520   71.74520   44.45700    9.14660    4.83510  100.23940  134.81640  149.32770    0.05220
 11453.50000    0.01100   53.85880   71.74390   44.23970    9.14810    4.75840  101.09950  134.98590  150.34980    0.05090
 11454.00000    0.01460   54.07710   71.74260   44.81920    9.18180    4.66110  101.09950  135.57460  151.37190    0.05010
 11454.50000    0.01870   54.19930   71.74130   45.37290    9.18180    4.58790  101.09950  136.16330  152.39400    0.05060
 11455.00000    0.01650   53.93750   71.74000   44.31540    9.18180    4.57630  101.09950  135.13560  150.61680    0.05120
 11455.50000    0.01420   53.71160   71.73860   44.77610    9.18350    4.56470  101.34730  133.70380  149.76100    0.05170
 11456.00000    0.01370   53.34160   71.73730   46.19750    9.18490    4.51110  127.69500  130.15250  160.43980    0.05150
 11456.50000    0.01750   53.16440   71.73600   48.59470    9.18620    4.38900  115.43710  134.25220  168.99080    0.05050
 11457.00000    0.02220   52.94890   71.73470   49.40350    9.18760    4.29120  117.12390  145.29580  165.75890    0.04860
 11457.50000    0.02330   52.81130   71.73340   48.87410    9.18890    4.27830   93.03770  132.59900  160.30570    0.04800
