~Version ---------------------------------------------------
VERS.   2.0 : CWLS log ASCII Standard -VERSION 2.0
WRAP.    NO : One line per depth step
DLM . SPACE : Column Data Section Delimiter
~Well ------------------------------------------------------
STRT .FT                8824.0 : START DEPTH
STOP .FT               14284.0 : STOP DEPTH
STEP .FT                   0.5 : STEP
NULL .                -9999.25 : NULL VALUE
COMP .                         : COMPANY
WELL .                         : WELL
FLD  .                         : FIELD
LOC  .                         : LOCATION
PROV .                         : PROVINCE
CNTY .                         : COUNTY
STAT .                         : STATE
CTRY .                         : COUNTRY
SRVC .                         : SERVICE COMPANY
DATE .                         : DATE
UWI  .                         : UNIQUE WELL ID
API  .                         : API NUMBER
SLAT .WGS84  6.408765936937996 : SURFACE LATITUDE
SLON .WGS84 3.6245272197060956 : SURFACE LONGITUDE
DATUM.F                    nan : DEPTH DATUM ELEV
~Curve Information -----------------------------------------
DEPT   .FT    : 
DPHZ_LS.DEC   : HGRD STANDARD RESOLUTION DENSITY POROSITY
DTCO   .US/F  : DELTA-T COMPRESSIONAL
DTSM   .US/F  : DELTA-T SHEAR
ECGRR  .GAPI  : ENVIRONMENTALLY CORRECTED GAMMA RAY FROM RESISTIVITY LOG
HCALR  .IN    : HRCC CALIPER CALIBRATED FROM RESISTIVITY LOG
PEFZ   .B/E   : HRDD STANDARD RESOLUTION FORMATION PHOTOELECTRIC FACTOR
RLA1   .OHMM  : APPARENT RESISTIVITY FROM COMPUTED FOCUSING MODE 1
RLA3   .OHMM  : APPARENT RESISTIVITY FROM COMPUTED FOCUSING MODE 3
RLA5   .OHMM  : APPARENT RESISTIVITY FROM COMPUTED FOCUSING MODE 5
TNPH_LS.DEC   : THERMAL NEUTRON POROSITY [LIMESTONE]
~Params ----------------------------------------------------
~Other -----------------------------------------------------
~ASCII -----------------------------------------------------
# ...
 12118.00000    0.02310   53.78760   73.14890   50.55080    8.81470    5.08760  155.54550  257.74750  301.08580    0.01990
 12118.50000    0.02580   53.12470   71.52450   51.27930    8.80940    5.17680  156.34590  261.97910  312.71450    0.02000
 12119.00000    0.03030   51.60860   69.90000   50.33020    8.80940    5.35050  157.14640  269.58740  324.34320    0.01900
 12119.50000    0.03380   50.57290   68.81060   48.73980    8.82480    5.58040  160.19150  277.19570  335.97190    0.01790
 12120.00000    0.02560   50.57310   68.15590   47.64310    8.84020    5.79380  159.24290  283.29290  343.01270    0.01680
 12120.50000    0.01910   50.90900   68.01830   49.78520    8.85080    5.74740  157.93310  280.69710  327.92200    0.01570
 12121.00000    0.02360   51.31610   68.29090   52.91060    8.85450    5.58060  153.99290  269.86810  308.06860    0.01480
 12121.50000    0.03480   51.77450   68.60520   54.88920    8.85340    5.30880  150.49940  255.60390  284.25490    0.01520
 12122.00000    0.04150   52.16700   68.66280   54.80850    8.85960    5.29630  148.47260  241.33970  268.12740    0.01620
 12122.50000    0.04050   52.25170   68.49470   54.73770    8.85210    5.44400  143.31390  218.64450  263.52900    0.01710
 12123.00000    0.03540   51.80570   68.32670   52.17190    8.82840    5.62140  132.70200  195.99180  222.48980    0.01730
 12123.50000    0.03020   51.75380   68.15870   48.89280    8.80940    5.78580  143.48200  224.22690  260.10390    0.01700
 12124.00000    0.02710   51.69830   68.13060   46.69360    8.81220    5.87690  152.33710  271.28540  307.12150    0.01750
 12124.50000    0.03070   51.76300   68.13750   46.77430    8.82140    5.88120  154.39100  281.46500  307.12150    0.01720
 12125.00000    0.03570   51.79100   68.14450   49.07210    8.83010    5.89010  152.39570  272.31790  307.12150    0.01690
 12125.50000    0.04630   51.79740   68.15140   50.92830    8.85490    5.90660  150.51830  263.17090  307.12150    0.01650
 12126.00000    0.05170   51.85850   68.15670   49.69420    8.87960    5.99890  151.37340  275.57380  307.12150    0.01620
 12126.50000    0.04770   52.22260   68.13320   46.65110    8.90440    6.14190  151.71550  272.54310  307.12150    0.01590
 12127.00000    0.04340   52.32470   68.10960   45.24430    8.89550    6.16510  150.14420  257.38930  293.09410    0.01590
 12127.50000    0.03900   52.64220   67.93250   45.34100    8.86040    6.04260  140.24180  242.23560  262.60940    0.01590
 12128.00000    0.03470   52.48060   67.71700   46.04090    8.86840    5.84750  145.11360  245.60330  269.15440    0.01590
 12128.50000    0.03250   52.29610   67.58250   47.33740    8.85010    5.67160  149.58140  254.02270  284.07560    0.01700
 12129.00000    0.03250   52.25060   67.56950   49.81570    8.85350    5.56610  149.78310  260.75820  296.01260    0.01760
 12129.50000    0.02880   51.79080   67.55640   52.29400    8.85700    5.62750  149.98480  264.04470  294.16160    0.01800
 12130.00000    0.01830   51.76310   67.56810   52.98960    8.84430    5.72990  150.18660  256.23780  284.90680    0.01790
 12130.50000    0.00790   51.74000   67.53020   49.37810    8.82370    5.79790  149.74880  248.43090  277.50030    0.01780
 12131.00000    0.00960   51.71690   67.70690   46.08640    8.82140    5.77930  149.31430  242.17800  266.64300    0.01770
 12131.50000    0.01810   51.69390   67.62640   44.27370    8.83780    5.77780  151.35170  249.85440  260.12080    0.01760
 12132.00000    0.02500   52.10490   67.48410   44.27790    8.85190    5.86210  154.68700  262.66530  276.12680    0.01750
 12132.50000    0.02380   52.32390   67.31370   44.37540    8.86600    5.97230  158.35640  272.91130  296.14400    0.01740
 12133.00000    0.01940   52.72420   67.05120   46.37260    8.85500    6.19420  160.67920  272.88460  301.34210    0.01730
 12133.50000    0.01690   53.25400   66.98110   45.04940    8.82680    6.32700  159.22850  263.08460  289.52860    0.01720
 12134.00000    0.01470   53.25450   67.32600   45.44930    8.79870    6.32060  157.24650  256.97720  274.76620    0.01720
 12134.50000    0.01480   53.70270   69.04010   45.44240    8.79510    6.30670  159.75910  262.56610  281.04430    0.01710
 12135.00000    0.01570   53.69750   70.75420   46.71100    8.78440    6.27050  163.66980  267.65870  291.52580    0.01700
 12135.50000    0.01800   53.72240   71.23650   45.90160    8.77370    6.20740  167.58050  272.74870  300.74540    0.01750
 12136.00000    0.02340   53.00500   70.46670   45.18290    8.76980    6.07450  171.49120  267.74400  309.12380    0.01800
 12136.50000    0.02760   52.72780   69.50330   45.00390    8.77040    5.86820  161.75380  243.69680  312.45810    0.01850
 12137.00000    0.02460   52.26900   68.53990   45.04150    8.77100    5.71150  144.30590  201.87010  238.12000    0.01900
 12137.50000    0.01950   52.31320   67.72860   43.34280    8.78650    5.54360  144.42460  193.48550  214.08770    0.01950
 12138.00000    0.01750   52.27440   67.14530   44.37250    8.82420    5.47030  159.31790  235.25910  268.42020    0.01990
 12138.50000    0.02140   52.26050   67.21660   45.49700    8.86190    5.45140  162.99770  260.31020  284.71220    0.02010
 12139.00000    0.02240   52.75920   67.93770   46.73570    8.87670    5.36900  160.87190  241.40660  257.54850    0.02040
 12139.50000    0.02000   53.66780   68.65880   44.20950    8.86720    5.19340  159.89490  222.50300  238.30220    0.02070
 12140.00000    0.01860   53.75080   69.37980   42.88840    8.85300    5.02830  162.59520  218.41670  251.25980    0.02100
 12140.50000    0.02280   53.81320   69.52450   42.13530    8.83880    4.89200  152.94080  196.15010  247.98760    0.02120
 12141.00000    0.02820   53.44770   69.20010   43.21950    8.82470    4.78500  139.26540  176.70130  189.82800    0.02100
 12141.50000    0.03350   52.92350   68.79450   43.97180    8.81050    4.66290  138.99930  174.13620  186.03700    0.02080
 12142.00000    0.03460   52.38580   68.38890   44.14690    8.80440    4.54080  135.56270  171.75850  183.48300    0.02050
 12142.50000    0.02280   52.25350   68.22690   42.94170    8.81030    4.49940  140.06550  170.33490  182.97980    0.02030
 12143.00000    0.02070   52.29060   68.34380   42.44180    8.81620    4.42120  147.46700  193.33750  208.49590    0.02010
 12143.50000    0.02320   52.25450   68.92570   42.32120    8.82210    4.41810  154.86850  202.26920  214.84690    0.01980
 12144.00000    0.03060   52.15510   69.39120   42.59180    8.82810    4.42180  152.77290  189.40400  198.93520    0.01960
 12144.50000    0.03350   51.76400   69.32340   44.99130    8.83400    4.40630  142.26120  176.53880  183.02360    0.01940
 12145.00000    0.02680   51.32680   68.09270   46.51390    8.83190    4.35910  135.90730  168.82170  179.91430    0.01910
 12145.50000    0.02280   51.25270   68.09330   46.89810    8.82940    4.33970  140.49440  168.83300  182.10270    0.02020
 12146.00000    0.02510   51.23000   68.26510   46.36830    8.82940    4.36540  145.77490  184.64440  201.48140    0.02070
 12146.50000    0.02800   51.69830   68.47990   46.69870    8.82670    4.42250  162.77750  216.30470  234.72610    0.02070
 12147.00000    0.02980   51.67560   68.65170   46.71070    8.81300    4.47950  169.08780  237.95890  243.62110    0.02070
 12147.50000    0.02980   51.67120   68.57790   46.14700    8.79940    4.51140  170.75320  240.34930  250.56460    0.02070
 12148.00000    0.02810   51.22820   68.34880   44.55890    8.80820    4.52520  174.05570  242.73970  259.24240    0.02070
 12148.50000    0.02650   50.75440   68.11970   42.83740    8.81810    4.51380  175.44830  248.74220  267.92020    0.02070
 12149.00000    0.02380   50.79380   68.04500   43.09190    8.83250    4.48830  175.56770  251.03770  270.92600    0.02040
 12149.50000    0.01940   51.26450   68.07300   45.90710    8.84700    4.48350  174.06240  248.88850  264.75470    0.02010
 12150.00000    0.01500   51.37090   68.10240   46.22440    8.85690    4.46210  176.43450  246.73920  264.19080    0.01980
 12150.50000    0.01300   51.28770   68.13370   44.39130    8.86400    4.43120  178.86940  244.59000  263.62680    0.01950
