~Version ---------------------------------------------------
VERS.   2.0 : CWLS log ASCII Standard -VERSION 2.0
WRAP.    NO : One line per depth step
DLM . SPACE : Column Data Section Delimiter
~Well ------------------------------------------------------
STRT .FT                8824.0 : START DEPTH
STOP .FT               14284.0 : STOP DEPTH
STEP .FT                   0.5 : STEP
NULL .                -9999.25 : NULL VALUE
COMP .                         : COMPANY
WELL .                         : WELL
FLD  .                         : FIELD
LOC  .                         : LOCATION
PROV .                         : PROVINCE
CNTY .                         : COUNTY
STAT .                         : STATE
CTRY .                         : COUNTRY
SRVC .                         : SERVICE COMPANY
DATE .                         : DATE
UWI  .                         : UNIQUE WELL ID
API  .                         : API NUMBER
SLAT .WGS84  6.408765936937996 : SURFACE LATITUDE
SLON .WGS84 3.6245272197060956 : SURFACE LONGITUDE
DATUM.F                    nan : DEPTH DATUM ELEV
~Curve Information -----------------------------------------
DEPT   .FT    : 
DPHZ_LS.DEC   : HGRD STANDARD RESOLUTION DENSITY POROSITY
DTCO   .US/F  : DELTA-T COMPRESSIONAL
DTSM   .US/F  : DELTA-T SHEAR
ECGRR  .GAPI  : ENVIRONMENTALLY CORRECTED GAMMA RAY FROM RESISTIVITY LOG
HCALR  .IN    : HRCC CALIPER CALIBRATED FROM RESISTIVITY LOG
PEFZ   .B/E   : HRDD STANDARD RESOLUTION FORMATION PHOTOELECTRIC FACTOR
RLA1   .OHMM  : APPARENT RESISTIVITY FROM COMPUTED FOCUSING MODE 1
RLA3   .OHMM  : APPARENT RESISTIVITY FROM COMPUTED FOCUSING MODE 3
RLA5   .OHMM  : APPARENT RESISTIVITY FROM COMPUTED FOCUSING MODE 5
TNPH_LS.DEC   : THERMAL NEUTRON POROSITY [LIMESTONE]
~Params ----------------------------------------------------
~Other -----------------------------------------------------
~ASCII -----------------------------------------------------
# ...
 14223.00000   -0.00290   49.53940   67.10680   -9999.25    8.84530    4.83410  386.00890 1148.84750 1398.24010    0.00400
 14223.50000    0.01370   49.62160   67.10710   -9999.25    8.89100    4.80710  418.89970 1419.91520 1590.67600    0.00380
 14224.00000    0.02750   49.70390   66.97780   -9999.25    8.89940    4.87570  408.85220 1214.12220 1477.68460    0.00300
 14224.50000    0.03760   49.69050   66.72380   -9999.25    8.66330    4.93460  328.27960  711.64330 1201.04540   -9999.25
 14225.00000    0.02930   49.61850   66.90020   -9999.25    8.52280    5.01580  359.60950 1333.46640 1689.61500   -9999.25
 14225.50000    0.01630   49.43070   67.03110   -9999.25    8.48910    5.09040  456.72560 1942.05890 85529.30760   -9999.25
 14226.00000    0.00440   49.25240   67.04530   -9999.25    8.53040    5.12030  441.88600 4848.38290 5867.59550   -9999.25
 14226.50000   -0.00680   49.07420   67.05950   -9999.25    8.68030    5.08930  471.58310 7968.02260 21682.77960   -9999.25
 14227.00000   -0.00690   48.89590   67.07370   -9999.25    8.84300    5.03770  529.10900 20335.71690 23134.56850   -9999.25
 14227.50000   -0.00230   48.78940   67.08790   -9999.25    8.88130    4.99640  520.68130 15270.39720 23126.76860   -9999.25
 14228.00000   -0.00050   48.78990   67.10200   -9999.25    8.84770    5.00470  518.88400 6550.27430 10236.12210   -9999.25
 14228.50000   -0.00200   48.79200   67.10830   -9999.25    8.81940    5.01740  547.31890 6610.88320 7872.54140   -9999.25
 14229.00000   -0.00010   48.89010   67.01420   -9999.25    8.81920    5.02220  589.27830 7248.68930 10579.68560   -9999.25
 14229.50000    0.00230   48.86240   66.92000   -9999.25    8.81900    5.02050  597.67020 9465.15810 21883.40790   -9999.25
 14230.00000    0.00060   48.83480   66.82590   -9999.25    8.81890    5.02640  567.34130 14792.86330 22496.50000   -9999.25
 14230.50000   -0.00280   48.80720   66.73170   -9999.25    8.81870    5.02570  536.87810 16153.23410 21505.99930   -9999.25
 14231.00000   -0.00490   48.77960   66.65100   -9999.25    8.77460    5.02500  506.21340 9471.86280 15314.16990   -9999.25
 14231.50000   -0.00290   48.75200   66.60170   -9999.25    8.75210    5.02430  536.55090 8095.79470 9122.52270   -9999.25
 14232.00000   -0.00040   48.72430   66.64220   -9999.25    8.77520    5.02350  582.08970 8399.61700 10856.59440   -9999.25
 14232.50000    0.00190   48.79450   66.68260   -9999.25    8.79830    5.02310  603.73080 12405.55170 14116.94540   -9999.25
 14233.00000    0.00050   48.82900   67.04840   -9999.25    8.82140    4.96920  619.91720 14330.43870 15492.43060   -9999.25
 14233.50000   -0.00240   48.71950   66.71990   -9999.25    8.85220    4.91540  582.89370 11200.48260 12822.43560   -9999.25
 14234.00000   -0.00400   48.78740   66.63400   -9999.25    8.85170    4.86150  554.07850 9823.34700 12137.10070   -9999.25
 14234.50000   -9999.25   48.70580   66.66050   -9999.25    8.82810   -9999.25  504.22840 2071.37860 11698.08990   -9999.25
 14235.00000   -9999.25   48.92270   66.68690   -9999.25    8.80490   -9999.25  427.73370 1129.60140 2109.18630   -9999.25
 14235.50000   -9999.25   49.17650   66.99430   -9999.25    8.73220   -9999.25  434.10850  982.34130 1258.62730   -9999.25
 14236.00000   -9999.25   49.43030   67.07690   -9999.25    8.71730   -9999.25  445.51070 1209.69060 1534.03250   -9999.25
 14236.50000   -9999.25   49.48050   67.09340   -9999.25    8.76970   -9999.25  442.54610 1542.73670 1786.97250   -9999.25
 14237.00000   -9999.25   49.58250   67.09340   -9999.25    8.82890   -9999.25  416.80140 1787.87060 1995.80390   -9999.25
 14237.50000   -9999.25   49.68440   67.09340   -9999.25    8.88810   -9999.25  405.82020 1996.46820 4648.26710   -9999.25
 14238.00000   -9999.25   49.68440   67.24730   -9999.25    8.90820   -9999.25  508.19260 7095.11430 11915.57360   -9999.25
 14238.50000   -9999.25   49.68440   67.44360   -9999.25   -9999.25   -9999.25  559.77610 7840.11960 10041.68040   -9999.25
 14239.00000   -9999.25   49.57990   67.57480   -9999.25   -9999.25   -9999.25  568.64960 6925.92540 9122.52270   -9999.25
 14239.50000   -9999.25   49.37410   67.31070   -9999.25   -9999.25   -9999.25  555.94260 6550.27430 8997.45240   -9999.25
 14240.00000   -9999.25   49.33100   67.04050   -9999.25   -9999.25   -9999.25  520.38740 3769.28940 7388.77980   -9999.25
 14240.50000   -9999.25   49.22430   66.94380   -9999.25   -9999.25   -9999.25  484.28620 2966.60330 4674.43700   -9999.25
 14241.00000   -9999.25   49.11770   67.05870   -9999.25   -9999.25   -9999.25  456.78940 3135.15830 4286.61970   -9999.25
 14241.50000   -9999.25   48.98140   67.05990   -9999.25   -9999.25   -9999.25  477.06650 5151.96410 9910.94250   -9999.25
 14242.00000   -9999.25   48.93200   67.06120   -9999.25   -9999.25   -9999.25  505.87770 8477.33770 10095.20060   -9999.25
 14242.50000   -9999.25   48.76300   66.81890   -9999.25   -9999.25   -9999.25  506.05570 8795.47880 10095.20060   -9999.25
 14243.00000   -9999.25   48.62810   66.57060   -9999.25   -9999.25   -9999.25  506.23360 9087.84600 10033.49840   -9999.25
 14243.50000   -9999.25   48.62890   66.60440   -9999.25   -9999.25   -9999.25  488.72670 9380.21320 10002.64730   -9999.25
 14244.00000   -9999.25   48.63190   66.78410   -9999.25   -9999.25   -9999.25  466.79850 9555.63350 10002.64730   -9999.25
 14244.50000   -9999.25   48.63390   67.00040   -9999.25   -9999.25   -9999.25  460.96180 9284.14970 10076.69000   -9999.25
 14245.00000   -9999.25   48.69080   67.12200   -9999.25   -9999.25   -9999.25  460.88920 9012.66590 10095.20060   -9999.25
 14245.50000   -9999.25   48.71360   66.62690   -9999.25   -9999.25   -9999.25  475.46610 8795.47880 10282.88440   -9999.25
 14246.00000   -9999.25   48.71880   66.45910   -9999.25   -9999.25   -9999.25  501.57240 9190.21570 10506.65880   -9999.25
 14246.50000   -9999.25   48.74290   66.44980   -9999.25   -9999.25   -9999.25  476.12350 9561.01610 10867.13230   -9999.25
 14247.00000   -9999.25   48.84090   66.57720   -9999.25   -9999.25   -9999.25  465.94390 9931.81660 11379.28450   -9999.25
 14247.50000   -9999.25   48.93840   66.63080   -9999.25   -9999.25   -9999.25  467.98430 9969.28250 11920.58180   -9999.25
 14248.00000   -9999.25   49.03590   66.84840   -9999.25   -9999.25   -9999.25  487.85540 9764.82490 11750.08520   -9999.25
 14248.50000   -9999.25   48.79420   66.77430   -9999.25   -9999.25   -9999.25  500.96830 9472.21420 10922.64290   -9999.25
 14249.00000   -9999.25   48.71860   66.70010   -9999.25   -9999.25   -9999.25  506.21340 9179.60340 10095.20060   -9999.25
 14249.50000   -9999.25   48.69160   66.64060   -9999.25   -9999.25   -9999.25  489.89250 8886.99270 9910.94250   -9999.25
 14250.00000   -9999.25   49.40980   66.63960   -9999.25   -9999.25   -9999.25  449.09030 8594.38200 9956.79490   -9999.25
 14250.50000   -9999.25   49.64040   66.63860   -9999.25   -9999.25   -9999.25  454.05090 8447.98830 10002.64730   -9999.25
 14251.00000   -9999.25   49.63780   66.63750   -9999.25   -9999.25   -9999.25  446.11160 8301.24090 10002.64730   -9999.25
 14251.50000   -9999.25   49.27040   66.63650   -9999.25   -9999.25   -9999.25  418.82270 8154.49360 9640.21810   -9999.25
 14252.00000   -9999.25   48.81180   66.63550   -9999.25   -9999.25   -9999.25  417.60490 7994.31110 9187.18170   -9999.25
 14252.50000   -9999.25   48.80980   66.63440   -9999.25   -9999.25   -9999.25  435.56050 7825.17180 8734.14530   -9999.25
 14253.00000   -9999.25   48.80660   66.63340   -9999.25   -9999.25   -9999.25  433.13220 7656.03250 8552.93070   -9999.25
 14253.50000   -9999.25   48.80410   66.89850   -9999.25   -9999.25   -9999.25  422.08190 7520.72110 8632.07000   -9999.25
 14254.00000   -9999.25   49.04090   67.13970   -9999.25   -9999.25   -9999.25  411.03170 7660.54180 8792.55220   -9999.25
 14254.50000   -9999.25   49.20930   67.16150   -9999.25   -9999.25   -9999.25  399.98150 7776.13510 8711.94160   -9999.25
 14255.00000   -9999.25   49.37770   67.18320   -9999.25   -9999.25   -9999.25  391.14130 7875.16180 8711.94160   -9999.25
