~Version ---------------------------------------------------
VERS.   2.0 : CWLS log ASCII Standard -VERSION 2.0
WRAP.    NO : One line per depth step
DLM . SPACE : Column Data Section Delimiter
~Well ------------------------------------------------------
STRT .FT                8824.0 : START DEPTH
STOP .FT               14284.0 : STOP DEPTH
STEP .FT                   0.5 : STEP
NULL .                -9999.25 : NULL VALUE
COMP .                         : COMPANY
WELL .                         : WELL
FLD  .                         : FIELD
LOC  .                         : LOCATION
PROV .                         : PROVINCE
CNTY .                         : COUNTY
STAT .                         : STATE
CTRY .                         : COUNTRY
SRVC .                         : SERVICE COMPANY
DATE .                         : DATE
UWI  .                         : UNIQUE WELL ID
API  .                         : API NUMBER
SLAT .WGS84  6.408765936937996 : SURFACE LATITUDE
SLON .WGS84 3.6245272197060956 : SURFACE LONGITUDE
DATUM.F                    nan : DEPTH DATUM ELEV
~Curve Information -----------------------------------------
DEPT   .FT    : 
DPHZ_LS.DEC   : HGRD STANDARD RESOLUTION DENSITY POROSITY
DTCO   .US/F  : DELTA-T COMPRESSIONAL
DTSM   .US/F  : DELTA-T SHEAR
ECGRR  .GAPI  : ENVIRONMENTALLY CORRECTED GAMMA RAY FROM RESISTIVITY LOG
HCALR  .IN    : HRCC CALIPER CALIBRATED FROM RESISTIVITY LOG
PEFZ   .B/E   : HRDD STANDARD RESOLUTION FORMATION PHOTOELECTRIC FACTOR
RLA1   .OHMM  : APPARENT RESISTIVITY FROM COMPUTED FOCUSING MODE 1
RLA3   .OHMM  : APPARENT RESISTIVITY FROM COMPUTED FOCUSING MODE 3
RLA5   .OHMM  : APPARENT RESISTIVITY FROM COMPUTED FOCUSING MODE 5
TNPH_LS.DEC   : THERMAL NEUTRON POROSITY [LIMESTONE]
~Params ----------------------------------------------------
~Other -----------------------------------------------------
~ASCII -----------------------------------------------------
# ...
 11755.00000    0.02220   51.82150   68.20740   42.39860    8.79860    4.25070  163.98340  211.07620  224.95150    0.01870
 11755.50000    0.02310   51.82660   68.20470   43.52750    8.79140    4.20700  163.04460  209.24420  224.95150    0.01880
 11756.00000    0.02510   51.89470   68.20200   44.86200    8.79690    4.19520  161.94870  208.24670  224.95150    0.01880
 11756.50000    0.02710   52.02510   68.19930   45.13750    8.80620    4.19900  160.43170  207.24910  224.98190    0.01890
 11757.00000    0.02900   51.82990   68.19670   44.91980    8.81550    4.20480  158.91480  206.25160  227.06900    0.02040
 11757.50000    0.03100   51.81980   68.19400   45.01240    8.82290    4.24430  157.39780  203.24540  219.75150    0.02230
 11758.00000    0.03300   51.33860   68.13320   45.24240    8.84670    4.25800  157.17920  197.22610  212.43400    0.02380
 11758.50000    0.03310   50.81850   68.05780   46.35460    8.84330    4.26930  157.82620  191.20680  212.95490    0.02380
 11759.00000    0.02560   50.54720   67.98250   44.77320    8.84000    4.28070  158.47310  187.59890  216.25860    0.02340
 11759.50000    0.01840   50.25600   67.90720   42.96200    8.83660    4.29210  158.47650  194.71150  220.67120    0.02300
 11760.00000    0.02130   50.47830   67.83180   40.81250    8.83310    4.30340  159.93730  206.56100  229.51940    0.02250
 11760.50000    0.02860   50.85090   67.75650   39.72980    8.82970    4.31480  167.22780  218.41060  238.36760    0.02210
 11761.00000    0.02720   51.35700   67.68960   39.08270    8.81350    4.30380  174.51830  230.44220  247.21580    0.02170
 11761.50000    0.02390   52.24600   67.65670   38.82380    8.79050    4.28510  176.40440  242.74700  256.06400    0.02130
 11762.00000    0.02320   53.44830   67.82560   41.70280    8.79760    4.27310  176.31860  244.99080  263.14250    0.02090
 11762.50000    0.02450   54.06750   67.99440   41.97780    8.80480    4.31540  172.50360  230.43920  250.27920    0.02060
 11763.00000    0.03070   54.32360   68.13990   42.32310    8.81200    4.37090  159.70710  201.94530  218.12080    0.02110
 11763.50000    0.03120   54.44170   68.12910   41.57850    8.81910    4.38520  153.77000  199.10520  205.63690    0.02180
 11764.00000    0.03180   54.55990   67.88830   40.31850    8.81890    4.36360  155.18320  196.62890  206.58560    0.02240
 11764.50000    0.03230   54.67550   67.82070   39.97110    8.81480    4.33670  149.50940  191.09870  209.06960    0.02310
 11765.00000    0.03230   54.74360   67.68570   41.37020    8.82660    4.31510  141.28650  177.53730  192.45400    0.02380
 11765.50000    0.03230   54.60670   67.63850   43.02630    8.83840    4.35950  141.35370  181.52560  199.29100    0.02430
 11766.00000    0.03230   53.92250   67.67230   44.57170    8.85030    4.45270  149.91820  201.46690  216.38370    0.02430
 11766.50000    0.03230   53.87950   67.70600   45.08660    8.86210    4.59410  156.94420  221.40820  233.47640    0.02350
 11767.00000    0.03380   53.91240   67.67610   45.60160    8.87160    4.78780  158.54760  219.38040  231.33800    0.02230
 11767.50000    0.03830   53.88220   67.62830   45.35770    8.85340    4.92820  156.53970  203.81200  227.11980    0.02100
 11768.00000    0.03660   53.91000   67.63460   43.61120    8.84720    5.00230  166.96550  236.19340  262.80570    0.01970
 11768.50000    0.03210   53.87390   67.64090   41.86460    8.84110    5.01370  179.02350  258.89630  276.44240    0.01840
 11769.00000    0.02860   53.83780   67.64730   40.30100    8.83490    5.02170  176.54030  250.82160  268.02980    0.01710
 11769.50000    0.03020   53.85320   67.65360   39.39040    8.82880    5.07290  176.28420  242.74700  284.87530    0.01580
 11770.00000    0.02700   53.84960   67.65310   39.38810    8.82260    5.13950  189.59230  271.27090  305.93230    0.01450
 11770.50000    0.02160   53.67620   67.64260   40.20970    8.81650    5.17360  195.24500  299.79490  326.98920    0.01530
 11771.00000    0.02350   53.50290   67.63200   42.19690    8.82940    5.20420  200.15660  311.20450  343.85020    0.01560
 11771.50000    0.02700   53.44450   67.62140   42.78870    8.84220    5.28090  203.97280  316.20340  356.49970    0.01580
 11772.00000    0.02750   53.48870   67.61090   42.25600    8.85510    5.32540  203.40730  328.70050  348.94060    0.01610
 11772.50000    0.02800   53.53950   67.60030   41.40600    8.86790    5.33750  202.84170  341.19760  349.99930    0.01620
 11773.00000    0.01960   53.59020   67.58970   41.84750    8.87910    5.26740  202.15720  322.16480  405.51160    0.01600
 11773.50000    0.01790   53.64100   67.57910   42.77970    8.88340    5.20700  185.30620  273.44800  326.26820    0.01570
 11774.00000    0.01890   53.69170   67.56860   43.14980    8.88780    5.14220  180.26970  279.69380  288.50350    0.01540
 11774.50000    0.01960   53.72410   67.55800   41.71710    8.88670    5.14220  202.46730  347.45120  372.08070    0.01520
 11775.00000    0.02060   53.55190   67.54740   40.28520    8.87740    5.37120  206.80550  388.10570  413.04300    0.01490
 11775.50000    0.02000   53.36810   67.53680   39.83730    8.86820    5.60010  206.67890  388.03790  412.31490    0.01460
 11776.00000    0.01560   53.36180   67.52630   39.76460    8.85000    5.73320  206.55220  387.95310  410.49470    0.01390
 11776.50000    0.01610   53.35560   67.63850   39.43800    8.84510    5.81240  206.42560  387.86830  408.67450    0.01330
 11777.00000    0.01790   52.96180   67.63850   39.33250    8.85340    5.85000  206.29890  387.78360  406.85440    0.01260
 11777.50000    0.01790   52.89270   67.63850   38.42050    8.86410    5.88660  206.62190  387.69880  405.03420    0.01200
 11778.00000    0.00980   52.84160   67.63850   37.55830    8.86670    5.93500  206.94500  379.18270  403.21400    0.01150
 11778.50000    0.00420   53.40150   67.63850   37.43330    8.86930    5.98330  203.20970  370.66670  401.39380    0.01180
 11779.00000    0.00190   53.40150   67.65930   39.40620    8.87190    5.90700  200.12080  363.91200  399.57360    0.01200
 11779.50000    0.00350   53.40150   67.66080   41.71830    8.87080    5.73370  197.19340  360.56370  396.66560    0.01220
 11780.00000    0.00820   53.25250   67.65730   44.25700    8.86720    5.50250  186.00570  328.68350  376.52830    0.01250
 11780.50000    0.01300   52.98500   67.65380   45.01860    8.86360    5.36850  179.40090  292.96120  304.87870    0.01270
 11781.00000    0.01770   52.84450   67.65040   45.16380    8.86250    5.31690  177.98700  283.96940  302.08630    0.01290
 11781.50000    0.02110   52.87370   67.64690   44.12880    8.85110    5.35720  185.43380  310.45490  333.78820    0.01310
 11782.00000    0.02110   52.51880   67.64340   42.88210    8.83980    5.43590  194.59300  336.94040  373.41560    0.01320
 11782.50000    0.01890   52.43990   67.64000   41.04180    8.82840    5.51460  200.08850  347.53450  413.04300    0.01340
 11783.00000    0.01530   52.76390   67.64230   41.45350    8.81700    5.56730  197.65110  339.68560  402.31930    0.01350
 11783.50000    0.01430   52.81350   67.64620   43.51250    8.80560    5.57630  186.78770  330.89490  367.61580    0.01360
 11784.00000    0.01610   52.79050   67.65000   45.21210    8.81240    5.58270  178.61860  322.87170  349.99930    0.01380
 11784.50000    0.01810   52.82700   67.64380   43.58680    8.82490    5.52990  188.45560  360.58500  389.26370    0.01390
 11785.00000    0.01930   52.67300   67.63750   42.21460    8.83740    5.56150  197.64360  404.52550  428.52810    0.01400
 11785.50000    0.01690   52.47850   67.63130   40.98250    8.85000    5.62630  200.52720  410.13430  431.69700    0.01410
 11786.00000    0.01070   52.50590   67.67080   41.01680    8.86250    5.69620  198.55940  408.20120  432.48920    0.01410
 11786.50000    0.00700   52.36490   67.57460   40.79180    8.86660    5.74860  196.59170  404.97930  434.96070    0.01420
 11787.00000    0.00990   52.21140   67.47830   40.19190    8.85820    5.72620  194.62390  401.75750  438.05010    0.01420
 11787.50000    0.01390   51.79730   67.38210   40.47460    8.84980    5.70380  192.65610  398.53570  437.90780    0.01430
