~Version ---------------------------------------------------
VERS.   2.0 : CWLS log ASCII Standard -VERSION 2.0
WRAP.    NO : One line per depth step
DLM . SPACE : Column Data Section Delimiter
~Well ------------------------------------------------------
STRT .FT                8824.0 : START DEPTH
STOP .FT               14284.0 : STOP DEPTH
STEP .FT                   0.5 : STEP
NULL .                -9999.25 : NULL VALUE
COMP .                         : COMPANY
WELL .                         : WELL
FLD  .                         : FIELD
LOC  .                         : LOCATION
PROV .                         : PROVINCE
CNTY .                         : COUNTY
STAT .                         : STATE
CTRY .                         : COUNTRY
SRVC .                         : SERVICE COMPANY
DATE .                         : DATE
UWI  .                         : UNIQUE WELL ID
API  .                         : API NUMBER
SLAT .WGS84  6.408765936937996 : SURFACE LATITUDE
SLON .WGS84 3.6245272197060956 : SURFACE LONGITUDE
DATUM.F                    nan : DEPTH DATUM ELEV
~Curve Information -----------------------------------------
DEPT   .FT    : 
DPHZ_LS.DEC   : HGRD STANDARD RESOLUTION DENSITY POROSITY
DTCO   .US/F  : DELTA-T COMPRESSIONAL
DTSM   .US/F  : DELTA-T SHEAR
ECGRR  .GAPI  : ENVIRONMENTALLY CORRECTED GAMMA RAY FROM RESISTIVITY LOG
HCALR  .IN    : HRCC CALIPER CALIBRATED FROM RESISTIVITY LOG
PEFZ   .B/E   : HRDD STANDARD RESOLUTION FORMATION PHOTOELECTRIC FACTOR
RLA1   .OHMM  : APPARENT RESISTIVITY FROM COMPUTED FOCUSING MODE 1
RLA3   .OHMM  : APPARENT RESISTIVITY FROM COMPUTED FOCUSING MODE 3
RLA5   .OHMM  : APPARENT RESISTIVITY FROM COMPUTED FOCUSING MODE 5
TNPH_LS.DEC   : THERMAL NEUTRON POROSITY [LIMESTONE]
~Params ----------------------------------------------------
~Other -----------------------------------------------------
~ASCII -----------------------------------------------------
# ...
 11064.00000    0.03630   51.23130   68.07380   15.49130    9.13040    5.25540  668.89520 15852.32550 23826.43960    0.01620
 11064.50000    0.04270   50.62370   67.91640   15.52330    9.12820    5.34410  612.62900 25896.00480 39280.58480    0.01630
 11065.00000    0.04780   50.11680   67.75910   15.43660    9.13030    5.41020  556.36280 31922.21240 39280.58480    0.01540
 11065.50000    0.04200   49.49080   67.67310   15.87370    9.14640    5.45480  524.59880 28220.93950 39280.58480    0.01380
 11066.00000    0.03330   49.02160   67.93140   16.57510    9.16610    5.39810  492.83480 20680.05230 26288.42270    0.01220
 11066.50000    0.03120   48.55230   68.14020   17.67770    9.18410    5.33880  473.24070 12410.59110 14301.20510    0.01050
 11067.00000    0.03060   48.17100   68.09410   19.22050    9.18100    5.31630  461.76000 7380.62230 9866.83670    0.00990
 11067.50000    0.02620   48.02310   68.04800   19.06660    9.17800    5.28800  450.27930 10120.30790 13205.50730    0.00990
 11068.00000    0.02100   47.86640   68.00200   19.29930    9.18030    5.24100  426.96860 10117.60820 11524.17660    0.01070
 11068.50000    0.02090   48.04060   67.95590   18.88900    9.18350    5.21220  417.14240 9206.46660 9935.30930    0.01110
 11069.00000    0.03010   48.18370   67.90990   18.44840    9.13370    5.27160  409.62070 8266.42000 9166.44190    0.01160
 11069.50000    0.04020   48.74360   67.86380   17.18390    9.11620    5.35050  411.31640 6856.35000 7765.65230    0.01200
 11070.00000    0.04600   49.09020   67.81780   16.80450    9.12290    5.40140  413.01210 7902.49900 10196.89820    0.01240
 11070.50000    0.04370   49.43680   67.77170   16.51730    9.11640    5.44520  414.70780 10359.26900 14248.97460    0.01280
 11071.00000    0.03800   49.71410   67.72560   17.08710    9.10990    5.40640  416.40350 12816.03900 18301.05110    0.01330
 11071.50000    0.03230   49.71410   67.67960   16.38530    9.07210    5.34450  418.09920 16796.09270 22353.12760    0.01360
 11072.00000    0.02760   49.58790   67.66000   17.22880    9.01690    5.30280  417.66830 21156.96740 27038.02880    0.01360
 11072.50000    0.02390   48.95670   67.64040   17.87670    8.98700    5.23700  408.73080 23773.49230 32672.16730    0.01100
 11073.00000    0.02060   48.32550   67.62080   17.96630    8.94260    5.19720  398.90530 20841.32290 30619.15700    0.00990
 11073.50000    0.01740   47.75990   67.17380   16.77850    8.91470    5.20490  382.66780 16856.01260 25486.63140    0.01420
 11074.00000    0.01740   47.66230   66.87700   16.15180    8.91560    5.32340  370.70630 15024.21210 20354.10580    0.01470
 11074.50000    0.02030   47.15360   66.66350   15.51480    8.99610    5.41650  348.99090 13192.41170 17726.90770    0.01260
 11075.00000    0.02830   47.46870   66.99310   15.45720    9.08690    5.34430  349.28830 12496.50580 16155.67630    0.01310
 11075.50000    0.03410   48.02880   67.19050   15.13950    9.13950    5.26410  349.49900 12084.57350 15228.89730    0.01430
 11076.00000    0.03890   48.58880   67.39660   14.90740    9.16130    5.25210  369.79190 11672.64120 14302.11820    0.01590
 11076.50000    0.04370   49.14890   67.74080   14.67530    9.18320    5.25440  376.33590 10380.20880 12933.34140    0.01750
 11077.00000    0.04460   49.59700   68.08500   14.35550    9.15940    5.25930  382.96330 8867.65130 10901.56790    0.01840
 11077.50000    0.03850   49.59700   68.20370   13.77950    9.15090    5.24580  389.59070 7587.40000 8869.79430    0.01840
 11078.00000    0.03230   49.59700   68.17200   14.68120    9.15710    5.21610  396.21800 7587.40000 8057.08490    0.01820
 11078.50000    0.03470   49.15070   68.15970   15.79250    9.12970    5.26620  402.72330 8342.01260 9427.55430    0.01720
 11079.00000    0.03830   48.84900   68.15220   17.02250    9.12850    5.32920  409.22850 9038.42960 10523.92980    0.01630
 11079.50000    0.04270   48.76130   68.14460   16.61020    9.14500    5.37270  415.73370 9122.06120 12486.00830    0.01540
 11080.00000    0.04410   48.44690   67.91820   15.99040    9.18860    5.32900  422.23890 11918.95670 16902.06850    0.01450
 11080.50000    0.04020   47.67900   67.71960   15.92790    9.24300    5.28540  415.33270 15203.08640 21318.12860    0.01360
 11081.00000    0.03500   47.77590   67.91140   16.45520    9.26870    5.24170  408.42640 15281.93770 22054.83780    0.01270
 11081.50000    0.03040   48.06230   68.18010   16.66560    9.24360    5.20740  414.64330 13831.50650 20269.43030    0.01180
 11082.00000    0.03440   48.30260   68.15340   15.56420    9.21010    5.24460  452.68210 12381.07540 18484.02280    0.01140
 11082.50000    0.04130   48.81810   68.02200   13.04450    9.21410    5.30590  497.04380 12385.08330 18271.33150    0.01090
 11083.00000    0.04660   48.81040   67.81120   12.28660    9.20750    5.34650  541.40540 12370.66460 18058.64020    0.01040
 11083.50000    0.04160   48.76650   67.69160   13.09080    9.21500    5.30460  556.36020 12327.94610 17845.94890    0.01040
 11084.00000    0.03760   48.69820   67.66770   13.67180    9.22560    5.27950  562.25210 12399.31370 17676.99390    0.01040
 11084.50000    0.03340   48.16130   67.68500   14.30050    9.22430    5.27680  562.25590 13018.34050 18486.38690    0.01040
 11085.00000    0.02790   48.16380   67.25900   14.44530    9.22290    5.24890  562.25980 13479.56720 19295.77980    0.01050
 11085.50000    0.02180   47.70470   67.09750   15.46200    9.22160    5.20280  562.26360 14186.38820 20751.00640    0.01010
 11086.00000    0.02060   47.25520   67.05460   16.17210    9.22400    5.15590  562.26740 15486.89960 23981.85530    0.01000
 11086.50000    0.02130   47.26280   67.27130   17.57140    9.27540    5.10900  562.27120 15209.16990 23772.21230    0.00940
 11087.00000    0.02790   47.26470   67.54140   17.75610    9.34680    5.06210  562.27500 12576.64440 19241.83330    0.00960
 11087.50000    0.03230   47.21820   67.68640   17.01810    9.38290    5.06210  551.67840 9802.48830 14928.48390    0.00740
 11088.00000    0.02880   47.24890   67.66560   15.33550    9.38380    5.12500  525.20610 7028.33210 10615.13450    0.00680
 11088.50000    0.02280   47.38200   67.75960   14.89870    9.37530    5.18780  511.12190 7692.91040 10084.08620    0.00690
 11089.00000    0.02170   47.26790   67.85370   15.15910    9.33460    5.25060    4.59600 11006.28920 13068.14100    0.00760
 11089.50000    0.02200   47.29480   67.94770   16.18150    9.33410    5.27570  452.16020 12333.84180 15456.45180    0.00760
 11090.00000    0.02220   47.53010   67.86030   16.82950    9.33360    5.23120  517.53060 12141.48190 14694.34180    0.00760
 11090.50000    0.01550   47.80440   67.72750   16.88340    9.32030    5.18680  511.76750 11157.55520 13420.57890    0.00770
 11091.00000    0.00880   48.08150   67.72860   15.92860    9.29850    5.17600  496.89370 10173.62850 12101.99320    0.00770
 11091.50000    0.00880   48.37450   67.96900   15.46020    9.27670    5.18780  482.01980 8311.86270 10417.11800    0.00770
 11092.00000    0.01150   48.76840   68.56850   15.29020    9.27820    5.19960  461.21750 6450.09680 7984.24920    0.00770
 11092.50000    0.01330   48.77240   69.16800   16.36880    9.27680    5.20120  431.52250 6179.17680 7001.73870    0.00770
 11093.00000    0.01060   48.51940   69.16900   16.98270    9.25110    5.16490  402.14950 6543.02270 7275.04680    0.00690
 11093.50000    0.00670   47.99420   69.08580   17.18280    9.21290    5.05090  385.51690 6215.91930 6769.37320    0.00560
 11094.00000    0.00610   47.57570   68.66590   17.42660    9.19170    4.96230  377.64740 5859.59420 6834.31140    0.00500
 11094.50000    0.00830   47.45550   68.24600   18.30440    9.17060    4.87370  342.50230 6743.23590 9024.65880    0.00500
 11095.00000    0.01930   47.61280   68.08770   20.12630    9.15030    4.83840  112.12670 8951.82530 11215.00630    0.00610
 11095.50000    0.02530   47.65050   67.95500   21.94820    9.15100    4.92940  299.52240 10119.66200 12529.94990    0.00610
 11096.00000    0.01930   47.63820   67.75940   21.56770    9.17730    5.04310  304.95740 9726.10300 12078.10270    0.00560
