~Version ---------------------------------------------------
VERS.   2.0 : CWLS log ASCII Standard -VERSION 2.0
WRAP.    NO : One line per depth step
DLM . SPACE : Column Data Section Delimiter
~Well ------------------------------------------------------
STRT .FT                8824.0 : START DEPTH
STOP .FT               14284.0 : STOP DEPTH
STEP .FT                   0.5 : STEP
NULL .                -9999.25 : NULL VALUE
COMP .                         : COMPANY
WELL .                         : WELL
FLD  .                         : FIELD
LOC  .                         : LOCATION
PROV .                         : PROVINCE
CNTY .                         : COUNTY
STAT .                         : STATE
CTRY .                         : COUNTRY
SRVC .                         : SERVICE COMPANY
DATE .                         : DATE
UWI  .                         : UNIQUE WELL ID
API  .                         : API NUMBER
SLAT .WGS84  6.408765936937996 : SURFACE LATITUDE
SLON .WGS84 3.6245272197060956 : SURFACE LONGITUDE
DATUM.F                    nan : DEPTH DATUM ELEV
~Curve Information -----------------------------------------
DEPT   .FT    : 
DPHZ_LS.DEC   : HGRD STANDARD RESOLUTION DENSITY POROSITY
DTCO   .US/F  : DELTA-T COMPRESSIONAL
DTSM   .US/F  : DELTA-T SHEAR
ECGRR  .GAPI  : ENVIRONMENTALLY CORRECTED GAMMA RAY FROM RESISTIVITY LOG
HCALR  .IN    : HRCC CALIPER CALIBRATED FROM RESISTIVITY LOG
PEFZ   .B/E   : HRDD STANDARD RESOLUTION FORMATION PHOTOELECTRIC FACTOR
RLA1   .OHMM  : APPARENT RESISTIVITY FROM COMPUTED FOCUSING MODE 1
RLA3   .OHMM  : APPARENT RESISTIVITY FROM COMPUTED FOCUSING MODE 3
RLA5   .OHMM  : APPARENT RESISTIVITY FROM COMPUTED FOCUSING MODE 5
TNPH_LS.DEC   : THERMAL NEUTRON POROSITY [LIMESTONE]
~Params ----------------------------------------------------
~Other -----------------------------------------------------
~ASCII -----------------------------------------------------
# ...
 9319.00000    0.02480   66.26180   84.22640   40.33210    9.34590    4.65790   11.23460   13.17620   13.95020    0.15290
 9319.50000    0.01940   66.15760   84.73960   40.54280    9.02650    4.65980   13.41400   14.81480   16.20540    0.15150
 9320.00000    0.01250   66.05340   84.80820   40.30100    9.01510    4.65220   12.49730   13.41990   15.41790    0.14720
 9320.50000    0.01550   65.97010   84.89320   41.31900    9.01510    4.64620   10.66380   11.67630   13.10410    0.14340
 9321.00000    0.02600   65.74780   85.30190   41.97650    9.03110    4.64620   11.25000   12.10590   14.53200    0.14400
 9321.50000    0.03550   65.37730   86.40680   41.72290    9.04270    4.65340   11.71330   12.51590   15.48390    0.14290
 9322.00000    0.04320   65.59390   87.51170   42.77760    9.08460    4.62420    9.69290   10.85590   13.69760    0.13880
 9322.50000    0.04240   66.32060   88.02200   43.36000    9.11490    4.60640    7.40260    8.08930   10.30940    0.13590
 9323.00000    0.03610   67.04730   87.66050   40.83860    9.15540    4.62060    9.45600   10.95530   26.90440    0.12830
 9323.50000    0.02050   65.86750   86.65410   33.31370    9.18300    4.81760   59.47930   93.56630  264.11200    0.08820
 9324.00000    0.00380   61.76370   84.81980   24.17300    9.16870    5.05850  267.99020  541.95110  743.21630    0.05880
 9324.50000   -0.00880   57.65980   82.98550   19.56800    9.16910    5.17400  728.35230  909.00460 1420.00540    0.03370
 9325.00000   -0.01050   54.18560   78.53310   19.36960    9.22870    5.18370  582.17000  810.61790 1339.07590    0.02860
 9325.50000   -0.00780   50.71130   73.42610   20.80780    9.25200    5.10940  500.35610  564.65090 1149.59100    0.02670
 9326.00000   -0.00260   49.80190   68.31910   21.29620    9.28120    5.09340  396.06240  496.33530  971.14550    0.02730
 9326.50000    0.00020   49.75530   66.06660   21.34650    9.29870    5.10000  389.56000  578.60360 1229.99760    0.02880
 9327.00000    0.00400   49.70870   66.06660   21.72400    9.35660    5.12010  935.51160 1268.46600 2061.53790    0.03020
 9327.50000    0.00610   49.16150   66.27170   21.96480    9.38640    5.09340  534.55910 1338.39020 2156.15700    0.03390
 9328.00000    0.01130   48.47750   66.61370   26.83390    9.39930    4.95990   52.04750  559.34500  737.12870    0.03860
 9328.50000    0.00940   49.14440   66.34020   29.94570    9.44380    4.93320   45.92490   89.22350  434.45170    0.04500
 9329.00000   -0.00400   49.97800   64.90380   27.10540    9.51980    5.02170  571.71260 1045.10420 1956.78370    0.04630
 9329.50000   -0.01960   50.47810   64.76700   20.68640    9.58980    5.18130 1049.22960 1248.59370 2267.16700    0.04290
 9330.00000   -0.02800   48.37840   63.87790   17.88960    9.62020    5.37500  570.97690  738.07130 2064.04970    0.03960
 9330.50000   -0.02370   46.13830   61.14250   19.13780    9.66860    5.51700  410.41990  629.75630  906.05640    0.04420
 9331.00000   -0.00110   43.89830   59.43260   24.46520    9.72370    5.53610  107.63360  266.20010  443.66530    0.05570
 9331.50000    0.04560   43.78700   59.15920   30.89390    9.82650    5.43150    9.67720   55.65860  117.22430    0.07290
 9332.00000    0.10480   45.47020   59.15950   44.96140   10.06570    5.12010    3.42450    4.24520    5.99410    0.16620
 9332.50000    0.16690   47.15340   60.93930   57.57920   10.56230    4.80860    3.28180    3.96040    4.46080    0.27790
 9333.00000    0.21530   48.93920   63.84020   76.50060   11.20940    4.50410    3.64560    4.02060    4.42960    0.34330
 9333.50000    0.24170   55.63550   68.01370   89.31350   11.31320    3.99870    3.97350    4.12080    4.42970    0.41770
 9334.00000    0.24830   61.92140   72.18710   97.30430   11.57680    3.66500    4.04300    4.20340    4.57050    0.41150
 9334.50000    0.25410   68.20730   75.99680   99.49210   11.82260    3.43660    3.78420    4.21380    6.36410    0.40180
 9335.00000    0.25240   74.49320   79.26060   97.64700   11.74340    3.39520    3.88310    4.37350   17.00860    0.39020
 9335.50000    0.23060   78.23870   82.52450   88.58760   11.56220    3.64660    3.95460    5.60450    6.38120    0.38740
 9336.00000    0.17440   76.46770   83.24650   73.41310   11.34150    4.00770    3.79780    6.40910    7.69980    0.31200
 9336.50000    0.10380   73.94310   81.56390   60.54650   11.15470    4.33580    8.95770   14.78060   19.14800    0.21680
 9337.00000    0.05060   71.41840   79.89860   47.44560   10.85660    4.59950   17.84830   23.15220   30.34490    0.14240
 9337.50000    0.01470   69.98290   78.23340   40.31570   10.35780    4.74630   26.15020   31.17700   34.44840    0.11370
 9338.00000    0.01310   67.19810   76.56810   38.77590   10.27170    4.69290   44.51160   34.70320   34.56800    0.09430
 9338.50000    0.01560   63.06630   74.83450   37.75710   10.10190    4.55940   40.27890   37.64340   31.19830    0.08980
 9339.00000    0.01530   59.89230   74.69850   36.73830   10.09060    4.55940   42.81440   37.99290   33.86110    0.08710
 9339.50000    0.01630   57.35690   75.03950   35.63460   10.11890    4.61280   54.26680   43.25180   39.17690    0.09370
 9340.00000    0.02500   56.99810   75.71570   34.70070   10.20610    4.77410   41.57280   26.37700   18.10730    0.10030
 9340.50000    0.02950   58.03740   76.39190   35.21010   10.30800    4.93540   19.52790   17.36460   16.58590    0.10690
 9341.00000    0.01940   59.66940   77.06820   34.18470   10.53210    5.08000   27.22840   19.17540   15.81160    0.10640
 9341.50000    0.00780   61.30130   77.74440   32.59620   10.58870    5.21350   45.45050   31.18970   25.44740    0.09320
 9342.00000    0.00190   60.35390   77.15120   27.04640   10.33970    5.34700   60.23270   38.39820   33.85490    0.07740
 9342.50000    0.00420   58.88340   76.16300   25.08120   10.37170    5.41380   54.26740   33.26600   25.04750    0.07110
 9343.00000    0.00760   57.41290   75.89670   27.77680   10.53210    5.40150   34.51790   22.03240   19.48540    0.07430
 9343.50000    0.01210   56.58180   76.94170   32.89380   10.38500    5.34030   30.17570   20.75940   18.68310    0.08670
 9344.00000    0.01660   57.48170   78.35780   35.13500   10.49530    5.27920   26.56350   18.50350   15.97750    0.09910
 9344.50000    0.02170   58.55420   79.77390   32.80830   10.76980    5.21800   35.46890   20.58300   16.14510    0.10950
 9345.00000    0.04310   59.19770   80.54520   30.42910   10.41890    5.15680   44.51280   33.41980   26.63490    0.10660
 9345.50000    0.06550   57.88950   80.88680   34.24880   10.44160    5.07160   23.73230   20.25220   12.98510    0.11040
 9346.00000    0.07810   56.63260   83.82740   41.11500   10.76140    4.95020   11.47270   10.91350   10.09760    0.13210
 9346.50000    0.07570   58.59350   87.15510   47.08070   10.54340    4.84140   11.11930    9.86540    9.37040    0.15010
 9347.00000    0.06820   62.47020   90.48270   50.15560   10.63970    4.78300    9.94450    9.32790    8.11160    0.18180
 9347.50000    0.05910   66.34680   93.81040   53.46570   11.00760    4.74630    9.70960    9.11280    8.61570    0.19170
 9348.00000    0.07220   70.36380   94.41030   53.59390   10.59630    4.73410   10.66510    9.98790    9.00330    0.19820
 9348.50000    0.10280   71.48610   95.39760   53.88310   10.62840    4.74340   12.86750   10.89430    9.46760    0.18220
 9349.00000    0.13340   71.55760   96.35470   54.56810   10.72460    4.76120    9.78030    8.08340    6.84080    0.17840
 9349.50000    0.10960   71.79320   97.41810   51.68150    9.98880    4.77940    9.31360    8.44520    6.75650    0.19180
 9350.00000    0.07180   73.67320   97.62680   49.27390   10.02650    4.78160   13.69850   11.11270    9.28950    0.17010
 9350.50000    0.04270   75.83100   94.67030   44.52830   10.01790    4.79620   11.47300    9.67180    8.72600    0.13980
 9351.00000    0.01720   74.20500   91.57240   39.78280    9.85290    4.81450   28.46250   15.90070   11.44410    0.10970
 9351.50000    0.00700   70.52300   88.47450   35.83000    9.85290    4.79970   45.92860   35.11990   23.74860    0.08900
