~Version ---------------------------------------------------
VERS.   2.0 : CWLS log ASCII Standard -VERSION 2.0
WRAP.    NO : One line per depth step
DLM . SPACE : Column Data Section Delimiter
~Well ------------------------------------------------------
STRT .FT                8824.0 : START DEPTH
STOP .FT               14284.0 : STOP DEPTH
STEP .FT                   0.5 : STEP
NULL .                -9999.25 : NULL VALUE
COMP .                         : COMPANY
WELL .                         : WELL
FLD  .                         : FIELD
LOC  .                         : LOCATION
PROV .                         : PROVINCE
CNTY .                         : COUNTY
STAT .                         : STATE
CTRY .                         : COUNTRY
SRVC .                         : SERVICE COMPANY
DATE .                         : DATE
UWI  .                         : UNIQUE WELL ID
API  .                         : API NUMBER
SLAT .WGS84  6.408765936937996 : SURFACE LATITUDE
SLON .WGS84 3.6245272197060956 : SURFACE LONGITUDE
DATUM.F                    nan : DEPTH DATUM ELEV
~Curve Information -----------------------------------------
DEPT   .FT    : 
DPHZ_LS.DEC   : HGRD STANDARD RESOLUTION DENSITY POROSITY
DTCO   .US/F  : DELTA-T COMPRESSIONAL
DTSM   .US/F  : DELTA-T SHEAR
ECGRR  .GAPI  : ENVIRONMENTALLY CORRECTED GAMMA RAY FROM RESISTIVITY LOG
HCALR  .IN    : HRCC CALIPER CALIBRATED FROM RESISTIVITY LOG
PEFZ   .B/E   : HRDD STANDARD RESOLUTION FORMATION PHOTOELECTRIC FACTOR
RLA1   .OHMM  : APPARENT RESISTIVITY FROM COMPUTED FOCUSING MODE 1
RLA3   .OHMM  : APPARENT RESISTIVITY FROM COMPUTED FOCUSING MODE 3
RLA5   .OHMM  : APPARENT RESISTIVITY FROM COMPUTED FOCUSING MODE 5
TNPH_LS.DEC   : THERMAL NEUTRON POROSITY [LIMESTONE]
~Params ----------------------------------------------------
~Other -----------------------------------------------------
~ASCII -----------------------------------------------------
# ...
 12481.00000    0.02670   56.42300   69.92500   86.19780    9.63850    3.87910   39.36250   60.09670   98.98660    0.04880
 12481.50000    0.02670   56.31520   69.88850   85.64140    9.63790    3.87670   39.42240   60.09670   99.01690    0.04750
 12482.00000    0.02460   56.18150   69.71740   86.89820    9.63350    3.83950   39.48240   60.09670   99.04730    0.04920
 12482.50000    0.02180   56.04780   69.64000   85.36510    9.62900    3.77690   39.54230   60.09670   99.07760    0.05020
 12483.00000    0.01920   55.91410   69.63650   85.34860    9.62450    3.76040   39.60220   60.09670   99.10800    0.05030
 12483.50000    0.01790   55.78110   69.63310   82.76400    9.62910    3.75540   39.66220   60.09670   99.13840    0.05040
 12484.00000    0.01760   55.88300   69.62960   82.86490    9.63170    3.75790   39.72210   60.09670   99.16870    0.05010
 12484.50000    0.01790   55.82960   69.62610   84.86220    9.62480    3.77670   39.78210   60.28840   99.19910    0.04930
 12485.00000    0.01780   56.30770   69.62270   87.43310    9.62050    3.78760   39.84200   59.24280   99.22940    0.04850
 12485.50000    0.01800   56.27490   69.61920   88.87920    9.62680    3.80500   38.79360   58.19710   99.25980    0.04740
 12486.00000    0.01800   56.35900   69.61570   89.43590    9.63300    3.81450   36.84090   57.15150   99.29020    0.04480
 12486.50000    0.01710   56.29280   69.61230   89.83270    9.63930    3.81450   36.87600   56.52410   99.32050    0.04480
 12487.00000    0.01340   56.00850   69.60880   87.98100    9.61930    3.79450   37.06330   56.46650   99.35090    0.04630
 12487.50000    0.01470   55.74990   69.73710   86.08340    9.62210    3.80880   37.01390   56.37060   99.38120    0.04520
 12488.00000    0.01990   55.85360   69.59080   83.80350    9.59070    3.85000   36.96450   56.27460   99.41160    0.04410
 12488.50000    0.02740   55.94420   69.55240   84.23400    9.56470    3.89550   36.91500   56.17860   99.44200    0.04330
 12489.00000    0.03050   55.90800   69.55470   85.88260    9.55320    3.90820   36.86560   56.08270   99.47230    0.04400
 12489.50000    0.02780   55.87190   69.59960   85.79770    9.54180    3.87160   36.81620   56.03010   99.52330    0.04500
 12490.00000    0.02200   55.83570   69.64440   84.17950    9.53040    3.78450   36.76680   56.15120   99.60530    0.04620
 12490.50000    0.01810   56.04810   69.68930   81.80040    9.55180    3.71510   36.71740   56.27230   99.68730    0.04810
 12491.00000    0.01590   56.33800   69.73410   83.77110    9.55930    3.66120   36.66800   56.39330   99.76930    0.04950
 12491.50000    0.01670   56.43400   69.77900   87.40780    9.59670    3.62700   36.61860   56.51440   99.85130    0.05070
 12492.00000    0.02200   56.39110   69.82390   89.51900    9.63420    3.61420   36.56910   56.63550   99.93330    0.05320
 12492.50000    0.02930   56.27740   69.86870   90.85080    9.64920    3.61420   36.54940   56.75650  100.01530    0.05600
 12493.00000    0.03740   56.02930   69.91360   90.98700    9.64920    3.63830   37.15690   56.87760  100.09730    0.05560
 12493.50000    0.04190   55.86660   69.95850   90.65230    9.64420    3.65490   37.76450   56.99870  100.17930    0.05370
 12494.00000    0.04080   55.86730   70.00330   93.03170    9.61930    3.66820   38.37200   57.04710  100.26130    0.05220
 12494.50000    0.03590   55.85860   70.04820   91.83200    9.59720    3.68160   38.97960   57.04710  100.34330    0.05190
 12495.00000    0.03110   55.73050   70.08450   93.83160    9.58620    3.66630   39.34410   57.04710  100.42530    0.05320
 12495.50000    0.02700   56.37190   70.08630   90.82830    9.57530    3.62920   38.81530   57.04710  100.50730    0.05390
 12496.00000    0.02510   56.41710   70.04700   88.01380    9.57550    3.60010   38.15430   57.04710  100.58930    0.05380
 12496.50000    0.02660   56.46600   70.00780   86.29310    9.58320    3.60010   37.49330   57.04710  100.67130    0.05320
 12497.00000    0.02960   56.83940   69.96850   84.89390    9.61260    3.60800   37.22890   57.04710  100.75550    0.05200
 12497.50000    0.02950   56.92570   69.92920   84.89510    9.62570    3.58650   37.64660   57.04710  100.84320    0.05070
 12498.00000    0.02680   56.83220   69.89000   84.89630    9.63640    3.56130   38.06440   57.04710  100.93090    0.04970
 12498.50000    0.02410   56.85410   69.85070   85.58990    9.64710    3.54820   38.48210   57.04710  101.01860    0.04870
 12499.00000    0.02400   56.77880   69.81140   87.62280    9.63720    3.56420   38.89990   57.04710  101.10630    0.04910
 12499.50000    0.02340   56.44550   69.77220   88.69320    9.60990    3.60710   38.63530   57.04710  101.19400    0.04790
 12500.00000    0.02420   56.14190   69.73290   87.99130    9.56320    3.66070   38.05500   57.04710  101.28160    0.04680
 12500.50000    0.02120   55.83520   69.70680   85.39670    9.53520    3.70720   37.59070   57.04710  101.36930    0.04570
 12501.00000    0.02000   55.83710   69.97570   84.36850    9.55520    3.74110   37.59070   57.04710  101.45700    0.04410
 12501.50000    0.02180   55.84860   69.98520   86.23290    9.57520    3.78560   37.63730   57.04710  101.54470    0.04380
 12502.00000    0.02280   56.16770   69.99460   88.24700    9.59500    3.79450   37.75380   57.04710  101.63240    0.04350
 12502.50000    0.02480   56.35580   70.00400   89.31350    9.63450    3.76390   37.87030   57.04710  101.72010    0.04480
 12503.00000    0.02400   56.33630   70.01340   89.45830    9.66020    3.68220   37.98670   57.04710  101.80780    0.04600
 12503.50000    0.02190   55.91240   70.02290   89.60320    9.67850    3.62370   38.10320   57.04710  101.89540    0.04640
 12504.00000    0.01770   55.62750   70.03230   87.75260    9.68100    3.57510   38.21970   57.04710  101.96470    0.04670
 12504.50000    0.01320   55.34370   70.04170   87.19850    9.68350    3.51480   38.29920   57.04710  101.96000    0.04760
 12505.00000    0.01200   55.03340   70.05110   87.17530    9.68030    3.53000   38.32320   57.04710  101.95540    0.04860
 12505.50000    0.01570   54.80570   70.06060   87.81050    9.65040    3.55660   38.34710   56.89260  101.95080    0.04950
 12506.00000    0.01890   54.80400   70.07000   86.18060    9.60630    3.58310   38.37110   56.69940  101.94610    0.04810
 12506.50000    0.02110   54.84800   70.07940   88.49070    9.58060    3.58970   38.39510   56.50620  101.94150    0.04750
 12507.00000    0.02310   55.07430   70.08880   90.64620    9.58760    3.58300   38.41900   56.31300  101.93690    0.04780
 12507.50000    0.02470   55.20940   70.09830   89.48080    9.59460    3.57320   37.78030   56.31300  101.93220    0.04770
 12508.00000    0.02590   55.57420   70.10770   85.67040    9.63920    3.55180   38.38950   56.31300  101.92760    0.04780
 12508.50000    0.02560   55.71910   70.11710   84.20120    9.66120    3.53110   38.61690   56.63470  101.92300    0.04760
 12509.00000    0.02600   55.71740   70.12650   87.54190    9.66920    3.52700   38.74890   57.03680  101.91830    0.04720
 12509.50000    0.02720   55.71580   70.13600   88.59570    9.65770    3.52700   38.88090   57.43890  101.91370    0.04680
 12510.00000    0.02660   55.62850   70.14540   89.14660    9.63740    3.52700   39.01290   57.84100  101.90910    0.04750
 12510.50000    0.02610   55.43890   70.15480   86.48080    9.62800    3.52700   38.89660   58.24320  101.90440    0.04890
 12511.00000    0.02680   55.33600   70.16420   87.47460    9.60990    3.52220   38.78020   58.64530  101.89980    0.05100
 12511.50000    0.02420   55.39720   70.17370   87.78520    9.59920    3.51030   38.66390   58.96700  101.89520    0.05220
 12512.00000    0.01860   55.64310   70.47590   87.33630    9.61170    3.48900   38.54750   59.03580  101.89050    0.05220
 12512.50000    0.01370   56.03260   70.59790   85.03290    9.62730    3.43010   38.43120   59.38000  101.88590    0.05130
 12513.00000    0.01150   56.49390   70.60250   83.28330    9.64300    3.37810   38.23510   59.72410  101.88130    0.05170
 12513.50000    0.01710   56.77060   70.60720   81.73360    9.64920    3.44410   38.01900   60.06830  101.87660    0.05220
