~Version ---------------------------------------------------
VERS.   2.0 : CWLS log ASCII Standard -VERSION 2.0
WRAP.    NO : One line per depth step
DLM . SPACE : Column Data Section Delimiter
~Well ------------------------------------------------------
STRT .F                  135.0 : START DEPTH
STOP .F                 5321.0 : STOP DEPTH
STEP .F                    0.5 : STEP
NULL .                -9999.25 : NULL VALUE
COMP .                         : COMPANY
WELL .                         : WELL
FLD  .                         : FIELD
LOC  .                         : LOCATION
PROV .                         : PROVINCE
CNTY .                         : COUNTY
STAT .                         : STATE
CTRY .                         : COUNTRY
SRVC .                         : SERVICE COMPANY
DATE .                         : DATE
UWI  .                         : UNIQUE WELL ID
API  .                         : API NUMBER
SLAT .WGS84  2.681228030978602 : SURFACE LATITUDE
SLON .WGS84 7.2482839172310065 : SURFACE LONGITUDE
DATUM.F                    nan : DEPTH DATUM ELEV
~Curve Information -----------------------------------------
DEPT   .F     : 1 MEASURED DEPTH
RLA3   .OHMM  : APPARENT RESISTIVITY FROM COMPUTED FOCUSING MODE 3
RLA4   .OHMM  : APPARENT RESISTIVITY FROM COMPUTED FOCUSING MODE 4
RLA5   .OHMM  : APPARENT RESISTIVITY FROM COMPUTED FOCUSING MODE 5
DTCO   .US/F  : DELTA-T COMPRESSIONAL
DTSM   .US/F  : DELTA-T SHEAR
SGRDD  .GAPI  : SPECTROSCOPY GAMMA RAY FROM DENSITY LOG
TNPH_LS.DEC   : THERMAL NEUTRON POROSITY [LIMESTONE]
CALD   .IN    : CALIPER FROM DENSITY LOG
DPHZ_LS.DEC   : HGRD STANDARD RESOLUTION DENSITY POROSITY
HDRA   .G/C3  : HRDD SPINE AND RIBS DENSITY CORRECTION
PEFZ   .B/E   : HRDD STANDARD RESOLUTION FORMATION PHOTOELECTRIC FACTOR
RHOZ   .G/C3  : HRDD STANDARD RESOLUTION FORMATION DENSITY
~Params ----------------------------------------------------
~Other -----------------------------------------------------
~ASCII -----------------------------------------------------
# ...
 3887.00000   19.21870   24.32700   31.17840   -9999.25   -9999.25   32.91430    0.07550    9.46290    0.02180   -0.00140    4.16740    2.67650
 3887.50000   11.29710   13.57030   20.38340   -9999.25   -9999.25   34.54720    0.06790    9.47920    0.02980   -0.00170    4.25750    2.54950
 3888.00000    9.06640   10.77160   10.92820   -9999.25   -9999.25   42.25280    0.08100    9.50070    0.10350   -0.00260    4.15880    2.45660
 3888.50000    7.73300    9.75510    9.98030   -9999.25   -9999.25   49.95840    0.11090    9.54160    0.15950   -0.00370    3.81520    2.39890
 3889.00000    6.93340    8.69220   22.38150   -9999.25   -9999.25   50.50570    0.13340    9.55010    0.19460   -0.00480    3.47120    2.39050
 3889.50000   59.18410   74.46370   99.23040   -9999.25   -9999.25   47.69180    0.13090    9.55350    0.19780   -0.00560    3.25690    2.38770
 3890.00000  102.50850  109.46660  117.85920   -9999.25   -9999.25   46.02620    0.08180    9.54860    0.20000   -0.00560    3.23070    2.38240
 3890.50000  102.96530  108.16520  120.28460   -9999.25   -9999.25   46.47860    0.05150    9.53840    0.20240   -0.00560    3.23110    2.38100
 3891.00000   67.56980   76.03640   98.76940   -9999.25   -9999.25   47.26640    0.03760    9.52080    0.20410   -0.00560    3.23630    2.36750
 3891.50000   48.12900   49.59620   54.70560   -9999.25   -9999.25   46.82170    0.04250    9.50570    0.20970   -0.00560    3.24140    2.36500
 3892.00000   42.46330   43.75930   49.83050   -9999.25   -9999.25   46.24260    0.06100    9.48560    0.21250   -0.00560    3.24940    2.42890
 3892.50000   24.66130   28.75300   34.40230   -9999.25   -9999.25   44.47080    0.07760    9.45150    0.18410   -0.00490    3.30510    2.57420
 3893.00000   14.83970   28.02430   40.13730   -9999.25   -9999.25   36.65880    0.08250    9.42370    0.10470    0.00080    3.67300    2.70260
 3893.50000   90.56480  131.26240  141.13920   -9999.25   -9999.25   25.23800    0.08050    9.35060   -0.00460    0.04940    4.15680    2.85820
 3894.00000  155.78700  197.40540  248.29030   -9999.25   -9999.25   13.91880    0.03170    9.30270   -0.10000    0.06320    4.64080    2.94410
 3894.50000  444.98070  577.41390  757.48380   -9999.25   -9999.25    6.62440   -0.01510    9.29350   -0.10000    0.04220    4.93700    2.98310
 3895.00000  327.59880  501.41570  599.79420   -9999.25   -9999.25    4.55270   -0.02690    9.29920   -0.10000    0.01560    5.02140    2.64290
 3895.50000  309.40690  443.61090  491.74860   -9999.25   -9999.25    4.55380   -0.02690    9.31190    0.08790    0.01220    4.93350    2.21860
 3896.00000  103.97930  146.22690  452.47530   -9999.25   -9999.25    6.35250   -0.02030    9.64110    0.24950    0.01480    4.81070    2.27120
 3896.50000   18.98130   45.05550  104.77150   -9999.25   -9999.25    7.82080   -0.00530    9.62700    0.29890    0.01870    4.70010    2.44090
 3897.00000  220.69590  257.11290  298.54590   -9999.25   -9999.25    7.77120    0.01240    9.62600    0.19720    0.02780    4.69070    2.52840
 3897.50000  342.39680  400.36390  406.09130   -9999.25   -9999.25    5.79410    0.01420    9.57310    0.08750    0.06970    4.78990    2.65400
 3898.00000  387.50030  496.87600  650.61520   -9999.25   -9999.25    2.83110    0.00170    9.39740    0.02400    0.06350    4.95450    2.68690
 3898.50000  938.39950 3308.07860 5121.42870   -9999.25   -9999.25    1.80530   -0.01080    9.37380    0.01540    0.02410    5.11270    2.69700
 3899.00000 1211.61850 14416.54390 18130.26950   -9999.25   -9999.25    1.92470   -0.01510    9.35010   -0.01440    0.02260    5.22440    2.81020
 3899.50000 1249.54030 15934.05470 20265.21680   -9999.25   -9999.25    2.90920   -0.01000    9.30980   -0.06390    0.02920    5.31800    2.87370
 3900.00000 1255.80240 16995.73630 82737.37500   -9999.25   -9999.25    3.43500   -0.00670    9.37310   -0.09390    0.01780    5.33030    2.92080
 3900.50000 1281.87670 17172.48830 27417.83200   -9999.25   -9999.25    3.14180   -0.00990    9.24900   -0.10040    0.00450    5.26300    2.96800
 3901.00000 1288.97570 12900.92870 17478.30660   -9999.25   -9999.25    2.84700   -0.01400    9.26500   -0.10050   -0.00340    5.12910    2.98460
 3901.50000 1240.43100 11760.63480 23086.31840   -9999.25   -9999.25    3.23870   -0.01810    9.26340   -0.10060   -0.00640    5.04050    2.98870
 3902.00000 1088.89590 7495.30370 9784.10740   -9999.25   -9999.25    4.28200   -0.02210    9.26450   -0.10060   -0.00860    4.98170    2.98160
 3902.50000  530.25460 1936.61620 5089.37160   -9999.25   -9999.25    6.25470   -0.02040    9.26650   -0.10070   -0.00880    4.83660    2.89840
 3903.00000  283.75210  326.04930  394.63550   -9999.25   -9999.25   10.36820   -0.00990    9.26520   -0.10040    0.00400    4.50210    2.85790
 3903.50000   26.53870   73.66180  201.47100   -9999.25   -9999.25   18.95760    0.00890    9.26340   -0.09370    0.02930    4.18550    2.84550
 3904.00000   34.69830   48.11770   79.40150   -9999.25   -9999.25   26.85960    0.09310    9.26470   -0.08470    0.07330    4.17780    2.87020
 3904.50000   74.83420   77.46030   89.64450   -9999.25   -9999.25   25.90450    0.11170    9.27120   -0.09980    0.10000    4.23790    2.90190
 3905.00000   75.24840   78.05670   88.01620   -9999.25   -9999.25   21.91300    0.08140    9.27620   -0.09990    0.11620    4.33890    2.91310
 3905.50000   13.04120   26.14450   44.33550   -9999.25   -9999.25   21.15810    0.07730    9.28070   -0.09990    0.12180    4.46100    2.93080
 3906.00000   33.67610   53.18810   98.18510   -9999.25   -9999.25   20.53320    0.06910    9.27860   -0.10000    0.12950    4.58280    2.95580
 3906.50000  245.51850  285.15080  294.67170   -9999.25   -9999.25   15.81340    0.05400    9.29250   -0.10000    0.11770    4.77030    2.98480
 3907.00000  354.55590  402.19890  443.91620   -9999.25   -9999.25   10.67270    0.01310    9.28150   -0.10010    0.08400    5.00790    3.01370
 3907.50000  619.82790  897.84390 1042.40010   -9999.25   -9999.25    6.90580   -0.00400    9.27050   -0.10020    0.06780    5.18560    3.02790
 3908.00000  946.63740 2053.40720 2252.44510   -9999.25   -9999.25    5.69530   -0.01500    9.26290   -0.10020    0.02430    5.19750    2.99190
 3908.50000 1007.06110 3208.97090 3435.56840   -9999.25   -9999.25    6.41280   -0.01530    9.26330   -0.10030    0.00740    5.09910    2.96770
 3909.00000 1000.31570 3621.61280 3693.04810   -9999.25   -9999.25    6.74790   -0.01100    9.26380   -0.10040    0.00170    4.95350    2.95880
 3909.50000  541.14730 1064.41810 1510.73990   -9999.25   -9999.25    9.58310   -0.00660    9.26430   -0.10040    0.00160    4.84180    2.95300
 3910.00000  239.00710  369.31170  405.27800   -9999.25   -9999.25   16.18690   -0.00070    9.26470   -0.10050    0.00120    4.73230    2.88000
 3910.50000  212.51810  259.07400  262.31510   -9999.25   -9999.25   21.95010    0.00780    9.26510   -0.09530   -0.00490    4.67540    2.85280
 3911.00000  208.94590  277.79710  305.92810   -9999.25   -9999.25   22.14180    0.00570    9.26510   -0.08780    0.00050    4.70980    2.87580
 3911.50000  577.14870  896.11600 1149.31070   -9999.25   -9999.25   16.31080    0.00330    9.25240   -0.10020    0.00730    4.84490    2.90360
 3912.00000 1258.96180 3876.85250 10891.54100   -9999.25   -9999.25    9.46860   -0.01000    9.27800   -0.10020    0.01400    5.06630    2.93150
 3912.50000 1283.85140 6646.76220 14185.13670   -9999.25   -9999.25    4.20330   -0.01660    9.30370   -0.10010    0.02210    5.21720    2.95930
 3913.00000 1266.46630 7400.73100 13349.45310   -9999.25   -9999.25    4.53450   -0.01940    9.32930   -0.10010    0.02630    5.22460    2.95710
 3913.50000 1205.62320 5145.64790 12843.19530   -9999.25   -9999.25    5.02730   -0.01930    9.34720   -0.10010    0.02840    5.21680    2.92000
 3914.00000 1228.10580 8467.11720 12718.48630   -9999.25   -9999.25    5.33370   -0.01600    9.34680   -0.10010    0.02770    5.20890    2.90300
 3914.50000 1210.39530 6849.55520 10015.06450   -9999.25   -9999.25    4.61130   -0.01280    9.34590   -0.10010    0.00680    5.22170    2.91970
