~Version ---------------------------------------------------
VERS.   2.0 : CWLS log ASCII Standard -VERSION 2.0
WRAP.    NO : One line per depth step
DLM . SPACE : Column Data Section Delimiter
~Well ------------------------------------------------------
STRT .F                  135.0 : START DEPTH
STOP .F                 5321.0 : STOP DEPTH
STEP .F                    0.5 : STEP
NULL .                -9999.25 : NULL VALUE
COMP .                         : COMPANY
WELL .                         : WELL
FLD  .                         : FIELD
LOC  .                         : LOCATION
PROV .                         : PROVINCE
CNTY .                         : COUNTY
STAT .                         : STATE
CTRY .                         : COUNTRY
SRVC .                         : SERVICE COMPANY
DATE .                         : DATE
UWI  .                         : UNIQUE WELL ID
API  .                         : API NUMBER
SLAT .WGS84  2.681228030978602 : SURFACE LATITUDE
SLON .WGS84 7.2482839172310065 : SURFACE LONGITUDE
DATUM.F                    nan : DEPTH DATUM ELEV
~Curve Information -----------------------------------------
DEPT   .F     : 1 MEASURED DEPTH
RLA3   .OHMM  : APPARENT RESISTIVITY FROM COMPUTED FOCUSING MODE 3
RLA4   .OHMM  : APPARENT RESISTIVITY FROM COMPUTED FOCUSING MODE 4
RLA5   .OHMM  : APPARENT RESISTIVITY FROM COMPUTED FOCUSING MODE 5
DTCO   .US/F  : DELTA-T COMPRESSIONAL
DTSM   .US/F  : DELTA-T SHEAR
SGRDD  .GAPI  : SPECTROSCOPY GAMMA RAY FROM DENSITY LOG
TNPH_LS.DEC   : THERMAL NEUTRON POROSITY [LIMESTONE]
CALD   .IN    : CALIPER FROM DENSITY LOG
DPHZ_LS.DEC   : HGRD STANDARD RESOLUTION DENSITY POROSITY
HDRA   .G/C3  : HRDD SPINE AND RIBS DENSITY CORRECTION
PEFZ   .B/E   : HRDD STANDARD RESOLUTION FORMATION PHOTOELECTRIC FACTOR
RHOZ   .G/C3  : HRDD STANDARD RESOLUTION FORMATION DENSITY
~Params ----------------------------------------------------
~Other -----------------------------------------------------
~ASCII -----------------------------------------------------
# ...
 4811.00000   26.47660   29.54120   33.10540   59.36670  107.75090   18.72750    0.17530    8.66490    0.04410   -0.00190    3.17220    2.63650
 4811.50000   35.39530   37.89150   39.70300   59.59810  108.44000   28.91250    0.17900    8.66140    0.05560   -0.00250    3.20100    2.60600
 4812.00000   22.00210   25.53390   30.50730   59.36960  108.28860   44.91570    0.17720    8.65800    0.06790   -0.00320    3.22430    2.60030
 4812.50000   16.38620   18.84850   20.65550   59.14920  108.14260   66.70120    0.18320    8.65450    0.06330   -0.00390    3.24760    2.62630
 4813.00000   15.42360   19.14960   20.79130   58.66270  107.87680   79.74310    0.18880    8.65110    0.04780   -0.00450    3.26890    2.63790
 4813.50000   22.41810   25.67740   28.23510   58.21500  106.06090   67.30560    0.18010    8.64760    0.01680   -0.00440    3.28080    2.70040
 4814.00000   25.13710   28.99400   32.95410   57.15110  104.34230   46.67850    0.14050    8.64420   -0.00850   -0.00220    3.29250    2.74050
 4814.50000   32.09230   35.86770   39.78300   56.01220  102.66750   39.33450    0.11400    8.64070   -0.02930    0.00240    3.30420    2.76120
 4815.00000   41.25870   47.41720   59.50560   54.32450  101.13730   41.96360    0.10100    8.63720   -0.02930    0.00200    3.31690    2.75300
 4815.50000   38.64240   40.50360   49.13200   53.19920   99.74850   42.49460    0.10240    8.63390   -0.02470    0.00150    3.33090    2.74470
 4816.00000   40.57350   46.98240   64.27020   52.31050   97.33750   37.50560    0.09870    8.63290   -0.02350    0.00110    3.32190    2.74980
 4816.50000   99.68470  103.14810  152.66830   52.05980   95.60550   31.42860    0.09170    8.63190   -0.02650    0.00080    3.23680    2.75250
 4817.00000  121.22370  130.13510  177.46350   51.92900   94.34300   28.49070    0.08460    8.63090   -0.02660    0.00050    3.18920    2.74750
 4817.50000   84.50460   99.66240  150.18000   52.01150   93.58500   31.12980    0.08260    8.62990   -0.02260    0.00020    3.17930    2.74830
 4818.00000   90.68910   96.26880  135.88410   52.35750   94.41200   35.19870    0.08490    8.62900   -0.02590   -0.00000    3.16950    2.75320
 4818.50000   92.96520  103.42920  143.87880   52.71610   94.87620   36.63780    0.08850    8.62800   -0.02680   -0.00030    3.16150    2.75010
 4819.00000   61.86340   72.34360  103.99900   53.00660   94.86980   37.00150    0.09330    8.62700   -0.01170   -0.00100    3.20920    2.72830
 4819.50000   42.77560   50.68670   64.40000   53.43100   94.49540   38.52330    0.10510    8.62600    0.00340   -0.00250    3.21900    2.70640
 4820.00000   31.24300   38.13600   44.08110   53.38200   94.96030   44.41310    0.12350    8.62500    0.01340   -0.00330    3.15140    2.68740
 4820.50000   56.94880   58.58690   63.36060   53.16760   94.59080   48.72120    0.12890    8.62410    0.01300   -0.00060    3.10030    2.68870
 4821.00000   63.29250   68.78300   71.17040   52.67590   94.86620   48.30300    0.13080    8.62310    0.01170    0.00200    3.09220    2.69870
 4821.50000   67.52270   71.84530   75.16880   52.07460   94.97800   43.13280    0.12840    8.62210    0.00420    0.00590    3.12550    2.71520
 4822.00000   68.13420   70.69300   71.59530   51.63860   93.70920   38.11680    0.11110    8.62110   -0.02060    0.01240    3.15880    2.75070
 4822.50000   69.89000   84.67820  100.90980   51.41770   92.25570   33.90180    0.08960    8.62020   -0.03700    0.01790    3.19210    2.77010
 4823.00000  125.28270  127.46180  135.92910   50.50380   92.11990   35.74970    0.06890    8.61920   -0.05110    0.01700    3.20890    2.79550
 4823.50000  127.78370  129.14650  136.70360   49.79340   91.93690   41.29120    0.06110    8.61820   -0.05540    0.01150    3.21510    2.79750
 4824.00000   94.17070  118.01260  134.33840   49.36440   90.66110   45.12270    0.05840    8.61740   -0.05480    0.00770    3.22120    2.79230
 4824.50000   35.68130   42.92050   39.87850   48.98180   89.48440   48.96400    0.05980    8.61670   -0.04680    0.00580    3.21680    2.78400
 4825.00000   35.21970   35.59280   41.18590   48.66190   89.72790   45.26490    0.06130    8.61590   -0.04570    0.00390    3.20330    2.78260
 4825.50000   55.33370   69.48070   96.84390   48.64660   90.70540   36.49760    0.05550    8.61520   -0.04560    0.00200    3.19290    2.77920
 4826.00000  153.43250  168.21160  193.96170   48.76210   88.55240   26.09500    0.04680    8.61450   -0.04050    0.00070    3.18380    2.77080
 4826.50000  176.37150  182.89130  200.09930   48.83080   88.41010   17.59050    0.04580    8.61380   -0.03440    0.00040    3.17460    2.76260
 4827.00000  105.98630  158.91020  156.70080   48.64000   88.49390   15.76060    0.04920    8.61610   -0.03160   -0.00000    3.19600    2.76280
 4827.50000  100.33100  102.43010  103.78540   48.52690   88.43800   19.43030    0.05390    8.61910   -0.03500   -0.00060    3.23020    2.77000
 4828.00000   62.62480   82.95880   91.53180   48.47590   88.26810   23.70900    0.05890    8.62210   -0.03930   -0.00130    3.26440    2.77630
 4828.50000  100.61450  111.31000  120.36160   48.47440   87.81000   24.99320    0.06120    8.62500   -0.04400   -0.00190    3.26610    2.78140
 4829.00000  123.72750  133.09260  135.33880   48.52750   87.48600   21.45250    0.05720    8.62800   -0.04590   -0.00130    3.23780    2.78280
 4829.50000  121.69310  133.46220  133.24550   48.44150   87.22440   17.18580    0.05370    8.63100   -0.04340    0.00070    3.20400    2.77670
 4830.00000  112.23640  124.87880  130.75290   48.02570   87.11840   15.09610    0.05710    8.63400   -0.03560    0.00200    3.17010    2.76720
 4830.50000  120.94240  127.28590  134.88880   47.70030   86.95980   14.57330    0.06520    8.63700   -0.03430    0.00310    3.16970    2.76450
 4831.00000  127.01770  148.66380  171.56880   47.09650   85.43180   13.73800    0.06850    8.64000   -0.03590    0.00230    3.21410    2.78160
 4831.50000  222.59290  266.61900  284.48550   46.75050   84.95650   11.21160    0.05080    8.64300   -0.05080    0.00120    3.26980    2.80690
 4832.00000  234.98720  275.05470  309.86520   46.38540   85.10340    9.27100    0.03320    8.64600   -0.06130    0.00010    3.27280    2.81700
 4832.50000  274.04030  334.13110  369.29180   46.33690   84.85850    7.69640    0.03260    8.63930   -0.07350    0.00010    3.25150    2.82800
 4833.00000  251.49350  311.91170  349.78840   46.42620   84.25390    7.32610    0.03430    8.62590   -0.07090    0.00010    3.21070    2.82310
 4833.50000  254.12910  315.94870  349.26260   46.99420   84.11840    7.56700    0.03700    8.61250   -0.06880    0.00010    3.17050    2.81900
 4834.00000  277.56890  337.35760  389.70130   47.51810   84.48760    7.80790    0.04270    8.60000   -0.06650    0.00010    3.13080    2.80400
 4834.50000  301.53550  357.57770  422.02370   48.04200   85.44570    8.45850    0.05260    8.56650   -0.05450    0.00010    3.09100    2.77830
 4835.00000  205.35390  279.18960  340.24380   48.56590   85.47650   10.51060    0.06830    8.63250   -0.03690    0.00010    3.08220    2.74900
 4835.50000  126.70090  143.36540  162.50310   48.80540   86.19050   12.37090    0.08870    8.61880   -0.01790    0.00010    3.10420    2.73760
 4836.00000  133.41260  153.63760  172.56910   49.34980   86.60310   12.34010    0.10150    8.60780   -0.01570    0.00010    3.14740    2.73650
 4836.50000  162.36270  176.85750  203.54780   49.62660   87.03250   11.26320    0.10850    8.59690   -0.01730    0.00010    3.19060    2.74360
 4837.00000  161.88500  175.43730  204.50430   49.97710   87.39010   10.39230    0.10620    8.59210   -0.02450   -0.00080    3.23380    2.75120
 4837.50000  158.15000  173.24670  201.48700   50.03790   87.77260   11.01910    0.10310    8.59390   -0.02800   -0.00250    3.27700    2.75150
 4838.00000  139.64120  174.83480  202.87280   49.90990   88.01110   11.88440    0.10420    8.59440   -0.02340   -0.00390    3.30290    2.74530
 4838.50000  177.23890  192.61430  225.54470   49.66320   87.90500   12.74970    0.10650    8.59380   -0.01890   -0.00530    3.31160    2.73910
