~Version ---------------------------------------------------
VERS.   2.0 : CWLS log ASCII Standard -VERSION 2.0
WRAP.    NO : One line per depth step
DLM . SPACE : Column Data Section Delimiter
~Well ------------------------------------------------------
STRT .F                  135.0 : START DEPTH
STOP .F                 5321.0 : STOP DEPTH
STEP .F                    0.5 : STEP
NULL .                -9999.25 : NULL VALUE
COMP .                         : COMPANY
WELL .                         : WELL
FLD  .                         : FIELD
LOC  .                         : LOCATION
PROV .                         : PROVINCE
CNTY .                         : COUNTY
STAT .                         : STATE
CTRY .                         : COUNTRY
SRVC .                         : SERVICE COMPANY
DATE .                         : DATE
UWI  .                         : UNIQUE WELL ID
API  .                         : API NUMBER
SLAT .WGS84  2.681228030978602 : SURFACE LATITUDE
SLON .WGS84 7.2482839172310065 : SURFACE LONGITUDE
DATUM.F                    nan : DEPTH DATUM ELEV
~Curve Information -----------------------------------------
DEPT   .F     : 1 MEASURED DEPTH
RLA3   .OHMM  : APPARENT RESISTIVITY FROM COMPUTED FOCUSING MODE 3
RLA4   .OHMM  : APPARENT RESISTIVITY FROM COMPUTED FOCUSING MODE 4
RLA5   .OHMM  : APPARENT RESISTIVITY FROM COMPUTED FOCUSING MODE 5
DTCO   .US/F  : DELTA-T COMPRESSIONAL
DTSM   .US/F  : DELTA-T SHEAR
SGRDD  .GAPI  : SPECTROSCOPY GAMMA RAY FROM DENSITY LOG
TNPH_LS.DEC   : THERMAL NEUTRON POROSITY [LIMESTONE]
CALD   .IN    : CALIPER FROM DENSITY LOG
DPHZ_LS.DEC   : HGRD STANDARD RESOLUTION DENSITY POROSITY
HDRA   .G/C3  : HRDD SPINE AND RIBS DENSITY CORRECTION
PEFZ   .B/E   : HRDD STANDARD RESOLUTION FORMATION PHOTOELECTRIC FACTOR
RHOZ   .G/C3  : HRDD STANDARD RESOLUTION FORMATION DENSITY
~Params ----------------------------------------------------
~Other -----------------------------------------------------
~ASCII -----------------------------------------------------
# ...
 4587.00000   59.06520   61.14820   70.02180   58.03570  101.04170   23.42180    0.04550    8.70750   -0.05560    0.00200    3.54490    2.77840
 4587.50000   71.88980   80.98370   83.27960   60.00920  103.27690   30.81400    0.04750    8.71080   -0.04200    0.00290    3.40240    2.74940
 4588.00000   55.53900   67.64530   74.01650   61.16500  105.59430   35.65270    0.05020    8.71410   -0.01780    0.00370    3.25990    2.72270
 4588.50000   35.97400   39.54330   43.03400   62.32710  107.74030   40.00110    0.05950    8.71740   -0.00170    0.00460    3.13600    2.70430
 4589.00000   35.43740   39.20870   42.43270   63.23120  110.89300   46.56660    0.07740    8.72070    0.00680    0.00540    3.06370    2.68990
 4589.50000   25.46340   31.97010   34.42710   63.07050  110.91340   51.60410    0.09570    8.72410    0.01590    0.00580    2.99130    2.67150
 4590.00000   23.68920   27.71760   27.99210   62.41930  110.20870   56.22170    0.10500    8.72740    0.02370    0.00580    2.95020    2.66470
 4590.50000   22.97380   26.23760   26.86620   61.88150  109.21920   57.88520    0.10520    8.72900    0.02810    0.00500    2.98310    2.66860
 4591.00000   23.07530   26.91050   27.61040   60.88770  108.39680   55.73940    0.09240    8.72650   -0.00000    0.00410    3.25350    2.74320
 4591.50000   27.40430   30.58480   33.41390   59.27580  107.16040   46.10970    0.05970    8.72400   -0.02960    0.00210    3.71790    2.82580
 4592.00000   59.46660   78.45520  101.54750   58.34630  106.24970   33.26250    0.03300    8.72150   -0.07990   -0.00160    4.22400    2.87320
 4592.50000  176.40680  175.82820  202.42070   57.59620  105.28160   21.59780    0.01800    8.71890   -0.09980   -0.00840    4.46370    2.90580
 4593.00000  217.13070  247.35060  334.94820   57.42120  103.98170   16.69830    0.01030    8.71640   -0.09990   -0.01540    4.39790    2.90580
 4593.50000  149.26940  197.73660  213.91520   57.32000  102.11420   18.50670    0.01710    8.71390   -0.10000   -0.02030    4.00300    2.88280
 4594.00000   50.04010   55.19980   95.06660   57.21610  101.65440   26.76710    0.03180    8.71140   -0.09910   -0.00420    3.60720    2.81670
 4594.50000   38.70930   44.57720   52.29340   57.10870  101.31380   34.79770    0.05830    8.70890   -0.05410    0.01500    3.21050    2.75870
 4595.00000   45.68320   47.75830   50.93370   56.88330  101.93970   42.02410    0.08180    8.70640   -0.00970    0.01250    3.00680    2.68040
 4595.50000   29.18100   34.64570   41.04040   56.37710  100.68720   44.92490    0.10010    8.70390    0.01740    0.00620    2.89900    2.68220
 4596.00000   23.57420   23.83920   28.91570   55.38140   99.35110   45.41400    0.10550    8.70150    0.00350    0.00240    2.88460    2.74140
 4596.50000   33.24420   38.72650   44.97760   54.41430   97.91540   43.08390    0.09760    8.70010   -0.02430    0.00380    2.90830    2.76030
 4597.00000   91.89860  120.87610  148.93820   53.81360   96.56280   37.26110    0.07880    8.69880   -0.04890    0.00490    3.04950    2.80260
 4597.50000  182.70270  185.72130  192.01820   51.38810   94.76650   32.45530    0.05530    8.69760   -0.06180    0.00390    3.16880    2.81460
 4598.00000  192.42850  204.11470  225.36450   50.72070   93.15610   29.49700    0.04270    8.69630   -0.07060    0.00170    3.25810    2.83060
 4598.50000  176.93240  196.85630  200.94830   49.63870   91.90620   27.13870    0.04060    8.69500   -0.07690   -0.00040    3.26220    2.83550
 4599.00000  165.95090  179.36510  182.06930   48.94990   90.81720   23.07750    0.03900    8.69380   -0.07930   -0.00070    3.27510    2.84060
 4599.50000  181.88720  197.00340  221.63350   48.03120   89.07560   20.81000    0.03810    8.69250   -0.08370   -0.00100    3.31210    2.84670
 4600.00000  213.78440  275.12640  293.49120   47.90800   87.80420   19.19180    0.03730    8.69130   -0.08700   -0.00100    3.43250    2.85270
 4600.50000  285.27990  408.34840  444.69720   48.04780   87.61100   16.08900    0.03580    8.69000   -0.09180   -0.00060    3.55450    2.87380
 4601.00000  407.17670  512.26120  584.86130   48.07070   87.59310   13.40840    0.03400    8.68880   -0.10020   -0.00030    3.63050    2.87800
 4601.50000  418.62300  528.52160  589.52840   48.20780   87.44920   13.51860    0.03350    8.69500   -0.10020    0.00000    3.61230    2.87850
 4602.00000  399.44640  462.38500  534.98210   48.42880   87.56140   14.49220    0.03550    8.70220   -0.09780    0.00030    3.58250    2.85680
 4602.50000  329.79610  390.27870  434.41820   48.60010   87.71960   15.33750    0.03900    8.70940   -0.08860   -0.00010    3.53130    2.85030
 4603.00000  188.70060  221.42010  257.71190   49.01190   87.86970   15.98920    0.04270    8.71660   -0.08620   -0.00090    3.48000    2.84440
 4603.50000  119.62100  124.98270  126.08430   49.32540   88.60120   16.64090    0.04820    8.72380   -0.08000   -0.00160    3.45690    2.83410
 4604.00000  110.57100  115.91110  128.87230   49.79610   88.92100   17.01300    0.05120    8.73100   -0.07350   -0.00180    3.44900    2.82150
 4604.50000  100.74600  101.21540  120.83670   50.05370   89.52000   16.48420    0.05050    8.73820   -0.06670   -0.00160    3.45730    2.81280
 4605.00000   80.47710   87.10520   91.47180   50.24320   89.68860   15.90450    0.04900    8.73350   -0.06210   -0.00140    3.51060    2.80690
 4605.50000   67.17340   73.59890   77.01060   50.31900   89.74030   15.97250    0.04660    8.72730   -0.05990   -0.00130    3.57140    2.81630
 4606.00000   77.63510   82.24590   88.07220   50.32980   89.79210   18.52750    0.03850    8.72100   -0.07000   -0.00110    3.58680    2.82430
 4606.50000   99.86130  107.94420  114.81300   50.28670   89.82660   22.23940    0.03370    8.72990   -0.07900   -0.00090    3.52720    2.84570
 4607.00000  139.16140  147.07310  164.13820   50.33830   89.86510   26.24820    0.03070    8.74480   -0.08600   -0.00070    3.46900    2.84470
 4607.50000  153.72420  163.61280  170.74850   50.42180   89.93980   29.91470    0.03010    8.74780   -0.08150   -0.00050    3.41230    2.83500
 4608.00000  148.10620  144.80580  156.81620   50.52720   90.03040   35.96060    0.03030    8.75040   -0.07540   -0.00040    3.35660    2.83150
 4608.50000  125.67980  140.11270  146.48610   50.58680   90.23830   36.71170    0.02850    8.75330   -0.07850   -0.00040    3.34630    2.84550
 4609.00000  144.73520  157.22650  162.49280   50.75120   90.71890   37.03780    0.02520    8.75610   -0.08860    0.00000    3.39110    2.85920
 4609.50000  136.60010  148.06820  177.45160   50.80200   91.53040   36.86060    0.02320    8.75900   -0.09350    0.00200    3.42990    2.85990
 4610.00000  128.37230  141.28990  149.07020   51.25030   92.46580   37.04980    0.03210    8.76190   -0.08890    0.00400    3.35110    2.84770
 4610.50000   90.71210  102.47810  112.37590   52.82520   93.63220   35.51050    0.04620    8.76470   -0.08040    0.00680    3.26590    2.83340
 4611.00000   65.02510   69.92880   70.52180   53.24050   94.73980   30.83800    0.05100    8.76760   -0.07220    0.01930    3.21960    2.81810
 4611.50000   75.45640   80.11540   81.51920   54.71190   95.83170   26.25290    0.05700    8.78700   -0.06360    0.03800    3.17420    2.81140
 4612.00000   37.48140   44.81830   50.41630   55.54680   96.81860   26.46860    0.06830    8.88830   -0.05480    0.06130    3.12890    2.78470
 4612.50000   40.58690   41.52420   42.24050   56.35200   98.19580   29.83390    0.07710    9.00390   -0.03570    0.08420    3.09480    2.75400
 4613.00000   34.33910   40.64050   41.11380   57.03430   99.27620   33.25130    0.08190    9.00110   -0.01830    0.08780    3.05480    2.72790
 4613.50000   37.99170   39.76640   42.77980   57.80200  100.22010   33.07510    0.07750    8.74050   -0.00530    0.06970    3.03750    2.71390
 4614.00000   43.12450   49.00820   55.46430   58.25640  100.36860   32.52750    0.06900    8.74390   -0.00150    0.04750    2.98730    2.71110
 4614.50000   38.09250   41.25620   41.74080   58.71060  100.54380   31.64820    0.06900    8.84560   -0.00080    0.02650    2.93230    2.70970
