~Version ---------------------------------------------------
VERS.   2.0 : CWLS log ASCII Standard -VERSION 2.0
WRAP.    NO : One line per depth step
DLM . SPACE : Column Data Section Delimiter
~Well ------------------------------------------------------
STRT .F                  135.0 : START DEPTH
STOP .F                 5321.0 : STOP DEPTH
STEP .F                    0.5 : STEP
NULL .                -9999.25 : NULL VALUE
COMP .                         : COMPANY
WELL .                         : WELL
FLD  .                         : FIELD
LOC  .                         : LOCATION
PROV .                         : PROVINCE
CNTY .                         : COUNTY
STAT .                         : STATE
CTRY .                         : COUNTRY
SRVC .                         : SERVICE COMPANY
DATE .                         : DATE
UWI  .                         : UNIQUE WELL ID
API  .                         : API NUMBER
SLAT .WGS84  2.681228030978602 : SURFACE LATITUDE
SLON .WGS84 7.2482839172310065 : SURFACE LONGITUDE
DATUM.F                    nan : DEPTH DATUM ELEV
~Curve Information -----------------------------------------
DEPT   .F     : 1 MEASURED DEPTH
RLA3   .OHMM  : APPARENT RESISTIVITY FROM COMPUTED FOCUSING MODE 3
RLA4   .OHMM  : APPARENT RESISTIVITY FROM COMPUTED FOCUSING MODE 4
RLA5   .OHMM  : APPARENT RESISTIVITY FROM COMPUTED FOCUSING MODE 5
DTCO   .US/F  : DELTA-T COMPRESSIONAL
DTSM   .US/F  : DELTA-T SHEAR
SGRDD  .GAPI  : SPECTROSCOPY GAMMA RAY FROM DENSITY LOG
TNPH_LS.DEC   : THERMAL NEUTRON POROSITY [LIMESTONE]
CALD   .IN    : CALIPER FROM DENSITY LOG
DPHZ_LS.DEC   : HGRD STANDARD RESOLUTION DENSITY POROSITY
HDRA   .G/C3  : HRDD SPINE AND RIBS DENSITY CORRECTION
PEFZ   .B/E   : HRDD STANDARD RESOLUTION FORMATION PHOTOELECTRIC FACTOR
RHOZ   .G/C3  : HRDD STANDARD RESOLUTION FORMATION DENSITY
~Params ----------------------------------------------------
~Other -----------------------------------------------------
~ASCII -----------------------------------------------------
# ...
 2963.00000    9.51140   10.66310   10.23310   -9999.25   -9999.25   38.43850    0.14190    9.12120    0.25940   -9999.25   -9999.25    2.23310
 2963.50000    9.09450    9.77650   13.98850   -9999.25   -9999.25   33.45530    0.12330    9.35310    0.28410   -9999.25   -9999.25    2.24650
 2964.00000   39.19160   59.18410   68.01520   -9999.25   -9999.25   30.66720    0.09620    9.24340    0.29720   -9999.25   -9999.25    2.25950
 2964.50000   50.50860   54.55490   59.71680   -9999.25   -9999.25   29.38380    0.08220    9.41600    0.28580   -9999.25   -9999.25    2.25890
 2965.00000   36.31230   39.14570   41.50940   -9999.25   -9999.25   31.08750    0.12060    9.09590    0.28200   -9999.25   -9999.25    2.20510
 2965.50000   12.85910   21.61550   29.11480   -9999.25   -9999.25   35.95790    0.19480    9.08250    0.28030   -9999.25   -9999.25    2.14770
 2966.00000    5.64560    5.89200    6.65740   -9999.25   -9999.25   40.82830    0.23250    9.11420    0.29650   -9999.25    3.25610    2.14450
 2966.50000    5.36000    5.60540    6.20640   -9999.25   -9999.25   42.28090    0.25890    9.16250    0.30040   -9999.25    3.34370    2.12470
 2967.00000   13.79620   21.27700   29.80830   -9999.25   -9999.25   35.57370    0.26970    9.22320   -9999.25   -9999.25    3.38320    2.08940
 2967.50000  121.90620  211.68310  294.35420   -9999.25   -9999.25   24.42100    0.10580    9.29240   -9999.25   -9999.25   -9999.25    2.07330
 2968.00000  403.34320  444.60640  537.47450   -9999.25   -9999.25   13.20030    0.03230    9.47900   -9999.25   -9999.25   -9999.25    2.07060
 2968.50000  619.64560  761.67410  858.15000   -9999.25   -9999.25    7.25350   -0.01090    9.61620   -9999.25   -9999.25   -9999.25    2.07190
 2969.00000  636.51400  876.05690 1302.59240   -9999.25   -9999.25    5.84930   -0.02260    9.62540   -9999.25   -9999.25   -9999.25    2.07370
 2969.50000  296.83970  352.22730  542.67100   -9999.25   -9999.25    5.77670   -0.01110    9.48940   -9999.25   -9999.25   -9999.25    2.07860
 2970.00000  136.86220  164.28250  241.31120   -9999.25   -9999.25    8.04120    0.00730    9.28980   -9999.25   -9999.25   -9999.25    2.09720
 2970.50000   55.72250   79.62430   84.93630   -9999.25   -9999.25   10.77470    0.02450    9.26350   -9999.25   -9999.25   -9999.25    2.13990
 2971.00000   52.92000   73.99030   78.73460   -9999.25   -9999.25   13.46130    0.04180    9.45950   -9999.25   -9999.25   -9999.25    2.15360
 2971.50000   57.55150   76.63390   81.62690   -9999.25   -9999.25   16.71180    0.05710    9.41550   -9999.25   -9999.25   -9999.25    2.21400
 2972.00000    3.73650    4.22410    5.28060   -9999.25   -9999.25   23.91340    0.11260    9.48620   -9999.25   -9999.25   -9999.25    2.27430
 2972.50000    4.40340    5.96480    6.26150   -9999.25   -9999.25   35.76500    0.16820    9.89510   -9999.25   -9999.25   -9999.25    2.29610
 2973.00000    5.18930    6.87540    7.11200   -9999.25   -9999.25   49.56730    0.20940   10.83680    0.30030   -9999.25   -9999.25    2.30340
 2973.50000    6.11550    7.15220    7.45310   -9999.25   -9999.25   59.86860    0.24010    9.43260    0.26990    0.02010   -9999.25    2.30320
 2974.00000    7.33050    7.80080    7.95490   -9999.25   -9999.25   61.10950    0.25340    9.30460    0.24910    0.02130    2.56430    2.30360
 2974.50000    9.61100   10.45430   11.16200   -9999.25   -9999.25   59.80830    0.26900    9.20920    0.25020    0.02130    2.48540    2.31710
 2975.00000   13.97880   14.94880   16.65510   -9999.25   -9999.25   56.69410    0.23490    9.17750    0.25160    0.01860    2.45790    2.34700
 2975.50000   13.74560   14.92910   15.28370   -9999.25   -9999.25   54.15450    0.19810    9.19110    0.24210    0.01000    2.53710    2.35240
 2976.00000    9.53050   10.34860   11.03150   -9999.25   -9999.25   54.59420    0.21590    9.21410    0.22120    0.00280    2.69310    2.35650
 2976.50000    6.60790    7.17350    8.57170   -9999.25   -9999.25   57.66510    0.23650    9.30950    0.21950    0.00270    2.84900    2.36700
 2977.00000    5.18020    6.48860    6.75460   -9999.25   -9999.25   62.88000    0.25780    9.38410    0.21630    0.00160    2.91760    2.38760
 2977.50000    5.02920    6.57780    6.62270   -9999.25   -9999.25   67.30730    0.27290    9.37380    0.20940    0.00090    2.92430    2.42380
 2978.00000    4.94660    6.20570    6.65830   -9999.25   -9999.25   67.72200    0.24240    9.27770    0.19430    0.00130    2.97310    2.50620
 2978.50000    7.06830    8.21720    9.24070   -9999.25   -9999.25   63.74930    0.19990    9.18170    0.13570    0.00560    3.11600    2.62250
 2979.00000   11.78930   13.02400   16.27730   -9999.25   -9999.25   53.08520    0.15990    9.08970    0.06270    0.01950    3.29010    2.73070
 2979.50000   10.22630   12.93070   18.13050   -9999.25   -9999.25   41.85850    0.10630    9.02610   -0.00660    0.05410    3.68240    2.82860
 2980.00000   24.45610   35.87560   97.03640   -9999.25   -9999.25   30.27780    0.07430    8.96260   -0.06290    0.07430    3.90180    2.82900
 2980.50000  133.06620  149.11390  168.31040   -9999.25   -9999.25   19.18170    0.04990    8.89900   -0.07170    0.05640    3.84580    2.82510
 2981.00000   85.17050  134.25350  183.97480   -9999.25   -9999.25   17.62630    0.04750    8.88650   -0.07090    0.04360    3.64310    2.78330
 2981.50000   14.82400   15.64200   17.81120   -9999.25   -9999.25   25.18690    0.05470    8.88650   -0.05080    0.07090    3.35180    2.62480
 2982.00000   13.87930   14.03700   16.48960   -9999.25   -9999.25   39.88310    0.07360    8.91620    0.05200    0.08860    3.10800    2.46770
 2982.50000   12.95880   13.25860   13.94750   -9999.25   -9999.25   55.42400    0.11040    8.95900    0.13190    0.06680    3.03130    2.44040
 2983.00000    6.83940    7.99310    9.01160   -9999.25   -9999.25   65.31080    0.14660    9.00180    0.16150    0.02940    3.05830    2.41710
 2983.50000    4.12490    4.79850    5.67840   -9999.25   -9999.25   69.72920    0.16910    9.04460    0.17100    0.00890    3.09430    2.40490
 2984.00000    5.91220    6.63560    8.03690   -9999.25   -9999.25   69.88750    0.15740    9.06740    0.17820    0.00410    3.13030    2.41000
 2984.50000    9.41560    9.52420    9.96780   -9999.25   -9999.25   69.00290    0.13390    9.06740    0.18510    0.00370    3.13840    2.41930
 2985.00000    9.53040    9.81280   11.47940   -9999.25   -9999.25   64.72150    0.10940    9.05310    0.18490    0.00330    3.13840    2.42310
 2985.50000   18.68610   23.45700   32.79650   -9999.25   -9999.25   59.83010    0.08560    9.03740    0.18020    0.00280    3.15130    2.42490
 2986.00000   40.65950   45.90800   52.08510   -9999.25   -9999.25   58.74500    0.06750    9.02220    0.17590    0.00240    3.16860    2.42330
 2986.50000   43.40270   49.55740   55.51410   -9999.25   -9999.25   58.25660    0.05090    9.02220    0.17680    0.00190    3.18580    2.41380
 2987.00000   42.84530   50.13340   58.81940   -9999.25   -9999.25   57.71830    0.04860    9.02550    0.18090    0.00150    3.19960    2.41300
 2987.50000   42.29510   50.88020   62.48980   -9999.25   -9999.25   54.59610    0.04850    9.03470    0.18500    0.00110    3.19340    2.41380
 2988.00000   44.13480   53.13370   72.08570   -9999.25   -9999.25   52.85590    0.04570    9.04390    0.18490    0.00060    3.16490    2.41840
 2988.50000   47.58300   58.29350   86.17700   -9999.25   -9999.25   52.38980    0.04170    9.05310    0.18310    0.00020    3.14510    2.42750
 2989.00000   51.83070   63.95440  103.02280   -9999.25   -9999.25   52.66360    0.03830    9.06230    0.17940   -0.00030    3.11570    2.43710
 2989.50000   58.40700   66.87720  123.86860   -9999.25   -9999.25   52.92830    0.03840    9.07160    0.17390   -0.00070    3.08500    2.44670
 2990.00000   59.91780   68.98420  136.12470   -9999.25   -9999.25   52.82060    0.04450    9.08080    0.16780   -0.00110    3.05430    2.44890
 2990.50000   42.46430   50.75960   70.70150   -9999.25   -9999.25   52.67680    0.06600    9.09470    0.16310   -0.00160    3.02360    2.44380
