~Version ---------------------------------------------------
VERS.   2.0 : CWLS log ASCII Standard -VERSION 2.0
WRAP.    NO : One line per depth step
DLM . SPACE : Column Data Section Delimiter
~Well ------------------------------------------------------
STRT .F                  135.0 : START DEPTH
STOP .F                 5321.0 : STOP DEPTH
STEP .F                    0.5 : STEP
NULL .                -9999.25 : NULL VALUE
COMP .                         : COMPANY
WELL .                         : WELL
FLD  .                         : FIELD
LOC  .                         : LOCATION
PROV .                         : PROVINCE
CNTY .                         : COUNTY
STAT .                         : STATE
CTRY .                         : COUNTRY
SRVC .                         : SERVICE COMPANY
DATE .                         : DATE
UWI  .                         : UNIQUE WELL ID
API  .                         : API NUMBER
SLAT .WGS84  2.681228030978602 : SURFACE LATITUDE
SLON .WGS84 7.2482839172310065 : SURFACE LONGITUDE
DATUM.F                    nan : DEPTH DATUM ELEV
~Curve Information -----------------------------------------
DEPT   .F     : 1 MEASURED DEPTH
RLA3   .OHMM  : APPARENT RESISTIVITY FROM COMPUTED FOCUSING MODE 3
RLA4   .OHMM  : APPARENT RESISTIVITY FROM COMPUTED FOCUSING MODE 4
RLA5   .OHMM  : APPARENT RESISTIVITY FROM COMPUTED FOCUSING MODE 5
DTCO   .US/F  : DELTA-T COMPRESSIONAL
DTSM   .US/F  : DELTA-T SHEAR
SGRDD  .GAPI  : SPECTROSCOPY GAMMA RAY FROM DENSITY LOG
TNPH_LS.DEC   : THERMAL NEUTRON POROSITY [LIMESTONE]
CALD   .IN    : CALIPER FROM DENSITY LOG
DPHZ_LS.DEC   : HGRD STANDARD RESOLUTION DENSITY POROSITY
HDRA   .G/C3  : HRDD SPINE AND RIBS DENSITY CORRECTION
PEFZ   .B/E   : HRDD STANDARD RESOLUTION FORMATION PHOTOELECTRIC FACTOR
RHOZ   .G/C3  : HRDD STANDARD RESOLUTION FORMATION DENSITY
~Params ----------------------------------------------------
~Other -----------------------------------------------------
~ASCII -----------------------------------------------------
# ...
 4363.00000  141.26530  144.15080  164.02450   49.80950   91.27250   18.24010    0.02990    8.90660   -0.08470   -0.00360    3.92970    2.85130
 4363.50000  136.15690  137.59770  145.84860   49.98150   91.71210   17.12580    0.02970    8.90780   -0.08950   -0.00310    3.88700    2.85600
 4364.00000  116.75350  125.85490  159.27840   50.32330   91.85730   16.34620    0.03580    8.91150   -0.09000   -0.00310    3.73850    2.84200
 4364.50000  102.43970  108.09800  109.24790   50.65280   92.83820   16.77150    0.04040    8.91520   -0.07930   -0.00310    3.67260    2.83110
 4365.00000   68.30330   77.65680   77.15770   51.16940   93.72300   18.59880    0.03770    8.91890   -0.07450   -0.00310    3.79680    2.84470
 4365.50000   72.08370   73.65250   88.25980   51.47810   94.00330   19.64870    0.02500    8.92260   -0.09060   -0.00310    4.06340    2.89120
 4366.00000  106.06280  107.18510  214.46740   51.95080   94.03200   18.64030    0.01200    8.92630   -0.09960   -0.00500    4.55190    2.91460
 4366.50000   77.37900   89.06520   99.52330   52.00890   94.10570   17.42250    0.01370    8.93000   -0.09980   -0.00550    4.62690    2.93010
 4367.00000   79.37430   86.97900   95.33900   52.31840   94.64380   16.93590    0.01870    8.93370   -0.10000   -0.00400    4.41310    2.88470
 4367.50000   91.16510   95.66360  112.59440   52.67480   95.00520   18.29200    0.03000    8.93650   -0.09990   -0.00070    3.90270    2.84280
 4368.00000   66.61010   67.43540   73.31360   52.82450   95.10700   20.17030    0.03940    8.93860   -0.07910    0.00080    3.78860    2.81620
 4368.50000   64.34630   65.26460   69.71110   52.93430   94.89190   21.14510    0.04640    8.94060   -0.06430   -0.00100    3.75450    2.80630
 4369.00000   50.97160   54.28800   54.04950   53.27470   95.35950   23.52310    0.05400    8.94270   -0.05890   -0.00270    3.73900    2.80010
 4369.50000   42.77280   43.29160   47.96650   53.52240   95.21810   27.62760    0.05940    8.94470   -0.05590   -0.00430    3.72990    2.81470
 4370.00000   57.17850   64.05080   71.44190   53.61610   96.30140   30.88490    0.05180    8.94680   -0.06480   -0.00270    3.81690    2.84500
 4370.50000   94.13470  102.51640  108.11790   53.62050   96.76210   27.97030    0.04140    8.94880   -0.09390   -0.00020    3.92680    2.87530
 4371.00000   87.59680  116.70390  135.72290   53.30490   95.94430   22.12300    0.03640    8.95090   -0.10020    0.00230    4.02400    2.89500
 4371.50000   45.45770   51.54320   70.53340   52.77630   95.91280   20.55300    0.04010    8.95290   -0.10020    0.00270    4.04810    2.86470
 4372.00000   45.04740   45.94060   67.50550   52.03750   95.12950   23.15560    0.04290    8.95500   -0.09970    0.00230    3.83730    2.85150
 4372.50000   63.63820   72.25380   86.44460   51.65840   94.76620   25.07430    0.03840    8.95700   -0.08820   -0.00000    3.76760    2.84780
 4373.00000  110.35110  125.28450  141.88990   51.31140   93.51480   23.28040    0.03010    8.95910   -0.08640   -0.00230    3.77250    2.85660
 4373.50000  191.35300  217.23690  377.72630   51.60190   92.90900   19.04150    0.02470    8.96120   -0.09140   -0.00190    3.77750    2.86200
 4374.00000  269.62370  414.80220  532.67650   52.38310   93.94600   16.11950    0.02260    8.96320   -0.09750   -0.00140    3.78250    2.85840
 4374.50000  272.39600  504.47440  547.24710   53.26540   95.34190   16.05450    0.02370    8.96530   -0.09150   -0.00090    3.78740    2.82940
 4375.00000  112.20100  158.99750  227.42560   54.62450   96.03880   24.12630    0.03310    8.97240   -0.06770   -0.00280    3.69870    2.79580
 4375.50000   63.85700   67.18660   71.01630   55.70610   99.29660   35.12980    0.05530    8.98050   -0.04080   -0.00580    3.60040    2.73690
 4376.00000   32.00100   39.89150   38.52160   56.86320  101.03100   45.51880    0.09010    8.98850   -0.00960   -0.00730    3.48770    2.71510
 4376.50000   21.80210   22.62810   22.94070   57.62970  102.93570   52.22330    0.09170    8.99660    0.00100   -0.00500    3.50070    2.70400
 4377.00000   19.85210   21.26930   21.62130   57.91040  103.45280   50.50820    0.07930    9.00460   -0.00520    0.00350    3.59360    2.77780
 4377.50000   28.92030   37.74290   46.71210   58.68610  104.30650   40.99890    0.04930    9.01270   -0.05930    0.01030    3.92340    2.86710
 4378.00000   69.44400   86.87630  120.86120   58.99290  105.47320   29.30600    0.01950    9.02070   -0.10020    0.01710    4.26360    2.91890
 4378.50000  137.70850  161.23470  210.91280   59.46390  106.83330   23.07590    0.01060    9.02880   -0.10020    0.01920    4.58020    2.93340
 4379.00000  126.33660  139.64150  150.57820   59.37350  106.70800   22.20880    0.00960    9.03680   -0.10020    0.01920    4.54660    2.89680
 4379.50000   50.91480   62.68420  134.70040   59.24460  106.67540   30.66470    0.02310    9.04490   -0.09330    0.01900    4.32710    2.84430
 4380.00000   41.05700   43.82900   50.06860   59.15960  107.09170   34.37010    0.03670    9.05290   -0.06670    0.01650    4.17760    2.79170
 4380.50000   44.87940   46.61240   47.68290   59.04930  106.14120   36.60370    0.05060    9.05950   -0.04390    0.00940    4.25770    2.78250
 4381.00000   35.88770   42.56250   41.73970   58.88350  105.56380   36.02960    0.05090    9.06510   -0.04530    0.00150    4.55310    2.80980
 4381.50000   26.83400   28.63240   29.58330   58.65150  106.14710   34.24270    0.04190    9.07070   -0.06130   -0.00020    4.82510    2.83100
 4382.00000   37.96940   41.91210   48.25810   58.06700  104.74710   28.98200    0.02590    9.07630   -0.08880    0.00060    5.09170    2.87400
 4382.50000   59.71120   70.29670   79.65780   57.31970  104.10240   23.00560    0.00990    9.08190   -0.09990    0.00150    5.22080    2.92330
 4383.00000   99.82970  133.06540  179.01710   56.27760  102.49340   16.64020   -0.00550    9.08750   -9999.25    0.00200    5.27400    2.95200
 4383.50000  420.80850  433.41600  533.64530   54.92190  100.66520   11.89470   -0.01360    9.09310   -9999.25    0.00140    5.25810    2.95860
 4384.00000  346.56520  408.21120  471.35380   54.51510  100.11240    9.52430   -0.01520    9.09870   -9999.25    0.00010    5.25330    2.95930
 4384.50000  327.17570  401.96340  467.58300   54.30070   99.12460    8.67750   -0.01500    9.10430   -9999.25   -0.00100    5.24840    2.95300
 4385.00000  439.77900  518.07670  627.86850   54.23490   98.01800    8.57140   -0.01360    9.10570   -9999.25   -0.00070    5.24590    2.96070
 4385.50000  436.79980  580.19550  659.78390   54.18030   97.87110    9.58200   -0.01050    9.10580   -9999.25    0.00130    5.25070    2.96460
 4386.00000  198.20380  244.84470  288.19160   54.15600   97.83590   11.67000   -0.00540    9.10600   -9999.25    0.00340    5.25560    2.96020
 4386.50000  143.09010  153.52950  216.73360   54.08620   97.95320   13.51060   -0.00160    9.10610   -9999.25    0.00530    5.20320    2.94840
 4387.00000   60.12940   83.90530  105.53060   53.93550   97.68880   13.49290    0.00200    9.10630   -9999.25    0.00470    5.12510    2.94350
 4387.50000  160.34100  183.64970  196.57800   53.69350   98.57320   11.54280   -0.00200    9.10640   -9999.25    0.00310    5.13130    2.95110
 4388.00000  225.84360  252.93780  363.87000   53.62250   99.00690    9.77430   -0.01070    9.10650   -9999.25    0.00100    5.17810    2.96350
 4388.50000  192.14200  200.97670  224.62770   53.66770   98.40690    8.88120   -0.01470    9.10560   -9999.25    0.00070    5.16150    2.97550
 4389.00000  188.13570  190.93070  195.41110   54.30060   98.04080    7.98800   -0.01730    9.10810   -9999.25    0.00070    5.11170    2.98380
 4389.50000  340.89750  648.32580  817.99830   54.88120   98.41000    7.44110   -0.01670    9.11010   -9999.25   -0.00380    5.06480    2.98250
 4390.00000   93.84810  665.28220 1094.67680   55.45990   99.16990    7.79900   -0.01200    9.11200   -0.09990   -0.01790    4.99520    2.94050
 4390.50000   97.56530  121.39410  508.18910   56.18550   99.96110   13.93070   -0.00150    9.11070   -0.09980   -0.02330    4.90720    2.88720
