~Version ---------------------------------------------------
VERS.   2.0 : CWLS log ASCII Standard -VERSION 2.0
WRAP.    NO : One line per depth step
DLM . SPACE : Column Data Section Delimiter
~Well ------------------------------------------------------
STRT .F                  135.0 : START DEPTH
STOP .F                 5321.0 : STOP DEPTH
STEP .F                    0.5 : STEP
NULL .                -9999.25 : NULL VALUE
COMP .                         : COMPANY
WELL .                         : WELL
FLD  .                         : FIELD
LOC  .                         : LOCATION
PROV .                         : PROVINCE
CNTY .                         : COUNTY
STAT .                         : STATE
CTRY .                         : COUNTRY
SRVC .                         : SERVICE COMPANY
DATE .                         : DATE
UWI  .                         : UNIQUE WELL ID
API  .                         : API NUMBER
SLAT .WGS84  2.681228030978602 : SURFACE LATITUDE
SLON .WGS84 7.2482839172310065 : SURFACE LONGITUDE
DATUM.F                    nan : DEPTH DATUM ELEV
~Curve Information -----------------------------------------
DEPT   .F     : 1 MEASURED DEPTH
RLA3   .OHMM  : APPARENT RESISTIVITY FROM COMPUTED FOCUSING MODE 3
RLA4   .OHMM  : APPARENT RESISTIVITY FROM COMPUTED FOCUSING MODE 4
RLA5   .OHMM  : APPARENT RESISTIVITY FROM COMPUTED FOCUSING MODE 5
DTCO   .US/F  : DELTA-T COMPRESSIONAL
DTSM   .US/F  : DELTA-T SHEAR
SGRDD  .GAPI  : SPECTROSCOPY GAMMA RAY FROM DENSITY LOG
TNPH_LS.DEC   : THERMAL NEUTRON POROSITY [LIMESTONE]
CALD   .IN    : CALIPER FROM DENSITY LOG
DPHZ_LS.DEC   : HGRD STANDARD RESOLUTION DENSITY POROSITY
HDRA   .G/C3  : HRDD SPINE AND RIBS DENSITY CORRECTION
PEFZ   .B/E   : HRDD STANDARD RESOLUTION FORMATION PHOTOELECTRIC FACTOR
RHOZ   .G/C3  : HRDD STANDARD RESOLUTION FORMATION DENSITY
~Params ----------------------------------------------------
~Other -----------------------------------------------------
~ASCII -----------------------------------------------------
# ...
 3439.00000   94.08870  125.85880  170.11220   -9999.25   -9999.25   16.19030    0.01860   13.36750   -9999.25   -9999.25   -9999.25    1.98040
 3439.50000  115.21650  233.85080  382.79930   -9999.25   -9999.25    8.95850   -0.01370   10.04640   -9999.25   -9999.25   -9999.25    2.02350
 3440.00000  268.14970  604.29940 1253.33460   -9999.25   -9999.25    4.66510   -0.02740   10.01750   -9999.25   -9999.25   -9999.25    2.09880
 3440.50000  787.48130 1058.56570 1476.75980   -9999.25   -9999.25    3.62740   -0.03180   10.03150   -9999.25   -9999.25   -9999.25    2.15630
 3441.00000  267.86340  389.89450  518.93900   -9999.25   -9999.25    3.93190   -0.02980    9.69580   -9999.25   -9999.25   -9999.25    2.15490
 3441.50000  148.48250  230.15070  304.44730   -9999.25   -9999.25    4.59390   -0.02700    9.59580   -9999.25   -9999.25   -9999.25    2.13950
 3442.00000  333.60160  543.37580  730.82740   -9999.25   -9999.25    5.84370   -0.02110    9.82280   -9999.25   -9999.25   -9999.25    2.09760
 3442.50000  278.28450  521.25740  635.01010   -9999.25   -9999.25    7.92030   -0.00810    9.93150   -9999.25   -9999.25   -9999.25    2.06500
 3443.00000   18.99700  110.00990  156.92310   -9999.25   -9999.25    9.97560    0.00480   10.10340   -9999.25   -9999.25   -9999.25    2.04980
 3443.50000   74.03110   94.79390  154.46780   -9999.25   -9999.25   11.22840    0.01160   10.12300   -9999.25   -9999.25   -9999.25    2.04510
 3444.00000  157.77050  210.18710  265.78780   -9999.25   -9999.25   12.48120    0.00690   10.03330   -9999.25   -9999.25   -9999.25    2.04350
 3444.50000  174.91410  232.00720  257.57820   -9999.25   -9999.25   14.63240    0.00100    9.95520   -9999.25   -9999.25   -9999.25    2.04670
 3445.00000  145.68580  147.31610  197.48300   -9999.25   -9999.25   17.17520    0.00310    9.91740   -9999.25   -9999.25   -9999.25    2.30150
 3445.50000  160.60620  169.91150  181.65520   -9999.25   -9999.25   16.83750    0.01460    9.86900    0.30010   -9999.25   -9999.25    2.32800
 3446.00000   98.94730  127.46900  172.69960   -9999.25   -9999.25   15.31720    0.02930    9.77850    0.28940   -9999.25   -9999.25    2.21640
 3446.50000   25.19450   37.76460   50.71100   -9999.25   -9999.25   15.09820    0.04440    9.46840    0.25240   -9999.25   -9999.25    2.14570
 3447.00000   17.58840   18.98620   21.16390   -9999.25   -9999.25   16.15300    0.04680    9.63810    0.27260   -9999.25   -9999.25    2.14530
 3447.50000   23.68110   29.89940   46.59580   -9999.25   -9999.25   14.11150    0.03230    9.66410    0.30070   -9999.25   -9999.25    2.17810
 3448.00000  103.66000  126.42300  158.58850   -9999.25   -9999.25   11.55300    0.01790    9.68500    0.30040   -9999.25   -9999.25    2.32880
 3448.50000   60.76140   78.62490   95.52550   -9999.25   -9999.25    9.56010    0.01770    9.72970    0.29930   -9999.25   -9999.25    2.45290
 3449.00000   62.47140   65.44250   68.96380   -9999.25   -9999.25    8.26540    0.01750    9.76020    0.15850    0.13900    4.69830    2.48120
 3449.50000   73.77230   76.75460  100.25020   -9999.25   -9999.25    7.01090   -0.00210    9.19560    0.14200    0.15980    4.74310    2.48230
 3450.00000  161.65680  259.55690  492.23770   -9999.25   -9999.25    6.22130   -0.01870    9.14190    0.16670    0.15310    4.81410    2.48250
 3450.50000 1056.88930 1375.46170 1334.94240   -9999.25   -9999.25   11.70310   -0.01400    9.40860    0.17490    0.11150    4.93430    2.56080
 3451.00000  984.34400 1221.78590 1349.52470   -9999.25   -9999.25   29.22070    0.01750    9.48140    0.10700    0.07300    5.05450    2.69630
 3451.50000  618.89530 1076.20840 1172.22630   -9999.25   -9999.25   54.25620    0.05220    8.92980    0.02610    0.03790    5.17070    2.76940
 3452.00000  835.67540 1671.04860 1803.63560   -9999.25   -9999.25   65.43240    0.06800    8.88830   -0.03170    0.02780    5.18150    2.76550
 3452.50000  882.94340 1742.20150 1979.79570   -9999.25   -9999.25   53.02160    0.04870    8.88640   -0.03380    0.03240    5.10150    2.70980
 3453.00000  648.92760 1085.28830 1358.65920   -9999.25   -9999.25   30.18090    0.03810    8.93060    0.01980    0.03320    4.93480    2.65320
 3453.50000   22.95040   33.82070   48.06730   -9999.25   -9999.25   14.16750    0.03950    8.97520    0.05620    0.03380    4.76820    2.53380
 3454.00000   18.49540   19.39010   20.13450   -9999.25   -9999.25   15.14150    0.04070    9.04200    0.11830    0.04620    4.60160    2.30720
 3454.50000   18.67310   21.55870   24.59350   -9999.25   -9999.25   15.14870    0.02150    9.11100    0.19940    0.06780    4.53250    2.16880
 3455.00000   46.98180   83.40610  180.11130   -9999.25   -9999.25   13.43400   -0.00240    9.27780    0.24990   -9999.25   -9999.25    2.14240
 3455.50000  475.75270  603.80860  654.89100   -9999.25   -9999.25   10.49550   -0.01500    9.69650    0.29950   -9999.25   -9999.25    2.11720
 3456.00000  439.33860  613.30810  719.08510   -9999.25   -9999.25    7.36710   -0.01790    9.80810    0.29940   -9999.25   -9999.25    2.03880
 3456.50000  254.77760  351.52960  575.03350   -9999.25   -9999.25    4.82410   -0.01030    9.70010    0.29940   -9999.25   -9999.25    2.09280
 3457.00000   19.32610   21.41530   27.71860   -9999.25   -9999.25    5.08110   -0.00110    9.88180    0.29930   -9999.25   -9999.25    2.32130
 3457.50000   15.04800   15.20730   16.99230   -9999.25   -9999.25    5.53910    0.00290    9.88890    0.29920   -9999.25   -9999.25    2.38900
 3458.00000   44.51750   73.61570  161.08930   -9999.25   -9999.25    5.32140   -0.00400    9.75240    0.22810   -9999.25    4.44160    2.47690
 3458.50000  331.05690  471.64450  646.73790   -9999.25   -9999.25    4.12750   -0.01240    9.38970    0.14700    0.13520    4.50890    2.47990
 3459.00000  446.62460  842.74350  892.31200   -9999.25   -9999.25    2.95100   -0.01850    9.08250    0.14170    0.11740    4.56280    2.49900
 3459.50000  697.40120  927.16720 1133.02560   -9999.25   -9999.25    2.95100   -0.01060    9.26740    0.11450    0.09810    4.57460    2.61020
 3460.00000  188.90990  302.99120  710.41240   -9999.25   -9999.25    3.72570    0.00220    9.36500    0.05720    0.08730    4.57070    2.78330
 3460.50000   84.44270   97.31400   99.48820   -9999.25   -9999.25    6.00060    0.02050    9.02870   -0.00740    0.08770    4.50520    2.78390
 3461.00000   21.46700   31.59130   33.12990   -9999.25   -9999.25    8.98970    0.02980    9.03620   -0.04730    0.10340    4.44700    2.73410
 3461.50000   16.82880   20.22930   25.26330   -9999.25   -9999.25   11.30200    0.02570    9.10810   -0.02070    0.11970    4.43850    2.65830
 3462.00000   17.52040   80.60100  120.78480   -9999.25   -9999.25   11.94050    0.02340    9.11670    0.03190    0.13600    4.56600    2.58500
 3462.50000   39.05110  120.36310  131.40820   -9999.25   -9999.25   11.19340    0.02590    9.03730    0.07470    0.17780    4.67400    2.61930
 3463.00000   13.97470   21.68280   51.66530   -9999.25   -9999.25   10.29420    0.02850    9.29860    0.05250    0.20200    4.77880    2.69810
 3463.50000   34.31530   63.62480   90.57910   -9999.25   -9999.25    9.85570    0.02740    9.49810    0.00280    0.22620    4.87800    2.77680
 3464.00000  108.46420  186.69670  264.57990   -9999.25   -9999.25    6.76170    0.02020    9.21960   -0.04040    0.16830    4.99750    2.82270
 3464.50000  307.85900  485.87400  557.04910   -9999.25   -9999.25    4.53630    0.01080    8.98690   -0.07360    0.10490    5.11890    2.84440
 3465.00000  497.07550  756.67490  858.61420   -9999.25   -9999.25    2.47180    0.00440    8.97690   -0.07910    0.07940    5.12550    2.86620
 3465.50000  640.97960 1113.30200 1236.33760   -9999.25   -9999.25    2.35440    0.00000    8.97690   -0.09320    0.05170    5.12560    2.88860
 3466.00000  925.83060 1846.49500 2150.24070   -9999.25   -9999.25    2.45560   -0.00540    8.97460   -0.10020    0.03120    5.20670    2.87910
 3466.50000  854.40210 3880.51070 9682.68460   -9999.25   -9999.25    2.29020   -0.01520    8.96240   -0.09940    0.01890    5.32120    2.76100
