~Version ---------------------------------------------------
VERS.   2.0 : CWLS log ASCII Standard -VERSION 2.0
WRAP.    NO : One line per depth step
DLM . SPACE : Column Data Section Delimiter
~Well ------------------------------------------------------
STRT .F                  135.0 : START DEPTH
STOP .F                 5321.0 : STOP DEPTH
STEP .F                    0.5 : STEP
NULL .                -9999.25 : NULL VALUE
COMP .                         : COMPANY
WELL .                         : WELL
FLD  .                         : FIELD
LOC  .                         : LOCATION
PROV .                         : PROVINCE
CNTY .                         : COUNTY
STAT .                         : STATE
CTRY .                         : COUNTRY
SRVC .                         : SERVICE COMPANY
DATE .                         : DATE
UWI  .                         : UNIQUE WELL ID
API  .                         : API NUMBER
SLAT .WGS84  2.681228030978602 : SURFACE LATITUDE
SLON .WGS84 7.2482839172310065 : SURFACE LONGITUDE
DATUM.F                    nan : DEPTH DATUM ELEV
~Curve Information -----------------------------------------
DEPT   .F     : 1 MEASURED DEPTH
RLA3   .OHMM  : APPARENT RESISTIVITY FROM COMPUTED FOCUSING MODE 3
RLA4   .OHMM  : APPARENT RESISTIVITY FROM COMPUTED FOCUSING MODE 4
RLA5   .OHMM  : APPARENT RESISTIVITY FROM COMPUTED FOCUSING MODE 5
DTCO   .US/F  : DELTA-T COMPRESSIONAL
DTSM   .US/F  : DELTA-T SHEAR
SGRDD  .GAPI  : SPECTROSCOPY GAMMA RAY FROM DENSITY LOG
TNPH_LS.DEC   : THERMAL NEUTRON POROSITY [LIMESTONE]
CALD   .IN    : CALIPER FROM DENSITY LOG
DPHZ_LS.DEC   : HGRD STANDARD RESOLUTION DENSITY POROSITY
HDRA   .G/C3  : HRDD SPINE AND RIBS DENSITY CORRECTION
PEFZ   .B/E   : HRDD STANDARD RESOLUTION FORMATION PHOTOELECTRIC FACTOR
RHOZ   .G/C3  : HRDD STANDARD RESOLUTION FORMATION DENSITY
~Params ----------------------------------------------------
~Other -----------------------------------------------------
~ASCII -----------------------------------------------------
# ...
 2739.00000 2051.71360 10518.37890 11610.93070   -9999.25   -9999.25    6.04110   -0.03290    9.57790   -9999.25   -9999.25   -9999.25    2.03850
 2739.50000 1666.10030 7607.49320 19769.58790   -9999.25   -9999.25    5.23440   -0.03490    9.56990   -9999.25   -9999.25   -9999.25    2.03260
 2740.00000 1728.26980 11383.75100 29551.66800   -9999.25   -9999.25    4.90460   -0.03510    9.54610   -9999.25   -9999.25   -9999.25    2.02920
 2740.50000 1621.29570 10323.12300 39591.62500   -9999.25   -9999.25    4.90460   -0.03510    9.53200   -9999.25   -9999.25   -9999.25    2.02870
 2741.00000 1415.62520 6396.39650 20753.27730   -9999.25   -9999.25    4.80020   -0.03510    9.54350   -9999.25   -9999.25   -9999.25    2.03300
 2741.50000 1199.72190 8120.46580 18595.04690   -9999.25   -9999.25    4.62140   -0.03510    9.55570   -9999.25   -9999.25   -9999.25    2.03830
 2742.00000 1163.09380 9454.26270 31241.50200   -9999.25   -9999.25    4.44260   -0.03670    9.57780   -9999.25   -9999.25   -9999.25    2.04290
 2742.50000 1136.40700 9213.67090 32081.64060   -9999.25   -9999.25    4.26380   -0.03840    9.65020   -9999.25   -9999.25   -9999.25    2.04350
 2743.00000 1107.63550 9213.67090 45939.03520   -9999.25   -9999.25    4.08500   -0.04010    9.81960   -9999.25   -9999.25   -9999.25    2.03840
 2743.50000 1049.43160 9552.89940 34225.62110   -9999.25   -9999.25    3.90620   -0.04140    9.85740   -9999.25   -9999.25   -9999.25    2.02790
 2744.00000 1043.14150 10062.05080 53415.91410   -9999.25   -9999.25    3.72730   -0.04150    9.89710   -9999.25   -9999.25   -9999.25    2.02580
 2744.50000 1036.88960 10450.49610 52355.42970   -9999.25   -9999.25    3.54850   -0.04150    9.94260   -9999.25   -9999.25   -9999.25    2.03020
 2745.00000 1043.23080 8639.56640 33255.78910   -9999.25   -9999.25    3.36970   -0.04150   10.02560   -9999.25   -9999.25   -9999.25    2.03640
 2745.50000 1059.74890 10092.15620 20360.02340   -9999.25   -9999.25    3.21310   -0.04160   10.10950   -9999.25   -9999.25   -9999.25    2.03380
 2746.00000 1117.00210 14329.82710 44478.04300   -9999.25   -9999.25    3.06370   -0.04170   10.11770   -9999.25   -9999.25   -9999.25    2.02740
 2746.50000 1175.02640 14895.47070 37270.06250   -9999.25   -9999.25    2.91430   -0.04190   10.11290   -9999.25   -9999.25   -9999.25    2.02340
 2747.00000 1148.94040 13638.43950 93001.84380   -9999.25   -9999.25    2.95040   -0.04210   10.10820   -9999.25   -9999.25   -9999.25    2.02680
 2747.50000 1096.08870 13346.31740 32419.33980   -9999.25   -9999.25    5.06980   -0.04150   10.09630   -9999.25   -9999.25   -9999.25    2.03180
 2748.00000 1047.76860 8344.36230 10766.17870   -9999.25   -9999.25    8.92890   -0.03870   10.08760   -9999.25   -9999.25   -9999.25    2.03990
 2748.50000  981.48090 4907.97120 5547.86130   -9999.25   -9999.25   14.18550   -0.03640   10.02970   -9999.25   -9999.25   -9999.25    2.05920
 2749.00000  821.71010 2909.97560 3322.30180   -9999.25   -9999.25   16.29160   -0.03360    9.94090   -9999.25   -9999.25   -9999.25    2.06480
 2749.50000  782.12080 2853.58740 2935.62280   -9999.25   -9999.25   14.70040   -0.03070   10.08280   -9999.25   -9999.25   -9999.25    2.06240
 2750.00000  492.07270 2242.90940 3159.31910   -9999.25   -9999.25   11.48140   -0.02230   10.18720   -9999.25   -9999.25   -9999.25    2.05540
 2750.50000  223.43840  371.86000  813.67720   -9999.25   -9999.25    9.92820   -0.00840   10.23540   -9999.25   -9999.25   -9999.25    2.04970
 2751.00000  101.45800  120.84960  138.50610   -9999.25   -9999.25   10.31720    0.00720   10.15970   -9999.25   -9999.25   -9999.25    2.05230
 2751.50000   54.42840   56.73540   63.75760   -9999.25   -9999.25   12.29540    0.01750   10.18600   -9999.25   -9999.25   -9999.25    2.05660
 2752.00000   55.69860   56.56480   65.43930   -9999.25   -9999.25   13.94450    0.01880   10.29880   -9999.25   -9999.25   -9999.25    2.05800
 2752.50000   72.84160   80.78850   93.53740   -9999.25   -9999.25   14.50430    0.01790   10.34330   -9999.25   -9999.25   -9999.25    2.05400
 2753.00000  171.00590  211.65050  269.76610   -9999.25   -9999.25   13.27720    0.00520   10.35070   -9999.25   -9999.25   -9999.25    2.04910
 2753.50000  452.48720  490.84530  545.95720   -9999.25   -9999.25   12.05020   -0.01180    9.93750   -9999.25   -9999.25   -9999.25    2.04630
 2754.00000  541.62190  761.58170 1048.77160   -9999.25   -9999.25   10.82310   -0.01950    9.95150   -9999.25   -9999.25   -9999.25    2.04080
 2754.50000  570.66470  944.29390 1174.53940   -9999.25   -9999.25   10.62050   -0.02540   10.00240   -9999.25   -9999.25   -9999.25    2.03810
 2755.00000  565.69870 1131.97310 1437.85180   -9999.25   -9999.25   10.54300   -0.02890    9.92980   -9999.25   -9999.25   -9999.25    2.03720
 2755.50000  621.79170 1816.11900 2140.94020   -9999.25   -9999.25   10.54300   -0.03080    9.87780   -9999.25   -9999.25   -9999.25    2.03860
 2756.00000  674.85140 2759.24440 3198.76250   -9999.25   -9999.25    8.33450   -0.03210    9.88960   -9999.25   -9999.25   -9999.25    2.03970
 2756.50000  686.83110 3133.64040 3711.74730   -9999.25   -9999.25    6.98250   -0.03340    9.90140   -9999.25   -9999.25   -9999.25    2.04040
 2757.00000  628.14610 2378.32010 3750.73360   -9999.25   -9999.25    6.98100   -0.03430    9.88870   -9999.25   -9999.25   -9999.25    2.04460
 2757.50000  624.51680 1968.73520 3096.11500   -9999.25   -9999.25    7.63860   -0.03440    9.83800   -9999.25   -9999.25   -9999.25    2.04720
 2758.00000  760.75180 2310.25460 4075.60030   -9999.25   -9999.25    8.28740   -0.03480    9.89090   -9999.25   -9999.25   -9999.25    2.04610
 2758.50000  753.54430 2889.63400 6947.74070   -9999.25   -9999.25    8.28310   -0.03600    9.95860   -9999.25   -9999.25   -9999.25    2.04260
 2759.00000  736.88980 2385.11770 6463.51030   -9999.25   -9999.25    7.61050   -0.03720    9.97770   -9999.25   -9999.25   -9999.25    2.03830
 2759.50000  746.29700 2269.90820 6270.54590   -9999.25   -9999.25    6.93780   -0.03840   10.03800   -9999.25   -9999.25   -9999.25    2.04030
 2760.00000  783.70290 3528.42750 16839.89260   -9999.25   -9999.25    6.36040   -0.03960   10.06290   -9999.25   -9999.25   -9999.25    2.04540
 2760.50000  827.77170 5733.48970 24494.95900   -9999.25   -9999.25    5.98200   -0.03970   10.05720   -9999.25   -9999.25   -9999.25    2.05040
 2761.00000  856.59920 9113.74320 59114.45700   -9999.25   -9999.25    6.02200   -0.03860   10.03460   -9999.25   -9999.25   -9999.25    2.05360
 2761.50000  849.74830 9942.89450 37963.53910   -9999.25   -9999.25    7.98930   -0.03740   10.01200   -9999.25   -9999.25   -9999.25    2.05540
 2762.00000  859.37060 10183.23930 42630.66800   -9999.25   -9999.25    9.41930   -0.03630    9.98940   -9999.25   -9999.25   -9999.25    2.05140
 2762.50000  848.25400 7786.78860 22938.48440   -9999.25   -9999.25   11.75860   -0.03520    9.99930   -9999.25   -9999.25   -9999.25    2.04780
 2763.00000  762.65530 5365.95360 8283.13090   -9999.25   -9999.25   13.84520   -0.03410   10.02470   -9999.25   -9999.25   -9999.25    2.05340
 2763.50000  703.68990 4012.87870 6834.45560   -9999.25   -9999.25   15.23530   -0.03370   10.04240   -9999.25   -9999.25   -9999.25    2.05880
 2764.00000  677.14820 4724.85400 15030.00200   -9999.25   -9999.25   15.69620   -0.03450   10.04240   -9999.25   -9999.25   -9999.25    2.05960
 2764.50000  641.72330 5429.56540 14002.21780   -9999.25   -9999.25   13.26070   -0.03490    9.96300   -9999.25   -9999.25   -9999.25    2.05780
 2765.00000  596.52160 5162.21970 15976.16800   -9999.25   -9999.25   10.33590   -0.03330   10.00970   -9999.25   -9999.25   -9999.25    2.05540
 2765.50000  587.99440 5308.63920 26264.70700   -9999.25   -9999.25    8.25180   -0.03030   10.14870   -9999.25   -9999.25   -9999.25    2.05080
 2766.00000  586.85530 5335.02980 14355.65330   -9999.25   -9999.25    7.50790   -0.02730   10.16490   -9999.25   -9999.25   -9999.25    2.04420
 2766.50000  578.25010 4420.78560 9737.36520   -9999.25   -9999.25    6.88090   -0.02440   10.29870   -9999.25   -9999.25   -9999.25    2.03980
