~Version ---------------------------------------------------
VERS.   2.0 : CWLS log ASCII Standard -VERSION 2.0
WRAP.    NO : One line per depth step
DLM . SPACE : Column Data Section Delimiter
~Well ------------------------------------------------------
STRT .F                  135.0 : START DEPTH
STOP .F                 5321.0 : STOP DEPTH
STEP .F                    0.5 : STEP
NULL .                -9999.25 : NULL VALUE
COMP .                         : COMPANY
WELL .                         : WELL
FLD  .                         : FIELD
LOC  .                         : LOCATION
PROV .                         : PROVINCE
CNTY .                         : COUNTY
STAT .                         : STATE
CTRY .                         : COUNTRY
SRVC .                         : SERVICE COMPANY
DATE .                         : DATE
UWI  .                         : UNIQUE WELL ID
API  .                         : API NUMBER
SLAT .WGS84  2.681228030978602 : SURFACE LATITUDE
SLON .WGS84 7.2482839172310065 : SURFACE LONGITUDE
DATUM.F                    nan : DEPTH DATUM ELEV
~Curve Information -----------------------------------------
DEPT   .F     : 1 MEASURED DEPTH
RLA3   .OHMM  : APPARENT RESISTIVITY FROM COMPUTED FOCUSING MODE 3
RLA4   .OHMM  : APPARENT RESISTIVITY FROM COMPUTED FOCUSING MODE 4
RLA5   .OHMM  : APPARENT RESISTIVITY FROM COMPUTED FOCUSING MODE 5
DTCO   .US/F  : DELTA-T COMPRESSIONAL
DTSM   .US/F  : DELTA-T SHEAR
SGRDD  .GAPI  : SPECTROSCOPY GAMMA RAY FROM DENSITY LOG
TNPH_LS.DEC   : THERMAL NEUTRON POROSITY [LIMESTONE]
CALD   .IN    : CALIPER FROM DENSITY LOG
DPHZ_LS.DEC   : HGRD STANDARD RESOLUTION DENSITY POROSITY
HDRA   .G/C3  : HRDD SPINE AND RIBS DENSITY CORRECTION
PEFZ   .B/E   : HRDD STANDARD RESOLUTION FORMATION PHOTOELECTRIC FACTOR
RHOZ   .G/C3  : HRDD STANDARD RESOLUTION FORMATION DENSITY
~Params ----------------------------------------------------
~Other -----------------------------------------------------
~ASCII -----------------------------------------------------
# ...
 4139.00000   33.71790   46.42540   63.74850   62.50960  114.08850   28.04760    0.07190    9.45920   -0.06300    0.01630    4.60770    2.76070
 4139.50000   13.28040   13.75920   14.32010   63.23000  114.57440   39.94510    0.11510    9.45290   -0.00690    0.01590    4.45670    2.67830
 4140.00000   14.83240   15.23640   15.28840   63.12210  113.27710   50.49650    0.11860    9.44820    0.02440    0.00770    4.41510    2.64940
 4140.50000   15.67270   15.88360   16.24940   63.13280  116.03180   52.14790    0.10590    9.44360    0.03500    0.00130    4.58260    2.69930
 4141.00000   20.39370   25.45950   30.88040   62.99710  115.51780   47.49170    0.09410    9.43900    0.00450   -0.00150    4.78600    2.79950
 4141.50000   61.96600   67.54450   70.78810   62.52480  114.54370   37.16750    0.07580    9.43430   -0.04490    0.00250    4.89600    2.83820
 4142.00000   67.01100   70.03410   72.94850   61.91590  112.82250   26.84330    0.05390    9.42970   -0.08770    0.00480    4.77220    2.88600
 4142.50000   67.97720   70.82670   74.28580   61.39160  111.76050   20.70060    0.03930    9.42510   -0.09980    0.00280    4.63610    2.84960
 4143.00000   93.92630  103.43220  121.25710   60.65890  111.03650   21.32850    0.02920    9.42040   -0.08610   -0.00070    4.56870    2.78540
 4143.50000   27.13030   34.46790   44.69210   60.70250  110.03780   27.15830    0.02890    9.41530   -0.04800   -0.00240    4.36660    2.76690
 4144.00000   37.31480   48.56420   53.96310   60.99000  109.52190   32.19740    0.04090    9.40800   -0.03510   -0.00100    4.14180    2.78240
 4144.50000   40.45880   46.02670   55.28530   62.26660  111.53050   33.68460    0.05930    9.40020   -0.04840    0.00610    4.11780    2.80990
 4145.00000   29.39200   32.91580   43.21380   62.79070  112.77190   33.56430    0.07440    9.41620   -0.06290    0.01250    4.11300    2.80990
 4145.50000   17.14660   19.33800   33.86870   63.36200  112.14460   35.86550    0.08180    9.42030   -0.05940    0.01250    4.12000    2.79320
 4146.00000   10.76780   12.51240   14.33020   63.69540  113.64640   39.08370    0.07770    9.42430   -0.04760    0.00860    4.04010    2.75780
 4146.50000   16.37630   20.25380   23.85410   64.13160  115.01350   42.11310    0.06980    9.42790   -0.01350    0.00410    3.93560    2.71860
 4147.00000   35.31520   39.62610   47.87650   64.83980  114.26530   43.46260    0.05240    9.42630    0.01860   -0.00030    3.81410    2.67270
 4147.50000   33.72080   35.78350   38.12830   65.80910  115.41400   42.82590    0.04530    9.42360    0.05450   -0.00480    3.78810    2.60930
 4148.00000   32.63020   33.09780   35.81340   66.28950  116.29680   42.55830    0.05400    9.42090    0.06490   -0.00850    3.75310    2.61180
 4148.50000   30.77380   31.83870   34.82680   66.41390  116.78560   42.74850    0.06460    9.41820    0.05260   -0.01060    3.71380    2.63040
 4149.00000   23.74190   25.27620   27.16220   66.81660  118.86920   43.45490    0.07580    9.41000    0.04530   -0.01120    3.70360    2.64040
 4149.50000   17.89770   19.27630   21.24450   66.83110  120.10020   45.98930    0.08710    9.40040    0.04080   -0.00920    3.72320    2.64590
 4150.00000   13.24490   14.76020   17.13320   66.82790  120.27230   49.88800    0.09740    9.39080    0.03800   -0.00490    3.80030    2.66490
 4150.50000   12.17140   13.33980   18.08590   66.64660  119.07330   50.22900    0.10680    9.38120    0.01110   -0.00050    3.87740    2.69270
 4151.00000   16.46950   18.22200   20.05150   66.24810  119.40610   46.04840    0.09990    9.37160   -0.00520    0.00390    3.95410    2.72060
 4151.50000   16.95530   17.78940   18.45360   65.92020  119.69470   42.15490    0.07910    9.36200   -0.01220    0.00830    3.96740    2.73090
 4152.00000   23.33340   25.98520   27.85720   65.75550  118.62080   39.29050    0.05150    9.35240   -0.00070    0.00960    3.84480    2.69890
 4152.50000   34.44570   36.19940   37.63500   65.49870  117.16400   38.52400    0.03520    9.34440    0.02260    0.01020    3.64040    2.66030
 4153.00000   37.18020   38.27080   38.57530   64.91500  115.40920   36.92830    0.02420    9.34130    0.04270    0.01020    3.46410    2.62160
 4153.50000   36.40450   37.68040   38.11870   63.94530  114.18080   37.04520    0.04050    9.33820    0.06280    0.00720    3.47560    2.60350
 4154.00000   33.42740   34.96040   37.23100   62.42450  111.45810   36.57880    0.05690    9.33150    0.05400    0.00310    3.64320    2.64520
 4154.50000   14.38180   16.70280   20.56690   61.45730  110.12830   35.70420    0.06000    9.32140    0.03050    0.00640    3.84430    2.70400
 4155.00000   14.49140   14.76530   16.07670   59.49290  107.99780   36.68050    0.04410    9.31120   -0.02160    0.01020    4.17120    2.77390
 4155.50000   18.67160   30.56550   47.11910   57.77140  106.82810   32.44140    0.01360    9.28770   -0.06130    0.01060    4.64920    2.84070
 4156.00000  205.43980  357.28140  408.42410   56.62660  104.87120   23.06710   -0.01230    9.24870   -0.09750    0.01020    5.16010    2.91620
 4156.50000  694.02420  949.53640 1159.28160   56.53580  103.31970   11.28780   -0.01970    9.23010   -0.10020    0.00820    5.34030    2.94650
 4157.00000  783.36310 1476.08860 1618.88100   56.29580  102.24160    3.99070   -0.01750    9.21830   -0.10020    0.00500    5.28550    2.97670
 4157.50000  782.45620 1521.42480 1725.76110   55.96780  101.53400    3.84600   -0.00580    9.20640   -0.10010   -0.00840    5.18700    2.97490
 4158.00000   64.28230  113.97130  569.15140   55.47610  101.18500    6.29950    0.00550    9.19370   -0.10000   -0.01440    5.08850    2.93430
 4158.50000   17.08420   18.68260   20.03360   55.28980  101.00720   15.87320    0.02760    9.18470   -0.10000   -0.01370    5.04460    2.86600
 4159.00000   15.73980   15.91610   16.19310   55.28980  101.31500   31.33880    0.03620    9.18400   -0.09530    0.00070    5.10790    2.83650
 4159.50000   16.17940   18.23420   30.33000   54.89660  100.54530   36.08370    0.02500    9.14110   -0.08420    0.01570    5.18020    2.86910
 4160.00000  133.61430  414.04750  610.27700   54.48450  100.05100   28.89140    0.01060    9.14810   -0.09990    0.01580    5.17530    2.92100
 4160.50000  692.16210 1028.73010 1214.16610   54.18760   99.63810   16.24940   -0.00190    9.14820   -0.10000   -0.00530    5.00910    2.96930
 4161.00000  860.21450 1327.43270 1370.00330   54.47930   99.30730    9.67120   -0.00190    9.14570   -0.10000   -0.01900    4.61070    2.97070
 4161.50000  988.28050 1358.87550 2110.05300   55.39180   99.12120   11.81260    0.00420    9.12390   -0.10000   -0.01630    4.28200    2.97070
 4162.00000  233.98880  318.15030  444.84300   56.47010  100.67560   18.05400    0.01460    9.10690   -0.10000    0.00220    3.90570    2.95260
 4162.50000  139.14560  142.13610  144.49920   58.20870  103.24610   23.70530    0.02810    9.10630   -0.10000    0.01070    3.55430    2.85050
 4163.00000  106.55720  125.01310  130.92310   59.67090  104.39540   29.98360    0.04870    9.10570   -0.06050    0.01550    3.30880    2.75040
 4163.50000   14.99010   19.70750   29.32620   60.06550  106.13630   36.74540    0.10110    9.11030   -0.01060    0.02450    3.19490    2.75330
 4164.00000   11.27690   12.41160   13.46320   60.44780  108.17210   45.46390    0.12650    9.11530    0.01990    0.03150    3.31710    2.66690
 4164.50000   11.00210   11.67650   12.04330   60.19720  109.47970   52.70010    0.11650    9.12030    0.02530    0.01960    3.81970    2.66690
 4165.00000    8.66870   10.59420   11.91920   59.46770  109.31540   51.41510    0.09350    9.12520   -0.00390    0.01400    4.42140    2.76980
 4165.50000   22.03260   29.57900   44.47100   58.55840  108.27370   38.21060    0.06440    9.13020   -0.05920    0.03170    4.96670    2.85130
 4166.00000  248.03170  478.77920  563.55870   57.43850  107.14330   23.28220    0.01380    9.13520   -0.09980    0.02620    5.07200    2.93390
 4166.50000  645.50600  869.92390  893.09010   56.28010  105.10860   11.37690   -0.00870    9.14430   -0.09990    0.01420    5.09720    2.99390
