~Version ---------------------------------------------------
VERS.   2.0 : CWLS log ASCII Standard -VERSION 2.0
WRAP.    NO : One line per depth step
DLM . SPACE : Column Data Section Delimiter
~Well ------------------------------------------------------
STRT .F                  135.0 : START DEPTH
STOP .F                 5321.0 : STOP DEPTH
STEP .F                    0.5 : STEP
NULL .                -9999.25 : NULL VALUE
COMP .                         : COMPANY
WELL .                         : WELL
FLD  .                         : FIELD
LOC  .                         : LOCATION
PROV .                         : PROVINCE
CNTY .                         : COUNTY
STAT .                         : STATE
CTRY .                         : COUNTRY
SRVC .                         : SERVICE COMPANY
DATE .                         : DATE
UWI  .                         : UNIQUE WELL ID
API  .                         : API NUMBER
SLAT .WGS84  2.681228030978602 : SURFACE LATITUDE
SLON .WGS84 7.2482839172310065 : SURFACE LONGITUDE
DATUM.F                    nan : DEPTH DATUM ELEV
~Curve Information -----------------------------------------
DEPT   .F     : 1 MEASURED DEPTH
RLA3   .OHMM  : APPARENT RESISTIVITY FROM COMPUTED FOCUSING MODE 3
RLA4   .OHMM  : APPARENT RESISTIVITY FROM COMPUTED FOCUSING MODE 4
RLA5   .OHMM  : APPARENT RESISTIVITY FROM COMPUTED FOCUSING MODE 5
DTCO   .US/F  : DELTA-T COMPRESSIONAL
DTSM   .US/F  : DELTA-T SHEAR
SGRDD  .GAPI  : SPECTROSCOPY GAMMA RAY FROM DENSITY LOG
TNPH_LS.DEC   : THERMAL NEUTRON POROSITY [LIMESTONE]
CALD   .IN    : CALIPER FROM DENSITY LOG
DPHZ_LS.DEC   : HGRD STANDARD RESOLUTION DENSITY POROSITY
HDRA   .G/C3  : HRDD SPINE AND RIBS DENSITY CORRECTION
PEFZ   .B/E   : HRDD STANDARD RESOLUTION FORMATION PHOTOELECTRIC FACTOR
RHOZ   .G/C3  : HRDD STANDARD RESOLUTION FORMATION DENSITY
~Params ----------------------------------------------------
~Other -----------------------------------------------------
~ASCII -----------------------------------------------------
# ...
 5063.00000  116.09520  134.75750  147.78900   50.03830   89.74990   21.33610    0.07390    8.62470   -0.06520    0.03900    3.39770    2.81340
 5063.50000  291.65570  304.62400  315.68870   49.89460   89.51700   19.97760    0.06900    8.62680   -0.06490    0.02370    3.39110    2.80750
 5064.00000  317.93820  349.86610  378.25070   49.65630   89.34910   18.80290    0.06720    8.64360   -0.06140    0.01380    3.46250    2.80470
 5064.50000  275.71220  303.91650  378.81160   49.50900   89.18230   17.63710    0.06580    8.66050   -0.05850    0.00530    3.48890    2.80790
 5065.00000  249.04270  266.39300  291.89100   49.34730   88.81570   17.41500    0.06480    8.66380   -0.06290    0.00070    3.51460    2.81490
 5065.50000  233.66090  260.74310  310.51160   49.38020   88.49700   17.91210    0.06530    8.66440   -0.06760    0.00010    3.62910    2.81460
 5066.00000  104.53610  157.20530  138.77030   49.41820   88.31040   20.28460    0.07140    8.66470   -0.06400   -0.00020    3.76440    2.79250
 5066.50000  108.01490  116.59780  124.12280   49.49870   88.70350   23.09540    0.07690    8.65380   -0.05010   -0.00020    3.76930    2.76840
 5067.00000  113.86690  194.45020  217.94170   49.57200   88.98810   24.18840    0.08020    8.63530   -0.03440   -0.00170    3.71240    2.75980
 5067.50000  221.39440  267.07920  288.98970   49.60480   89.02550   23.78690    0.08240    8.62890   -0.03250   -0.00340    3.65700    2.77070
 5068.00000  239.06800  283.15590  346.52290   49.71110   89.17230   21.29090    0.07970    8.62610   -0.04010   -0.00250    3.59150    2.78160
 5068.50000  137.92390  177.23810  207.56410   49.82510   89.69100   18.72910    0.07660    8.63150   -0.04740   -0.00000    3.52210    2.78930
 5069.00000  120.12960  129.86080  135.46480   49.89660   89.13140   17.40280    0.07680    8.60980   -0.05000    0.00060    3.46390    2.78440
 5069.50000  121.39600  140.48420  144.90980   49.92720   89.85590   16.46830    0.08090    8.62510   -0.04160    0.00090    3.40570    2.76810
 5070.00000  225.39270  292.49140  306.41550   49.92870   89.90660   16.48210    0.08560    8.62520   -0.03530    0.00120    3.42130    2.75650
 5070.50000  261.91590  288.93800  309.27920   49.96360   90.00180   16.88110    0.09110    8.62940   -0.02920    0.00140    3.49200    2.74950
 5071.00000  254.32770  345.11310  401.98550   50.02240   90.01300   17.02540    0.09850    8.62390   -0.02520    0.00140    3.61240    2.74410
 5071.50000  457.05470  556.24880  577.25860   50.14710   90.16170   16.42560    0.10300    8.62130   -0.01930    0.00140    3.63570    2.73630
 5072.00000  459.08880  535.83760  584.78170   50.24910   91.78340   16.02770    0.10700    8.62470   -0.01530    0.00140    3.59990    2.73100
 5072.50000  382.66840  473.07040  493.76960   50.37060   90.71620   16.09310    0.10950    8.62730   -0.01150    0.00140    3.55770    2.72120
 5073.00000  324.43800  420.05930  428.46950   50.54400   90.54420   16.97460    0.11090    8.62970   -0.00760    0.00360    3.51770    2.72460
 5073.50000  216.66950  394.26310  415.30300   50.66690   90.66490   17.58090    0.11290    8.60890   -0.01630    0.01040    3.47400    2.74540
 5074.00000  108.43460  120.52690  144.25620   50.68570   90.80640   18.17510    0.11360    8.58460   -0.02630    0.01880    3.39660    2.76620
 5074.50000  113.62270  120.00660  121.22570   50.80060   91.02670   18.90850    0.10730    8.59770   -0.03620    0.02210    3.31920    2.77080
 5075.00000  116.55920  122.04780  122.71370   51.03280   90.85470   18.99100    0.09960    8.60880   -0.03890    0.01830    3.30230    2.76540
 5075.50000  114.05520  115.66570  120.43150   51.07180   90.65950   18.61580    0.09140    8.61030   -0.03290    0.00920    3.35280    2.75570
 5076.00000   99.69530  100.76030  106.33450   51.13750   90.99550   17.65900    0.09080    8.58610   -0.02800    0.00270    3.47650    2.74600
 5076.50000   90.70570   97.61930  100.30790   51.22100   91.62310   16.65060    0.10420    8.58480   -0.02150    0.00220    3.54930    2.72130
 5077.00000   72.77520   74.55950   75.97740   51.28390   91.71200   16.74300    0.13650    8.58360   -0.00230    0.00210    3.52190    2.69540
 5077.50000   50.88420   59.53150   67.13290   51.25060   91.70690   17.16030    0.16330    8.58230    0.01350    0.00210    3.47930    2.67930
 5078.00000   67.43700   92.11550  200.71940   51.27310   91.81580   17.92730    0.18210    8.58140    0.02730    0.00020    3.42770    2.66450
 5078.50000  213.30270  232.17680  233.81010   51.30350   91.79210   18.25390    0.17140    8.58970    0.02570   -0.00090    3.38650    2.67480
 5079.00000  213.78820  228.29460  231.14780   51.31970   91.81560   19.70480    0.16690    8.60160    0.01160   -0.00090    3.38650    2.70870
 5079.50000  120.63100  135.93020  184.17780   51.35550   91.90210   20.12180    0.15950    8.61350   -0.01660    0.00220    3.41180    2.75860
 5080.00000  345.40100  443.00200  476.14020   51.25390   91.75280   19.50890    0.12660    8.62530   -0.04030    0.01640    3.50820    2.79650
 5080.50000  428.70240  469.76870  582.65710   51.19880   91.71820   18.23680    0.10560    8.63540   -0.05310    0.02820    3.60110    2.77230
 5081.00000  155.03060  200.60730  170.51300   51.14140   91.63150   17.48520    0.09990    8.61940   -0.03630    0.02730    3.57150    2.74030
 5081.50000  100.20260  101.73340  114.90630   51.10600   91.54910   17.21720    0.10970    8.61550   -0.01960    0.01690    3.48010    2.71870
 5082.00000   89.52340  101.61740  100.30000   50.89360   91.36340   17.57800    0.11940    8.60210   -0.00580    0.00490    3.38480    2.71950
 5082.50000   70.62560   77.69540   94.76490   50.73340   91.05730   18.12960    0.12410    8.62600   -0.01010   -0.00020    3.33030    2.73360
 5083.00000   55.89400   64.51220   70.84460   50.72100   90.68760   19.07360    0.12910    8.60480   -0.01870    0.00030    3.31110    2.75730
 5083.50000   44.73470   52.03450   57.98490   50.70320   90.74400   19.26420    0.12150    8.61220   -0.02880    0.00110    3.31010    2.76990
 5084.00000  109.60810  136.44960  150.95920   50.60530   90.60420   18.47050    0.10720    8.61970   -0.03730    0.00190    3.34630    2.77650
 5084.50000  110.38240  120.29570  136.35510   50.57950   90.32610   17.68530    0.09740    8.62720   -0.04300    0.00060    3.47010    2.77830
 5085.00000   78.81240   79.77420   87.25970   50.49730   90.50350   17.20150    0.08930    8.63470   -0.04360   -0.00130    3.58580    2.77370
 5085.50000  101.43900  119.02140  132.05910   50.46630   90.45760   16.47450    0.08570    8.64420   -0.03990   -0.00280    3.59410    2.77110
 5086.00000  169.57600  187.73530  206.13560   50.63570   90.71660   17.21690    0.08310    8.65610   -0.03690   -0.00430    3.60110    2.76680
 5086.50000  225.23460  282.88290  343.05300   50.60300   90.72320   18.05870    0.08960    8.66510   -0.03470   -0.00540    3.56940    2.75870
 5087.00000  144.05180  164.15960  197.33450   50.63700   90.79090   19.10390    0.09710    8.66760   -0.02820   -0.00450    3.52870    2.74630
 5087.50000  154.63910  181.25970  200.49310   50.68330   90.66860   20.17150    0.09910    8.66850   -0.01990   -0.00210    3.46440    2.72960
 5088.00000  133.00120  177.48590  221.06250   50.70070   90.69190   21.55980    0.10030    8.66840   -0.01130    0.00040    3.40010    2.72480
 5088.50000   62.45600   63.16300   77.10840   50.70060   91.10440   22.66370    0.10870    8.65020   -0.00830    0.00160    3.33580    2.72080
 5089.00000   63.00910   64.50280   68.85610   50.73930   90.94320   22.24100    0.11560    8.63200   -0.00920    0.00200    3.27930    2.72240
 5089.50000   75.51940   82.30700   88.04590   50.85360   91.07790   21.33720    0.11410    8.63960   -0.01250    0.00180    3.28640    2.73240
 5090.00000  110.06890  110.58890  138.93420   51.02050   91.05620   20.62200    0.11070    8.63370   -0.01900    0.00070    3.33050    2.74290
 5090.50000  105.69840  111.57140  120.88980   51.18570   91.21840   20.10770    0.11410    8.64490   -0.01930   -0.00180    3.37680    2.73290
