~Version ---------------------------------------------------
VERS.   2.0 : CWLS log ASCII Standard -VERSION 2.0
WRAP.    NO : One line per depth step
DLM . SPACE : Column Data Section Delimiter
~Well ------------------------------------------------------
STRT .F                  135.0 : START DEPTH
STOP .F                 5321.0 : STOP DEPTH
STEP .F                    0.5 : STEP
NULL .                -9999.25 : NULL VALUE
COMP .                         : COMPANY
WELL .                         : WELL
FLD  .                         : FIELD
LOC  .                         : LOCATION
PROV .                         : PROVINCE
CNTY .                         : COUNTY
STAT .                         : STATE
CTRY .                         : COUNTRY
SRVC .                         : SERVICE COMPANY
DATE .                         : DATE
UWI  .                         : UNIQUE WELL ID
API  .                         : API NUMBER
SLAT .WGS84  2.681228030978602 : SURFACE LATITUDE
SLON .WGS84 7.2482839172310065 : SURFACE LONGITUDE
DATUM.F                    nan : DEPTH DATUM ELEV
~Curve Information -----------------------------------------
DEPT   .F     : 1 MEASURED DEPTH
RLA3   .OHMM  : APPARENT RESISTIVITY FROM COMPUTED FOCUSING MODE 3
RLA4   .OHMM  : APPARENT RESISTIVITY FROM COMPUTED FOCUSING MODE 4
RLA5   .OHMM  : APPARENT RESISTIVITY FROM COMPUTED FOCUSING MODE 5
DTCO   .US/F  : DELTA-T COMPRESSIONAL
DTSM   .US/F  : DELTA-T SHEAR
SGRDD  .GAPI  : SPECTROSCOPY GAMMA RAY FROM DENSITY LOG
TNPH_LS.DEC   : THERMAL NEUTRON POROSITY [LIMESTONE]
CALD   .IN    : CALIPER FROM DENSITY LOG
DPHZ_LS.DEC   : HGRD STANDARD RESOLUTION DENSITY POROSITY
HDRA   .G/C3  : HRDD SPINE AND RIBS DENSITY CORRECTION
PEFZ   .B/E   : HRDD STANDARD RESOLUTION FORMATION PHOTOELECTRIC FACTOR
RHOZ   .G/C3  : HRDD STANDARD RESOLUTION FORMATION DENSITY
~Params ----------------------------------------------------
~Other -----------------------------------------------------
~ASCII -----------------------------------------------------
# ...
 3215.00000    3.59280    4.88020    6.18430   -9999.25   -9999.25   29.78550    0.60910   12.04690    0.29970    0.09370    3.04580    2.38590
 3215.50000    8.71000   10.53920   23.12010   -9999.25   -9999.25   21.12890    0.45140    9.00450    0.26910    0.09060    4.25140    2.51080
 3216.00000    3.25190    4.65470    7.34140   -9999.25   -9999.25   18.09830    0.28860    8.75720    0.07450    0.08070    4.65070    2.61580
 3216.50000    1.98070    2.28640    2.42520   -9999.25   -9999.25   16.38120    0.28380    8.98700    0.04240    0.06770    4.98830    2.68320
 3217.00000    3.53200    6.27590    9.78940   -9999.25   -9999.25   13.54380    0.08050    9.06280    0.01040    0.05440    5.25460    2.75890
 3217.50000   21.05370   37.73950   56.70390   -9999.25   -9999.25    8.95650    0.02070    8.95190   -0.05580    0.04110    5.37890    2.84320
 3218.00000  177.30550  272.04720  578.34440   -9999.25   -9999.25    4.59850   -0.00930    8.83530   -0.09980    0.02770    5.40900    2.92750
 3218.50000  503.33940  873.04710  865.63870   -9999.25   -9999.25    2.92910   -0.01660    8.78110   -0.10010    0.01290    5.43750    2.96730
 3219.00000  749.45670 1249.01280 1365.57230   -9999.25   -9999.25    2.72590   -0.01690    8.78340   -0.10010   -0.00190    5.43750    2.96790
 3219.50000  833.25610  832.49710 1682.17650   -9999.25   -9999.25    2.89360   -0.00640    8.80100   -0.10000   -0.00700    5.42340    2.96650
 3220.00000  367.50540  381.88280  476.80540   -9999.25   -9999.25    5.38190    0.00660    8.82820   -0.09940   -0.00800    5.25210    2.82000
 3220.50000   52.20280   92.71290  253.65210   -9999.25   -9999.25    8.02420    0.02060    8.84650   -0.06640    0.00000    4.93940    2.60010
 3221.00000   17.20710   21.46370   25.16230   -9999.25   -9999.25   11.11780    0.02930    8.89090    0.16160    0.01050    4.75640    2.24300
 3221.50000   23.83160   31.03240   31.28950   -9999.25   -9999.25   13.76480    0.02980    9.21480    0.24730    0.02100   -9999.25    2.15330
 3222.00000   26.43700   33.69960   34.69070   -9999.25   -9999.25   13.88060    0.02600    9.52610    0.29960   -9999.25   -9999.25    2.14090
 3222.50000   62.00400   79.15880  123.83010   -9999.25   -9999.25   12.37720    0.01680    9.57870    0.29940   -9999.25   -9999.25    2.12340
 3223.00000  191.51020  222.01030  302.90660   -9999.25   -9999.25   11.21700    0.00720    9.71460   -9999.25   -9999.25   -9999.25    2.05060
 3223.50000  177.94380  212.18620  280.43030   -9999.25   -9999.25   11.28130    0.00120    9.81950   -9999.25   -9999.25   -9999.25    2.05720
 3224.00000   71.74220  101.62800  132.60040   -9999.25   -9999.25   11.70930   -0.00150    9.84190   -9999.25   -9999.25   -9999.25    2.06340
 3224.50000   71.71190   79.03660   82.02230   -9999.25   -9999.25   11.97000   -0.00760    9.90270   -9999.25   -9999.25   -9999.25    2.05100
 3225.00000   80.14850   85.27770   85.98310   -9999.25   -9999.25   10.56230   -0.01430    9.93820   -9999.25   -9999.25   -9999.25    2.03970
 3225.50000   80.34960   88.80760   90.31430   -9999.25   -9999.25    8.82770   -0.01680    9.96340   -9999.25   -9999.25   -9999.25    2.04360
 3226.00000  114.80430  123.96940  273.16410   -9999.25   -9999.25    8.15870   -0.00310    9.94650   -9999.25   -9999.25   -9999.25    2.04900
 3226.50000   21.18390   21.86340   25.61590   -9999.25   -9999.25    9.67770    0.02230    9.87300   -9999.25   -9999.25   -9999.25    2.05130
 3227.00000   15.91780   18.22000   19.22090   -9999.25   -9999.25   15.20320    0.08000    9.89850   -9999.25   -9999.25   -9999.25    2.05030
 3227.50000   13.02150   14.58590   15.82590   -9999.25   -9999.25   18.31130    0.13370   10.02150   -9999.25   -9999.25   -9999.25    2.06640
 3228.00000    7.38500    8.70310    9.74760   -9999.25   -9999.25   18.96420    0.17830   10.23200    0.29970   -9999.25   -9999.25    2.31470
 3228.50000    7.36580   10.78050   14.48360   -9999.25   -9999.25   17.88170    0.18140   10.12440    0.29770   -9999.25   -9999.25    2.42420
 3229.00000   41.02390   54.11370   66.09300   -9999.25   -9999.25   15.01830    0.11750    9.96210    0.08900   -9999.25    4.70970    2.57640
 3229.50000   73.59470   81.37670   92.23980   -9999.25   -9999.25    9.64290    0.06500    9.53560   -0.02780    0.14130    4.97480    2.77260
 3230.00000   79.74650   99.99620  116.72600   -9999.25   -9999.25    6.21240    0.03560    8.98250   -0.09990    0.11060    5.18500    2.90470
 3230.50000  198.21220  280.01360  366.48380   -9999.25   -9999.25    3.62820    0.01480    8.96220   -0.09990    0.07860    5.23330    2.94470
 3231.00000  601.89870  644.05050  731.42190   -9999.25   -9999.25    3.65260    0.00400    9.01140   -0.09990    0.01060    5.17050    2.94110
 3231.50000  692.83760  872.47780 1189.72570   -9999.25   -9999.25    3.74780   -0.00970    9.06220   -0.08250    0.00490    4.96330    2.75700
 3232.00000  310.54600  373.12150  508.03930   -9999.25   -9999.25    3.84290   -0.02130    9.11470    0.11640    0.01510    4.83570    2.47430
 3232.50000  516.26590  614.29170  702.80700   -9999.25   -9999.25    3.50000   -0.02900    9.17710    0.23650    0.04610    4.81570    2.17200
 3233.00000  923.75670 1045.42830 1190.44760   -9999.25   -9999.25    3.22120   -0.03190    9.49600    0.25320    0.07390   -9999.25    2.14100
 3233.50000 1127.29540 3447.51070 3752.34420   -9999.25   -9999.25    2.98140   -0.03410    9.49650    0.30010   -9999.25   -9999.25    2.16050
 3234.00000 1329.88130 5615.43550 6806.95650   -9999.25   -9999.25    2.74150   -0.03450    9.48780    0.30010   -9999.25   -9999.25    2.21060
 3234.50000 1439.50650 6392.57370 7490.56100   -9999.25   -9999.25    2.98160   -0.03180    9.45660    0.30010   -9999.25   -9999.25    2.26310
 3235.00000 1482.83470 2461.40940 6424.62450   -9999.25   -9999.25    4.20490   -0.02800    9.43800    0.30010   -9999.25   -9999.25    2.30290
 3235.50000   91.55140  624.11890 3247.71390   -9999.25   -9999.25    5.59130   -0.02510    9.41650    0.27660   -9999.25   -9999.25    2.26300
 3236.00000   57.05920   61.34600   70.80350   -9999.25   -9999.25    6.97780   -0.02350    9.42940    0.26140   -9999.25   -9999.25    2.14810
 3236.50000   59.46900  127.28570  180.67300   -9999.25   -9999.25    6.84870   -0.02770    9.53170    0.29980   -9999.25   -9999.25    2.14040
 3237.00000  399.67720  914.02280 1087.09860   -9999.25   -9999.25    4.59400   -0.03390    9.64960    0.29980   -9999.25   -9999.25    2.11980
 3237.50000  524.47860 1228.28720 1483.47630   -9999.25   -9999.25    2.71900   -0.03910    9.75670    0.29980   -9999.25   -9999.25    2.04790
 3238.00000  504.24790 1182.11380 1277.44890   -9999.25   -9999.25    2.27480   -0.03800    9.79620    0.29980   -9999.25   -9999.25    2.01500
 3238.50000  278.81020  338.36210  724.52410   -9999.25   -9999.25    2.83660   -0.02560    9.77940    0.29980   -9999.25   -9999.25    2.03300
 3239.00000   36.32430   39.81950   44.13970   -9999.25   -9999.25    4.34380   -0.01070    9.74630    0.29980   -9999.25   -9999.25    2.05800
 3239.50000   29.82450   32.04250   40.01090   -9999.25   -9999.25    5.55220   -0.00080    9.67610    0.29980   -9999.25   -9999.25    2.33940
 3240.00000   61.27890   93.22980  156.84890   -9999.25   -9999.25    5.33460   -0.00040    9.48670    0.29950   -9999.25   -9999.25    2.48700
 3240.50000  383.15160  544.28810  866.14740   -9999.25   -9999.25    4.00020   -0.00190    9.31550    0.14250   -9999.25    4.92640    2.53790
 3241.00000  478.14980 1049.43620 1146.26920   -9999.25   -9999.25    4.02250   -0.00440    9.08510    0.09540    0.04400    5.09320    2.55060
 3241.50000  455.34440 1165.50020 1199.54080   -9999.25   -9999.25    5.10280   -0.00310    9.06040    0.09380    0.02500    5.10120    2.56880
 3242.00000   93.59100  168.00380  349.40850   -9999.25   -9999.25    6.18310    0.00300    9.07050    0.08380    0.00600    5.08220    2.60430
 3242.50000   90.33820   92.32060   93.83730   -9999.25   -9999.25    6.52620    0.00600    9.08590    0.06380    0.00170    4.88540    2.63390
