~Version ---------------------------------------------------
VERS.   2.0 : CWLS log ASCII Standard -VERSION 2.0
WRAP.    NO : One line per depth step
DLM . SPACE : Column Data Section Delimiter
~Well ------------------------------------------------------
STRT .F                  135.0 : START DEPTH
STOP .F                 5321.0 : STOP DEPTH
STEP .F                    0.5 : STEP
NULL .                -9999.25 : NULL VALUE
COMP .                         : COMPANY
WELL .                         : WELL
FLD  .                         : FIELD
LOC  .                         : LOCATION
PROV .                         : PROVINCE
CNTY .                         : COUNTY
STAT .                         : STATE
CTRY .                         : COUNTRY
SRVC .                         : SERVICE COMPANY
DATE .                         : DATE
UWI  .                         : UNIQUE WELL ID
API  .                         : API NUMBER
SLAT .WGS84  2.681228030978602 : SURFACE LATITUDE
SLON .WGS84 7.2482839172310065 : SURFACE LONGITUDE
DATUM.F                    nan : DEPTH DATUM ELEV
~Curve Information -----------------------------------------
DEPT   .F     : 1 MEASURED DEPTH
RLA3   .OHMM  : APPARENT RESISTIVITY FROM COMPUTED FOCUSING MODE 3
RLA4   .OHMM  : APPARENT RESISTIVITY FROM COMPUTED FOCUSING MODE 4
RLA5   .OHMM  : APPARENT RESISTIVITY FROM COMPUTED FOCUSING MODE 5
DTCO   .US/F  : DELTA-T COMPRESSIONAL
DTSM   .US/F  : DELTA-T SHEAR
SGRDD  .GAPI  : SPECTROSCOPY GAMMA RAY FROM DENSITY LOG
TNPH_LS.DEC   : THERMAL NEUTRON POROSITY [LIMESTONE]
CALD   .IN    : CALIPER FROM DENSITY LOG
DPHZ_LS.DEC   : HGRD STANDARD RESOLUTION DENSITY POROSITY
HDRA   .G/C3  : HRDD SPINE AND RIBS DENSITY CORRECTION
PEFZ   .B/E   : HRDD STANDARD RESOLUTION FORMATION PHOTOELECTRIC FACTOR
RHOZ   .G/C3  : HRDD STANDARD RESOLUTION FORMATION DENSITY
~Params ----------------------------------------------------
~Other -----------------------------------------------------
~ASCII -----------------------------------------------------
# ...
 5287.00000   13.81920   15.34580   17.26300   61.75190  105.78470   -9999.25    0.22210    8.62310    0.07310   -0.00330    3.07500    2.61380
 5287.50000   17.28470   18.95990   20.07460   62.14320  106.29170   -9999.25    0.20380    8.61750    0.05880    0.00020    3.05950    2.61800
 5288.00000   18.56340   19.78590   21.38980   62.55780  107.12350   -9999.25    0.18260    8.58690    0.05750    0.00130    3.05290    2.60750
 5288.50000   17.59810   18.00990   20.51410   63.29290  107.65770   -9999.25    0.16510    8.59200    0.06650    0.00130    3.08170    2.59540
 5289.00000   14.72580   15.60950   16.32850   63.51480  108.08960   -9999.25    0.15530    8.62570    0.07530    0.00130    3.10050    2.56740
 5289.50000   11.32860   12.01110   13.71030   63.85610  108.65430   -9999.25    0.17190    8.62470    0.08930    0.00130    3.11440    2.52120
 5290.00000   10.12800   10.81110   11.93740   63.96870  109.34890   -9999.25    0.19540    8.61920    0.11040   -0.00010    3.10410    2.50240
 5290.50000    9.78480   10.87100   12.07880   63.50030  109.71990   -9999.25    0.20300    8.61420    0.12200   -0.00070    3.01860    2.51130
 5291.00000    9.71500   10.78890   12.10610   62.62930  109.64610   -9999.25    0.19750    8.61670    0.12540   -0.00020    2.91720    2.52330
 5291.50000    8.84800   10.21230   11.39440   61.89060  109.35680   -9999.25    0.19050    8.62050    0.11570    0.00360    2.81580    2.54080
 5292.00000   14.27880   16.31820   21.07550   60.72510  108.36790   -9999.25    0.18450    8.61660    0.10220    0.00270    2.75170    2.57500
 5292.50000   21.38170   24.11110   26.97540   59.95640  106.42110   -9999.25    0.17910    8.60500    0.08270   -0.00140    2.78410    2.61600
 5293.00000   22.44070   25.06620   28.99490   59.70600  105.81290   -9999.25    0.17950    8.59950    0.06430   -0.00330    2.89040    2.63760
 5293.50000   21.71170   24.19470   26.50920   59.24310  104.06170   -9999.25    0.18290    8.62170    0.04680   -0.00240    2.99670    2.64120
 5294.00000   21.72310   24.07430   26.48780   59.17380  103.83850   -9999.25    0.18640    8.60430    0.04150   -0.00170    3.04680    2.63770
 5294.50000   21.71800   22.72660   25.19350   59.15680  103.66680   -9999.25    0.18990    8.58690    0.04270   -0.00170    3.05390    2.60970
 5295.00000   12.48200   14.13970   16.26260   59.19790  103.52590   -9999.25    0.20820    8.59190    0.05820   -0.00290    3.05070    2.57210
 5295.50000   11.45800   12.48940   13.99690   59.26160  103.62660   -9999.25    0.22400    8.59880    0.08890   -0.00490    3.02200    2.53440
 5296.00000   10.32880   11.52830   11.95380   59.29770  103.81850   -9999.25    0.22920    8.60570    0.10900   -0.00690    2.94760    2.54610
 5296.50000   11.18540   11.68650   12.71130   59.25820  103.96720   -9999.25    0.22070    8.61260    0.09810   -0.00710    2.87310    2.58310
 5297.00000   11.33190   11.87790   12.79000   59.08080  104.24140   -9999.25    0.21210    8.61860    0.08200   -0.00400    2.84000    2.60640
 5297.50000   11.29760   12.32980   14.29100   58.47570  104.09840   -9999.25    0.21390    8.58980    0.06530    0.00140    2.85430    2.63160
 5298.00000   16.23430   16.67770   18.03830   57.65980  103.13060   -9999.25    0.21930    8.59540    0.04560    0.00170    2.95720    2.65150
 5298.50000   19.20770   22.15960   26.28940   56.38500  102.06840   -9999.25   -9999.25    8.59340    0.03120    0.00210    3.07490    2.67070
 5299.00000   36.12890   51.70640   80.45630   55.12710  100.73650   -9999.25   -9999.25    8.60370    0.02250   -0.00010    3.19260    2.67100
 5299.50000  300.90310  362.79530  392.98730   54.46480   98.97520   -9999.25   -9999.25    8.62260    0.02750   -0.00140    3.28860    2.66210
 5300.00000   74.14760  126.94340  218.94460   53.91780   97.58520   -9999.25   -9999.25    8.62340    0.03320    0.00190    3.30650    2.65630
 5300.50000   68.16150   73.38820   91.99790   53.51240   96.72790   -9999.25   -9999.25    8.62310    0.03470    0.00680    3.31620    2.65130
 5301.00000   65.51180   83.58410   82.21200   53.32260   96.01720   -9999.25   -9999.25    8.61530    0.03600    0.00900    3.31840    2.64740
 5301.50000   68.17790   72.99100  131.10420   53.13280   95.46130   -9999.25   -9999.25    8.57920    0.03850    0.00830    3.32070    2.64870
 5302.00000   66.73920   88.36150   93.43320   52.94300   95.38110   -9999.25   -9999.25    8.58250    0.03530    0.00360    3.32640    2.66290
 5302.50000   57.79660   61.87310   71.02200   52.84900   95.24610   -9999.25   -9999.25    8.61260    0.02670   -0.00050    3.33200    2.67480
 5303.00000   62.21120   76.88400   94.08360   52.83070   94.87480   -9999.25   -9999.25    8.59640    0.02050   -0.00220    3.37280    2.68280
 5303.50000   89.14760  107.44920  109.00750   52.81250   94.87920   -9999.25   -9999.25    8.61450    0.01540   -0.00330    3.39990    2.68770
 5304.00000   88.69330   99.64320  102.65140   52.79420   94.75290   -9999.25   -9999.25    8.61770    0.01220   -0.00420    3.41260    2.69070
 5304.50000   86.08360  104.04440  116.05420   52.77590   94.72560   -9999.25   -9999.25    8.62080    0.01110   -0.00460    3.41010    2.69330
 5305.00000   72.10100   77.46070   83.66360   52.75760   94.91410   -9999.25   -9999.25    8.62400    0.00860   -0.00400    3.39230    2.70460
 5305.50000   70.27770   73.46210   81.63180   52.84290   94.99720   -9999.25   -9999.25    8.62710    0.00250    0.00480    3.35530    2.69900
 5306.00000   22.78790   28.86000   44.87750   52.86670   95.03400   -9999.25   -9999.25    8.63030    0.01290    0.01170    3.31220    2.67250
 5306.50000   29.92410   33.31780   34.45740   -9999.25   -9999.25   -9999.25   -9999.25    8.62300    0.02740    0.01210    3.26910    2.63840
 5307.00000   36.49680   39.30610   42.81910   -9999.25   -9999.25   -9999.25   -9999.25    8.59080    0.04370    0.00720    3.21970    2.63990
 5307.50000   50.21850   51.40650   54.91430   -9999.25   -9999.25   -9999.25   -9999.25   -9999.25   -9999.25   -9999.25   -9999.25   -9999.25
 5308.00000   48.98190   50.36160   51.32660   -9999.25   -9999.25   -9999.25   -9999.25   -9999.25   -9999.25   -9999.25   -9999.25   -9999.25
 5308.50000   33.60810   38.07160   41.94850   -9999.25   -9999.25   -9999.25   -9999.25   -9999.25   -9999.25   -9999.25   -9999.25   -9999.25
 5309.00000   20.72140   21.85230   21.28220   -9999.25   -9999.25   -9999.25   -9999.25   -9999.25   -9999.25   -9999.25   -9999.25   -9999.25
 5309.50000   20.55940   20.81780   21.07810   -9999.25   -9999.25   -9999.25   -9999.25   -9999.25   -9999.25   -9999.25   -9999.25   -9999.25
 5310.00000   22.04860   22.70850   23.89310   -9999.25   -9999.25   -9999.25   -9999.25   -9999.25   -9999.25   -9999.25   -9999.25   -9999.25
 5310.50000   24.13820   25.43610   26.21670   -9999.25   -9999.25   -9999.25   -9999.25   -9999.25   -9999.25   -9999.25   -9999.25   -9999.25
 5311.00000   24.55850   27.86960   28.67740   -9999.25   -9999.25   -9999.25   -9999.25   -9999.25   -9999.25   -9999.25   -9999.25   -9999.25
 5311.50000   41.65140   43.04180   62.78650   -9999.25   -9999.25   -9999.25   -9999.25   -9999.25   -9999.25   -9999.25   -9999.25   -9999.25
 5312.00000   42.47430   46.32830   45.80110   -9999.25   -9999.25   -9999.25   -9999.25   -9999.25   -9999.25   -9999.25   -9999.25   -9999.25
 5312.50000   28.51690   32.63360   40.20560   -9999.25   -9999.25   -9999.25   -9999.25   -9999.25   -9999.25   -9999.25   -9999.25   -9999.25
 5313.00000   21.35640   23.03120   24.43250   -9999.25   -9999.25   -9999.25   -9999.25   -9999.25   -9999.25   -9999.25   -9999.25   -9999.25
 5313.50000   19.13700   22.03330   24.13810   -9999.25   -9999.25   -9999.25   -9999.25   -9999.25   -9999.25   -9999.25   -9999.25   -9999.25
 5314.00000   12.22500   17.56520   15.83100   -9999.25   -9999.25   -9999.25   -9999.25   -9999.25   -9999.25   -9999.25   -9999.25   -9999.25
 5314.50000   12.89030   13.98560   15.97520   -9999.25   -9999.25   -9999.25   -9999.25   -9999.25   -9999.25   -9999.25   -9999.25   -9999.25
