~Version ---------------------------------------------------
VERS.   2.0 : CWLS log ASCII Standard -VERSION 2.0
WRAP.    NO : One line per depth step
DLM . SPACE : Column Data Section Delimiter
~Well ------------------------------------------------------
STRT .F                  135.0 : START DEPTH
STOP .F                 5321.0 : STOP DEPTH
STEP .F                    0.5 : STEP
NULL .                -9999.25 : NULL VALUE
COMP .                         : COMPANY
WELL .                         : WELL
FLD  .                         : FIELD
LOC  .                         : LOCATION
PROV .                         : PROVINCE
CNTY .                         : COUNTY
STAT .                         : STATE
CTRY .                         : COUNTRY
SRVC .                         : SERVICE COMPANY
DATE .                         : DATE
UWI  .                         : UNIQUE WELL ID
API  .                         : API NUMBER
SLAT .WGS84  2.681228030978602 : SURFACE LATITUDE
SLON .WGS84 7.2482839172310065 : SURFACE LONGITUDE
DATUM.F                    nan : DEPTH DATUM ELEV
~Curve Information -----------------------------------------
DEPT   .F     : 1 MEASURED DEPTH
RLA3   .OHMM  : APPARENT RESISTIVITY FROM COMPUTED FOCUSING MODE 3
RLA4   .OHMM  : APPARENT RESISTIVITY FROM COMPUTED FOCUSING MODE 4
RLA5   .OHMM  : APPARENT RESISTIVITY FROM COMPUTED FOCUSING MODE 5
DTCO   .US/F  : DELTA-T COMPRESSIONAL
DTSM   .US/F  : DELTA-T SHEAR
SGRDD  .GAPI  : SPECTROSCOPY GAMMA RAY FROM DENSITY LOG
TNPH_LS.DEC   : THERMAL NEUTRON POROSITY [LIMESTONE]
CALD   .IN    : CALIPER FROM DENSITY LOG
DPHZ_LS.DEC   : HGRD STANDARD RESOLUTION DENSITY POROSITY
HDRA   .G/C3  : HRDD SPINE AND RIBS DENSITY CORRECTION
PEFZ   .B/E   : HRDD STANDARD RESOLUTION FORMATION PHOTOELECTRIC FACTOR
RHOZ   .G/C3  : HRDD STANDARD RESOLUTION FORMATION DENSITY
~Params ----------------------------------------------------
~Other -----------------------------------------------------
~ASCII -----------------------------------------------------
# ...
 2515.00000 1677.35270 4105.93360 4949.37110   -9999.25   -9999.25   11.36870   -0.02830    9.44240   -9999.25   -9999.25   -9999.25    2.05210
 2515.50000  853.80380  994.85290 1643.14390   -9999.25   -9999.25   11.33250   -0.02580    9.46370   -9999.25   -9999.25   -9999.25    2.04800
 2516.00000   67.32470  145.49960  267.41740   -9999.25   -9999.25   10.95810   -0.02400    9.46160   -9999.25   -9999.25   -9999.25    2.04270
 2516.50000   94.80510  141.67260  202.34470   -9999.25   -9999.25    9.18400   -0.02440    9.55770   -9999.25   -9999.25   -9999.25    2.02620
 2517.00000  576.85160  621.22260  909.55340   -9999.25   -9999.25    6.85750   -0.02620    9.56290   -9999.25   -9999.25   -9999.25    2.01230
 2517.50000 1050.18480 1777.86350 3548.72560   -9999.25   -9999.25    7.06190   -0.02800    9.55370   -9999.25   -9999.25   -9999.25    2.00900
 2518.00000 1856.42830 10879.60160 18500.75780   -9999.25   -9999.25    8.60950   -0.02870    9.53540   -9999.25   -9999.25   -9999.25    2.01820
 2518.50000 2321.12650 17689.57420 27434.33400   -9999.25   -9999.25   11.49080   -0.02750    9.44190    0.30050   -9999.25   -9999.25    2.07490
 2519.00000 2624.97020 7863.50290 9538.71390   -9999.25   -9999.25   14.42590   -0.01540    9.31070    0.29980   -9999.25   -9999.25    2.37810
 2519.50000 1834.99070 3889.59420 6401.28660   -9999.25   -9999.25   12.98630   -0.00340    8.87480    0.14850   -0.01330   -9999.25    2.52970
 2520.00000 1045.01110 1378.36120 2830.70290   -9999.25   -9999.25    9.28760    0.02220    8.79840    0.09930   -0.00590    5.14530    2.59220
 2520.50000  102.47950  350.31110  500.17410   -9999.25   -9999.25    7.56220    0.05160    8.78000    0.09980    0.00160    4.99740    2.46180
 2521.00000   19.37060   22.87930   26.95850   -9999.25   -9999.25   10.00790    0.12180    8.78020    0.22330    0.00520   -9999.25    2.14180
 2521.50000    6.04890    8.33420   11.01760   -9999.25   -9999.25   13.89700    0.11470    8.79190    0.29990   -0.00510   -9999.25    2.13740
 2522.00000   22.21300   31.93970   42.24970   -9999.25   -9999.25   13.59990    0.07600    9.45280    0.29990   -9999.25   -9999.25    2.13290
 2522.50000   70.66880   82.56660   93.13280   -9999.25   -9999.25   10.90720    0.02040    9.45880    0.29990   -9999.25   -9999.25    1.98370
 2523.00000  145.92620  178.22460  214.85110   -9999.25   -9999.25    7.14130   -0.00600    9.55770    0.29990   -9999.25   -9999.25    2.00190
 2523.50000  353.88100  432.66570  741.46670   -9999.25   -9999.25    5.75670   -0.02570    9.61740    0.29980   -9999.25   -9999.25    2.02010
 2524.00000  702.64150 1085.28530 1654.17310   -9999.25   -9999.25    8.11830   -0.03710    9.59760    0.29980   -9999.25   -9999.25    2.03460
 2524.50000  801.63370 2925.32180 3563.32810   -9999.25   -9999.25   12.34860   -0.03670    9.56160    0.29980   -9999.25   -9999.25    2.04360
 2525.00000  954.48740 6504.90230 7552.89210   -9999.25   -9999.25   15.65730   -0.03290    9.53000    0.29970   -9999.25   -9999.25    2.05520
 2525.50000  920.59110 5806.55320 7435.37450   -9999.25   -9999.25   17.05340   -0.02820    9.50590    0.29970   -9999.25   -9999.25    2.06670
 2526.00000  802.70640 6225.77980 6980.39790   -9999.25   -9999.25   17.45890   -0.01810    9.42890    0.29970   -9999.25   -9999.25    2.09230
 2526.50000  309.95470  347.99410  529.24490   -9999.25   -9999.25   16.91530    0.00310    9.32260    0.29810   -9999.25   -9999.25    2.32060
 2527.00000  249.23170  266.51840  321.55610   -9999.25   -9999.25   16.10550    0.05010    9.19130    0.26700   -9999.25   -9999.25    2.31990
 2527.50000    6.33540   26.73450   81.55910   -9999.25   -9999.25   17.62200    0.10410    8.90210    0.25030   -9999.25   -9999.25    2.26160
 2528.00000    6.01140    6.42510    6.56100   -9999.25   -9999.25   19.03780    0.13300    9.22780    0.29320   -9999.25   -9999.25    2.17760
 2528.50000    6.79740   11.90390   31.83490   -9999.25   -9999.25   18.00570    0.12410    9.36790   -9999.25   -9999.25   -9999.25    2.14680
 2529.00000  202.32220  223.38320  302.47890   -9999.25   -9999.25   13.80850    0.05630    9.52360   -9999.25   -9999.25   -9999.25    2.13400
 2529.50000  410.58500  453.57500  504.68130   -9999.25   -9999.25   10.09470   -0.00740    9.44330   -9999.25   -9999.25   -9999.25    2.12470
 2530.00000  728.00160  833.07910 1056.07390   -9999.25   -9999.25    7.01420   -0.02530    9.42240   -9999.25   -9999.25   -9999.25    2.11530
 2530.50000 1248.64820 1530.11250 1956.98390   -9999.25   -9999.25    5.33960   -0.02860    9.49270   -9999.25   -9999.25   -9999.25    2.02470
 2531.00000 1618.10180 2637.82250 2857.89380   -9999.25   -9999.25    4.20480   -0.02850    9.47760   -9999.25   -9999.25   -9999.25    2.02310
 2531.50000 2014.96570 3227.98950 4071.72920   -9999.25   -9999.25    5.13210   -0.02960    9.39630   -9999.25   -9999.25   -9999.25    2.02360
 2532.00000 2160.26370 11121.43160 16887.34960   -9999.25   -9999.25    6.84750   -0.03090    9.42880   -9999.25   -9999.25   -9999.25    2.02480
 2532.50000 2242.34910 17604.22460 20772.26760   -9999.25   -9999.25    8.43640   -0.03270    9.44640   -9999.25   -9999.25   -9999.25    2.02530
 2533.00000 2767.45750 24274.18750 40168.50390   -9999.25   -9999.25    8.12780   -0.03460    9.43780   -9999.25   -9999.25   -9999.25    2.02530
 2533.50000 3058.74830 24235.14840 45985.46090   -9999.25   -9999.25    7.08060   -0.03610    9.40070   -9999.25   -9999.25   -9999.25    2.02630
 2534.00000 3061.66970 25268.87890 32356.15040   -9999.25   -9999.25    6.63200   -0.03610    9.35890   -9999.25   -9999.25   -9999.25    2.02810
 2534.50000 2196.79350 9390.25680 27625.54690   -9999.25   -9999.25    6.63200   -0.03450    9.38340   -9999.25   -9999.25   -9999.25    2.03030
 2535.00000 2044.02660 6972.41650 9574.30960   -9999.25   -9999.25    6.63200   -0.03040    9.40610   -9999.25   -9999.25   -9999.25    2.02770
 2535.50000 1816.57470 6699.73580 7098.62300   -9999.25   -9999.25    6.63200   -0.02570    9.42250   -9999.25   -9999.25   -9999.25    2.02480
 2536.00000  260.71070  496.24630 6908.39110   -9999.25   -9999.25    7.20680   -0.02100    9.45700   -9999.25   -9999.25   -9999.25    2.02090
 2536.50000  103.84070  107.04890  109.60870   -9999.25   -9999.25    8.86630   -0.01630    9.34700   -9999.25   -9999.25   -9999.25    2.02080
 2537.00000  101.61810  104.44750  107.35740   -9999.25   -9999.25   11.86180   -0.01570    9.31230   -9999.25   -9999.25   -9999.25    2.02740
 2537.50000  346.60400  495.20570  850.81020   -9999.25   -9999.25   17.86420   -0.01760    9.29580   -9999.25   -9999.25   -9999.25    2.04810
 2538.00000  711.48330 1485.22830 1896.13590   -9999.25   -9999.25   24.24660   -0.02180    9.21790   -9999.25   -9999.25   -9999.25    2.07020
 2538.50000  865.11850 2230.37400 9891.88570   -9999.25   -9999.25   26.48130   -0.02590    9.12020   -9999.25   -9999.25   -9999.25    2.12210
 2539.00000  875.96890 6689.43800 30660.81640   -9999.25   -9999.25   24.95870   -0.03010    9.03060   -9999.25   -9999.25   -9999.25    2.14850
 2539.50000  875.79960 11076.40430 34672.16020   -9999.25   -9999.25   17.17420   -0.03490    9.27340   -9999.25   -9999.25   -9999.25    2.14840
 2540.00000  893.65320 11449.72270 56589.59380   -9999.25   -9999.25   11.63880   -0.04020    9.29240   -9999.25   -9999.25   -9999.25    2.14710
 2540.50000  901.78980 11013.58690 76418.78910   -9999.25   -9999.25    8.30840   -0.04440    9.42330   -9999.25   -9999.25   -9999.25    2.10370
 2541.00000  870.60470 11217.55370 45089.66800   -9999.25   -9999.25    6.44180   -0.04410    9.48410   -9999.25   -9999.25   -9999.25    2.05390
 2541.50000  912.23180 11310.61820 45026.00000   -9999.25   -9999.25    5.72970   -0.04350    9.53170   -9999.25   -9999.25   -9999.25    2.04090
 2542.00000  949.54690 11184.04100 35714.49610   -9999.25   -9999.25    6.12430   -0.04350    9.56080   -9999.25   -9999.25   -9999.25    2.03510
 2542.50000  987.74080 11800.51170 57190.85550   -9999.25   -9999.25    7.08310   -0.04350    9.57810   -9999.25   -9999.25   -9999.25    2.03310
