~Version ---------------------------------------------------
VERS.   2.0 : CWLS log ASCII Standard -VERSION 2.0
WRAP.    NO : One line per depth step
DLM . SPACE : Column Data Section Delimiter
~Well ------------------------------------------------------
STRT .F                  135.0 : START DEPTH
STOP .F                 5321.0 : STOP DEPTH
STEP .F                    0.5 : STEP
NULL .                -9999.25 : NULL VALUE
COMP .                         : COMPANY
WELL .                         : WELL
FLD  .                         : FIELD
LOC  .                         : LOCATION
PROV .                         : PROVINCE
CNTY .                         : COUNTY
STAT .                         : STATE
CTRY .                         : COUNTRY
SRVC .                         : SERVICE COMPANY
DATE .                         : DATE
UWI  .                         : UNIQUE WELL ID
API  .                         : API NUMBER
SLAT .WGS84  2.681228030978602 : SURFACE LATITUDE
SLON .WGS84 7.2482839172310065 : SURFACE LONGITUDE
DATUM.F                    nan : DEPTH DATUM ELEV
~Curve Information -----------------------------------------
DEPT   .F     : 1 MEASURED DEPTH
RLA3   .OHMM  : APPARENT RESISTIVITY FROM COMPUTED FOCUSING MODE 3
RLA4   .OHMM  : APPARENT RESISTIVITY FROM COMPUTED FOCUSING MODE 4
RLA5   .OHMM  : APPARENT RESISTIVITY FROM COMPUTED FOCUSING MODE 5
DTCO   .US/F  : DELTA-T COMPRESSIONAL
DTSM   .US/F  : DELTA-T SHEAR
SGRDD  .GAPI  : SPECTROSCOPY GAMMA RAY FROM DENSITY LOG
TNPH_LS.DEC   : THERMAL NEUTRON POROSITY [LIMESTONE]
CALD   .IN    : CALIPER FROM DENSITY LOG
DPHZ_LS.DEC   : HGRD STANDARD RESOLUTION DENSITY POROSITY
HDRA   .G/C3  : HRDD SPINE AND RIBS DENSITY CORRECTION
PEFZ   .B/E   : HRDD STANDARD RESOLUTION FORMATION PHOTOELECTRIC FACTOR
RHOZ   .G/C3  : HRDD STANDARD RESOLUTION FORMATION DENSITY
~Params ----------------------------------------------------
~Other -----------------------------------------------------
~ASCII -----------------------------------------------------
# ...
 2039.00000  107.05440  123.06860  154.94780   -9999.25   -9999.25   20.04730    0.02110    9.95870    0.30030   -9999.25   -9999.25    2.09560
 2039.50000  210.85070  237.30000  251.98340   -9999.25   -9999.25   21.18670    0.02310    9.74330    0.30030   -9999.25   -9999.25    2.15990
 2040.00000   80.12800  143.81380  208.62240   -9999.25   -9999.25   27.60480    0.03980    9.83700    0.30030   -9999.25   -9999.25    2.28000
 2040.50000   47.98660   48.36200   53.12970   -9999.25   -9999.25   35.16160    0.07130    9.57810    0.28470   -9999.25   -9999.25    2.28280
 2041.00000   45.70410   51.21760   54.24390   -9999.25   -9999.25   38.28380    0.07950    9.51840    0.26590   -9999.25   -9999.25    2.26640
 2041.50000   74.79430   82.34050   92.55200   -9999.25   -9999.25   38.68800    0.07850    9.52430    0.26840    0.00200   -9999.25    2.24180
 2042.00000  107.39530  132.37550  144.23670   -9999.25   -9999.25   37.51610    0.06790    9.60110    0.30000   -9999.25   -9999.25    2.18090
 2042.50000  130.88960  149.84540  184.64710   -9999.25   -9999.25   36.27440    0.05120    9.81070    0.30000   -9999.25   -9999.25    2.16510
 2043.00000  145.17400  156.14490  202.42830   -9999.25   -9999.25   34.75880    0.03460    9.61840   -9999.25   -9999.25   -9999.25    2.14830
 2043.50000  149.64910  163.07390  216.86430   -9999.25   -9999.25   29.58020    0.02070    9.69180   -9999.25   -9999.25   -9999.25    2.14330
 2044.00000  208.63100  277.36720  429.31090   -9999.25   -9999.25   23.13520    0.00880    9.72190   -9999.25   -9999.25   -9999.25    2.13500
 2044.50000  401.71150  718.83800  916.86480   -9999.25   -9999.25   17.61370   -0.00310    9.83260   -9999.25   -9999.25   -9999.25    2.10420
 2045.00000  449.28760  951.77590 1145.34070   -9999.25   -9999.25   14.36310   -0.01500    9.89220   -9999.25   -9999.25   -9999.25    2.08590
 2045.50000  637.40850 1369.17020 1757.61340   -9999.25   -9999.25   12.15620   -0.02250    9.93030   -9999.25   -9999.25   -9999.25    2.06450
 2046.00000  568.64230 1191.23340 1663.70290   -9999.25   -9999.25   11.04980   -0.01850    9.91800   -9999.25   -9999.25   -9999.25    2.07250
 2046.50000  510.46350  861.55910 1221.39700   -9999.25   -9999.25   10.39800   -0.01900    9.74040   -9999.25   -9999.25   -9999.25    2.08630
 2047.00000  655.99320  970.72360 1077.49060   -9999.25   -9999.25   10.39800   -0.02080    9.78230   -9999.25   -9999.25   -9999.25    2.10010
 2047.50000  728.84010 1650.95700 2108.43090   -9999.25   -9999.25   10.46040   -0.02150    9.63150   -9999.25   -9999.25   -9999.25    2.10370
 2048.00000  988.92300 2497.93330 2964.49050   -9999.25   -9999.25   11.82030   -0.01500    9.79570   -9999.25   -9999.25   -9999.25    2.09320
 2048.50000  749.63040 1139.63130 1471.64090   -9999.25   -9999.25   15.46080    0.00350    9.89670   -9999.25   -9999.25   -9999.25    2.08800
 2049.00000  265.21280  463.02160  694.41410   -9999.25   -9999.25   22.09830    0.02480    9.90150   -9999.25   -9999.25   -9999.25    2.10170
 2049.50000  109.70610  116.70460  134.18090   -9999.25   -9999.25   30.29040    0.05720    9.65490    0.30040   -9999.25   -9999.25    2.18670
 2050.00000   96.88840  109.70880  113.65720   -9999.25   -9999.25   39.10710    0.08950    9.61090    0.28500   -9999.25   -9999.25    2.30770
 2050.50000   49.01240   60.26850   64.25130   -9999.25   -9999.25   43.92820    0.11270    9.58450    0.25800    0.00660   -9999.25    2.30860
 2051.00000   44.32930   47.65840   50.73150   -9999.25   -9999.25   46.89400    0.11770    9.58210    0.25150    0.00380   -9999.25    2.27690
 2051.50000   45.98020   51.91340   61.72530   -9999.25   -9999.25   47.10400    0.11770    9.56480    0.26970   -9999.25   -9999.25    2.22640
 2052.00000   68.02700   80.58210   87.25900   -9999.25   -9999.25   46.48750    0.10580    9.50060    0.29980   -9999.25   -9999.25    2.18820
 2052.50000   80.37700   87.48380   90.46330   -9999.25   -9999.25   43.86330    0.09350    9.37840    0.30040   -9999.25   -9999.25    2.20150
 2053.00000   96.49860  105.89010  110.89410   -9999.25   -9999.25   43.47870    0.10010    9.18140    0.30040   -9999.25   -9999.25    2.23480
 2053.50000   58.54470   62.32830   71.51880   -9999.25   -9999.25   44.82280    0.10910    9.04730    0.29750   -9999.25   -9999.25    2.24160
 2054.00000   58.07730   62.75580   86.68700   -9999.25   -9999.25   43.75210    0.10050    8.96080    0.29750   -9999.25   -9999.25    2.21280
 2054.50000  112.42770  146.53610  191.67800   -9999.25   -9999.25   37.04810    0.07670    9.03720    0.30040   -9999.25   -9999.25    2.15450
 2055.00000  249.06570  380.93520  434.26790   -9999.25   -9999.25   26.71920    0.04770    9.24870    0.30040   -9999.25   -9999.25    2.14180
 2055.50000  427.70710  698.83120  917.31740   -9999.25   -9999.25   19.78170    0.01140    9.45640    0.30040   -9999.25   -9999.25    2.13840
 2056.00000  336.68760  482.44900  631.79400   -9999.25   -9999.25   15.81220   -0.00430    9.36760    0.30040   -9999.25   -9999.25    2.09900
 2056.50000  277.29580  407.55260  548.30050   -9999.25   -9999.25   16.17480   -0.00520    9.05170    0.30040   -9999.25   -9999.25    2.09730
 2057.00000  535.53940  741.74320 1039.41440   -9999.25   -9999.25   18.57230    0.00500    9.10010    0.30040   -9999.25   -9999.25    2.11660
 2057.50000  513.94770  760.81320 1177.40910   -9999.25   -9999.25   25.54320    0.01510    9.20940    0.30040   -9999.25   -9999.25    2.20600
 2058.00000  419.18960  513.33010  807.67930   -9999.25   -9999.25   32.51410    0.02520    8.98310    0.30040   -9999.25   -9999.25    2.27160
 2058.50000  342.58860  458.46120  720.82420   -9999.25   -9999.25   39.48500    0.03140    8.91850    0.27430   -9999.25   -9999.25    2.30470
 2059.00000  294.60880  386.13210  624.24910   -9999.25   -9999.25   45.05100    0.03640    8.86950    0.24210    0.01170   -9999.25    2.33770
 2059.50000  225.83330  273.91220  382.27090   -9999.25   -9999.25   50.43830    0.03780    8.85090    0.22990    0.00720   -9999.25    2.34090
 2060.00000  212.29850  248.16150  369.20040   -9999.25   -9999.25   53.00300    0.03570    8.85340    0.24150    0.00640   -9999.25    2.30910
 2060.50000  219.04760  281.21390  377.91880   -9999.25   -9999.25   53.69430    0.03040    8.85590    0.24600    0.00870   -9999.25    2.26820
 2061.00000  242.42760  334.39610  436.19780   -9999.25   -9999.25   49.14650    0.02340    8.87180    0.26670   -9999.25   -9999.25    2.23560
 2061.50000  274.25150  457.48210  572.93870   -9999.25   -9999.25   41.87440    0.01620    8.94180    0.29200   -9999.25   -9999.25    2.21280
 2062.00000  430.62570  715.64980  788.29010   -9999.25   -9999.25   35.55160    0.00910    8.94720    0.30000   -9999.25   -9999.25    2.20130
 2062.50000  439.44980  907.62550 1067.70650   -9999.25   -9999.25   29.78010    0.00280    8.93010    0.30000   -9999.25   -9999.25    2.19410
 2063.00000  590.99040  971.70680 1323.07920   -9999.25   -9999.25   26.61220    0.00510    9.05160    0.30000   -9999.25   -9999.25    2.19980
 2063.50000  565.70310  969.03420 1235.09010   -9999.25   -9999.25   25.33770    0.02090    8.98440    0.29940   -9999.25   -9999.25    2.24870
 2064.00000  421.87250  674.58140  754.76780   -9999.25   -9999.25   30.52660    0.03780    8.96020    0.28380   -9999.25   -9999.25    2.30300
 2064.50000  289.06080  364.46770  431.46480   -9999.25   -9999.25   37.73930    0.06230    8.90230    0.24960    0.01300   -9999.25    2.34360
 2065.00000  188.09450  232.30650  250.51270   -9999.25   -9999.25   43.17950    0.10070    8.85130    0.23450    0.01340   -9999.25    2.33270
 2065.50000   77.53880  127.92070  147.20920   -9999.25   -9999.25   42.98950    0.17090    8.79460    0.24620    0.02870   -9999.25    2.20110
 2066.00000   15.47210   17.03920   18.70690   -9999.25   -9999.25   37.42750    0.23160    8.87430    0.29950   -9999.25   -9999.25    2.16290
 2066.50000   15.56670   17.23890   20.95720   -9999.25   -9999.25   30.90020    0.23350    9.07020    0.29980   -9999.25   -9999.25    2.14440
