~Version ---------------------------------------------------
VERS.   2.0 : CWLS log ASCII Standard -VERSION 2.0
WRAP.    NO : One line per depth step
DLM . SPACE : Column Data Section Delimiter
~Well ------------------------------------------------------
STRT .F                  135.0 : START DEPTH
STOP .F                 5321.0 : STOP DEPTH
STEP .F                    0.5 : STEP
NULL .                -9999.25 : NULL VALUE
COMP .                         : COMPANY
WELL .                         : WELL
FLD  .                         : FIELD
LOC  .                         : LOCATION
PROV .                         : PROVINCE
CNTY .                         : COUNTY
STAT .                         : STATE
CTRY .                         : COUNTRY
SRVC .                         : SERVICE COMPANY
DATE .                         : DATE
UWI  .                         : UNIQUE WELL ID
API  .                         : API NUMBER
SLAT .WGS84  2.681228030978602 : SURFACE LATITUDE
SLON .WGS84 7.2482839172310065 : SURFACE LONGITUDE
DATUM.F                    nan : DEPTH DATUM ELEV
~Curve Information -----------------------------------------
DEPT   .F     : 1 MEASURED DEPTH
RLA3   .OHMM  : APPARENT RESISTIVITY FROM COMPUTED FOCUSING MODE 3
RLA4   .OHMM  : APPARENT RESISTIVITY FROM COMPUTED FOCUSING MODE 4
RLA5   .OHMM  : APPARENT RESISTIVITY FROM COMPUTED FOCUSING MODE 5
DTCO   .US/F  : DELTA-T COMPRESSIONAL
DTSM   .US/F  : DELTA-T SHEAR
SGRDD  .GAPI  : SPECTROSCOPY GAMMA RAY FROM DENSITY LOG
TNPH_LS.DEC   : THERMAL NEUTRON POROSITY [LIMESTONE]
CALD   .IN    : CALIPER FROM DENSITY LOG
DPHZ_LS.DEC   : HGRD STANDARD RESOLUTION DENSITY POROSITY
HDRA   .G/C3  : HRDD SPINE AND RIBS DENSITY CORRECTION
PEFZ   .B/E   : HRDD STANDARD RESOLUTION FORMATION PHOTOELECTRIC FACTOR
RHOZ   .G/C3  : HRDD STANDARD RESOLUTION FORMATION DENSITY
~Params ----------------------------------------------------
~Other -----------------------------------------------------
~ASCII -----------------------------------------------------
# ...
 2291.00000 1491.53210 7403.23390 9219.10550   -9999.25   -9999.25   11.21820   -0.01840    9.53440   -9999.25   -9999.25   -9999.25    2.04910
 2291.50000 1322.15340 7765.78470 10930.94430   -9999.25   -9999.25    9.58410   -0.03040    9.59180   -9999.25   -9999.25   -9999.25    2.04150
 2292.00000 1215.07360 5531.73970 6970.76660   -9999.25   -9999.25    8.07740   -0.03070    9.61510   -9999.25   -9999.25   -9999.25    2.03700
 2292.50000 1032.48520 2221.70480 2390.52120   -9999.25   -9999.25    6.98920   -0.01470    9.56150   -9999.25   -9999.25   -9999.25    2.03410
 2293.00000  841.52720 1525.63350 1212.99720   -9999.25   -9999.25    9.66230    0.00530    9.49750   -9999.25   -9999.25   -9999.25    2.02270
 2293.50000   17.09770   17.63510   35.47310   -9999.25   -9999.25   14.83400    0.01930    9.48580   -9999.25   -9999.25   -9999.25    2.01190
 2294.00000   39.65100   63.50800   54.35380   -9999.25   -9999.25   19.39810    0.01880    9.39570   -9999.25   -9999.25   -9999.25    2.00660
 2294.50000  341.64630  309.95250  551.46930   -9999.25   -9999.25   21.16850    0.00410    9.34510   -9999.25   -9999.25   -9999.25    2.00890
 2295.00000  717.40060 1071.31460 1355.85970   -9999.25   -9999.25   19.02550   -0.01160    9.60530   -9999.25   -9999.25   -9999.25    2.01970
 2295.50000  884.09480 1692.68700 2143.78880   -9999.25   -9999.25   17.03890   -0.02720    9.57520   -9999.25   -9999.25   -9999.25    2.04070
 2296.00000 1062.70450 2916.21580 5587.33890   -9999.25   -9999.25   17.15610   -0.02730    9.58740   -9999.25   -9999.25   -9999.25    2.04990
 2296.50000 1208.61510 5883.66360 8498.22950   -9999.25   -9999.25   21.23120   -0.02050    9.55060   -9999.25   -9999.25   -9999.25    2.05860
 2297.00000 1443.17800 6652.89890 7299.48880   -9999.25   -9999.25   27.03950   -0.01280    9.57390   -9999.25   -9999.25   -9999.25    2.07430
 2297.50000  984.50670 3609.13670 4077.87180   -9999.25   -9999.25   32.84770   -0.00520    9.51810   -9999.25   -9999.25   -9999.25    2.09280
 2298.00000  351.36380  565.37430  856.25500   -9999.25   -9999.25   36.42830   -0.00210    9.26370   -9999.25   -9999.25   -9999.25    2.14530
 2298.50000  132.35090  144.03510  169.19430   -9999.25   -9999.25   32.51830   -0.00280    9.15680   -9999.25   -9999.25   -9999.25    2.16800
 2299.00000  150.30270  156.57160  166.76860   -9999.25   -9999.25   21.20370   -0.00740    9.47960   -9999.25   -9999.25   -9999.25    2.16750
 2299.50000  106.02410  108.46050  164.41240   -9999.25   -9999.25   14.74870   -0.01670    9.52440   -9999.25   -9999.25   -9999.25    2.11160
 2300.00000  475.77880  699.50590  944.61640   -9999.25   -9999.25   10.17380   -0.02690    9.70260   -9999.25   -9999.25   -9999.25    2.05520
 2300.50000  523.83510 1260.78280 1813.64140   -9999.25   -9999.25    8.86660   -0.03710    9.72020   -9999.25   -9999.25   -9999.25    2.05220
 2301.00000  616.72970 2281.68600 2682.66650   -9999.25   -9999.25    9.62450   -0.04160    9.70910   -9999.25   -9999.25   -9999.25    2.05220
 2301.50000  614.22330 3505.80220 4624.74900   -9999.25   -9999.25   10.70180   -0.04140    9.78400   -9999.25   -9999.25   -9999.25    2.05220
 2302.00000  587.73520 3433.61300 4410.30180   -9999.25   -9999.25   10.61940   -0.04040    9.74440   -9999.25   -9999.25   -9999.25    2.05150
 2302.50000  379.60870  501.28280 1259.87370   -9999.25   -9999.25    8.65810   -0.03060    9.79040   -9999.25   -9999.25   -9999.25    2.04860
 2303.00000  208.05020  214.17100  264.52400   -9999.25   -9999.25   11.40790   -0.01130    9.90770   -9999.25   -9999.25   -9999.25    2.04550
 2303.50000   36.07480   78.86800  164.47350   -9999.25   -9999.25   18.06340    0.00790    9.96820   -9999.25   -9999.25   -9999.25    2.05500
 2304.00000   13.01690   15.23490   17.48830   -9999.25   -9999.25   26.32000    0.04290    9.93230   -9999.25   -9999.25   -9999.25    2.08880
 2304.50000   16.92290   19.33280   20.60320   -9999.25   -9999.25   32.95160    0.05780    9.86530   -9999.25   -9999.25   -9999.25    2.10310
 2305.00000   29.73650   32.54340   42.65960   -9999.25   -9999.25   34.99180    0.05810    9.88520   -9999.25   -9999.25   -9999.25    2.11500
 2305.50000   33.87630   36.11380   40.91080   -9999.25   -9999.25   34.98880    0.05030    9.97400   -9999.25   -9999.25   -9999.25    2.12010
 2306.00000   33.91270   40.82970   42.60660   -9999.25   -9999.25   36.46160    0.03910    9.65950   -9999.25   -9999.25   -9999.25    2.10900
 2306.50000   64.45020   74.66390   99.32250   -9999.25   -9999.25   39.81610    0.02460    9.76000   -9999.25   -9999.25   -9999.25    2.10650
 2307.00000  122.78170  141.22180  139.48440   -9999.25   -9999.25   41.72470    0.00800    9.78100   -9999.25   -9999.25   -9999.25    2.11360
 2307.50000  173.44990  181.39060  296.31890   -9999.25   -9999.25   38.96230   -0.00860    9.60730   -9999.25   -9999.25   -9999.25    2.11790
 2308.00000  430.01980 1177.42710 1665.64940   -9999.25   -9999.25   31.04300   -0.02630    9.51510   -9999.25   -9999.25   -9999.25    2.10980
 2308.50000  883.14790 3553.52540 4029.06790   -9999.25   -9999.25   22.94070   -0.03040    9.69100   -9999.25   -9999.25   -9999.25    2.08680
 2309.00000  888.04030 3038.86430 3576.19750   -9999.25   -9999.25   20.79720   -0.02590    9.80620   -9999.25   -9999.25   -9999.25    2.07100
 2309.50000  638.11400 1208.54080 1925.34890   -9999.25   -9999.25   20.11780   -0.01200    9.83600   -9999.25   -9999.25   -9999.25    2.06940
 2310.00000  158.96780  225.57630  274.50030   -9999.25   -9999.25   19.72590    0.00190    9.79450   -9999.25   -9999.25   -9999.25    2.06930
 2310.50000   38.38220   53.01400   60.95230   -9999.25   -9999.25   17.42720    0.00720    9.71770   -9999.25   -9999.25   -9999.25    2.06380
 2311.00000   27.91450   29.43560   32.09570   -9999.25   -9999.25   14.74460    0.00690    9.58040   -9999.25   -9999.25   -9999.25    2.05460
 2311.50000   43.90080   52.79170   86.46230   -9999.25   -9999.25   11.67520    0.00100    9.67290   -9999.25   -9999.25   -9999.25    2.04540
 2312.00000   98.95890  179.22420  308.49610   -9999.25   -9999.25   10.01650   -0.00860    9.70230   -9999.25   -9999.25   -9999.25    2.04260
 2312.50000  164.24250  417.80130  660.22530   -9999.25   -9999.25   10.37850   -0.01690    9.68630   -9999.25   -9999.25   -9999.25    2.04460
 2313.00000   87.93390  104.06600  213.83340   -9999.25   -9999.25   11.47360   -0.02110    9.48070   -9999.25   -9999.25   -9999.25    2.04690
 2313.50000  134.10120  165.48740  236.34320   -9999.25   -9999.25   11.30690   -0.02530    9.66070   -9999.25   -9999.25   -9999.25    2.04850
 2314.00000  591.93400  734.21060  764.41280   -9999.25   -9999.25    9.97970   -0.02670    9.68290   -9999.25   -9999.25   -9999.25    2.04570
 2314.50000  803.28170 1200.13100 1616.37850   -9999.25   -9999.25    9.67360   -0.01240    9.66420   -9999.25   -9999.25   -9999.25    2.04160
 2315.00000  600.77200  777.64370 1028.31290   -9999.25   -9999.25   12.67650    0.01720    9.70780   -9999.25   -9999.25   -9999.25    2.03590
 2315.50000  151.10640  214.64310  260.34420   -9999.25   -9999.25   18.06370    0.09360    9.70710   -9999.25   -9999.25   -9999.25    2.01700
 2316.00000   30.49400   44.51910   68.74010   -9999.25   -9999.25   23.77780    0.20200    9.56710   -9999.25   -9999.25   -9999.25    2.00360
 2316.50000    6.20940    7.05310    9.73730   -9999.25   -9999.25   27.28220    0.22660    9.59610   -9999.25   -9999.25   -9999.25    1.95810
 2317.00000    6.40310    6.93710   10.37550   -9999.25   -9999.25   28.45230    0.19260    9.73220   -9999.25   -9999.25   -9999.25    1.94500
 2317.50000   26.55170   35.03370   56.71770   -9999.25   -9999.25   25.79270    0.05910   10.46500   -9999.25   -9999.25   -9999.25    1.95470
 2318.00000   98.01120  126.17470  203.01410   -9999.25   -9999.25   20.18740    0.01920    9.78620   -9999.25   -9999.25   -9999.25    2.02410
 2318.50000  353.84000  451.69120  726.66440   -9999.25   -9999.25   14.51320   -0.01420    9.53350   -9999.25   -9999.25   -9999.25    2.04860
