~Version ---------------------------------------------------
VERS.   2.0 : CWLS log ASCII Standard -VERSION 2.0
WRAP.    NO : One line per depth step
DLM . SPACE : Column Data Section Delimiter
~Well ------------------------------------------------------
STRT .F                  135.0 : START DEPTH
STOP .F                 5321.0 : STOP DEPTH
STEP .F                    0.5 : STEP
NULL .                -9999.25 : NULL VALUE
COMP .                         : COMPANY
WELL .                         : WELL
FLD  .                         : FIELD
LOC  .                         : LOCATION
PROV .                         : PROVINCE
CNTY .                         : COUNTY
STAT .                         : STATE
CTRY .                         : COUNTRY
SRVC .                         : SERVICE COMPANY
DATE .                         : DATE
UWI  .                         : UNIQUE WELL ID
API  .                         : API NUMBER
SLAT .WGS84  2.681228030978602 : SURFACE LATITUDE
SLON .WGS84 7.2482839172310065 : SURFACE LONGITUDE
DATUM.F                    nan : DEPTH DATUM ELEV
~Curve Information -----------------------------------------
DEPT   .F     : 1 MEASURED DEPTH
RLA3   .OHMM  : APPARENT RESISTIVITY FROM COMPUTED FOCUSING MODE 3
RLA4   .OHMM  : APPARENT RESISTIVITY FROM COMPUTED FOCUSING MODE 4
RLA5   .OHMM  : APPARENT RESISTIVITY FROM COMPUTED FOCUSING MODE 5
DTCO   .US/F  : DELTA-T COMPRESSIONAL
DTSM   .US/F  : DELTA-T SHEAR
SGRDD  .GAPI  : SPECTROSCOPY GAMMA RAY FROM DENSITY LOG
TNPH_LS.DEC   : THERMAL NEUTRON POROSITY [LIMESTONE]
CALD   .IN    : CALIPER FROM DENSITY LOG
DPHZ_LS.DEC   : HGRD STANDARD RESOLUTION DENSITY POROSITY
HDRA   .G/C3  : HRDD SPINE AND RIBS DENSITY CORRECTION
PEFZ   .B/E   : HRDD STANDARD RESOLUTION FORMATION PHOTOELECTRIC FACTOR
RHOZ   .G/C3  : HRDD STANDARD RESOLUTION FORMATION DENSITY
~Params ----------------------------------------------------
~Other -----------------------------------------------------
~ASCII -----------------------------------------------------
# ...
 1815.00000   16.41440   19.95650   22.00820   -9999.25   -9999.25   71.39540    0.20030    8.86310    0.08920   -0.00490    3.29570    2.57160
 1815.50000   24.41310   26.43270   31.34420   -9999.25   -9999.25   71.22560    0.18850    8.85680    0.08130   -0.00550    3.39390    2.58630
 1816.00000   20.93910   23.75380   26.45730   -9999.25   -9999.25   78.36080    0.17760    8.85060    0.07550   -0.00490    3.44440    2.58860
 1816.50000   14.18010   14.79510   17.89240   -9999.25   -9999.25   85.39810    0.19000    8.84440    0.07460   -0.00410    3.34970    2.58970
 1817.00000   14.55360   16.01830   17.83890   -9999.25   -9999.25   89.58230    0.19690    8.83810    0.07390   -0.00300    3.22760    2.59460
 1817.50000   15.99000   17.19790   19.54920   -9999.25   -9999.25   86.79360    0.19930    8.83190    0.06980   -0.00200    3.16050    2.59710
 1818.00000   16.18580   17.19530   19.40420   -9999.25   -9999.25   77.63780    0.20140    8.82300    0.06880   -0.00090    3.11140    2.59870
 1818.50000   16.38400   17.29210   19.16960   -9999.25   -9999.25   77.30090    0.19780    8.80530    0.06800    0.00010    3.10360    2.60200
 1819.00000   17.26440   18.12450   20.38890   -9999.25   -9999.25   78.63690    0.18660    8.80280    0.06250    0.00010    3.09810    2.61890
 1819.50000   18.58600   19.58050   21.23420   -9999.25   -9999.25   80.95640    0.17180    8.81430    0.05420    0.00010    3.09790    2.62240
 1820.00000   19.58730   21.48890   22.11450   -9999.25   -9999.25   82.30230    0.16020    8.82130    0.05320    0.00010    3.10800    2.62520
 1820.50000   19.89220   22.22170   23.52170   -9999.25   -9999.25   78.66240    0.16010    8.82100    0.05340    0.00020    3.12820    2.62650
 1821.00000   16.86950   18.95300   21.76120   -9999.25   -9999.25   77.17410    0.17020    8.81980    0.05260    0.00020    3.13550    2.62770
 1821.50000   18.37100   20.14390   22.49180   -9999.25   -9999.25   74.57470    0.17810    8.81870    0.04930    0.00020    3.11690    2.62530
 1822.00000   18.92740   20.70630   22.12550   -9999.25   -9999.25   74.77440    0.17960    8.82140    0.05480    0.00020    3.09700    2.61010
 1822.50000   15.56430   18.35110   18.91630   -9999.25   -9999.25   76.66560    0.18120    8.82080    0.06520    0.00030    3.09680    2.60080
 1823.00000   12.17070   13.59380   15.04590   -9999.25   -9999.25   76.56350    0.19620    8.82020    0.06710    0.00040    3.06870    2.60660
 1823.50000   14.61950   18.66020   20.62610   -9999.25   -9999.25   73.94760    0.19000    8.81960    0.05950    0.00040    3.03280    2.62180
 1824.00000   20.87040   21.59720   23.75780   -9999.25   -9999.25   71.99550    0.17360    8.81990    0.05180    0.00050    3.01970    2.62910
 1824.50000   20.62780   21.03840   23.18540   -9999.25   -9999.25   71.57970    0.16730    8.82140    0.05020    0.00060    3.02520    2.62310
 1825.00000   19.86300   20.17950   21.99040   -9999.25   -9999.25   70.55770    0.16770    8.81990    0.05720    0.00070    3.04710    2.61510
 1825.50000   19.63280   19.95770   21.85250   -9999.25   -9999.25   70.37210    0.17530    8.81560    0.06170    0.00070    3.07700    2.61110
 1826.00000   19.68220   20.52780   21.38890   -9999.25   -9999.25   70.67120    0.16990    8.80920    0.06250    0.00080    3.10820    2.60690
 1826.50000   19.46110   20.60450   23.35320   -9999.25   -9999.25   72.17910    0.17610    8.80830    0.06270    0.00090    3.14900    2.60240
 1827.00000   14.85620   16.23590   18.20060   -9999.25   -9999.25   71.77010    0.19400    8.80740    0.06810    0.00070    3.20410    2.59800
 1827.50000   13.96560   15.28120   16.91240   -9999.25   -9999.25   72.47230    0.20520    8.80650    0.07010    0.00040    3.25920    2.59740
 1828.00000   15.95760   17.88920   19.79860   -9999.25   -9999.25   74.44390    0.20460    8.80560    0.06430    0.00020    3.27620    2.61480
 1828.50000   19.04600   20.77670   23.26910   -9999.25   -9999.25   76.78410    0.18560    8.80460    0.05300    0.00020    3.19090    2.63150
 1829.00000   20.30670   22.06910   22.71300   -9999.25   -9999.25   79.25820    0.16980    8.78650    0.04730    0.00040    3.08770    2.63440
 1829.50000   22.24750   22.79940   24.33870   -9999.25   -9999.25   79.30140    0.16320    8.76680    0.04930    0.00070    3.05010    2.62440
 1830.00000   23.22750   23.72690   24.62190   -9999.25   -9999.25   77.74020    0.15820    8.77350    0.05710    0.00080    3.04790    2.60830
 1830.50000   23.71590   24.69220   25.23680   -9999.25   -9999.25   76.28360    0.16050    8.78180    0.06450    0.00070    3.04640    2.60730
 1831.00000   24.20060   24.74980   25.40100   -9999.25   -9999.25   74.96930    0.16370    8.78980    0.06320    0.00060    3.04490    2.60930
 1831.50000   23.97820   24.67920   25.07370   -9999.25   -9999.25   75.07880    0.16520    8.79380    0.05940    0.00050    3.02000    2.61680
 1832.00000   23.67530   24.87100   25.52560   -9999.25   -9999.25   72.81860    0.15820    8.80100    0.05590    0.00050    2.99310    2.62010
 1832.50000   23.95930   25.59480   26.43580   -9999.25   -9999.25   70.28870    0.14770    8.80880    0.05890    0.00040    2.98600    2.61310
 1833.00000   24.00530   26.59530   27.37850   -9999.25   -9999.25   67.19950    0.13810    8.81650    0.06270    0.00030    2.99600    2.60830
 1833.50000   22.75600   26.93040   27.43970   -9999.25   -9999.25   66.99870    0.13200    8.82160    0.06380    0.00020    3.01970    2.60880
 1834.00000   23.64470   27.57120   30.67220   -9999.25   -9999.25   63.31190    0.12650    8.81730    0.05720    0.00010    3.03000    2.62290
 1834.50000   34.67780   39.94670   44.14500   -9999.25   -9999.25   54.46390    0.10620    8.80700    0.04920    0.00010    3.00120    2.63470
 1835.00000   43.67830   52.74700   63.53560   -9999.25   -9999.25   44.64650    0.07920    8.81070    0.03480   -0.00000    3.00040    2.66290
 1835.50000   55.22320   65.93620   82.06830   -9999.25   -9999.25   39.26720    0.05300    8.81800    0.02180   -0.00010    3.01700    2.69120
 1836.00000   66.23230   82.53790   88.92900   -9999.25   -9999.25   36.34680    0.04040    8.83170    0.00750   -0.00020    3.07840    2.69900
 1836.50000   72.46790   89.58090  114.48030   -9999.25   -9999.25   35.53430    0.03180    8.85300    0.00680   -0.00030    3.17000    2.69900
 1837.00000   69.05640   74.53460   92.50810   -9999.25   -9999.25   37.77490    0.03060    8.85880    0.01230   -0.00040    3.24920    2.68660
 1837.50000   64.04570   70.00160   89.23590   -9999.25   -9999.25   42.07920    0.03230    8.84670    0.01870   -0.00040    3.32230    2.67350
 1838.00000   62.35360   70.44710   89.50480   -9999.25   -9999.25   45.81170    0.03750    8.83260    0.02280   -0.00050    3.32590    2.67010
 1838.50000   66.06390   71.70880   94.57900   -9999.25   -9999.25   47.73050    0.04790    8.82080    0.02680   -0.00060    3.26850    2.65470
 1839.00000   71.48300   72.55460   93.86330   -9999.25   -9999.25   48.11850    0.06220    8.82710    0.03630   -0.00070    3.21230    2.62960
 1839.50000   57.94110   69.92250   71.41660   -9999.25   -9999.25   50.54970    0.10310    8.83330    0.05480   -0.00080    3.21750    2.60100
 1840.00000   53.38450   55.11270   60.96860   -9999.25   -9999.25   55.43390    0.15330    8.83960    0.07840   -0.00090    3.39240    2.57240
 1840.50000   48.61320   51.50200   54.45080   -9999.25   -9999.25   65.76310    0.21040    8.84980    0.09070   -0.00090    3.56840    2.56680
 1841.00000   43.08700   45.64500   46.92150   -9999.25   -9999.25   71.77360    0.22350    8.86620    0.08100   -0.00050    3.65840    2.57400
 1841.50000   28.15820   35.59710   35.80750   -9999.25   -9999.25   73.79180    0.22500    8.88220    0.07360   -0.00020    3.74840    2.60840
 1842.00000   25.56980   26.34590   28.10160   -9999.25   -9999.25   70.71140    0.22910    8.88220    0.05480    0.00040    3.85040    2.64480
 1842.50000   30.27710   36.15910   91.30740   -9999.25   -9999.25   56.04920    0.18090    8.87790    0.01050    0.00110    4.08130    2.70610
