~Version ---------------------------------------------------
VERS.   2.0 : CWLS log ASCII Standard -VERSION 2.0
WRAP.    NO : One line per depth step
DLM . SPACE : Column Data Section Delimiter
~Well ------------------------------------------------------
STRT .F                  135.0 : START DEPTH
STOP .F                 5321.0 : STOP DEPTH
STEP .F                    0.5 : STEP
NULL .                -9999.25 : NULL VALUE
COMP .                         : COMPANY
WELL .                         : WELL
FLD  .                         : FIELD
LOC  .                         : LOCATION
PROV .                         : PROVINCE
CNTY .                         : COUNTY
STAT .                         : STATE
CTRY .                         : COUNTRY
SRVC .                         : SERVICE COMPANY
DATE .                         : DATE
UWI  .                         : UNIQUE WELL ID
API  .                         : API NUMBER
SLAT .WGS84  2.681228030978602 : SURFACE LATITUDE
SLON .WGS84 7.2482839172310065 : SURFACE LONGITUDE
DATUM.F                    nan : DEPTH DATUM ELEV
~Curve Information -----------------------------------------
DEPT   .F     : 1 MEASURED DEPTH
RLA3   .OHMM  : APPARENT RESISTIVITY FROM COMPUTED FOCUSING MODE 3
RLA4   .OHMM  : APPARENT RESISTIVITY FROM COMPUTED FOCUSING MODE 4
RLA5   .OHMM  : APPARENT RESISTIVITY FROM COMPUTED FOCUSING MODE 5
DTCO   .US/F  : DELTA-T COMPRESSIONAL
DTSM   .US/F  : DELTA-T SHEAR
SGRDD  .GAPI  : SPECTROSCOPY GAMMA RAY FROM DENSITY LOG
TNPH_LS.DEC   : THERMAL NEUTRON POROSITY [LIMESTONE]
CALD   .IN    : CALIPER FROM DENSITY LOG
DPHZ_LS.DEC   : HGRD STANDARD RESOLUTION DENSITY POROSITY
HDRA   .G/C3  : HRDD SPINE AND RIBS DENSITY CORRECTION
PEFZ   .B/E   : HRDD STANDARD RESOLUTION FORMATION PHOTOELECTRIC FACTOR
RHOZ   .G/C3  : HRDD STANDARD RESOLUTION FORMATION DENSITY
~Params ----------------------------------------------------
~Other -----------------------------------------------------
~ASCII -----------------------------------------------------
# ...
 3663.00000   57.60540   85.91300  211.55570   -9999.25   -9999.25    9.32340   -0.00310    9.61690    0.09020    0.04860    4.75610    2.64330
 3663.50000   29.67480   36.65930   53.96130   -9999.25   -9999.25   10.76910   -0.01140    9.65120    0.19330    0.03500    4.68340    2.25930
 3664.00000   60.00470   67.53850   91.82290   -9999.25   -9999.25    9.50180   -0.01860    9.96190    0.24830    0.02860   -9999.25    2.14880
 3664.50000   80.12350   96.71930  102.05600   -9999.25   -9999.25    8.20580   -0.01770    9.90500    0.29920   -9999.25   -9999.25    2.14300
 3665.00000  116.90430  134.61800  187.53050   -9999.25   -9999.25    8.20070   -0.00350    9.96400   -9999.25   -9999.25   -9999.25    2.09540
 3665.50000   13.69870   18.03220   40.17630   -9999.25   -9999.25   10.22110    0.00700   10.30550   -9999.25   -9999.25   -9999.25    2.07820
 3666.00000   19.22020   23.46630   28.37590   -9999.25   -9999.25   11.22700    0.00560   10.33200   -9999.25   -9999.25   -9999.25    2.08230
 3666.50000   40.07080   48.90950   55.94300   -9999.25   -9999.25   11.44580   -0.00750   10.28300   -9999.25   -9999.25   -9999.25    2.09340
 3667.00000  120.79250  121.12750  150.30650   -9999.25   -9999.25    9.13880   -0.02050   10.26820   -9999.25   -9999.25   -9999.25    2.09300
 3667.50000  279.21110  308.42600  460.32950   -9999.25   -9999.25    6.80150   -0.03000   10.16840   -9999.25   -9999.25   -9999.25    2.06720
 3668.00000  404.51760  673.51010  763.50440   -9999.25   -9999.25    5.20450   -0.02830   10.14470   -9999.25   -9999.25   -9999.25    2.07870
 3668.50000  391.92850  755.26260  781.60100   -9999.25   -9999.25    4.90430   -0.02400   10.20620   -9999.25   -9999.25   -9999.25    2.23600
 3669.00000   35.90870   45.36450   70.00030   -9999.25   -9999.25    4.90430   -0.02090   10.07670   -9999.25   -9999.25   -9999.25    2.23210
 3669.50000  134.14470  158.11020  292.07890   -9999.25   -9999.25    4.54730   -0.02150   10.02600   -9999.25   -9999.25   -9999.25    2.18420
 3670.00000  301.07790  604.91940  629.44120   -9999.25   -9999.25    3.49140   -0.02900   10.17820   -9999.25   -9999.25   -9999.25    2.12870
 3670.50000  451.16060 1131.38840 1256.58300   -9999.25   -9999.25    3.12090   -0.03750   10.16310   -9999.25   -9999.25   -9999.25    2.05960
 3671.00000  605.28750 2496.98340 2504.50390   -9999.25   -9999.25    2.94770   -0.03870   10.29150   -9999.25   -9999.25   -9999.25    2.03930
 3671.50000  613.99600 1733.12160 1865.80690   -9999.25   -9999.25    3.16730   -0.03220   10.32900    0.29910   -9999.25   -9999.25    2.16980
 3672.00000  575.38340  969.25980 1227.10970   -9999.25   -9999.25    3.62710   -0.01760   10.24730    0.29880   -9999.25   -9999.25    2.37870
 3672.50000   41.40890   67.07490  110.47850   -9999.25   -9999.25    4.70350   -0.01030    9.77100    0.18980   -9999.25    4.42910    2.44800
 3673.00000   65.95120   94.41570  127.76660   -9999.25   -9999.25    5.77990   -0.01320    9.84570    0.18220   -9999.25    4.37380    2.30530
 3673.50000  243.50910  555.22800  619.59390   -9999.25   -9999.25    5.92780   -0.02100   10.04980    0.24750   -9999.25   -9999.25    2.20880
 3674.00000  424.83970  921.04250 1023.08970   -9999.25   -9999.25    5.79150   -0.02880   10.08770    0.28790   -9999.25   -9999.25    2.14230
 3674.50000  516.79450 1532.82570 1613.01000   -9999.25   -9999.25    5.65520   -0.03470   10.08770    0.29950   -9999.25   -9999.25    2.10080
 3675.00000  478.57180 1219.55580 1385.47280   -9999.25   -9999.25    5.38040   -0.03460   10.08120    0.29950   -9999.25   -9999.25    2.07630
 3675.50000  362.55020  548.40170  704.46300   -9999.25   -9999.25    5.23620   -0.01820   10.05030    0.29960   -9999.25   -9999.25    2.10240
 3676.00000  143.97110  203.42870  283.00910   -9999.25   -9999.25    6.37450    0.01320   10.04240    0.29970   -9999.25   -9999.25    2.28020
 3676.50000   15.69530   30.19370   23.87880   -9999.25   -9999.25   11.14810    0.04250    9.74710    0.29060   -9999.25   -9999.25    2.33580
 3677.00000   12.09500   16.00660   16.33970   -9999.25   -9999.25   16.73610    0.05790    9.89810    0.24120   -9999.25   -9999.25    2.37280
 3677.50000   22.55440   46.22460   55.37980   -9999.25   -9999.25   15.78870    0.05490   10.09510    0.18250    0.10340    4.82580    2.43900
 3678.00000   99.82540  126.27670  144.55260   -9999.25   -9999.25   12.15540    0.05020    9.85060    0.11120    0.08940    5.10030    2.54300
 3678.50000  170.73730  217.46250  288.37450   -9999.25   -9999.25    6.90010    0.02750    9.34630    0.06450    0.04320    5.37490    2.66730
 3679.00000  485.39390  737.05530  754.79050   -9999.25   -9999.25    4.21820    0.00860    9.30360   -0.02740    0.01250    5.45960    2.75880
 3679.50000  515.23250  839.84540  982.96050   -9999.25   -9999.25    3.33830   -0.00380    9.24310   -0.07240    0.01960    5.38770    2.80410
 3680.00000  573.92340 1174.54650 1369.05680   -9999.25   -9999.25    3.14840   -0.00870    9.25410   -0.08530    0.03220    5.28550    2.84930
 3680.50000  657.68470 1414.75200 1594.10110   -9999.25   -9999.25    3.26000   -0.00890    9.27920   -0.08930    0.03300    5.18330    2.86560
 3681.00000  380.43300  791.62460  964.80620   -9999.25   -9999.25    4.12510   -0.01330    9.28060   -0.09790    0.02950    5.08120    2.86450
 3681.50000  180.74330  252.17200  307.40480   -9999.25   -9999.25    5.26400   -0.01960    9.22380   -0.03340    0.02930    4.98610    2.70060
 3682.00000  103.05740  120.09520  145.46600   -9999.25   -9999.25    6.40300   -0.02620    9.27740    0.13710    0.03430    4.97210    2.30440
 3682.50000  210.21390  314.89940  420.07520   -9999.25   -9999.25    6.62850   -0.03280    9.34710    0.24800    0.03100   -9999.25    2.15610
 3683.00000  468.13080  853.58170 1051.33800   -9999.25   -9999.25    5.21000   -0.03690    9.90490    0.29930   -9999.25   -9999.25    2.11070
 3683.50000  452.00400  802.74390  854.25490   -9999.25   -9999.25    5.80230   -0.03520   10.05670    0.29920   -9999.25   -9999.25    2.03970
 3684.00000  232.54690  296.00070  563.32700   -9999.25   -9999.25    6.99410   -0.01580   10.05800    0.29920   -9999.25   -9999.25    2.03970
 3684.50000   21.92220   52.92530   81.80170   -9999.25   -9999.25    9.78920    0.01720    9.90300    0.29910   -9999.25   -9999.25    2.08250
 3685.00000   17.46900   17.97980   18.04140   -9999.25   -9999.25   11.21500    0.05110    9.89940    0.29900   -9999.25   -9999.25    2.30990
 3685.50000   17.97370   20.06570   21.59880   -9999.25   -9999.25   10.74040    0.06110    9.77730    0.25170   -9999.25   -9999.25    2.48480
 3686.00000   90.11750  213.67530  358.35910   -9999.25   -9999.25    9.59620    0.04100    9.66450    0.08580   -9999.25   -9999.25    2.69420
 3686.50000  555.47400 1008.12980 1201.79040   -9999.25   -9999.25    8.42030    0.01410    9.22400   -0.02440    0.11480    5.18000    2.82210
 3687.00000  917.47300 1820.74440 2544.13260   -9999.25   -9999.25    6.68700    0.00380    9.13880   -0.09550    0.11330    5.18020    2.86440
 3687.50000  925.58260 2633.35890 2641.02200   -9999.25   -9999.25    4.95370   -0.00450    9.09740   -0.06640    0.07520    5.11660    2.73750
 3688.00000  876.46910 1420.46030 1712.65360   -9999.25   -9999.25    3.68580   -0.01270    9.11110   -0.01500    0.03680    5.05300    2.63270
 3688.50000  318.03720  436.28520  719.73790   -9999.25   -9999.25    3.84540   -0.01340    9.13060    0.04340    0.01480    5.01710    2.63270
 3689.00000  179.38870  205.51490  224.85390   -9999.25   -9999.25    4.89280    0.00290    9.16060    0.01370    0.01430    5.01700    2.72300
 3689.50000  114.13790  179.60760  181.07720   -9999.25   -9999.25    6.12700    0.01920    9.17800   -0.05360    0.03890    5.05170    2.81810
 3690.00000  107.89530  203.50010  480.59010   -9999.25   -9999.25    6.25770    0.02060    9.18280   -0.10000    0.04900    5.09180    2.91320
 3690.50000  394.57230  592.26620  756.85150   -9999.25   -9999.25    5.79950    0.00880    9.18230   -0.10030    0.03140    5.12140    2.94240
