~Version ---------------------------------------------------
VERS.   2.0 : CWLS log ASCII Standard -VERSION 2.0
WRAP.    NO : One line per depth step
DLM . SPACE : Column Data Section Delimiter
~Well ------------------------------------------------------
STRT .F                 8097.0 : START DEPTH
STOP .F                10276.0 : STOP DEPTH
STEP .F                    0.5 : STEP
NULL .                -9999.25 : NULL VALUE
COMP .                         : COMPANY
WELL .                         : WELL
FLD  .                         : FIELD
LOC  .                         : LOCATION
PROV .                         : PROVINCE
CNTY .                         : COUNTY
STAT .                         : STATE
CTRY .                         : COUNTRY
SRVC .                         : SERVICE COMPANY
DATE .                         : DATE
UWI  .                         : UNIQUE WELL ID
API  .                         : API NUMBER
SLAT .WGS84  6.137540532500793 : SURFACE LATITUDE
SLON .WGS84 3.9483581819232967 : SURFACE LONGITUDE
DATUM.F                2047.21 : DEPTH DATUM ELEV
~Curve Information -----------------------------------------
DEPT.F     : 
GRD .GAPI  : GAMMA RAY
NPHI.DEC   : NEUTRON POROSITY LIMESTONE
DTCO.US/F  : COMPRESSIONAL-WAVE INTERVAL TRANSIT TIME ACOUSTIC SLOWNESS
DTSM.US/F  : SHEAR-WAVE INTERVAL TRANSIT TIME DELTA-T
~Params ----------------------------------------------------
~Other -----------------------------------------------------
~ASCII -----------------------------------------------------
# ...
 8526.00000   97.30610    0.20520   78.41330  147.46070
 8526.50000   98.33250    0.20690   77.95160  144.67330
 8527.00000   98.79060    0.21030   77.71960  145.38780
 8527.50000   98.69930    0.20650   77.90390  149.34380
 8528.00000   97.43110    0.20710   78.48070  153.29430
 8528.50000   95.97390    0.20990   79.23130  157.24200
 8529.00000   96.45220    0.21220   80.05740  159.73630
 8529.50000   97.29430    0.21260   80.46190  160.50910
 8530.00000   95.50150    0.20530   80.60640  157.40190
 8530.50000   94.21360    0.20150   80.57160  153.60940
 8531.00000   93.87690    0.19980   79.81480  151.03170
 8531.50000   94.96180    0.20130   77.23190  147.86020
 8532.00000   96.39640    0.21490   77.55660  149.99410
 8532.50000   99.57500    0.21870   81.64740  152.88920
 8533.00000  100.37040    0.21980   81.25550  152.25470
 8533.50000  101.36070    0.21690   79.71390  150.47000
 8534.00000  101.59440    0.21150   78.34430  148.61150
 8534.50000  101.50760    0.21090   77.34270  147.63450
 8535.00000  101.26070    0.21500   77.41880  147.79770
 8535.50000  101.12580    0.21920   78.04790  148.46470
 8536.00000  100.89050    0.22330   79.08840  149.58150
 8536.50000  100.51440    0.22640   79.64300  151.37210
 8537.00000  100.50510    0.22730   80.31460  152.01970
 8537.50000  100.69270    0.23100   81.45800  152.45490
 8538.00000  100.21180    0.23470   81.93430  153.26320
 8538.50000   99.60020    0.23530   81.14550  153.84440
 8539.00000   98.19380    0.23480   79.40030  154.09650
 8539.50000   98.22630    0.23050   78.44740  153.88940
 8540.00000  100.01420    0.22560   80.57500  154.20460
 8540.50000  101.92940    0.20710   80.62610  154.97620
 8541.00000  101.65000    0.20600   79.26210  153.55120
 8541.50000  100.68560    0.21040   76.85090  152.00240
 8542.00000   99.64990    0.21390   77.32710  151.25820
 8542.50000   98.57570    0.21780   78.63000  151.89790
 8543.00000   97.62380    0.22190   79.66980  149.71340
 8543.50000   96.64100    0.22550   80.66820  147.04710
 8544.00000   96.38390    0.22900   80.77800  143.62280
 8544.50000   96.41660    0.23130   80.84980  140.41040
 8545.00000   96.89810    0.23040   80.63830  138.17980
 8545.50000   97.52570    0.23080   78.57360  136.94200
 8546.00000   97.82050    0.23860   78.49020  138.07410
 8546.50000   97.88960    0.24880   80.16280  140.61420
 8547.00000   97.71960    0.24660   80.40390  139.83160
 8547.50000   96.76100    0.22270   78.63430  139.28470
 8548.00000   95.29300    0.21950   78.69010  140.43380
 8548.50000   94.90720    0.22060   79.39350  141.88330
 8549.00000   95.74640    0.22180   80.37190  142.63850
 8549.50000   95.70320    0.21860   80.39230  142.68900
 8550.00000   93.42260    0.21420   79.77580  141.72570
 8550.50000   90.65750    0.21360   78.15700  140.65120
 8551.00000   89.87320    0.21960   76.76600  140.43240
 8551.50000   91.56360    0.22570   76.42720  140.54490
 8552.00000   94.00080    0.22720   77.18980  140.92350
 8552.50000   98.63090    0.22810   78.50210  142.20350
 8553.00000  100.01960    0.22620   79.89390  143.55160
 8553.50000  100.03080    0.22310   80.70470  144.60300
 8554.00000  100.28560    0.22430   78.88540  145.21580
 8554.50000  100.71500    0.22910   79.95090  145.15970
 8555.00000  102.12210    0.23430   80.43320  144.78170
 8555.50000  102.69580    0.23970   80.47690  143.89400
 8556.00000  102.03740    0.24690   78.86090  140.31180
 8556.50000  101.37900    0.24790   76.86790  138.23030
 8557.00000   99.64960    0.24580   78.17440  139.63670
 8557.50000   98.03140    0.24470   79.64660  142.06250
 8558.00000   98.14890    0.24200   80.70250  142.86510
 8558.50000   98.37790    0.23700   81.56570  142.02580
 8559.00000   98.39250    0.23800   81.67270  140.06850
 8559.50000   98.51200    0.23410   81.14160  137.89940
 8560.00000  100.07650    0.23520   80.80350  134.24820
 8560.50000  100.31690    0.24120   80.71710  130.65200
 8561.00000  101.16350    0.24660   80.64690  130.55900
 8561.50000  101.17230    0.24710   80.45970  134.82020
 8562.00000   99.69110    0.24140   79.15880  141.54050
 8562.50000   97.67710    0.23790   78.04340  145.69720
 8563.00000   96.83380    0.24170   79.39820  146.86730
 8563.50000   96.41740    0.24550   80.62410  147.60440
 8564.00000   96.73530    0.24860   80.61730  148.75870
 8564.50000   97.12390    0.24590   80.50050  149.91790
 8565.00000   97.18310    0.24180   80.05880  150.43100
 8565.50000   97.33220    0.23660   79.43410  149.43080
 8566.00000   97.56840    0.24150   79.30240  147.57450
 8566.50000   96.78420    0.24860   79.55580  149.00950
 8567.00000   96.08530    0.25260   79.73400  150.69160
 8567.50000   96.08780    0.25390   79.31750  150.92530
 8568.00000   96.93220    0.24640   79.33660  151.89100
 8568.50000   97.46820    0.23340   79.96290  153.07120
 8569.00000   96.68690    0.23420   79.76720  153.97620
 8569.50000   95.77610    0.23870   79.41840  154.84640
 8570.00000   93.68610    0.24720   79.77140  156.23040
 8570.50000   94.66840    0.25820   80.19490  158.14570
 8571.00000   95.68240    0.25600   81.19240  160.21800
 8571.50000   96.92170    0.24860   81.98230  162.69810
 8572.00000   97.72240    0.22310   80.40540  162.81750
 8572.50000   97.32350    0.22640   79.47000  159.70300
 8573.00000   96.06530    0.23380   80.37030  154.75770
 8573.50000   94.94160    0.24160   80.28170  151.04970
 8574.00000   93.92230    0.24940   79.34730  146.99650
 8574.50000   95.46880    0.25090   78.91950  146.25000
 8575.00000   96.68190    0.25160   79.14360  148.63110
 8575.50000   97.45740    0.25330   80.20550  150.38360
 8576.00000   98.40800    0.26920   80.85260  152.66820
 8576.50000   98.95460    0.27020   82.96430  157.53550
 8577.00000   99.45550    0.27060   83.00610  158.69230
 8577.50000   99.95640    0.26900   82.33540  160.19700
 8578.00000  100.45730    0.26400   81.86880  161.62300
 8578.50000   99.75360    0.25870   81.36700  162.68010
 8579.00000   97.60450    0.25340   80.77730  162.46400
 8579.50000   95.98500    0.24810   79.93150  161.51690
 8580.00000   96.26440    0.24510   79.06870  160.10080
 8580.50000   99.19420    0.24420   79.76070  161.95970
 8581.00000  101.64330    0.24960   82.16130  166.38420
 8581.50000  101.24570    0.26360   84.56200  170.87270
 8582.00000  100.18540    0.26230   84.43980  169.99670
 8582.50000   99.09060    0.25490   83.94700  169.13470
 8583.00000   98.06170    0.24830   83.47950  170.48110
 8583.50000   97.84190    0.24150   83.07280  169.11540
 8584.00000   98.12740    0.23040   81.08740  164.00760
 8584.50000   98.41570    0.22380   79.47450  160.47130
 8585.00000   97.92870    0.22740   79.23490  162.15100
 8585.50000   97.33730    0.23220   79.73600  163.81440
 8586.00000   97.65810    0.23980   80.92020  165.89650
 8586.50000   97.19110    0.24720   82.33640  168.25200
 8587.00000   96.74740    0.25660   83.65280  170.71930
 8587.50000   96.22740    0.26080   84.80140  173.79940
 8588.00000   96.32090    0.26170   85.95000  172.62940
 8588.50000   96.45850    0.26100   86.06010  161.86810
 8589.00000   96.86090    0.25710   86.03820  152.00830
 8589.50000   97.26330    0.24510   85.77970  143.93440
 8590.00000   96.49800    0.23420   85.05980  143.29910
 8590.50000   95.81040    0.24010   84.33990  143.21960
 8591.00000   95.95840    0.24650   83.62000  143.29060
 8591.50000   96.31050    0.24680   82.68210  143.36170
 8592.00000   96.21540    0.24440   81.18420  143.36920
 8592.50000   95.71940    0.24690   79.99330  143.35190
 8593.00000   95.37560    0.25040   80.41500  143.22640
 8593.50000   96.19720    0.25520   81.35840  143.33540
 8594.00000   97.26820    0.27530   82.04780  143.41150
 8594.50000   97.22670    0.29570   82.50150  143.41180
 8595.00000   96.96500    0.29730   83.43500  143.41220
 8595.50000   96.29110    0.29700   84.39620  143.41250
 8596.00000   95.36030    0.26950   84.29760  143.41290
 8596.50000   94.91580    0.23890   81.31550  143.41320
 8597.00000   93.68520    0.25060   82.32250  143.41350
