~Version ---------------------------------------------------
VERS.   2.0 : CWLS log ASCII Standard -VERSION 2.0
WRAP.    NO : One line per depth step
DLM . SPACE : Column Data Section Delimiter
~Well ------------------------------------------------------
STRT .F                 8097.0 : START DEPTH
STOP .F                10276.0 : STOP DEPTH
STEP .F                    0.5 : STEP
NULL .                -9999.25 : NULL VALUE
COMP .                         : COMPANY
WELL .                         : WELL
FLD  .                         : FIELD
LOC  .                         : LOCATION
PROV .                         : PROVINCE
CNTY .                         : COUNTY
STAT .                         : STATE
CTRY .                         : COUNTRY
SRVC .                         : SERVICE COMPANY
DATE .                         : DATE
UWI  .                         : UNIQUE WELL ID
API  .                         : API NUMBER
SLAT .WGS84  6.137540532500793 : SURFACE LATITUDE
SLON .WGS84 3.9483581819232967 : SURFACE LONGITUDE
DATUM.F                2047.21 : DEPTH DATUM ELEV
~Curve Information -----------------------------------------
DEPT.F     : 
GRD .GAPI  : GAMMA RAY
NPHI.DEC   : NEUTRON POROSITY LIMESTONE
DTCO.US/F  : COMPRESSIONAL-WAVE INTERVAL TRANSIT TIME ACOUSTIC SLOWNESS
DTSM.US/F  : SHEAR-WAVE INTERVAL TRANSIT TIME DELTA-T
~Params ----------------------------------------------------
~Other -----------------------------------------------------
~ASCII -----------------------------------------------------
# ...
 9241.00000   98.98650    0.22550   79.90240  144.27930
 9241.50000   97.75150    0.22630   79.51930  150.37560
 9242.00000   96.44230    0.22950   78.41870  152.81520
 9242.50000   97.22420    0.22680   77.52000  153.49460
 9243.00000   98.00220    0.22060   77.75870  153.49530
 9243.50000   97.91630    0.21770   78.35060  153.49610
 9244.00000   95.75150    0.21920   78.95050  153.49690
 9244.50000   93.98450    0.22380   79.55340  153.49760
 9245.00000   95.26820    0.22830   80.00920  153.53660
 9245.50000   98.37960    0.22870   79.91610  153.58530
 9246.00000  101.35680    0.22350   79.34380  153.56630
 9246.50000  103.11880    0.21740   78.60700  153.34610
 9247.00000  103.47820    0.21750   78.20430  153.31210
 9247.50000  103.54120    0.21740   78.33190  152.78700
 9248.00000  103.14750    0.21670   79.01810  152.32530
 9248.50000  102.16010    0.21410   79.89820  152.39720
 9249.00000  100.96220    0.21090   80.74430  153.18010
 9249.50000  100.22460    0.21050   81.79780  155.10490
 9250.00000  101.27360    0.21330   82.37630  156.73860
 9250.50000  104.21120    0.21370   82.27150  156.90950
 9251.00000  107.19470    0.21270   81.52810  154.99350
 9251.50000  109.76640    0.20670   79.17020  153.79790
 9252.00000  110.29760    0.21080   79.20970  153.86650
 9252.50000  109.31220    0.21670   80.24570  151.53700
 9253.00000  108.01210    0.21670   80.72230  151.63750
 9253.50000  106.66110    0.21510   80.57330  151.47280
 9254.00000  103.85360    0.21580   75.84770  149.35980
 9254.50000  102.08550    0.22140   76.12850  146.47730
 9255.00000  102.60220    0.22710   77.56230  148.05420
 9255.50000  103.24310    0.22750   80.69350  151.36650
 9256.00000   99.73760    0.21220   79.10190  151.33610
 9256.50000  100.18870    0.19660   76.56290  148.63100
 9257.00000  101.68170    0.18940   74.90060  146.86100
 9257.50000  103.14180    0.19040   73.06550  146.42410
 9258.00000  104.21360    0.22860   77.03150  146.37560
 9258.50000  105.28540    0.23300   78.33160  146.37020
 9259.00000  105.68020    0.23520   77.07530  146.36480
 9259.50000  106.60410    0.24050   77.62470  146.35940
 9260.00000  107.40870    0.24570   78.95510  146.35400
 9260.50000  108.15320    0.23480   79.55780  146.34880
 9261.00000  107.96050    0.22010   79.54790  146.34810
 9261.50000  107.43500    0.20510   78.41910  146.34730
 9262.00000  104.76100    0.18760   74.41430  146.35400
 9262.50000  103.89040    0.18610   74.57060  146.36800
 9263.00000  103.03820    0.19510   75.77590  146.39600
 9263.50000  102.72420    0.20080   76.58810  146.42390
 9264.00000  103.05230    0.20460   76.84660  146.45190
 9264.50000  103.35570    0.21080   77.60290  146.47980
 9265.00000  102.93290    0.23700   78.85350  146.50780
 9265.50000  102.42120    0.25910   80.84140  146.51170
 9266.00000  103.64840    0.25610   82.84970  146.46080
 9266.50000  105.85690    0.24630   83.36580  146.41450
 9267.00000  108.00640    0.23640   83.46140  146.41450
 9267.50000  108.03070    0.22570   83.16460  146.41140
 9268.00000  106.12620    0.21660   82.62920  146.40780
 9268.50000  103.75090    0.21650   81.84970  146.40420
 9269.00000  103.31150    0.22200   80.74960  146.40670
 9269.50000  102.37470    0.22830   79.51460  146.40950
 9270.00000  101.10490    0.23450   79.75130  146.41230
 9270.50000   99.93660    0.23830   80.45270  146.41510
 9271.00000  100.60810    0.24030   80.74590  146.41790
 9271.50000  102.15940    0.24090   80.54880  146.33210
 9272.00000  103.86690    0.23710   77.10820  146.33940
 9272.50000  104.57950    0.23480   75.88760  146.38070
 9273.00000  105.27020    0.23730   76.37790  146.38110
 9273.50000  105.92440    0.24120   77.30820  146.38140
 9274.00000  106.15550    0.24810   78.73220  146.38180
 9274.50000  105.39240    0.24480   80.00650  146.38210
 9275.00000  104.04030    0.24170   80.31010  146.38240
 9275.50000  103.29530    0.23690   80.27700  146.38280
 9276.00000  103.62760    0.22950   79.66590  146.38310
 9276.50000  105.43510    0.22940   77.81390  146.38350
 9277.00000  107.70380    0.23350   77.91400  146.38380
 9277.50000  109.57360    0.24010   78.56610  146.38420
 9278.00000  108.77700    0.24410   79.50920  146.37260
 9278.50000  107.37670    0.24080   80.43090  146.34840
 9279.00000  106.19850    0.23810   80.30610  146.32410
 9279.50000  105.02020    0.23440   79.76830  146.29990
 9280.00000  104.37780    0.23130   79.80920  146.35410
 9280.50000  104.49050    0.22870   80.59540  146.41200
 9281.00000  104.83290    0.22260   79.37480  146.41440
 9281.50000  105.47420    0.21700   76.59700  146.41370
 9282.00000  105.62940    0.21740   76.16530  146.41300
 9282.50000  105.71250    0.22440   76.82680  146.41230
 9283.00000  105.64720    0.23600   78.07250  146.41160
 9283.50000  104.71880    0.24880   80.19590  146.41090
 9284.00000  102.38130    0.24270   81.36580  146.41020
 9284.50000   99.53660    0.22440   80.16640  146.40950
 9285.00000   97.91170    0.22430   78.18040  146.40880
 9285.50000   98.28830    0.22970   77.30080  146.40810
 9286.00000  100.41830    0.23410   76.93310  146.40740
 9286.50000  102.05820    0.23450   76.91260  146.40660
 9287.00000  103.44120    0.22290   77.13310  146.40590
 9287.50000  104.19660    0.22140   77.39690  146.40520
 9288.00000  103.81150    0.22040   77.26770  146.40710
 9288.50000  102.41300    0.21970   76.70710  146.41020
 9289.00000  100.75530    0.22110   77.09740  146.41340
 9289.50000   98.79950    0.22710   78.44670  146.41650
 9290.00000   98.72930    0.23330   80.41220  146.41970
 9290.50000  100.04020    0.24310   80.52760  146.42290
 9291.00000  101.35120    0.25330   80.68860  146.42600
 9291.50000  102.61830    0.26350   81.32400  146.42920
 9292.00000  103.80160    0.25610   81.96070  146.43230
 9292.50000  104.98490    0.23030   82.62020  146.43550
 9293.00000  105.11370    0.21420   82.94600  146.43860
 9293.50000  105.60250    0.21100   82.78880  146.44180
 9294.00000  104.55730    0.21390   81.29570  146.44490
 9294.50000  103.77770    0.21660   78.42800  146.44810
 9295.00000  103.34940    0.21890   78.30070  146.45120
 9295.50000  102.95420    0.23140   81.53850  146.45440
 9296.00000  102.87370    0.24250   80.71020  146.45750
 9296.50000  103.11310    0.23800   78.16830  146.46070
 9297.00000  103.79560    0.22680   78.55770  146.46540
 9297.50000  104.10140    0.22050   79.13730  146.47020
 9298.00000  104.55470    0.22470   79.36690  146.45960
 9298.50000  105.29450    0.22310   78.99930  146.44890
 9299.00000  106.03440    0.22040   78.52570  146.43830
 9299.50000  105.49330    0.22100   77.70770  146.42770
 9300.00000  102.89320    0.22980   76.40900  146.41700
 9300.50000   99.88200    0.24240   75.28930  146.40640
 9301.00000   97.91600    0.25220   76.27130  146.41840
 9301.50000   98.27560    0.26190   78.42220  146.49180
 9302.00000  100.00120    0.28760   81.76100  146.53260
 9302.50000  102.17470    0.28730   85.01680  146.54530
 9303.00000  101.71670    0.28000   83.72400  146.55800
 9303.50000  101.15770    0.26600   83.80700  146.56230
 9304.00000  100.67370    0.25310   84.42610  146.55160
 9304.50000  100.22600    0.24170   81.99310  146.54080
 9305.00000  100.85670    0.23240   80.61920  146.53010
 9305.50000  103.01450    0.22790   83.18000  146.51930
 9306.00000  103.85420    0.22010   83.37800  146.50850
 9306.50000  104.03990    0.21790   80.50940  146.49780
 9307.00000  103.89610    0.22250   80.71710  146.48720
 9307.50000  103.76130    0.23590   81.85690  146.47650
 9308.00000  103.62640    0.25010   82.47430  146.46590
 9308.50000  103.44080    0.26090   82.71870  146.45530
 9309.00000  102.99460    0.25940   81.76600  146.44470
 9309.50000  103.04670    0.25490   80.66680  146.43410
 9310.00000  103.09880    0.24190   80.37390  146.42590
 9310.50000  103.15090    0.23480   81.07660  146.43640
 9311.00000  103.20310    0.23790   80.84320  146.44680
 9311.50000  103.25520    0.24560   79.52560  146.40790
 9312.00000  103.30730    0.25170   77.94230  146.40590
