~Version ---------------------------------------------------
VERS.   2.0 : CWLS log ASCII Standard -VERSION 2.0
WRAP.    NO : One line per depth step
DLM . SPACE : Column Data Section Delimiter
~Well ------------------------------------------------------
STRT .F                 8097.0 : START DEPTH
STOP .F                10276.0 : STOP DEPTH
STEP .F                    0.5 : STEP
NULL .                -9999.25 : NULL VALUE
COMP .                         : COMPANY
WELL .                         : WELL
FLD  .                         : FIELD
LOC  .                         : LOCATION
PROV .                         : PROVINCE
CNTY .                         : COUNTY
STAT .                         : STATE
CTRY .                         : COUNTRY
SRVC .                         : SERVICE COMPANY
DATE .                         : DATE
UWI  .                         : UNIQUE WELL ID
API  .                         : API NUMBER
SLAT .WGS84  6.137540532500793 : SURFACE LATITUDE
SLON .WGS84 3.9483581819232967 : SURFACE LONGITUDE
DATUM.F                2047.21 : DEPTH DATUM ELEV
~Curve Information -----------------------------------------
DEPT.F     : 
GRD .GAPI  : GAMMA RAY
NPHI.DEC   : NEUTRON POROSITY LIMESTONE
DTCO.US/F  : COMPRESSIONAL-WAVE INTERVAL TRANSIT TIME ACOUSTIC SLOWNESS
DTSM.US/F  : SHEAR-WAVE INTERVAL TRANSIT TIME DELTA-T
~Params ----------------------------------------------------
~Other -----------------------------------------------------
~ASCII -----------------------------------------------------
# ...
 9527.00000   97.08670    0.13100  124.18390  127.78040
 9527.50000   96.67720    0.12240  121.66350  127.78320
 9528.00000   97.03570    0.11370  120.56380  127.72470
 9528.50000   97.51790    0.11150  121.53700  127.66630
 9529.00000   96.81810    0.11240  123.19790  127.60790
 9529.50000   95.89710    0.11780  124.48480  127.54940
 9530.00000   94.47240    0.12570  125.52030  127.49100
 9530.50000   92.38760    0.12970  126.35410  127.42790
 9531.00000   90.55180    0.13380  126.40330  127.32700
 9531.50000   88.95870    0.13810  125.95960  127.30780
 9532.00000   88.50000    0.13980  124.26330  127.34280
 9532.50000   89.35580    0.13970  124.07970  127.37780
 9533.00000   92.05230    0.13590  124.98540  127.41280
 9533.50000   94.84780    0.12930  126.05680  127.38370
 9534.00000   95.76710    0.12260  126.05470  127.40380
 9534.50000   91.69550    0.11820  124.43660  127.42780
 9535.00000   89.70960    0.11820  123.19260  127.45190
 9535.50000   88.76490    0.11820  123.82180  127.41920
 9536.00000   90.08810    0.11550  124.95090  127.38100
 9536.50000   91.49650    0.10690  122.97880  127.34640
 9537.00000   90.41440    0.09720  120.16290  127.45620
 9537.50000   88.81340    0.07470  116.06200  127.49470
 9538.00000   80.72010    0.05230  109.09980  127.50380
 9538.50000   68.20010    0.03320  106.11750  127.51290
 9539.00000   64.81490    0.03090  103.64520  127.52210
 9539.50000   66.01460    0.03220  100.15620  127.53120
 9540.00000   76.62000    0.04190   96.32650  127.54030
 9540.50000   85.95720    0.08350   91.98640  127.52950
 9541.00000   89.73330    0.11010   89.19570  127.41090
 9541.50000   91.70310    0.11760   86.70040  127.29230
 9542.00000   92.07650    0.11470   84.05260  127.17360
 9542.50000   90.15980    0.11210   83.15990  126.91800
 9543.00000   87.79770    0.11390   84.77620  128.89190
 9543.50000   86.72390    0.11540   88.40000  133.70630
 9544.00000   87.19190    0.11580   89.06950  135.52800
 9544.50000   88.38660    0.11470   83.92900  130.54030
 9545.00000   89.34920    0.11130   78.45310  130.80000
 9545.50000   87.26710    0.10320   73.59860  135.22540
 9546.00000   83.01840    0.09330   72.85890  139.72680
 9546.50000   76.02520    0.08050   79.96380  157.81050
 9547.00000   72.22390    0.06780   84.94780  166.28720
 9547.50000   67.12130    0.05500   89.34420  173.03690
 9548.00000   59.13840    0.04360   90.90800  174.35480
 9548.50000   56.81160    0.03790   89.55100  171.90810
 9549.00000   58.35900    0.03710   86.67130  169.22850
 9549.50000   62.98970    0.04180   84.21680  165.61170
 9550.00000   70.01880    0.08460   80.97540  160.05960
 9550.50000  104.05180    0.15510   77.90880  154.45880
 9551.00000  122.92010    0.19400   77.35560  152.52250
 9551.50000  125.90140    0.21650   78.98850  154.84740
 9552.00000  121.67090    0.22250   83.67380  163.74260
 9552.50000  109.85540    0.22480   86.89610  170.32360
 9553.00000  100.45050    0.22450   84.99790  167.05220
 9553.50000   97.49500    0.22160   81.97210  162.00220
 9554.00000   94.65100    0.19890   78.74260  157.88870
 9554.50000   91.97740    0.17030   75.62090  155.88730
 9555.00000   91.56180    0.15200   75.78430  155.64710
 9555.50000   91.79770    0.14030   77.19660  155.63180
 9556.00000   91.64680    0.12860   78.56510  155.59720
 9556.50000   90.98680    0.12060   80.35040  155.35380
 9557.00000   91.18320    0.14190   80.45850  155.14560
 9557.50000   93.77120    0.16740   78.47020  155.49920
 9558.00000   98.32820    0.22600   78.02300  158.21350
 9558.50000  102.97530    0.23110   80.47530  161.08130
 9559.00000  103.42000    0.22150   78.56630  157.92550
 9559.50000  102.92790    0.20970   76.53610  152.26110
 9560.00000  102.28530    0.16480   69.07400  138.83380
 9560.50000  101.68210    0.09150   63.28220  130.86430
 9561.00000  101.46090    0.07960   58.38290  131.03180
 9561.50000  101.27340    0.06780   55.59180  133.15120
 9562.00000  100.81370    0.06320   59.06320  135.93100
 9562.50000  100.39920    0.13470   65.62050  137.19420
 9563.00000  100.26280    0.13710   65.96270  134.30170
 9563.50000  100.14310    0.13170   65.23050  131.40080
 9564.00000   98.97210    0.12020   64.68840  128.52570
 9564.50000   96.47900    0.11900   64.23450  127.64020
 9565.00000   95.79620    0.11950   64.42460  127.68640
 9565.50000   95.53870    0.12430   65.20580  128.94640
 9566.00000   96.11970    0.13320   66.66940  133.19350
 9566.50000   96.76490    0.15590   68.94840  139.24860
 9567.00000   96.13260    0.16480   73.56200  146.86050
 9567.50000   95.55590    0.16390   86.67290  167.63690
 9568.00000   94.25800    0.16070  104.82440  178.59470
 9568.50000   92.87170    0.15650  115.97180  180.33700
 9569.00000   92.62430    0.15030  120.21890  180.51870
 9569.50000   91.79160    0.14420  119.07880  180.52210
 9570.00000   90.94120    0.14130  114.00270  180.76170
 9570.50000   90.16100    0.14070  106.07380  180.80110
 9571.00000   89.44740    0.14180  101.39650  180.48060
 9571.50000   88.44580    0.14820   96.36650  179.65430
 9572.00000   87.14020    0.25870   89.01010  176.74820
 9572.50000   86.26350    0.27270   81.49350  164.80680
 9573.00000   87.57130    0.23890   77.01740  156.77020
 9573.50000   89.58380    0.20510   73.28270  149.42550
 9574.00000   93.17980    0.17590   77.70810  153.80300
 9574.50000   96.99770    0.18550   81.03010  162.54880
 9575.00000  100.73220    0.21930   80.54370  163.76360
 9575.50000  104.39420    0.24850   79.24320  162.67490
 9576.00000  105.67950    0.23680   79.38790  156.35380
 9576.50000  106.05890    0.21900   81.32490  142.00950
 9577.00000  105.38040    0.20130   81.59030  138.57790
 9577.50000  103.96810    0.18380   81.75780  137.56710
 9578.00000  102.10120    0.17100   81.79280  137.60380
 9578.50000  101.03330    0.17140   80.67850  137.58370
 9579.00000  100.83400    0.17590   77.71390  137.60130
 9579.50000  100.79990    0.17530   68.92180  137.62530
 9580.00000  100.91620    0.16160   69.45830  137.54910
 9580.50000  101.44540    0.16290   71.07540  137.43300
 9581.00000  102.40290    0.20110   74.10900  137.44060
 9581.50000  102.76230    0.23340   78.19090  137.72130
 9582.00000  102.43680    0.25070   85.38970  141.64620
 9582.50000  101.90370    0.24970   86.78530  143.13670
 9583.00000  101.07510    0.23800   84.05410  139.75690
 9583.50000  100.76190    0.22250   78.71690  135.41950
 9584.00000  101.10990    0.20270   76.83630  135.22360
 9584.50000  101.64360    0.19610   80.13140  138.09380
 9585.00000  101.28090    0.21420   80.77430  135.56780
 9585.50000  100.91820    0.25530   81.11250  134.71590
 9586.00000  100.92600    0.32530   84.59290  140.11830
 9586.50000  101.07340    0.33830   85.28450  142.38920
 9587.00000  100.42170    0.33040   83.24860  138.66830
 9587.50000  100.36640    0.29410   80.98510  135.97590
 9588.00000  100.68890    0.25440   78.88220  132.58370
 9588.50000  100.78720    0.23980   76.84640  129.58210
 9589.00000  100.02970    0.22740   76.69600  128.21740
 9589.50000   99.31340    0.22260   76.73160  127.81640
 9590.00000   99.88730    0.23710   76.85150  128.12660
 9590.50000  100.47190    0.28840   77.26870  132.20250
 9591.00000  100.72470    0.29190   78.04320  138.77130
 9591.50000  100.84730    0.26750   79.88660  160.37900
 9592.00000   99.36830    0.24380  101.21510  171.96000
 9592.50000   96.92170    0.20070  125.14540  175.60130
 9593.00000   93.70160    0.11480  128.73650  176.50420
 9593.50000   91.32990    0.11090  130.00400  176.58970
 9594.00000   91.02760    0.11410  127.61830  176.67120
 9594.50000   91.36420    0.12260  124.73960  176.66110
 9595.00000   91.70080    0.12070  122.61030  176.65100
 9595.50000   91.23680    0.11380  119.69340  176.64090
 9596.00000   87.14650    0.09510  116.90060  176.63080
 9596.50000   83.25760    0.09110  114.10780  176.62070
 9597.00000   81.36790    0.08680  111.27290  176.61060
 9597.50000   79.45490    0.08430  109.01070  176.60050
 9598.00000   79.38180    0.08870  105.75820  176.59040
