~Version ---------------------------------------------------
VERS.   2.0 : CWLS log ASCII Standard -VERSION 2.0
WRAP.    NO : One line per depth step
DLM . SPACE : Column Data Section Delimiter
~Well ------------------------------------------------------
STRT .F                 8097.0 : START DEPTH
STOP .F                10276.0 : STOP DEPTH
STEP .F                    0.5 : STEP
NULL .                -9999.25 : NULL VALUE
COMP .                         : COMPANY
WELL .                         : WELL
FLD  .                         : FIELD
LOC  .                         : LOCATION
PROV .                         : PROVINCE
CNTY .                         : COUNTY
STAT .                         : STATE
CTRY .                         : COUNTRY
SRVC .                         : SERVICE COMPANY
DATE .                         : DATE
UWI  .                         : UNIQUE WELL ID
API  .                         : API NUMBER
SLAT .WGS84  6.137540532500793 : SURFACE LATITUDE
SLON .WGS84 3.9483581819232967 : SURFACE LONGITUDE
DATUM.F                2047.21 : DEPTH DATUM ELEV
~Curve Information -----------------------------------------
DEPT.F     : 
GRD .GAPI  : GAMMA RAY
NPHI.DEC   : NEUTRON POROSITY LIMESTONE
DTCO.US/F  : COMPRESSIONAL-WAVE INTERVAL TRANSIT TIME ACOUSTIC SLOWNESS
DTSM.US/F  : SHEAR-WAVE INTERVAL TRANSIT TIME DELTA-T
~Params ----------------------------------------------------
~Other -----------------------------------------------------
~ASCII -----------------------------------------------------
# ...
 9956.00000   99.22720    0.19810   80.69730  160.47200
 9956.50000   97.87480    0.19080   79.56880  157.81310
 9957.00000   97.80080    0.19820   78.69370  156.75610
 9957.50000   98.70170    0.21200   79.61140  157.07710
 9958.00000   99.32760    0.22070   80.95350  158.67270
 9958.50000   99.08520    0.22140   82.04610  160.96730
 9959.00000   98.72400    0.22100   83.13870  162.42610
 9959.50000   98.36280    0.22010   83.59320  163.31240
 9960.00000   98.00150    0.21410   82.36830  163.47490
 9960.50000   97.46400    0.18760   82.38800  163.53770
 9961.00000   96.86540    0.18720   82.77510  163.59780
 9961.50000   96.27470    0.19740   82.63890  162.99700
 9962.00000   96.44430    0.20830   80.81470  161.25630
 9962.50000   98.86610    0.20680   79.86990  158.63370
 9963.00000   99.01090    0.19560   80.06060  157.94740
 9963.50000   97.78340    0.18270   80.90450  159.48360
 9964.00000   96.42390    0.18180   82.02690  161.43220
 9964.50000   95.58490    0.20870   82.39360  163.06520
 9965.00000   95.97230    0.21660   82.64120  163.27530
 9965.50000   96.78120    0.21950   82.89780  163.14080
 9966.00000   99.72270    0.21690   83.41830  163.26240
 9966.50000  101.72760    0.21180   83.64700  164.99510
 9967.00000   99.35960    0.21200   83.28390  164.81820
 9967.50000   96.85780    0.21430   82.67220  164.31810
 9968.00000   96.83790    0.21790   82.91840  164.17810
 9968.50000   99.64750    0.21880   83.40550  164.42640
 9969.00000  101.00630    0.21840   83.89260  164.95750
 9969.50000  100.52770    0.20670   84.13580  165.27760
 9970.00000   94.64160    0.19980   83.61470  164.22520
 9970.50000   91.94090    0.20050   82.37690  162.66410
 9971.00000   92.25920    0.21430   82.06930  162.74600
 9971.50000   96.78880    0.21170   82.63350  163.39090
 9972.00000  101.14280    0.20900   82.98080  163.67240
 9972.50000  103.27090    0.21340   82.36830  163.17230
 9973.00000  101.42170    0.21800   81.34760  162.62450
 9973.50000   99.40260    0.22210   81.70850  162.46040
 9974.00000   97.96650    0.22580   82.92400  163.94380
 9974.50000   98.28340    0.22620   83.80950  165.25400
 9975.00000   99.47390    0.22320   83.73420  165.40970
 9975.50000   99.41150    0.21940   83.48160  165.14630
 9976.00000   99.28670    0.21310   82.64030  164.29630
 9976.50000  100.18620    0.20330   81.89340  163.60810
 9977.00000  101.24350    0.20590   81.69730  162.91980
 9977.50000  102.27880    0.21130   81.91830  162.78410
 9978.00000  102.13330    0.21870   82.54270  162.82600
 9978.50000  101.04480    0.21620   83.18490  162.97760
 9979.00000   99.88480    0.21070   83.16490  163.50470
 9979.50000   98.86940    0.20260   82.52370  164.09020
 9980.00000   98.56180    0.20140   83.33800  164.09020
 9980.50000  100.15320    0.21040   84.03640  163.73520
 9981.00000  102.04940    0.21720   82.56620  163.30230
 9981.50000  105.11220    0.21940   82.47290  163.29130
 9982.00000  104.95740    0.21580   83.14650  163.30830
 9982.50000  103.76680    0.21750   83.41250  163.75670
 9983.00000  100.91940    0.22420   83.08730  164.21500
 9983.50000   99.56100    0.23130   82.11710  164.14670
 9984.00000   99.04960    0.22410   82.31370  164.03770
 9984.50000   98.53820    0.21950   82.99300  164.03340
 9985.00000   98.02670    0.22210   82.81020  164.02910
 9985.50000   97.68810    0.22470   82.26330  163.87390
 9986.00000   97.48500    0.22470   82.22150  163.75140
 9986.50000   97.63110    0.21800   82.58530  163.86310
 9987.00000   98.16690    0.21870   82.94910  164.16600
 9987.50000   98.95550    0.21910   83.18490  164.16600
 9988.00000  101.06790    0.21170   82.76890  163.79440
 9988.50000  101.72890    0.20190   81.94980  162.97810
 9989.00000  101.72890    0.19410   80.97840  161.33790
 9989.50000  101.00780    0.19420   80.63540  160.29670
 9990.00000  100.01440    0.21170   81.11280  161.53580
 9990.50000   99.02100    0.21590   81.89540  163.19790
 9991.00000   98.03480    0.21410   82.44270  163.21510
 9991.50000   97.39030    0.21270   82.42650  163.32170
 9992.00000   99.36570    0.21450   82.37260  163.36480
 9992.50000  102.06970    0.21610   82.31820  163.31980
 9993.00000  103.92780    0.21620   82.25360  163.19680
 9993.50000  105.63700    0.21470   82.10390  163.00500
 9994.00000  105.38130    0.20680   81.48340  162.81700
 9994.50000   99.59510    0.20110   81.12150  162.62990
 9995.00000   99.30290    0.20160   81.35310  162.44280
 9995.50000   99.46300    0.20670   81.87230  162.42640
 9996.00000  102.55560    0.21590   82.63520  162.61480
 9996.50000  104.15010    0.22420   83.29890  163.07220
 9997.00000  101.57950    0.23260   83.70310  164.28930
 9997.50000  100.22590    0.23610   83.90040  165.12330
 9998.00000   99.33010    0.23530   83.91010  165.28290
 9998.50000   99.05090    0.22460   83.90490  165.30050
 9999.00000   98.81350    0.20960   83.85580  165.27400
 9999.50000   99.42270    0.21010   83.56650  165.24650
 10000.00000  101.60040    0.22360   82.96360  165.10620
 10000.50000  102.71810    0.22570   82.44480  164.84300
 10001.00000  103.35220    0.22250   82.27440  164.37170
 10001.50000  103.59180    0.21400   82.65240  164.22920
 10002.00000  103.60050    0.21110   83.47350  164.59120
 10002.50000  103.32390    0.21440   84.55990  165.45110
 10003.00000  102.96910    0.21380   85.15540  166.29750
 10003.50000  101.86940    0.21110   84.85430  167.06160
 10004.00000   97.36490    0.21180   84.17970  166.62400
 10004.50000   94.85340    0.21710   83.66960  165.55130
 10005.00000   94.58110    0.22250   83.22790  165.21970
 10005.50000   96.81690    0.22660   83.13100  165.57090
 10006.00000   99.33910    0.22920   83.39100  167.10940
 10006.50000  100.67980    0.22420   84.26680  171.06500
 10007.00000  101.90390    0.21950   86.10690  173.74380
 10007.50000  102.89250    0.21860   88.14140  174.34030
 10008.00000  103.31260    0.22080   87.40760  172.80880
 10008.50000  102.63600    0.22200   84.22030  169.80110
 10009.00000  100.88560    0.21900   85.29000  168.13440
 10009.50000   98.70390    0.21550   88.04240  167.41900
 10010.00000   94.78280    0.20180   86.82120  166.40180
 10010.50000   92.78960    0.18660   86.29110  164.34870
 10011.00000   93.04900    0.19190   88.11850  163.71620
 10011.50000   94.20740    0.19930   89.08480  163.92330
 10012.00000   96.75960    0.19780   88.27720  164.13160
 10012.50000   99.35480    0.19320   87.13790  163.54510
 10013.00000  100.30380    0.18680   86.09890  162.49950
 10013.50000   99.82540    0.18090   83.12100  161.64890
 10014.00000   99.04830    0.18360   80.79610  160.86450
 10014.50000   98.39610    0.18780   84.03570  156.89310
 10015.00000   98.53990    0.19250   82.86390  156.98810
 10015.50000   99.29450    0.19380   82.64700  158.48670
 10016.00000  101.08120    0.19110   87.63410  162.26140
 10016.50000  103.65940    0.19060   88.29410  165.95270
 10017.00000  105.06670    0.19810   90.33740  167.67060
 10017.50000  105.35940    0.19820   91.11940  169.59060
 10018.00000  101.72500    0.19270   89.55000  168.77760
 10018.50000   96.69050    0.18360   87.52640  165.21080
 10019.00000   94.67310    0.17320   86.80720  163.72460
 10019.50000   96.27670    0.17210   84.78920  161.10640
 10020.00000   98.69220    0.20020   84.50510  160.37190
 10020.50000  102.39900    0.21980   87.55870  163.82150
 10021.00000  103.90040    0.23170   90.56300  167.47980
 10021.50000  105.78680    0.23930   96.13410  169.63910
 10022.00000  107.47520    0.24140   95.94040  170.47970
 10022.50000  106.98900    0.21080   92.55740  170.50510
 10023.00000  102.08400    0.19830   91.23320  170.51480
 10023.50000   98.95270    0.18900   89.97000  170.49850
 10024.00000   99.28970    0.19470   88.79850  169.87470
 10024.50000  103.15070    0.20930   90.57630  169.25080
 10025.00000  103.89290    0.21520   92.65340  168.62700
 10025.50000  102.48320    0.22120   89.62060  168.28090
 10026.00000  102.66230    0.21910   88.84490  168.28090
 10026.50000  104.45550    0.20970   88.51010  168.28090
