~Version ---------------------------------------------------
VERS.   2.0 : CWLS log ASCII Standard -VERSION 2.0
WRAP.    NO : One line per depth step
DLM . SPACE : Column Data Section Delimiter
~Well ------------------------------------------------------
STRT .F                 8097.0 : START DEPTH
STOP .F                10276.0 : STOP DEPTH
STEP .F                    0.5 : STEP
NULL .                -9999.25 : NULL VALUE
COMP .                         : COMPANY
WELL .                         : WELL
FLD  .                         : FIELD
LOC  .                         : LOCATION
PROV .                         : PROVINCE
CNTY .                         : COUNTY
STAT .                         : STATE
CTRY .                         : COUNTRY
SRVC .                         : SERVICE COMPANY
DATE .                         : DATE
UWI  .                         : UNIQUE WELL ID
API  .                         : API NUMBER
SLAT .WGS84  6.137540532500793 : SURFACE LATITUDE
SLON .WGS84 3.9483581819232967 : SURFACE LONGITUDE
DATUM.F                2047.21 : DEPTH DATUM ELEV
~Curve Information -----------------------------------------
DEPT.F     : 
GRD .GAPI  : GAMMA RAY
NPHI.DEC   : NEUTRON POROSITY LIMESTONE
DTCO.US/F  : COMPRESSIONAL-WAVE INTERVAL TRANSIT TIME ACOUSTIC SLOWNESS
DTSM.US/F  : SHEAR-WAVE INTERVAL TRANSIT TIME DELTA-T
~Params ----------------------------------------------------
~Other -----------------------------------------------------
~ASCII -----------------------------------------------------
 8097.00000   93.62470    0.23790   79.69890  155.53330
 8097.50000   97.75960    0.22740   77.93080  155.53130
 8098.00000  100.67440    0.22790   78.07580  155.36180
 8098.50000   99.17070    0.23230   78.95290  154.98870
 8099.00000   96.57760    0.23730   78.46680  155.96430
 8099.50000   94.88250    0.24230   77.92990  161.22690
 8100.00000   97.82350    0.24540   80.51300  165.35540
 8100.50000   99.58410    0.24720   81.60610  167.95780
 8101.00000  100.41100    0.24540   80.53290  167.57380
 8101.50000   98.01280    0.23680   78.42030  165.70050
 8102.00000   95.65690    0.23270   78.75560  167.21000
 8102.50000   95.54060    0.23570   80.57810  169.28810
 8103.00000   96.95830    0.24110   80.72230  169.96430
 8103.50000   97.47990    0.24650   81.10670  170.80220
 8104.00000   95.05290    0.24980   82.64070  171.75540
 8104.50000   94.48350    0.24990   82.38510  172.34590
 8105.00000   95.85340    0.24520   81.46480  172.01770
 8105.50000   97.21720    0.24170   80.70320  171.10560
 8106.00000   97.07480    0.23920   81.66160  172.26250
 8106.50000   95.81940    0.25630   83.10990  174.47340
 8107.00000   93.45500    0.27830   83.67490  175.62240
 8107.50000   91.09060    0.28100   84.00920  175.71720
 8108.00000   80.97080    0.26930   80.75810  172.29000
 8108.50000   70.39700    0.12830   78.15490  167.00940
 8109.00000   64.12970    0.06520   77.08920  162.67600
 8109.50000   61.47210    0.05280   75.74970  159.14040
 8110.00000   57.84540    0.03440   73.53820  153.30580
 8110.50000   54.76040    0.02380   72.25420  152.22120
 8111.00000   52.99790    0.02380   74.92940  158.11570
 8111.50000   51.52130    0.02710   76.23930  163.45410
 8112.00000   54.42540    0.03250   72.51190  166.83120
 8112.50000   57.00830    0.03400   69.61030  167.26380
 8113.00000   58.10570    0.03530   68.48470  167.36810
 8113.50000   58.28810    0.03570   67.02290  167.40670
 8114.00000   59.39410    0.03620   64.87520  167.44520
 8114.50000   63.07680    0.04120   62.35150  167.48380
 8115.00000   65.79910    0.05260   60.92710  167.42980
 8115.50000   68.70960    0.07780   60.33810  167.35490
 8116.00000   77.75690    0.12270   65.81830  167.37320
 8116.50000   84.99010    0.17250   73.92470  167.51680
 8117.00000   89.56880    0.21450   75.95150  167.91620
 8117.50000   92.55430    0.23580   77.69970  169.35090
 8118.00000   95.54440    0.24540   80.43700  170.97220
 8118.50000   97.08930    0.25370   82.28260  171.66240
 8119.00000   97.00970    0.25940   81.92040  169.28330
 8119.50000   96.34340    0.26320   83.72110  165.47380
 8120.00000   95.04490    0.26600   80.85290  160.60610
 8120.50000   94.74520    0.27010   82.20270  159.97290
 8121.00000   95.92300    0.27490   85.09940  161.99830
 8121.50000   98.45000    0.28080   85.51660  160.76820
 8122.00000  104.63820    0.29720   83.36330  159.04660
 8122.50000  103.70810    0.30270   85.31760  161.22160
 8123.00000  100.63510    0.30270   86.29120  162.41600
 8123.50000   99.53840    0.30270   86.38240  161.88880
 8124.00000   99.41620    0.27820   83.57660  157.94450
 8124.50000   99.02100    0.24780   81.95770  156.35340
 8125.00000   98.36890    0.23880   81.35100  156.02030
 8125.50000   97.35160    0.25720   80.38360  152.55090
 8126.00000   95.36130    0.31680   81.40550  154.91370
 8126.50000   94.36350    0.30890   86.98520  163.62840
 8127.00000   96.09860    0.29940   90.07470  168.34960
 8127.50000   97.94720    0.29000   92.46190  170.10980
 8128.00000   99.84970    0.28500   88.85940  168.62280
 8128.50000   99.65460    0.27530   87.67480  167.05350
 8129.00000   98.72340    0.26390   87.51090  167.18000
 8129.50000   98.21090    0.26460   87.56170  167.42050
 8130.00000  100.36170    0.26810   88.68290  166.40030
 8130.50000  111.05400    0.27210   90.24560  163.37120
 8131.00000  120.42150    0.28180   91.58600  160.05700
 8131.50000  130.21580    0.29370   92.62070  157.02480
 8132.00000  133.39020    0.29100   92.78770  155.75700
 8132.50000  122.05740    0.26540   91.28610  154.86320
 8133.00000  111.15920    0.21910   85.34080  153.68550
 8133.50000  100.00700    0.20050   79.92370  150.30080
 8134.00000   90.06380    0.15750   76.29900  142.99600
 8134.50000   89.05580    0.17650   69.96120  137.07330
 8135.00000   92.48990    0.19600   69.57570  137.02360
 8135.50000   94.89420    0.21190   70.07190  134.72420
 8136.00000   96.94180    0.21810   75.99270  127.90060
 8136.50000   97.44800    0.22650   79.01280  126.56270
 8137.00000   97.50330    0.23560   80.63680  131.37320
 8137.50000   97.25790    0.24320   83.39780  136.37630
 8138.00000   95.64220    0.24270   84.05570  134.50040
 8138.50000   93.55060    0.20260   79.36750  130.87150
 8139.00000   92.98030    0.19770   76.33300  127.34190
 8139.50000   92.46760    0.20050   73.88910  126.22270
 8140.00000   90.69760    0.20610   71.34810  125.61590
 8140.50000   92.06940    0.22380   69.62850  125.38800
 8141.00000   93.68020    0.25170   69.01310  125.38490
 8141.50000   95.06880    0.27660   69.05110  125.38180
 8142.00000   96.38960    0.31660   71.84350  126.38890
 8142.50000   97.71040    0.33900   77.79310  128.35320
 8143.00000   98.52700    0.34040   80.72070  131.19550
 8143.50000   98.39350    0.34070   83.53520  135.34400
 8144.00000   93.11660    0.33220   84.36830  137.17160
 8144.50000   89.69680    0.29400   83.20470  134.46310
 8145.00000   91.77400    0.28520   80.39810  132.35490
 8145.50000   93.85130    0.28630   80.27150  131.85280
 8146.00000   97.43530    0.30330   81.92060  135.60600
 8146.50000   97.94410    0.32050   83.68510  141.62640
 8147.00000   96.04100    0.32290   84.83270  143.09520
 8147.50000   95.14640    0.31900   81.13220  143.56930
 8148.00000   94.03550    0.27760   66.74960  144.12410
 8148.50000   92.70610    0.20600   48.70070  145.40610
 8149.00000   91.07280    0.18780   55.38410  149.51070
 8149.50000   89.63640    0.17660   60.02030  156.18830
 8150.00000   90.47810    0.16980   77.03390  164.96720
 8150.50000   92.20670    0.16300   77.52480  162.50850
 8151.00000   93.37810    0.15620   77.41780  160.43630
 8151.50000   93.62970    0.14900   76.54510  157.78700
 8152.00000   89.50240    0.13380   73.68250  148.26590
 8152.50000   86.98460    0.12310   68.92060  137.41030
 8153.00000   86.74740    0.12240   67.36890  132.02740
 8153.50000   88.28910    0.12520   66.19140  130.71950
 8154.00000   92.80400    0.13680   65.00520  132.64550
 8154.50000   98.08220    0.15980   68.05190  137.94300
 8155.00000   99.50870    0.18230   71.65180  137.58770
 8155.50000   98.14580    0.18410   73.50910  133.22500
 8156.00000   95.28310    0.18650   73.79140  129.90420
 8156.50000   94.19010    0.20340   74.38360  128.20380
 8157.00000   96.19950    0.22010   76.00630  128.17050
 8157.50000   99.03450    0.23750   78.37060  130.30020
 8158.00000  104.53720    0.24860   79.97230  134.26120
 8158.50000  103.78300    0.23940   81.57410  140.02580
 8159.00000  102.12310    0.22790   83.15830  142.88240
 8159.50000  100.37690    0.21620   83.93770  146.42560
 8160.00000   97.75480    0.18670   82.50780  145.50080
 8160.50000   94.19530    0.16770   79.51870  143.54570
 8161.00000   92.70810    0.17290   80.36740  145.49200
 8161.50000   90.88390    0.19620   79.47120  145.79130
 8162.00000   89.42600    0.22820   77.60670  145.75050
 8162.50000   89.81940    0.23630   77.73160  147.49400
 8163.00000   91.58670    0.21720   79.06650  150.28160
 8163.50000   94.57720    0.20020   81.76550  153.20920
 8164.00000   97.83440    0.19150   81.41670  151.13290
 8164.50000   97.05930    0.18340   79.18300  145.28230
 8165.00000   93.34510    0.17380   77.21810  140.41460
 8165.50000   89.14360    0.14730   74.22570  135.27260
 8166.00000   86.11510    0.11970   72.57060  130.16340
 8166.50000   88.03530    0.13960   73.16340  128.15780
 8167.00000   90.06060    0.15700   73.55450  132.53420
 8167.50000   91.13810    0.16070   71.44950  139.93680
 8168.00000   86.05070    0.13550   75.25400  144.95940
