~Version ---------------------------------------------------
VERS.   2.0 : CWLS log ASCII Standard -VERSION 2.0
WRAP.    NO : One line per depth step
DLM . SPACE : Column Data Section Delimiter
~Well ------------------------------------------------------
STRT .F                 8097.0 : START DEPTH
STOP .F                10276.0 : STOP DEPTH
STEP .F                    0.5 : STEP
NULL .                -9999.25 : NULL VALUE
COMP .                         : COMPANY
WELL .                         : WELL
FLD  .                         : FIELD
LOC  .                         : LOCATION
PROV .                         : PROVINCE
CNTY .                         : COUNTY
STAT .                         : STATE
CTRY .                         : COUNTRY
SRVC .                         : SERVICE COMPANY
DATE .                         : DATE
UWI  .                         : UNIQUE WELL ID
API  .                         : API NUMBER
SLAT .WGS84  6.137540532500793 : SURFACE LATITUDE
SLON .WGS84 3.9483581819232967 : SURFACE LONGITUDE
DATUM.F                2047.21 : DEPTH DATUM ELEV
~Curve Information -----------------------------------------
DEPT.F     : 
GRD .GAPI  : GAMMA RAY
NPHI.DEC   : NEUTRON POROSITY LIMESTONE
DTCO.US/F  : COMPRESSIONAL-WAVE INTERVAL TRANSIT TIME ACOUSTIC SLOWNESS
DTSM.US/F  : SHEAR-WAVE INTERVAL TRANSIT TIME DELTA-T
~Params ----------------------------------------------------
~Other -----------------------------------------------------
~ASCII -----------------------------------------------------
# ...
 9670.00000  102.73960    0.16150   90.20310  159.77590
 9670.50000   99.59670    0.16070   91.54280  152.19930
 9671.00000   98.18690    0.15720   87.82640  145.87920
 9671.50000   97.81630    0.15290   82.52890  143.22870
 9672.00000   99.06850    0.15140   77.43920  141.06850
 9672.50000  100.65900    0.17010   70.95070  137.94880
 9673.00000  100.95270    0.17050   67.37190  133.22760
 9673.50000  100.82690    0.16740   66.63630  132.74260
 9674.00000   98.45060    0.16320   69.30540  133.86280
 9674.50000   95.11060    0.15970   71.95100  137.76800
 9675.00000   94.66550    0.16150   73.62080  141.61970
 9675.50000   95.93750    0.16750   78.43400  150.01500
 9676.00000  102.04510    0.17810   80.09500  153.11290
 9676.50000  106.58790    0.18220   76.61910  147.85830
 9677.00000  106.52260    0.18030   74.45160  144.80910
 9677.50000  106.04040    0.17450   74.46600  143.73970
 9678.00000  105.79810    0.17890   77.99430  149.18280
 9678.50000  105.55580    0.20610   84.86510  165.15810
 9679.00000  105.17370    0.21220   85.12230  164.01270
 9679.50000  102.98110    0.21080   83.76330  159.85540
 9680.00000   86.37210    0.16330   80.05120  153.70430
 9680.50000   77.93970    0.07040   76.53860  145.73840
 9681.00000   74.12750    0.06930   74.86530  142.73250
 9681.50000   74.93910    0.09280   72.90220  139.75650
 9682.00000   82.22530    0.13630   70.81110  137.84660
 9682.50000   91.19980    0.16630   70.83720  137.76450
 9683.00000   96.22710    0.18960   72.25180  138.72990
 9683.50000  101.46770    0.21290   73.30750  143.11150
 9684.00000  104.56000    0.22900   73.78240  148.05490
 9684.50000  107.52150    0.22420   74.94820  157.38060
 9685.00000  108.14070    0.21610   76.04640  157.71690
 9685.50000  108.18870    0.20790   74.46620  157.70020
 9686.00000  104.10870    0.20590   73.43490  157.61560
 9686.50000  103.59720    0.21470   75.03840  157.57630
 9687.00000  104.05230    0.23120   77.31440  157.57660
 9687.50000  105.00690    0.24460   79.03420  157.57750
 9688.00000  108.50960    0.24030   78.25750  157.55810
 9688.50000  111.02580    0.22500   76.58160  157.50290
 9689.00000  111.77140    0.22410   74.90580  157.48930
 9689.50000  111.81330    0.22770   73.54110  157.55490
 9690.00000  109.70000    0.23820   75.35060  157.57810
 9690.50000  107.97210    0.24380   76.32900  157.57810
 9691.00000  106.71720    0.24990   76.86740  157.58370
 9691.50000  106.73260    0.26640   77.66040  157.59280
 9692.00000  108.42120    0.28070   79.71070  157.60040
 9692.50000  109.86340    0.28120   81.15350  157.58420
 9693.00000  109.86530    0.27390   82.14290  157.56790
 9693.50000  109.86730    0.26660   82.49830  157.57380
 9694.00000  109.62490    0.26520   81.53530  157.55980
 9694.50000  109.29520    0.26850   79.55160  157.53210
 9695.00000  108.67670    0.26090   77.88960  157.50440
 9695.50000  107.54900    0.24860   76.59230  157.51610
 9696.00000  103.77750    0.24410   77.19620  157.57810
 9696.50000  102.24720    0.24400   81.25380  157.57810
 9697.00000  102.53860    0.25100   83.22140  157.56060
 9697.50000  103.39910    0.26630   85.18910  157.46800
 9698.00000  106.85360    0.27260   85.68900  157.57930
 9698.50000  106.37300    0.26520   84.46200  157.58300
 9699.00000  105.29500    0.25600   82.79220  157.58680
 9699.50000  105.39490    0.25430   81.93670  157.59060
 9700.00000  105.90930    0.25480   82.44300  157.59430
 9700.50000  105.52200    0.25720   83.56830  157.59810
 9701.00000  104.59390    0.26270   84.32690  157.60180
 9701.50000  104.53380    0.27430   84.10210  157.60560
 9702.00000  106.70630    0.28090   81.80760  157.60930
 9702.50000  107.40490    0.27170   76.47370  157.61310
 9703.00000  106.63960    0.25720   77.10460  157.61690
 9703.50000  106.24110    0.24270   78.34060  157.62060
 9704.00000  107.08620    0.24400   79.53340  157.57690
 9704.50000  108.53610    0.25890   80.31200  157.41960
 9705.00000  110.14130    0.27520   80.91610  157.46540
 9705.50000  111.21650    0.28150   81.57740  157.48270
 9706.00000  112.26490    0.28130   82.32070  157.50000
 9706.50000  113.34150    0.27190   82.62060  157.51730
 9707.00000  112.55180    0.26250   82.47680  157.53460
 9707.50000  110.67230    0.25310   81.13970  157.55190
 9708.00000  108.13800    0.25520   77.34900  157.56920
 9708.50000  106.12450    0.27630   77.12510  157.58660
 9709.00000  106.44440    0.30370   78.75870  157.60390
 9709.50000  108.03190    0.31080   81.96280  157.62120
 9710.00000  112.22780    0.31040   86.04940  157.58040
 9710.50000  114.36630    0.29750   89.89840  157.51470
 9711.00000  111.10000    0.28230   90.24310  157.44890
 9711.50000  107.29540    0.26700   90.40980  157.52160
 9712.00000  105.74540    0.26230   90.30730  157.51180
 9712.50000  106.34110    0.28930   89.78780  157.46800
 9713.00000  107.42340    0.29660   87.15330  157.44300
 9713.50000  108.50560    0.29620   81.21120  157.42390
 9714.00000  108.86410    0.29540   69.18070  157.41980
 9714.50000  107.74290    0.29440   64.05910  157.41570
 9715.00000  108.31560    0.29320   67.14710  157.40700
 9715.50000  110.26150    0.28420   72.85350  157.50810
 9716.00000  112.98100    0.28420   82.26430  157.53610
 9716.50000  114.25610    0.28830   89.48290  157.52280
 9717.00000  112.26420    0.29210   90.81680  157.50960
 9717.50000  110.19610    0.29560   90.80730  157.49640
 9718.00000  107.65490    0.28990   90.13790  157.48310
 9718.50000  104.82490    0.27980   86.31300  157.46990
 9719.00000  104.44540    0.27190   82.05440  157.45660
 9719.50000  104.52120    0.27100   77.87490  157.44340
 9720.00000  103.93890    0.27610   73.98920  157.43020
 9720.50000  103.35650    0.29790   74.38580  157.42080
 9721.00000  103.33420    0.30140   77.94470  157.42670
 9721.50000  103.34310    0.30490   79.79760  157.43620
 9722.00000  103.02300    0.30760   81.76870  157.44570
 9722.50000  103.16160    0.29360   83.14360  157.45520
 9723.00000  103.64230    0.30140   83.34250  157.46460
 9723.50000  103.37350    0.30910   82.43220  157.47410
 9724.00000  102.68030    0.31690   84.26840  157.48360
 9724.50000  102.58280    0.32530   87.51750  157.49310
 9725.00000  102.72760    0.32190   89.84240  157.50260
 9725.50000  103.11580    0.32210   91.30380  157.51200
 9726.00000  105.24450    0.34210   91.35500  157.52150
 9726.50000  107.11880    0.35600   90.60410  157.53100
 9727.00000  107.00330    0.35210   89.36590  157.54050
 9727.50000  106.62950    0.34330   88.38430  157.55000
 9728.00000  104.19760    0.33710   89.70790  157.55940
 9728.50000  101.73800    0.34990   91.73700  157.56030
 9729.00000  100.69970    0.35980   91.29340  157.47010
 9729.50000   99.24080    0.29010   89.01400  157.46340
 9730.00000   96.35260    0.25610   86.98940  157.46620
 9730.50000   93.46450    0.22530   85.17090  157.47220
 9731.00000   92.94520    0.22460   83.63800  157.49560
 9731.50000   93.37700    0.22640   82.27180  157.61560
 9732.00000   93.61420    0.22870   81.23290  157.66650
 9732.50000   93.75200    0.23060   80.60740  157.46360
 9733.00000   93.47630    0.23100   80.13740  157.52980
 9733.50000   93.16680    0.23020   79.85200  157.59460
 9734.00000   95.18980    0.22940   79.85540  157.54630
 9734.50000   97.56510    0.22740   80.09880  157.51970
 9735.00000   99.62800    0.22520   80.50180  157.51970
 9735.50000  100.30460    0.21570   81.10320  157.51970
 9736.00000  101.33720    0.20950   82.13580  157.43170
 9736.50000  101.51620    0.21390   83.15310  157.35750
 9737.00000  100.77520    0.22440   84.16510  157.48740
 9737.50000   99.50420    0.22640   84.58980  157.51130
 9738.00000   99.73890    0.22180   82.43080  157.51630
 9738.50000  100.28970    0.21610   82.82980  157.51100
 9739.00000  100.64650    0.21410   84.29190  157.50570
 9739.50000  100.78840    0.21200   84.41390  157.50050
 9740.00000  100.49060    0.20980   83.81460  157.49520
 9740.50000  100.18680    0.19990   82.54530  157.48990
 9741.00000   99.65170    0.18960   81.50690  157.48460
