~Version ---------------------------------------------------
VERS.   2.0 : CWLS log ASCII Standard -VERSION 2.0
WRAP.    NO : One line per depth step
DLM . SPACE : Column Data Section Delimiter
~Well ------------------------------------------------------
STRT .F                 8097.0 : START DEPTH
STOP .F                10276.0 : STOP DEPTH
STEP .F                    0.5 : STEP
NULL .                -9999.25 : NULL VALUE
COMP .                         : COMPANY
WELL .                         : WELL
FLD  .                         : FIELD
LOC  .                         : LOCATION
PROV .                         : PROVINCE
CNTY .                         : COUNTY
STAT .                         : STATE
CTRY .                         : COUNTRY
SRVC .                         : SERVICE COMPANY
DATE .                         : DATE
UWI  .                         : UNIQUE WELL ID
API  .                         : API NUMBER
SLAT .WGS84  6.137540532500793 : SURFACE LATITUDE
SLON .WGS84 3.9483581819232967 : SURFACE LONGITUDE
DATUM.F                2047.21 : DEPTH DATUM ELEV
~Curve Information -----------------------------------------
DEPT.F     : 
GRD .GAPI  : GAMMA RAY
NPHI.DEC   : NEUTRON POROSITY LIMESTONE
DTCO.US/F  : COMPRESSIONAL-WAVE INTERVAL TRANSIT TIME ACOUSTIC SLOWNESS
DTSM.US/F  : SHEAR-WAVE INTERVAL TRANSIT TIME DELTA-T
~Params ----------------------------------------------------
~Other -----------------------------------------------------
~ASCII -----------------------------------------------------
# ...
 8383.00000   96.36800    0.17940   75.71910  149.40140
 8383.50000   96.53730    0.16530   71.88780  145.51350
 8384.00000   97.29050    0.16010   71.58740  143.77810
 8384.50000   98.18800    0.16970   72.50450  147.65550
 8385.00000   98.46320    0.18170   74.11820  149.75830
 8385.50000   98.08010    0.18500   74.60740  151.93830
 8386.00000   97.81370    0.18820   75.08060  153.28140
 8386.50000   97.56060    0.19250   75.88440  154.63090
 8387.00000   97.73210    0.19980   76.81740  156.08300
 8387.50000   98.06420    0.20540   77.75050  157.52250
 8388.00000   99.29320    0.20480   78.46590  157.99300
 8388.50000  100.80180    0.19430   78.47980  156.76780
 8389.00000  101.31330    0.18960   77.75550  154.18650
 8389.50000  101.37480    0.18840   74.70670  152.55450
 8390.00000   99.89740    0.18810   76.59510  151.23900
 8390.50000   98.36050    0.18770   76.08510  149.61790
 8391.00000   97.66570    0.18660   75.62470  148.46000
 8391.50000   95.63760    0.18220   77.19170  148.11310
 8392.00000   92.36320    0.17420   77.54420  148.14540
 8392.50000   91.21620    0.17610   77.87370  148.40900
 8393.00000   91.55970    0.18770   78.01180  149.26740
 8393.50000   94.23210    0.19720   78.14990  150.54890
 8394.00000   97.96090    0.20130   77.97670  151.05150
 8394.50000  101.50310    0.20400   77.47860  150.42960
 8395.00000  101.34180    0.20240   75.45350  151.04410
 8395.50000  100.26640    0.19280   75.22220  154.71710
 8396.00000   98.79160    0.18260   77.78480  157.72630
 8396.50000   97.64630    0.17940   78.71850  157.31390
 8397.00000   98.93940    0.18800   78.57100  156.22840
 8397.50000   99.99650    0.19650   78.52870  155.06630
 8398.00000  100.22760    0.19910   78.60400  153.95890
 8398.50000  100.14230    0.19370   78.62660  152.66550
 8399.00000  100.05710    0.19160   78.62660  152.15520
 8399.50000   99.97080    0.19490   78.62660  151.50020
 8400.00000   99.38170    0.19870   78.62660  150.78810
 8400.50000   98.79260    0.20180   78.62660  150.06850
 8401.00000   98.42990    0.20500   78.62660  149.23380
 8401.50000   98.53400    0.20800   78.62660  148.71040
 8402.00000   98.79780    0.20750   78.57520  149.84590
 8402.50000   99.09250    0.20390   78.28240  151.76450
 8403.00000   99.50720    0.19780   78.08460  152.09050
 8403.50000   99.89300    0.19380   78.08460  152.07790
 8404.00000  100.12560    0.18970   78.15210  151.48270
 8404.50000  100.17590    0.18710   78.38250  147.10150
 8405.00000   99.37140    0.18620   78.97550  137.12550
 8405.50000   98.09690    0.19090   79.48910  132.62040
 8406.00000   95.33610    0.20400   79.10940  135.00010
 8406.50000   94.60110    0.21470   78.04790  138.44800
 8407.00000   95.37970    0.22090   77.71910  140.64080
 8407.50000   96.66830    0.22140   77.71130  143.69920
 8408.00000   98.98240    0.21550   77.76710  146.00160
 8408.50000  101.39390    0.19780   77.69670  148.54850
 8409.00000  102.89200    0.19610   77.66270  150.95570
 8409.50000  101.70860    0.19480   77.69170  153.26550
 8410.00000  100.45030    0.19900   77.69740  155.63860
 8410.50000   99.25850    0.20160   77.70170  153.82680
 8411.00000   99.68700    0.20150   77.65600  151.48200
 8411.50000  102.31560    0.20110   77.73690  149.39670
 8412.00000  104.42320    0.19830   77.77940  148.59440
 8412.50000  104.37950    0.19460   77.76650  148.59440
 8413.00000   99.81950    0.19060   77.89590  148.69810
 8413.50000   98.46770    0.18690   78.67380  148.85860
 8414.00000   97.32020    0.18790   78.41570  149.07660
 8414.50000   97.78460    0.19060   77.95280  149.31920
 8415.00000   99.35680    0.18910   77.85030  149.90670
 8415.50000  100.18440    0.18810   77.81710  150.86830
 8416.00000   99.53830    0.19050   77.89420  152.88360
 8416.50000   98.45240    0.19540   79.45860  155.48940
 8417.00000   97.92130    0.19990   79.52910  157.52520
 8417.50000   97.89480    0.20150   79.22140  158.72260
 8418.00000   98.18200    0.20150   78.22700  159.72630
 8418.50000   98.56580    0.20100   77.96330  161.67400
 8419.00000   98.90540    0.20140   78.06600  162.65510
 8419.50000   99.30030    0.21030   78.44870  163.60380
 8420.00000  100.56730    0.21950   79.04490  166.58270
 8420.50000   99.34470    0.21860   80.01470  166.48410
 8421.00000   97.87370    0.21670   80.64790  162.49890
 8421.50000   96.20550    0.21310   80.90420  158.67620
 8422.00000   94.53740    0.20370   80.63990  157.47120
 8422.50000   96.72640    0.19390   80.33170  160.67910
 8423.00000   99.89750    0.18720   79.88040  166.33220
 8423.50000  102.45250    0.18600   79.47330  167.46440
 8424.00000  101.02220    0.19460   79.54970  165.45510
 8424.50000   99.01990    0.20240   79.69880  163.71620
 8425.00000   98.08240    0.20760   80.03200  162.65020
 8425.50000   98.31450    0.20570   80.10600  161.07080
 8426.00000   99.36420    0.20150   80.02950  158.88900
 8426.50000   99.12360    0.19190   79.76220  156.66170
 8427.00000   97.55000    0.18680   79.10700  155.09310
 8427.50000   95.81560    0.18240   78.77950  153.63390
 8428.00000   93.98640    0.18080   78.83210  151.75170
 8428.50000   92.44300    0.18860   79.67010  152.00150
 8429.00000   93.04340    0.20120   79.87940  153.38590
 8429.50000   94.10700    0.21010   79.87940  154.94130
 8430.00000   94.74740    0.20880   78.99880  153.65850
 8430.50000   92.63320    0.20810   79.33400  152.92460
 8431.00000   91.53670    0.21070   79.85840  153.97630
 8431.50000   91.81120    0.21220   80.02140  155.45820
 8432.00000   93.48430    0.20810   79.02180  153.70180
 8432.50000   92.49680    0.20210   78.96840  152.81430
 8433.00000   92.11360    0.19640   79.46350  153.85440
 8433.50000   94.33970    0.19300   79.88270  153.89120
 8434.00000   99.14390    0.18940   80.20980  153.92100
 8434.50000  103.40090    0.18960   80.18940  154.08940
 8435.00000  104.68240    0.19090   79.14680  153.52840
 8435.50000  104.56180    0.18600   77.06850  150.37230
 8436.00000  102.50330    0.17430   76.73590  149.63920
 8436.50000  100.35030    0.17350   76.92800  149.52060
 8437.00000   99.58510    0.18310   77.50470  149.39370
 8437.50000   99.08190    0.19260   77.76230  149.25880
 8438.00000   98.81840    0.19800   78.21980  148.57940
 8438.50000   98.50340    0.20330   79.15880  147.79310
 8439.00000   97.75210    0.20660   80.09780  148.02380
 8439.50000   97.40720    0.20670   80.22290  149.34620
 8440.00000   97.83060    0.19820   78.56070  150.48600
 8440.50000   98.23440    0.18160   77.46270  149.53310
 8441.00000   97.99200    0.17920   77.20620  148.09400
 8441.50000   97.60100    0.18140   76.98560  146.64400
 8442.00000   97.51320    0.18330   77.07010  144.47770
 8442.50000   97.58960    0.18190   77.34280  144.07870
 8443.00000   97.80380    0.17830   77.57880  145.11930
 8443.50000   96.84890    0.18040   77.57880  145.34390
 8444.00000   95.51200    0.18590   75.49950  145.48310
 8444.50000   93.95520    0.19060   74.51620  145.62230
 8445.00000   94.16010    0.18760   76.48030  146.39890
 8445.50000   94.81240    0.17870   77.10950  147.31180
 8446.00000   95.54560    0.18090   76.97320  147.37220
 8446.50000   96.27080    0.18750   77.26620  147.43260
 8447.00000   96.53270    0.19530   78.83390  147.76470
 8447.50000   96.74850    0.20300   79.65250  148.58110
 8448.00000   96.31080    0.20400   77.95250  149.26380
 8448.50000   95.64600    0.20400   75.42350  148.69150
 8449.00000   95.21450    0.20300   76.33340  147.75910
 8449.50000   95.04940    0.20140   77.28760  149.18090
 8450.00000   95.74990    0.19180   75.04850  149.48030
 8450.50000   97.53850    0.18060   74.39340  148.62240
 8451.00000   98.76000    0.18120   75.53720  148.31920
 8451.50000   99.53530    0.17990   76.35540  147.23610
 8452.00000  101.65040    0.17440   77.21710  145.58170
 8452.50000  101.99450    0.17090   78.55030  144.40570
 8453.00000   99.77450    0.17420   79.75740  146.59140
 8453.50000   97.27630    0.17770   77.85050  147.95340
 8454.00000   94.71500    0.17780   80.04790  147.13650
