~Version ---------------------------------------------------
VERS.   2.0 : CWLS log ASCII Standard -VERSION 2.0
WRAP.    NO : One line per depth step
DLM . SPACE : Column Data Section Delimiter
~Well ------------------------------------------------------
STRT .F                 8097.0 : START DEPTH
STOP .F                10276.0 : STOP DEPTH
STEP .F                    0.5 : STEP
NULL .                -9999.25 : NULL VALUE
COMP .                         : COMPANY
WELL .                         : WELL
FLD  .                         : FIELD
LOC  .                         : LOCATION
PROV .                         : PROVINCE
CNTY .                         : COUNTY
STAT .                         : STATE
CTRY .                         : COUNTRY
SRVC .                         : SERVICE COMPANY
DATE .                         : DATE
UWI  .                         : UNIQUE WELL ID
API  .                         : API NUMBER
SLAT .WGS84  6.137540532500793 : SURFACE LATITUDE
SLON .WGS84 3.9483581819232967 : SURFACE LONGITUDE
DATUM.F                2047.21 : DEPTH DATUM ELEV
~Curve Information -----------------------------------------
DEPT.F     : 
GRD .GAPI  : GAMMA RAY
NPHI.DEC   : NEUTRON POROSITY LIMESTONE
DTCO.US/F  : COMPRESSIONAL-WAVE INTERVAL TRANSIT TIME ACOUSTIC SLOWNESS
DTSM.US/F  : SHEAR-WAVE INTERVAL TRANSIT TIME DELTA-T
~Params ----------------------------------------------------
~Other -----------------------------------------------------
~ASCII -----------------------------------------------------
# ...
 9098.00000  107.22560    0.17910   85.10480  150.63930
 9098.50000  109.10530    0.18130   86.56960  152.73030
 9099.00000  112.64800    0.18540   87.32770  155.39140
 9099.50000  117.17260    0.19200   88.09280  157.90680
 9100.00000  125.14560    0.23050   91.46200  162.93760
 9100.50000  136.94910    0.24400   92.98630  169.98620
 9101.00000  141.24380    0.24820   93.74080  168.66450
 9101.50000  141.08400    0.24370   94.53870  166.75340
 9102.00000  137.48250    0.23300   99.05520  166.46390
 9102.50000  136.92710    0.23170   98.63650  171.56780
 9103.00000  153.89540    0.25710   95.09470  171.84000
 9103.50000  181.18880    0.30740   93.88040  172.12670
 9104.00000  214.75160    0.35940   94.85350  171.95460
 9104.50000  233.76370    0.27240   91.80780  171.47660
 9105.00000  206.46760    0.24080   87.61980  169.24020
 9105.50000  142.32050    0.15740   79.80760  159.35050
 9106.00000   95.82810    0.05960   67.71510  143.64670
 9106.50000   48.35090    0.01400   55.43240  140.70500
 9107.00000   43.57450    0.00750   49.93850  142.94190
 9107.50000   41.98950    0.00670   46.42010  143.47230
 9108.00000   49.77050    0.01090   49.70870  143.47200
 9108.50000   59.98630    0.03490   56.87830  143.49980
 9109.00000   70.34930    0.07470   62.77200  143.88940
 9109.50000   85.70850    0.08940   68.90400  145.89340
 9110.00000   93.41020    0.14470   75.39320  155.61660
 9110.50000   97.84860    0.20700   80.04610  160.44710
 9111.00000  100.36650    0.21480   81.97280  163.15120
 9111.50000  101.79570    0.21560   82.38700  165.85530
 9112.00000  101.04840    0.20850   80.47950  164.97320
 9112.50000  100.08500    0.16990   79.61460  162.12570
 9113.00000   99.12850    0.15590   78.72780  160.49060
 9113.50000   98.04330    0.16190   77.47750  159.60250
 9114.00000   97.31780    0.17410   77.63100  160.27460
 9114.50000   97.09730    0.18630   78.59570  161.19710
 9115.00000   96.92210    0.19970   78.19870  161.40810
 9115.50000   97.07640    0.20300   76.61680  161.41800
 9116.00000   98.20140    0.20150   75.84530  161.39530
 9116.50000   99.41310    0.19870   76.08840  161.34860
 9117.00000   99.45880    0.19790   76.84250  161.38010
 9117.50000   99.56500    0.20010   77.66990  161.42270
 9118.00000  100.08210    0.20330   78.14740  161.42240
 9118.50000  100.40130    0.20600   78.19360  161.40000
 9119.00000  100.72050    0.20790   77.81230  161.39330
 9119.50000  101.85980    0.21040   76.98540  161.38660
 9120.00000  103.62200    0.21380   77.14410  161.37990
 9120.50000  103.17260    0.21940   78.16790  161.37310
 9121.00000   99.96560    0.22770   79.10740  161.36640
 9121.50000   95.06480    0.24790   80.09400  161.35970
 9122.00000   90.26910    0.28750   82.93440  161.35300
 9122.50000   92.38540    0.31460   87.00250  161.34620
 9123.00000   95.30750    0.32240   86.88160  161.35870
 9123.50000   98.41160    0.28370   85.87840  161.39990
 9124.00000   99.49750    0.25250   84.34010  161.38480
 9124.50000  100.77500    0.23440   83.01420  161.36570
 9125.00000  100.58950    0.22310   82.04960  161.34660
 9125.50000   99.58300    0.21680   79.43250  161.32750
 9126.00000   96.68410    0.20840   75.78050  161.30840
 9126.50000   96.11280    0.20450   77.71310  161.28930
 9127.00000   97.39970    0.22850   80.44210  161.27020
 9127.50000   99.78190    0.24650   83.02750  161.25110
 9128.00000  102.02680    0.25870   83.93950  161.23200
 9128.50000  103.19680    0.25760   83.14070  161.25260
 9129.00000  103.04230    0.25160   82.25350  161.25810
 9129.50000  102.10870    0.25020   81.40820  161.25820
 9130.00000  100.01580    0.25240   80.99670  161.25840
 9130.50000   98.46030    0.26820   81.05270  161.25850
 9131.00000   98.26640    0.28330   81.60440  161.25870
 9131.50000   99.44000    0.29260   82.98770  161.25880
 9132.00000  100.77330    0.29300   84.54780  161.26450
 9132.50000  100.93440    0.29040   85.52210  161.27030
 9133.00000   99.99660    0.28440   85.45790  161.27620
 9133.50000   99.01040    0.27850   85.33830  161.28160
 9134.00000   98.02420    0.26840   85.61510  161.28380
 9134.50000   97.12680    0.26250   86.12360  161.28610
 9135.00000   96.71140    0.26430   87.26600  161.28320
 9135.50000   96.29600    0.26740   90.54350  161.27570
 9136.00000   96.39350    0.26830   89.79950  161.26830
 9136.50000   97.31100    0.26740   88.02820  161.26080
 9137.00000   97.91710    0.26290   86.27230  161.25340
 9137.50000   97.55120    0.24040   84.50030  161.24590
 9138.00000   96.19410    0.21700   81.98320  161.23850
 9138.50000   95.07270    0.19770   79.31690  161.23110
 9139.00000   94.81620    0.17850   79.41530  161.22360
 9139.50000   95.77190    0.17280   79.25750  161.21620
 9140.00000   96.85900    0.17350   77.47710  161.21760
 9140.50000   97.87100    0.21590   79.67050  161.22430
 9141.00000   98.77590    0.24240   82.39690  161.23110
 9141.50000   99.51740    0.25430   85.84800  161.23780
 9142.00000  100.25890    0.25490   86.61190  161.24450
 9142.50000  100.64040    0.24630   84.34380  161.24670
 9143.00000  100.88240    0.22320   81.71490  161.24090
 9143.50000  101.12450    0.20870   78.32220  161.23990
 9144.00000  101.25460    0.20520   81.45440  161.24700
 9144.50000  101.38090    0.21880   81.69840  161.25410
 9145.00000  101.44590    0.21910   80.95390  161.25610
 9145.50000  101.21190    0.21570   79.56170  161.25560
 9146.00000   99.08520    0.18380   78.15890  161.25510
 9146.50000   96.53020    0.18360   77.52380  161.25460
 9147.00000   95.34100    0.19640   77.51620  161.25410
 9147.50000   96.25170    0.20910   77.51230  161.25360
 9148.00000   98.17810    0.22180   80.68860  161.25310
 9148.50000  100.06040    0.23320   83.16290  161.25260
 9149.00000  101.36080    0.23430   82.73120  161.25210
 9149.50000  101.30120    0.23240   81.19270  161.25160
 9150.00000   94.65810    0.19140   78.07600  161.25120
 9150.50000   90.83010    0.16650   75.26860  161.25070
 9151.00000   91.85890    0.16610   73.86160  161.25020
 9151.50000   93.99670    0.17430   74.22280  161.24970
 9152.00000   96.13450    0.22720   76.39470  161.22750
 9152.50000   99.64250    0.25100   78.86610  161.17330
 9153.00000  100.72410    0.24770   78.63990  161.17280
 9153.50000  100.84440    0.23860   78.11610  161.23700
 9154.00000  100.33220    0.20290   77.77820  161.21590
 9154.50000  100.09300    0.19200   78.04710  161.18330
 9155.00000  101.51080    0.21180   78.74610  161.16260
 9155.50000  102.55170    0.23470   79.51930  161.18950
 9156.00000  103.24750    0.25910   80.66830  161.21650
 9156.50000  103.23840    0.25370   81.63890  161.24410
 9157.00000  102.63640    0.23890   83.03920  161.27850
 9157.50000  101.91410    0.24010   85.25280  161.30670
 9158.00000  101.19360    0.24380   82.13990  161.27920
 9158.50000  100.53280    0.24560   81.55340  161.25170
 9159.00000   99.77830    0.24560   83.69760  161.22420
 9159.50000   97.24550    0.24380   84.99520  161.19340
 9160.00000   95.34100    0.24150   80.75010  161.15660
 9160.50000   95.75570    0.23860   80.77160  161.12610
 9161.00000   96.28790    0.23150   81.06410  160.93830
 9161.50000   96.31230    0.20670   80.90460  160.27340
 9162.00000   95.14560    0.16630   77.60420  157.30350
 9162.50000   93.00430    0.13980   70.94720  149.73150
 9163.00000   93.67300    0.14240   72.85320  147.47940
 9163.50000   95.47520    0.15120   75.97630  149.99000
 9164.00000   99.56580    0.16930   78.15670  153.38160
 9164.50000  103.50880    0.19780   78.75000  156.71290
 9165.00000  103.56300    0.21030   78.75000  157.56480
 9165.50000  102.06690    0.21140   78.25730  157.34480
 9166.00000  100.74180    0.20460   78.60400  157.95000
 9166.50000   99.52080    0.19680   79.94290  159.13690
 9167.00000   98.10930    0.18960   80.52420  160.08770
 9167.50000   96.54600    0.18350   80.51950  160.76470
 9168.00000   94.98270    0.18550   79.84510  158.42110
 9168.50000   94.17260    0.19840   75.36870  150.56350
 9169.00000   95.34340    0.20090   75.46460  146.61610
