~Version ---------------------------------------------------
VERS.   2.0 : CWLS log ASCII Standard -VERSION 2.0
WRAP.    NO : One line per depth step
DLM . SPACE : Column Data Section Delimiter
~Well ------------------------------------------------------
STRT .F                 8097.0 : START DEPTH
STOP .F                10276.0 : STOP DEPTH
STEP .F                    0.5 : STEP
NULL .                -9999.25 : NULL VALUE
COMP .                         : COMPANY
WELL .                         : WELL
FLD  .                         : FIELD
LOC  .                         : LOCATION
PROV .                         : PROVINCE
CNTY .                         : COUNTY
STAT .                         : STATE
CTRY .                         : COUNTRY
SRVC .                         : SERVICE COMPANY
DATE .                         : DATE
UWI  .                         : UNIQUE WELL ID
API  .                         : API NUMBER
SLAT .WGS84  6.137540532500793 : SURFACE LATITUDE
SLON .WGS84 3.9483581819232967 : SURFACE LONGITUDE
DATUM.F                2047.21 : DEPTH DATUM ELEV
~Curve Information -----------------------------------------
DEPT.F     : 
GRD .GAPI  : GAMMA RAY
NPHI.DEC   : NEUTRON POROSITY LIMESTONE
DTCO.US/F  : COMPRESSIONAL-WAVE INTERVAL TRANSIT TIME ACOUSTIC SLOWNESS
DTSM.US/F  : SHEAR-WAVE INTERVAL TRANSIT TIME DELTA-T
~Params ----------------------------------------------------
~Other -----------------------------------------------------
~ASCII -----------------------------------------------------
# ...
 8955.00000   96.90510    0.19130   81.92730  157.16450
 8955.50000   92.88370    0.19460   81.81560  156.32410
 8956.00000   94.32520    0.19470   81.35850  154.68140
 8956.50000   97.41470    0.18800   80.57030  150.85310
 8957.00000   98.03440    0.18180   79.70540  151.44910
 8957.50000   96.11350    0.17730   78.08630  152.13000
 8958.00000   92.03350    0.17590   76.82260  151.83670
 8958.50000   89.67500    0.18220   75.68790  150.04780
 8959.00000   89.80790    0.18420   74.98330  149.95110
 8959.50000   90.45560    0.18180   75.33630  151.32260
 8960.00000   93.04240    0.16970   79.24940  155.45220
 8960.50000   94.38660    0.17570   80.37080  157.75310
 8961.00000   93.94870    0.19550   78.63140  155.63780
 8961.50000   97.55990    0.20110   77.06080  152.54920
 8962.00000   98.80900    0.20000   80.43510  155.70700
 8962.50000   97.45190    0.19950   83.22690  159.44810
 8963.00000   95.07490    0.20680   83.36460  157.96130
 8963.50000   93.89080    0.21450   83.25640  156.47410
 8964.00000   93.98540    0.22220   82.32340  155.65950
 8964.50000   94.40700    0.22160   81.12860  155.20220
 8965.00000   93.88000    0.21650   80.08120  154.34860
 8965.50000   93.45480    0.20150   79.21890  152.08340
 8966.00000   94.94270    0.19000   78.37940  149.78060
 8966.50000   96.92040    0.19130   77.87020  148.08190
 8967.00000   96.29640    0.19460   77.86050  147.78790
 8967.50000   92.53130    0.19230   78.02290  149.19470
 8968.00000   89.89740    0.17710   78.20770  150.49300
 8968.50000   90.95540    0.18110   78.36840  147.61660
 8969.00000   93.16770    0.18130   78.36260  146.40100
 8969.50000   95.71310    0.17170   77.85010  144.74560
 8970.00000   98.22410    0.15430   75.95110  139.95710
 8970.50000  100.72540    0.15540   74.33330  135.97030
 8971.00000  102.56030    0.16320   73.12420  136.94670
 8971.50000  103.33150    0.16140   73.28650  138.69580
 8972.00000   99.57150    0.16130   74.37260  139.74670
 8972.50000   98.28490    0.16490   75.51210  140.82190
 8973.00000   98.99210    0.17730   76.66000  142.69740
 8973.50000  101.24310    0.18420   77.24450  148.43630
 8974.00000  103.46070    0.19120   77.45250  148.92400
 8974.50000  105.52970    0.19010   76.70910  146.02740
 8975.00000  107.49130    0.18520   76.08450  144.29420
 8975.50000  109.45290    0.18030   76.08450  144.07740
 8976.00000  110.53730    0.18790   76.58800  146.88710
 8976.50000  109.30130    0.20130   77.25940  150.07660
 8977.00000  106.28570    0.20570   77.66450  150.36960
 8977.50000  104.40130    0.20450   77.92360  148.65040
 8978.00000  103.58210    0.19320   78.09110  146.84050
 8978.50000  105.43330    0.18670   78.29290  145.72820
 8979.00000  108.25140    0.18990   78.11780  145.84860
 8979.50000  109.98900    0.19470   78.06630  147.11980
 8980.00000  109.91340    0.19930   78.02580  147.54950
 8980.50000  109.32500    0.20150   78.60530  146.64110
 8981.00000  108.92580    0.20260   79.27410  146.56850
 8981.50000  108.31890    0.20530   79.92380  146.93870
 8982.00000  107.67290    0.21150   80.33930  148.55060
 8982.50000  107.02690    0.21150   80.36480  150.57370
 8983.00000  105.01730    0.21200   80.17420  151.46930
 8983.50000  103.51980    0.21490   79.96930  151.22270
 8984.00000  102.35640    0.21900   79.74730  150.80920
 8984.50000  101.77570    0.22050   79.54270  150.85400
 8985.00000  101.85560    0.22020   79.36020  151.28800
 8985.50000  102.47860    0.21710   78.72220  151.74480
 8986.00000  103.13540    0.21280   78.34750  151.01530
 8986.50000  103.04600    0.20310   78.21930  147.51760
 8987.00000  101.24040    0.19310   78.22990  147.38790
 8987.50000  100.01520    0.18850   78.29480  150.97990
 8988.00000  101.72750    0.19650   78.57720  152.39060
 8988.50000  103.35340    0.21080   79.23450  150.94790
 8989.00000  103.81230    0.21510   80.99080  151.51360
 8989.50000  102.68450    0.21700   83.22060  155.66680
 8990.00000  101.47690    0.21660   81.03240  154.69160
 8990.50000  101.89120    0.21490   78.26520  145.98340
 8991.00000  102.52980    0.20800   76.33760  143.66310
 8991.50000  103.16840    0.20130   75.74250  140.96120
 8992.00000  103.04420    0.19480   76.09740  144.64870
 8992.50000  101.20630    0.18810   76.62230  146.30910
 8993.00000   99.37520    0.18490   76.63900  141.88300
 8993.50000   95.28200    0.18090   76.11010  143.04180
 8994.00000   94.28500    0.17840   75.51900  140.90300
 8994.50000   94.89560    0.17940   74.89620  136.73750
 8995.00000   96.61050    0.18650   74.86910  139.28720
 8995.50000   97.69840    0.19460   75.48480  141.07020
 8996.00000   97.08390    0.19080   76.75920  143.58080
 8996.50000   95.93470    0.19160   79.62700  145.66890
 8997.00000   94.95350    0.19720   81.13070  147.13690
 8997.50000   94.82450    0.20160   81.45630  149.20840
 8998.00000   97.23920    0.19980   81.32580  150.92580
 8998.50000  100.17810    0.19820   80.22610  150.85870
 8999.00000   99.97480    0.20100   79.19160  148.79500
 8999.50000   98.68730    0.20160   78.15700  147.34080
 9000.00000   96.99010    0.19590   77.84340  148.46840
 9000.50000   98.44740    0.18580   77.53840  150.27200
 9001.00000  102.34870    0.19230   77.56940  150.39450
 9001.50000  105.42860    0.19450   77.56570  149.82380
 9002.00000  105.34130    0.19510   77.53430  148.58340
 9002.50000  100.40810    0.19200   77.46260  148.13970
 9003.00000   98.49580    0.18770   77.53050  148.96650
 9003.50000   98.44630    0.18710   77.59470  150.22260
 9004.00000  100.45750    0.19340   77.98760  151.92020
 9004.50000  104.61430    0.21680   78.55750  153.51080
 9005.00000  104.15870    0.21870   79.26180  155.65540
 9005.50000  102.97390    0.21900   79.91410  157.36430
 9006.00000   99.82450    0.21760   80.03700  154.63050
 9006.50000   99.40410    0.20210   78.86870  153.75180
 9007.00000   99.79230    0.19350   78.37970  154.40410
 9007.50000  100.34540    0.19970   78.47120  155.18150
 9008.00000  102.57760    0.20940   78.98650  152.23350
 9008.50000  104.24310    0.21770   81.07260  148.72890
 9009.00000  106.06670    0.22060   81.66040  147.55720
 9009.50000  108.10170    0.21960   80.84650  147.65990
 9010.00000  109.08770    0.21900   77.29610  150.89600
 9010.50000  106.81240    0.21910   77.59320  153.61350
 9011.00000  103.87020    0.22110   78.77590  154.49010
 9011.50000  101.33940    0.22410   79.60430  155.88260
 9012.00000   99.71170    0.22720   80.42360  157.26660
 9012.50000   99.55110    0.23020   80.81070  158.38820
 9013.00000   99.83810    0.23190   80.86690  158.21000
 9013.50000  100.19680    0.22450   80.50830  157.17920
 9014.00000  101.51010    0.21410   77.56740  155.57240
 9014.50000  103.84830    0.20920   75.07670  154.04380
 9015.00000  103.69420    0.20660   75.39690  151.94250
 9015.50000  102.03330    0.20640   76.79370  150.36900
 9016.00000  101.23570    0.20810   78.19480  152.95530
 9016.50000  101.69630    0.21110   78.36770  154.54570
 9017.00000  102.20240    0.21540   78.54080  154.59970
 9017.50000  102.73540    0.21970   78.95180  154.95800
 9018.00000  103.26830    0.22330   79.56250  155.79150
 9018.50000  103.52020    0.22630   80.21050  156.94340
 9019.00000  103.00230    0.22840   80.87880  157.80390
 9019.50000  102.34940    0.22850   80.94650  158.79430
 9020.00000  102.29200    0.22530   79.19010  158.51880
 9020.50000  103.17900    0.22170   77.81320  155.26660
 9021.00000  104.62780    0.21900   77.92920  150.56830
 9021.50000  105.71960    0.21900   78.92160  146.33000
 9022.00000  104.15860    0.22900   81.05320  141.77300
 9022.50000  102.86700    0.23920   82.49550  141.40000
 9023.00000  104.27910    0.24100   82.34120  141.31760
 9023.50000  105.86190    0.23650   81.79410  141.24140
 9024.00000  106.14900    0.22190   80.76590  141.16520
 9024.50000  105.71800    0.22130   79.41350  141.12020
 9025.00000  104.67710    0.23230   77.25150  141.11840
 9025.50000  103.63610    0.25360   77.74670  141.11660
 9026.00000  103.27670    0.26800   80.75420  141.13620
