~Version ---------------------------------------------------
VERS.   2.0 : CWLS log ASCII Standard -VERSION 2.0
WRAP.    NO : One line per depth step
DLM . SPACE : Column Data Section Delimiter
~Well ------------------------------------------------------
STRT .F                 8097.0 : START DEPTH
STOP .F                10276.0 : STOP DEPTH
STEP .F                    0.5 : STEP
NULL .                -9999.25 : NULL VALUE
COMP .                         : COMPANY
WELL .                         : WELL
FLD  .                         : FIELD
LOC  .                         : LOCATION
PROV .                         : PROVINCE
CNTY .                         : COUNTY
STAT .                         : STATE
CTRY .                         : COUNTRY
SRVC .                         : SERVICE COMPANY
DATE .                         : DATE
UWI  .                         : UNIQUE WELL ID
API  .                         : API NUMBER
SLAT .WGS84  6.137540532500793 : SURFACE LATITUDE
SLON .WGS84 3.9483581819232967 : SURFACE LONGITUDE
DATUM.F                2047.21 : DEPTH DATUM ELEV
~Curve Information -----------------------------------------
DEPT.F     : 
GRD .GAPI  : GAMMA RAY
NPHI.DEC   : NEUTRON POROSITY LIMESTONE
DTCO.US/F  : COMPRESSIONAL-WAVE INTERVAL TRANSIT TIME ACOUSTIC SLOWNESS
DTSM.US/F  : SHEAR-WAVE INTERVAL TRANSIT TIME DELTA-T
~Params ----------------------------------------------------
~Other -----------------------------------------------------
~ASCII -----------------------------------------------------
# ...
 8812.00000   78.10940    0.14210   70.01120  138.08250
 8812.50000   79.51300    0.13430   71.25590  139.40850
 8813.00000   79.28680    0.12660   72.25760  139.89810
 8813.50000   78.32770    0.12320   72.28760  139.92920
 8814.00000   77.36860    0.12620   68.80150  138.19660
 8814.50000   76.06390    0.12710   69.88570  136.60530
 8815.00000   75.31840    0.12710   70.17460  138.25850
 8815.50000   76.20420    0.12690   68.98230  138.29370
 8816.00000   78.14740    0.12610   69.18030  138.13000
 8816.50000   78.21150    0.12590   69.78580  137.91260
 8817.00000   78.31530    0.12640   70.47170  137.18380
 8817.50000   78.96990    0.12950   71.15770  137.29380
 8818.00000   79.72630    0.13560   71.84360  143.81620
 8818.50000   80.70450    0.14170   72.56020  143.38630
 8819.00000   81.38270    0.14780   73.29240  143.49820
 8819.50000   81.34470    0.14910   74.11670  144.56470
 8820.00000   79.98940    0.14910   72.42340  148.01350
 8820.50000   78.63400    0.14740   73.56530  146.14010
 8821.00000   78.70680    0.14110   72.32360  143.11290
 8821.50000   79.27340    0.12990   70.40420  138.98370
 8822.00000   81.17870    0.11870   68.64990  136.99070
 8822.50000   83.19540    0.11500   68.34520  135.02570
 8823.00000   83.53180    0.12040   69.34030  133.40170
 8823.50000   83.02730    0.12340   70.49220  135.21230
 8824.00000   78.29560    0.11520   70.94500  138.28410
 8824.50000   73.86140    0.09880   68.57920  143.46200
 8825.00000   64.61930    0.06660   67.51290  146.06730
 8825.50000   56.90430    0.03700   67.82150  151.56940
 8826.00000   45.97650    0.01930   70.73250  156.07710
 8826.50000   41.24760    0.00660   78.49700  155.26700
 8827.00000   43.08920    0.00410   80.35670  150.88560
 8827.50000   44.93940    0.00230   80.74330  144.37470
 8828.00000   46.78970    0.00140   82.33140  141.48650
 8828.50000   48.81200    0.00140   87.87620  153.49890
 8829.00000   51.06180    0.00420   90.55310  157.30760
 8829.50000   60.46760    0.00720   88.75100  156.81520
 8830.00000   65.10000    0.02130   84.15550  147.60060
 8830.50000   67.90300    0.03680   72.71540  135.50140
 8831.00000   69.02800    0.05150   66.87350  129.86350
 8831.50000   69.83810    0.05400   63.92620  127.58820
 8832.00000   65.63960    0.04980   63.71020  127.24420
 8832.50000   61.54500    0.04380   63.66870  126.95310
 8833.00000   59.55910    0.03780   63.75050  126.91720
 8833.50000   57.72050    0.03180   64.34990  126.91450
 8834.00000   54.55790    0.02560   70.95570  126.88580
 8834.50000   51.83310    0.01830   80.37440  126.83660
 8835.00000   50.81540    0.01220   87.87380  126.78740
 8835.50000   49.74840    0.00810   96.31960  126.84320
 8836.00000   47.69580    0.00820  102.43950  126.89910
 8836.50000   45.90430    0.00960   96.43990  126.89650
 8837.00000   44.30190    0.01200   87.20640  126.85880
 8837.50000   42.79340    0.01930   76.40450  126.75550
 8838.00000   45.29110    0.02910   64.00960  126.80830
 8838.50000   55.09350    0.03920   57.66600  127.00070
 8839.00000   59.82030    0.04980   59.18890  126.86340
 8839.50000   63.01790    0.05080   61.53490  126.84350
 8840.00000   66.14200    0.05230   63.24140  126.74890
 8840.50000   68.27590    0.05450   64.40790  126.60030
 8841.00000   72.56230    0.06420   64.74720  126.45180
 8841.50000   75.44970    0.07930   66.00560  126.46310
 8842.00000   78.91830    0.09810   67.20350  126.63810
 8842.50000   83.75650    0.11340   68.93910  127.00530
 8843.00000   85.60870    0.12220   70.02890  127.84140
 8843.50000   87.08690    0.12920   70.72950  129.59680
 8844.00000   88.56760    0.13600   71.43020  131.41740
 8844.50000   90.03850    0.13650   72.13080  132.87420
 8845.00000   91.50940    0.13560   72.26900  133.29690
 8845.50000   92.35360    0.12990   72.20400  132.90850
 8846.00000   89.61260    0.12390   71.96460  131.73100
 8846.50000   83.96410    0.11360   71.72510  130.12190
 8847.00000   81.39970    0.10870   70.92220  128.60840
 8847.50000   81.13540    0.11000   70.05090  127.42910
 8848.00000   82.08400    0.11260   68.28550  127.15600
 8848.50000   83.17090    0.11360   68.14440  126.88290
 8849.00000   83.95860    0.11280   68.73510  126.82910
 8849.50000   83.39420    0.10940   69.27230  126.82930
 8850.00000   82.43280    0.10910   69.47160  126.92550
 8850.50000   83.07830    0.11430   69.37810  127.01060
 8851.00000   84.00110    0.11540   68.45130  126.98390
 8851.50000   84.43330    0.11320   67.52840  126.95720
 8852.00000   83.41940    0.10150   66.60570  126.89140
 8852.50000   74.44310    0.08670   64.70790  126.81150
 8853.00000   70.25610    0.07020   63.67600  126.82280
 8853.50000   68.52150    0.04970   63.32230  126.84850
 8854.00000   69.18950    0.05440   63.38330  126.89070
 8854.50000   73.04010    0.08300   64.94200  126.79500
 8855.00000   76.89080    0.10140   66.95270  126.81890
 8855.50000   80.74140    0.11340   69.08830  127.13260
 8856.00000   84.45470    0.12460   70.85690  127.35520
 8856.50000   83.33800    0.12580   71.01920  127.45880
 8857.00000   80.90500    0.12390   67.97770  127.45880
 8857.50000   78.25090    0.10410   66.83010  127.18800
 8858.00000   79.71480    0.08660   65.67050  126.77430
 8858.50000   84.46910    0.08180   65.58310  126.28800
 8859.00000   87.80420    0.09950   66.57090  124.66580
 8859.50000   90.19100    0.11170   68.00600  123.47530
 8860.00000   92.45210    0.12280   69.23690  126.76300
 8860.50000   93.47460    0.13190   70.43290  134.16460
 8861.00000   94.06220    0.13810   71.27550  133.97670
 8861.50000   94.47240    0.14260   71.79390  131.42060
 8862.00000   92.56590    0.14200   72.12700  128.95870
 8862.50000   91.22720    0.12250   72.22050  128.73520
 8863.00000   91.24910    0.11780   71.65120  130.70250
 8863.50000   92.50830    0.12010   71.16800  127.59350
 8864.00000   96.63110    0.12580   71.05640  127.64750
 8864.50000  100.95070    0.13150   71.12440  129.58930
 8865.00000  102.25000    0.13710   71.84060  130.83480
 8865.50000  103.07380    0.14210   73.52740  131.99960
 8866.00000  101.65180    0.14660   73.33630  132.73810
 8866.50000  100.22990    0.15160   71.81300  133.15910
 8867.00000  101.61730    0.15670   71.81580  133.32320
 8867.50000  104.95730    0.15940   73.29540  133.19360
 8868.00000  104.68190    0.15410   74.00650  132.31170
 8868.50000  102.53460    0.13970   71.83750  131.02760
 8869.00000  100.36620    0.11770   70.64590  131.35430
 8869.50000   97.70310    0.09380   69.27620  131.96670
 8870.00000   68.75550    0.07000   66.41190  130.60980
 8870.50000   66.00240    0.04430   64.13900  130.35720
 8871.00000   63.24930    0.03940   62.66570  130.69520
 8871.50000   61.51490    0.04100   61.09320  132.26370
 8872.00000   63.98210    0.06650   61.78060  134.75440
 8872.50000   66.50200    0.09280   65.12470  134.83090
 8873.00000   69.50670    0.10770   67.15780  132.64510
 8873.50000   72.51150    0.12030   69.28950  130.08650
 8874.00000   77.37780    0.13430   70.82060  129.45190
 8874.50000   82.36510    0.13920   71.92980  130.76890
 8875.00000   85.30970    0.13520   72.21220  132.33220
 8875.50000   88.81030    0.13100   72.49450  134.00510
 8876.00000   89.31000    0.12550   72.93080  136.10350
 8876.50000   87.73060    0.12640   73.48840  136.44080
 8877.00000   85.62800    0.12830   73.90940  135.09370
 8877.50000   83.57410    0.12610   73.97170  131.98040
 8878.00000   83.00450    0.12240   71.01070  131.32060
 8878.50000   83.96200    0.11880   71.30330  137.90500
 8879.00000   84.73220    0.11820   73.90570  140.26420
 8879.50000   84.98270    0.11760   76.46540  141.42080
 8880.00000   86.41960    0.13350   78.05870  140.29480
 8880.50000   87.85650    0.13800   77.90280  139.94550
 8881.00000   89.29340    0.15060   76.83680  140.14180
 8881.50000   90.70900    0.16280   74.68590  141.35310
 8882.00000   92.05750    0.17220   75.68420  145.32840
 8882.50000   93.40590    0.17810   77.15220  147.57720
 8883.00000   94.58840    0.18250   77.37060  149.39640
