~Version ---------------------------------------------------
VERS.   2.0 : CWLS log ASCII Standard -VERSION 2.0
WRAP.    NO : One line per depth step
DLM . SPACE : Column Data Section Delimiter
~Well ------------------------------------------------------
STRT .F                 8097.0 : START DEPTH
STOP .F                10276.0 : STOP DEPTH
STEP .F                    0.5 : STEP
NULL .                -9999.25 : NULL VALUE
COMP .                         : COMPANY
WELL .                         : WELL
FLD  .                         : FIELD
LOC  .                         : LOCATION
PROV .                         : PROVINCE
CNTY .                         : COUNTY
STAT .                         : STATE
CTRY .                         : COUNTRY
SRVC .                         : SERVICE COMPANY
DATE .                         : DATE
UWI  .                         : UNIQUE WELL ID
API  .                         : API NUMBER
SLAT .WGS84  6.137540532500793 : SURFACE LATITUDE
SLON .WGS84 3.9483581819232967 : SURFACE LONGITUDE
DATUM.F                2047.21 : DEPTH DATUM ELEV
~Curve Information -----------------------------------------
DEPT.F     : 
GRD .GAPI  : GAMMA RAY
NPHI.DEC   : NEUTRON POROSITY LIMESTONE
DTCO.US/F  : COMPRESSIONAL-WAVE INTERVAL TRANSIT TIME ACOUSTIC SLOWNESS
DTSM.US/F  : SHEAR-WAVE INTERVAL TRANSIT TIME DELTA-T
~Params ----------------------------------------------------
~Other -----------------------------------------------------
~ASCII -----------------------------------------------------
# ...
 9813.00000   62.67760    0.04640  131.92680  149.68040
 9813.50000   63.17580    0.04730  134.46660  149.92940
 9814.00000   63.77530    0.05060  131.83650  149.92940
 9814.50000   64.37480    0.05370  122.34850  149.92940
 9815.00000   64.76630    0.05370  117.34160  149.76740
 9815.50000   65.05780    0.04820  111.48370  149.14050
 9816.00000   65.31090    0.04800  102.96240  148.63270
 9816.50000   65.56410    0.04840   93.97730  148.11890
 9817.00000   65.93910    0.05010   93.38780  146.66340
 9817.50000   66.23860    0.05240  105.11990  144.75450
 9818.00000   64.66210    0.05420  122.19250  143.18980
 9818.50000   65.38650    0.05500  122.65690  142.86710
 9819.00000   65.67330    0.05480  116.85130  142.78150
 9819.50000   65.38370    0.05310  111.46520  142.69580
 9820.00000   64.43330    0.04770   99.85280  142.35550
 9820.50000   63.60300    0.04750   94.51310  141.15050
 9821.00000   63.86820    0.04920   91.87470  139.29270
 9821.50000   64.46890    0.05140   90.25320  134.46520
 9822.00000   65.90820    0.05120   99.88990  130.97270
 9822.50000   67.20630    0.04900  108.56630  128.85960
 9823.00000   66.94800    0.04540  117.00740  128.71540
 9823.50000   66.42520    0.04240  118.99670  128.64650
 9824.00000   65.83880    0.04190  116.30040  128.66030
 9824.50000   65.25240    0.04540  112.86200  128.66140
 9825.00000   64.66590    0.05020  108.43170  128.59370
 9825.50000   64.10280    0.04940   96.80770  127.99340
 9826.00000   63.51400    0.04650   83.02790  127.82440
 9826.50000   63.00280    0.04720   73.34310  129.38220
 9827.00000   63.64820    0.05240   69.57880  130.29720
 9827.50000   64.37480    0.05550   67.98750  130.54140
 9828.00000   64.22520    0.05510   69.81210  130.12740
 9828.50000   64.14840    0.05090   76.88600  129.72070
 9829.00000   64.33700    0.04960   80.63990  129.63040
 9829.50000   64.83030    0.05390   81.67100  130.33300
 9830.00000   68.35680    0.05960   82.39520  132.42660
 9830.50000   70.95110    0.06190   83.03520  133.62170
 9831.00000   70.14030    0.06020   82.92710  132.57560
 9831.50000   69.26420    0.05700   82.54330  131.35140
 9832.00000   68.38810    0.05370   82.53370  130.39500
 9832.50000   67.27850    0.05080   83.00410  132.02990
 9833.00000   65.83850    0.05280   83.73280  133.75330
 9833.50000   65.99480    0.05520   84.50680  135.81750
 9834.00000   66.65450    0.05640   92.10810  139.29820
 9834.50000   67.43030    0.05520  106.73740  150.33460
 9835.00000   68.31720    0.05420  116.78970  156.32040
 9835.50000   69.42730    0.05500  119.93150  157.50960
 9836.00000   71.57900    0.05660  119.26900  157.60910
 9836.50000   73.84840    0.06260  114.87370  157.49390
 9837.00000   74.44910    0.06610  110.15600  157.45440
 9837.50000   72.08740    0.06590  105.13930  157.48930
 9838.00000   69.72570    0.06560  104.96700  157.53630
 9838.50000   67.49550    0.06440  110.45260  157.58330
 9839.00000   66.18080    0.06330  116.39000  157.65340
 9839.50000   67.16300    0.06220  123.31620  157.72780
 9840.00000   68.29700    0.06110  128.41860  157.73160
 9840.50000   69.43110    0.05990  125.88870  157.54230
 9841.00000   69.66260    0.05950  122.06670  156.92340
 9841.50000   71.01690    0.06200  115.10130  152.27970
 9842.00000   72.68830    0.06600  105.19530  138.88480
 9842.50000   74.38320    0.06770   96.72550  130.91970
 9843.00000   74.69830    0.06860   94.87110  134.59580
 9843.50000   73.92720    0.06860   94.92460  135.77930
 9844.00000   72.20640    0.06900   93.67810  133.11590
 9844.50000   70.50770    0.06970   90.74570  129.29880
 9845.00000   70.50660    0.07110   90.56300  127.88450
 9845.50000   70.97830    0.07250   91.74480  129.27820
 9846.00000   72.81710    0.07380   92.44880  130.55400
 9846.50000   73.51670    0.07430   87.62340  129.84430
 9847.00000   74.13270    0.07350   82.14430  128.20880
 9847.50000   73.24760    0.07150   76.98270  127.10440
 9848.00000   71.02900    0.06380   68.91200  129.55630
 9848.50000   69.53000    0.06260   63.42550  131.87600
 9849.00000   69.39430    0.07230   62.40060  132.43830
 9849.50000   71.49500    0.08380   62.28860  132.87930
 9850.00000   72.37120    0.08900   62.46890  132.97950
 9850.50000   72.86210    0.08960   62.99920  133.25390
 9851.00000   73.15180    0.08670   63.98370  134.22130
 9851.50000   72.93250    0.07770   64.82300  135.38490
 9852.00000   71.27850    0.06070   64.87560  135.08230
 9852.50000   69.56610    0.03890   63.84040  133.49660
 9853.00000   68.51850    0.03960   62.84290  131.87560
 9853.50000   77.90420    0.07140   62.22910  130.01560
 9854.00000   87.25520    0.11460   63.12230  129.23180
 9854.50000   87.75920    0.11590   65.11180  133.27860
 9855.00000   83.04890    0.11260   67.20150  134.37160
 9855.50000   77.93170    0.10100   68.41530  133.25380
 9856.00000   71.55260    0.08060   67.65160  131.03040
 9856.50000   73.14230    0.07810   66.25530  129.03750
 9857.00000   78.54760    0.08830   66.41610  128.88240
 9857.50000   86.63850    0.10150   68.39780  129.59060
 9858.00000   93.83870    0.11640   71.78170  132.01310
 9858.50000   95.34080    0.12780   74.53580  137.19590
 9859.00000   95.29240    0.14280   75.95770  139.56780
 9859.50000   95.03000    0.15060   76.31210  141.35320
 9860.00000   94.97730    0.15750   76.68430  146.36430
 9860.50000   94.92460    0.15930   77.22940  150.95860
 9861.00000   95.01330    0.16010   78.43140  151.16460
 9861.50000   95.25750    0.15990   78.72520  149.99520
 9862.00000   97.28530    0.15840   78.19730  147.85510
 9862.50000   99.64770    0.15620   77.55570  144.26760
 9863.00000   99.62490    0.15400   77.22410  142.55490
 9863.50000   99.30690    0.15060   76.90400  140.97630
 9864.00000   97.60130    0.14100   76.69480  139.21510
 9864.50000   97.07260    0.14180   76.60420  137.54290
 9865.00000   97.01410    0.14760   76.61010  136.31880
 9865.50000   96.83910    0.15010   76.61600  135.42760
 9866.00000   97.38480    0.15120   76.76500  137.04130
 9866.50000   99.22860    0.15300   77.09420  138.84000
 9867.00000  100.47340    0.15710   77.38420  140.40420
 9867.50000  101.67650    0.16140   78.67600  141.72300
 9868.00000  100.82610    0.16500   78.77950  143.50950
 9868.50000   99.27070    0.16470   77.45900  145.29590
 9869.00000   98.71100    0.16210   78.33280  145.44360
 9869.50000   98.39560    0.15360   78.84920  144.64510
 9870.00000   98.11410    0.15410   78.58600  142.26000
 9870.50000   97.52120    0.15520   77.65420  142.57260
 9871.00000   96.92840    0.15330   77.44000  143.41350
 9871.50000   96.49900    0.14630   77.37970  143.28610
 9872.00000   96.73320    0.14500   76.63830  142.18020
 9872.50000   97.38340    0.14710   76.36340  143.04050
 9873.00000   97.63130    0.15170   76.42570  144.37860
 9873.50000   97.76510    0.16080   76.64930  145.61010
 9874.00000   96.74540    0.16690   77.29690  146.17600
 9874.50000   95.57680    0.16580   77.67190  145.36050
 9875.00000   95.15010    0.16280   77.71140  146.40030
 9875.50000   95.46580    0.15150   77.61380  147.54990
 9876.00000   96.85340    0.15150   77.51630  146.33780
 9876.50000   99.00650    0.15710   77.42710  143.28870
 9877.00000   99.18810    0.16160   77.43000  144.22880
 9877.50000   99.29360    0.16510   77.48840  144.03000
 9878.00000  100.01920    0.16120   77.48200  142.63190
 9878.50000  101.04000    0.16010   77.42770  140.71270
 9879.00000  100.45100    0.16270   77.43250  140.18000
 9879.50000   99.66670    0.16490   77.43730  140.79320
 9880.00000   98.31000    0.16480   77.62010  144.00400
 9880.50000   97.97680    0.16200   77.74830  146.45460
 9881.00000   97.39390    0.15490   77.65750  146.28410
 9881.50000   97.19200    0.14760   77.56680  145.10490
 9882.00000   98.42280    0.14200   77.60660  144.31820
 9882.50000  100.06600    0.14540   77.66850  143.77130
 9883.00000  100.08490    0.15200   77.73030  143.72710
 9883.50000   99.33090    0.15970   77.78410  143.52890
 9884.00000   98.65830    0.16480   77.55070  143.32880
