~Version ---------------------------------------------------
VERS.   2.0 : CWLS log ASCII Standard -VERSION 2.0
WRAP.    NO : One line per depth step
DLM . SPACE : Column Data Section Delimiter
~Well ------------------------------------------------------
STRT .F                 8097.0 : START DEPTH
STOP .F                10276.0 : STOP DEPTH
STEP .F                    0.5 : STEP
NULL .                -9999.25 : NULL VALUE
COMP .                         : COMPANY
WELL .                         : WELL
FLD  .                         : FIELD
LOC  .                         : LOCATION
PROV .                         : PROVINCE
CNTY .                         : COUNTY
STAT .                         : STATE
CTRY .                         : COUNTRY
SRVC .                         : SERVICE COMPANY
DATE .                         : DATE
UWI  .                         : UNIQUE WELL ID
API  .                         : API NUMBER
SLAT .WGS84  6.137540532500793 : SURFACE LATITUDE
SLON .WGS84 3.9483581819232967 : SURFACE LONGITUDE
DATUM.F                2047.21 : DEPTH DATUM ELEV
~Curve Information -----------------------------------------
DEPT.F     : 
GRD .GAPI  : GAMMA RAY
NPHI.DEC   : NEUTRON POROSITY LIMESTONE
DTCO.US/F  : COMPRESSIONAL-WAVE INTERVAL TRANSIT TIME ACOUSTIC SLOWNESS
DTSM.US/F  : SHEAR-WAVE INTERVAL TRANSIT TIME DELTA-T
~Params ----------------------------------------------------
~Other -----------------------------------------------------
~ASCII -----------------------------------------------------
# ...
 8669.00000   91.19080    0.20980   83.05430  146.68250
 8669.50000   88.91240    0.20590   81.04300  144.31790
 8670.00000   87.34700    0.19330   77.93240  144.19110
 8670.50000   90.77520    0.17960   78.95320  147.70630
 8671.00000   93.81310    0.17810   82.22910  151.33430
 8671.50000   94.91150    0.19790   83.86750  153.70090
 8672.00000   95.65960    0.25270   85.24250  156.31980
 8672.50000   96.26230    0.27900   87.45220  159.86760
 8673.00000   96.62230    0.30530   90.73450  163.18710
 8673.50000   97.84660    0.31220   91.75270  164.79560
 8674.00000   98.96950    0.28490   91.88380  163.17640
 8674.50000  100.11620    0.26590   91.82590  160.66700
 8675.00000   99.51270    0.26120   91.49600  159.62790
 8675.50000   97.79580    0.24210   90.66970  158.97090
 8676.00000   94.09460    0.22040   86.48300  157.33410
 8676.50000   91.01360    0.16220   78.77620  153.08300
 8677.00000   90.39470    0.14750   76.60390  149.15190
 8677.50000   91.09990    0.15220   75.70320  147.86060
 8678.00000   93.38300    0.17140   77.58590  150.31960
 8678.50000   96.01850    0.18800   81.19380  154.00710
 8679.00000   97.40860    0.20190   83.04740  156.67370
 8679.50000   98.70030    0.22420   84.37700  159.35460
 8680.00000   99.61560    0.24130   85.09350  163.91510
 8680.50000   97.70320    0.24710   85.84530  164.77800
 8681.00000   96.83970    0.25010   86.96810  164.69920
 8681.50000   96.38930    0.24100   88.21410  163.65330
 8682.00000   96.90270    0.22620   86.78130  161.82680
 8682.50000   98.83560    0.21380   85.05480  157.93270
 8683.00000  100.41660    0.21100   85.11250  157.43280
 8683.50000  101.75120    0.20200   85.29390  156.64290
 8684.00000  102.76730    0.22480   85.87340  154.80330
 8684.50000  102.79880    0.24810   86.70620  152.68040
 8685.00000  101.34970    0.26680   85.95600  149.99830
 8685.50000  100.03620    0.27910   85.60530  147.59540
 8686.00000   98.88880    0.28100   86.46480  146.83920
 8686.50000   98.39950    0.27700   87.92110  145.64440
 8687.00000   98.60100    0.25730   86.44430  142.66010
 8687.50000  101.06680    0.23920   85.98970  140.27800
 8688.00000  102.95190    0.22370   86.58740  138.33680
 8688.50000  115.42580    0.24290   90.33640  137.04590
 8689.00000  128.19840    0.31800   93.93450  136.86240
 8689.50000  147.71080    0.38190   97.56690  137.60010
 8690.00000  167.22320    0.29040   97.30530  138.94120
 8690.50000  159.17680    0.20660   91.73930  141.66520
 8691.00000  118.93600    0.13540   85.72930  148.05710
 8691.50000   78.95170    0.06720   77.20700  154.26390
 8692.00000   47.89840    0.01900   65.16390  156.27910
 8692.50000   38.25070    0.01080   56.23950  156.15650
 8693.00000   41.89390    0.01680   51.95480  155.72910
 8693.50000   48.21790    0.02940   51.26930  155.65040
 8694.00000   58.49060    0.06270   52.29980  155.68980
 8694.50000   75.37460    0.10090   56.98060  155.72920
 8695.00000   84.84900    0.13900   65.81600  155.73200
 8695.50000   89.21450    0.17710   73.58900  155.72810
 8696.00000   92.12430    0.21090   80.31610  155.72140
 8696.50000   93.14550    0.21350   80.78730  155.71190
 8697.00000   91.71370    0.20730   80.42710  155.70230
 8697.50000   92.10280    0.20270   79.99250  155.69270
 8698.00000   93.38560    0.20060   79.55400  155.68870
 8698.50000   94.70330    0.19740   79.09520  155.68770
 8699.00000   95.55800    0.19420   78.63530  155.68660
 8699.50000   96.09990    0.17590   77.94830  155.80580
 8700.00000   94.91670    0.17350   77.06070  155.54010
 8700.50000   93.53230    0.17890   75.72800  155.40850
 8701.00000   92.12720    0.18600   74.59920  155.36270
 8701.50000   91.96100    0.19150   73.13420  155.32320
 8702.00000   92.95610    0.19690   73.53290  156.21310
 8702.50000   94.83970    0.20240   75.47030  157.96240
 8703.00000   96.15290    0.21530   77.39880  159.71160
 8703.50000   96.85060    0.23030   78.49380  160.75370
 8704.00000   98.18520    0.25110   80.26340  162.63320
 8704.50000   96.24990    0.25350   82.58720  165.10640
 8705.00000   95.26730    0.25110   83.09600  166.58510
 8705.50000   94.77620    0.24540   82.98410  164.35660
 8706.00000   94.74030    0.23580   80.54490  158.86600
 8706.50000   94.73800    0.23310   79.38920  154.82900
 8707.00000   95.20930    0.23680   80.39130  154.21160
 8707.50000   96.01430    0.24030   77.19190  151.36940
 8708.00000   96.68190    0.24310   77.94240  150.64170
 8708.50000   96.22800    0.24660   79.15910  152.99910
 8709.00000   96.33280    0.25030   79.92390  153.81710
 8709.50000   96.91680    0.24980   80.53250  154.65500
 8710.00000   96.28880    0.23870   80.92890  155.83950
 8710.50000   94.51770    0.22340   81.07280  156.48500
 8711.00000   91.97270    0.22850   81.26010  156.67310
 8711.50000   89.73580    0.25410   81.48850  156.87210
 8712.00000   88.31220    0.27860   81.56350  156.99530
 8712.50000   89.10710    0.26950   81.35980  156.84810
 8713.00000   89.52120    0.25360   80.80600  156.06930
 8713.50000   89.95780    0.23770   79.88760  153.83120
 8714.00000   92.23310    0.22330   79.78890  152.75910
 8714.50000   94.13040    0.21830   80.43210  153.97000
 8715.00000   94.34580    0.21760   81.06360  155.40370
 8715.50000   94.82010    0.23100   81.60610  156.23440
 8716.00000   96.69430    0.24140   82.03900  159.78750
 8716.50000   96.11530    0.24740   81.42680  163.68920
 8717.00000   95.16220    0.25080   81.08840  167.08150
 8717.50000   91.83760    0.25430   80.76620  171.04290
 8718.00000   92.93290    0.25020   80.55670  172.22950
 8718.50000   96.92280    0.23840   80.50520  169.48820
 8719.00000   99.25830    0.22940   80.45380  166.53780
 8719.50000  100.43510    0.22910   80.50640  161.86790
 8720.00000   99.84060    0.22900   80.64870  156.27450
 8720.50000   99.23880    0.22940   80.79090  153.16970
 8721.00000   98.38250    0.22970   80.93320  152.88340
 8721.50000   97.82840    0.22950   80.94210  152.60040
 8722.00000   97.99820    0.22910   80.54690  152.14820
 8722.50000   99.32210    0.22870   80.10380  152.03000
 8723.00000  100.31020    0.22830   79.97890  152.32480
 8723.50000   99.56670    0.22810   79.85400  152.56360
 8724.00000   96.50850    0.22740   79.67390  152.55640
 8724.50000   93.64800    0.22580   79.28740  152.07000
 8725.00000   93.05420    0.22400   79.00440  150.44200
 8725.50000   92.86160    0.22180   78.98560  149.84490
 8726.00000   92.89160    0.21940   79.62600  151.11250
 8726.50000   92.96040    0.21760   81.27780  152.31340
 8727.00000   92.98140    0.21700   81.81500  151.53000
 8727.50000   92.82860    0.21770   77.75670  148.67780
 8728.00000   93.70810    0.21950   80.76780  146.90380
 8728.50000   94.86170    0.22030   79.16870  150.17240
 8729.00000   95.81590    0.22100   79.11950  153.89980
 8729.50000   97.07270    0.22060   81.04760  156.45690
 8730.00000   97.89670    0.21880   81.44790  156.67660
 8730.50000   99.67840    0.21650   79.27840  153.24260
 8731.00000  101.48180    0.21360   78.45390  151.32990
 8731.50000  102.39290    0.21350   77.40880  150.36890
 8732.00000  103.03160    0.21490   77.28390  152.01810
 8732.50000  103.93670    0.21630   77.68000  156.20670
 8733.00000  103.98300    0.21760   78.34670  159.36110
 8733.50000  104.06280    0.21790   79.59850  160.74180
 8734.00000  104.21530    0.21360   81.17900  161.46080
 8734.50000  104.61240    0.19980   81.05500  162.17680
 8735.00000  105.59060    0.19100   79.69560  162.27030
 8735.50000  106.17840    0.18630   78.09950  161.89470
 8736.00000  106.55180    0.20580   77.28410  159.43680
 8736.50000  105.60920    0.21670   78.10090  158.17450
 8737.00000  104.58060    0.22080   78.96950  158.26300
 8737.50000  103.66220    0.22480   80.50790  159.76970
 8738.00000  103.74090    0.22640   82.98370  160.50640
 8738.50000  104.09360    0.22690   84.53130  160.07140
 8739.00000  104.05560    0.22660   84.57950  158.58210
 8739.50000  103.30940    0.22440   83.40720  157.67880
 8740.00000   97.83450    0.22190   82.12970  154.46510
