~Version ---------------------------------------------------
VERS.   2.0 : CWLS log ASCII Standard -VERSION 2.0
WRAP.    NO : One line per depth step
DLM . SPACE : Column Data Section Delimiter
~Well ------------------------------------------------------
STRT .F                 8097.0 : START DEPTH
STOP .F                10276.0 : STOP DEPTH
STEP .F                    0.5 : STEP
NULL .                -9999.25 : NULL VALUE
COMP .                         : COMPANY
WELL .                         : WELL
FLD  .                         : FIELD
LOC  .                         : LOCATION
PROV .                         : PROVINCE
CNTY .                         : COUNTY
STAT .                         : STATE
CTRY .                         : COUNTRY
SRVC .                         : SERVICE COMPANY
DATE .                         : DATE
UWI  .                         : UNIQUE WELL ID
API  .                         : API NUMBER
SLAT .WGS84  6.137540532500793 : SURFACE LATITUDE
SLON .WGS84 3.9483581819232967 : SURFACE LONGITUDE
DATUM.F                2047.21 : DEPTH DATUM ELEV
~Curve Information -----------------------------------------
DEPT.F     : 
GRD .GAPI  : GAMMA RAY
NPHI.DEC   : NEUTRON POROSITY LIMESTONE
DTCO.US/F  : COMPRESSIONAL-WAVE INTERVAL TRANSIT TIME ACOUSTIC SLOWNESS
DTSM.US/F  : SHEAR-WAVE INTERVAL TRANSIT TIME DELTA-T
~Params ----------------------------------------------------
~Other -----------------------------------------------------
~ASCII -----------------------------------------------------
# ...
 10097.50000   99.70750    0.23000   86.24230  168.38910
 10098.00000   99.54300    0.21940   86.44600  168.38920
 10098.50000   98.26710    0.21430   87.28840  168.38930
 10099.00000   97.12260    0.21280   87.43290  168.38940
 10099.50000   96.77140    0.21060   85.88640  168.38950
 10100.00000   97.75810    0.20790   82.34860  168.38960
 10100.50000   98.07420    0.20260   83.56070  168.38970
 10101.00000   97.28010    0.19750   83.47020  168.38970
 10101.50000   96.22130    0.19380   81.28800  168.38980
 10102.00000   91.89290    0.17890   79.09350  168.38990
 10102.50000   87.00270    0.15930   79.88990  168.39000
 10103.00000   87.44310    0.15120   80.75930  168.39010
 10103.50000   89.61830    0.15500   77.46170  168.39020
 10104.00000   91.58040    0.16180   76.98650  168.38370
 10104.50000   91.91200    0.16750   78.54370  168.34950
 10105.00000   92.36880    0.17070   78.71360  168.33170
 10105.50000   93.92880    0.17200   77.92910  168.32530
 10106.00000   96.47570    0.17450   77.06820  168.31900
 10106.50000   96.45690    0.17810   77.09820  168.31260
 10107.00000   94.74380    0.18350   77.50140  168.30620
 10107.50000   91.30520    0.20850   78.59780  168.29980
 10108.00000   88.52500    0.21990   82.10120  168.29350
 10108.50000   93.95670    0.22880   83.48110  168.28710
 10109.00000   94.31710    0.22350   82.51030  168.28070
 10109.50000   93.23460    0.21390   83.28140  168.27430
 10110.00000   99.23140    0.20970   85.43590  168.26790
 10110.50000   98.11200    0.25200   85.56320  168.26160
 10111.00000   96.74290    0.26970   84.40420  168.25520
 10111.50000   96.52520    0.27970   84.05230  168.24880
 10112.00000   97.36750    0.28040   86.55700  168.24240
 10112.50000   98.39940    0.24570   88.33090  168.23610
 10113.00000   99.09230    0.21580   87.79170  168.22970
 10113.50000   98.65640    0.23690   86.39160  168.22330
 10114.00000   94.97050    0.28840   88.35680  168.21690
 10114.50000   93.43660    0.30080   89.95600  168.21340
 10115.00000   92.82370    0.30080   91.50340  168.23490
 10115.50000   93.57730    0.30080   92.19600  168.29580
 10116.00000   95.65300    0.30080   89.84830  168.32810
 10116.50000   97.59960    0.25860   86.88340  168.27420
 10117.00000   98.56140    0.23270   85.84890  168.22030
 10117.50000   98.73600    0.22350   86.36370  168.16640
 10118.00000   98.73600    0.22180   86.85170  166.08960
 10118.50000   98.23640    0.22000   86.08180  158.07110
 10119.00000   96.63070    0.21490   84.57080  149.29860
 10119.50000   91.76970    0.18150   81.33090  139.81220
 10120.00000   78.36870    0.13050   75.49600  132.16420
 10120.50000   75.84320    0.10470   69.62890  127.71280
 10121.00000   75.52220    0.13010   68.01780  127.46100
 10121.50000   78.50770    0.13480   67.99090  127.59050
 10122.00000   82.16410    0.13610   69.53350  127.97660
 10122.50000   85.35570    0.13660   71.69380  128.47320
 10123.00000   87.40470    0.13870   73.60950  129.24370
 10123.50000   89.45360    0.14280   75.03800  129.94770
 10124.00000   90.08490    0.14740   76.46650  134.41540
 10124.50000   90.26110    0.14860   77.07310  135.92720
 10125.00000   90.20990    0.14630   77.33750  136.20030
 10125.50000   90.15860    0.14100   78.14210  136.84080
 10126.00000   90.10740    0.15570   79.26600  138.62970
 10126.50000   90.06590    0.18740   80.50130  141.46710
 10127.00000   90.07010    0.20860   80.81460  142.24570
 10127.50000   91.19710    0.21620   81.68730  143.77870
 10128.00000   95.74900    0.20730   85.47680  147.65620
 10128.50000   95.66350    0.19390   86.85930  151.59280
 10129.00000   95.25120    0.18980   86.65740  150.15980
 10129.50000   95.63940    0.19160   84.58640  147.19090
 10130.00000  102.04670    0.20030   83.27050  143.68400
 10130.50000  101.79360    0.20850   83.58050  142.66490
 10131.00000  100.41580    0.21560   84.65110  142.52870
 10131.50000   97.76070    0.22180   85.92050  142.48220
 10132.00000   94.73490    0.22110   87.40660  142.44180
 10132.50000   94.50450    0.20960   88.92280  142.33950
 10133.00000   94.99400    0.19550   89.67580  142.34080
 10133.50000   97.25410    0.18440   88.94050  142.33740
 10134.00000  100.91960    0.19110   88.39710  142.33410
 10134.50000  102.49250    0.19280   87.36300  142.33080
 10135.00000  104.06540    0.18910   86.50400  142.32740
 10135.50000  105.63830    0.18580   86.34390  142.32410
 10136.00000  108.62490    0.18600   86.66550  142.32080
 10136.50000  113.03040    0.22790   87.47790  142.31740
 10137.00000  117.43600    0.25530   89.02740  142.31410
 10137.50000  125.45330    0.27650   91.17490  142.31080
 10138.00000  141.47960    0.28720   97.98620  142.30750
 10138.50000  146.71590    0.29120  103.15420  142.30410
 10139.00000  139.02950    0.28960   99.97940  142.30080
 10139.50000  128.69620    0.22250   93.56350  142.29750
 10140.00000   97.31110    0.17700   79.73460  142.29410
 10140.50000   87.03700    0.17740   75.60690  142.29080
 10141.00000   87.26390    0.19440   76.19820  142.28750
 10141.50000   89.49390    0.21480   78.34050  142.28410
 10142.00000   92.57090    0.26160   83.58620  142.28080
 10142.50000   93.67150    0.29960   92.48760  142.29290
 10143.00000   93.67150    0.29970   94.41520  142.30610
 10143.50000   93.03940    0.29980   94.64590  142.31930
 10144.00000   92.06280    0.27730   90.36040  142.33250
 10144.50000   91.07540    0.20070   85.64890  142.34570
 10145.00000   90.29040    0.19020   83.28110  142.35890
 10145.50000   90.24190    0.17970   81.13250  142.37210
 10146.00000   93.75600    0.17840   78.75260  142.38530
 10146.50000   95.68600    0.18230   77.98420  142.39850
 10147.00000   96.73420    0.18890   80.93860  142.41160
 10147.50000   97.91840    0.19650   82.12340  142.42480
 10148.00000  100.35980    0.20230   82.80170  142.43800
 10148.50000  102.34870    0.20290   83.71840  142.45120
 10149.00000  103.78630    0.20250   85.28550  142.46440
 10149.50000  102.20730    0.20270   86.92540  142.47620
 10150.00000  100.36780    0.20420   88.13470  142.46030
 10150.50000   98.80380    0.20620   88.12070  142.44430
 10151.00000   97.70360    0.20630   87.29130  142.42840
 10151.50000   96.88450    0.20250   86.24710  142.41240
 10152.00000   96.06530    0.19410   86.65580  142.39650
 10152.50000   94.94280    0.18660   88.31310  142.38050
 10153.00000   93.46190    0.19080   87.45730  142.53960
 10153.50000   89.86970    0.18560   83.69740  142.96070
 10154.00000   80.08230    0.17160   79.98670  143.53080
 10154.50000   77.85560    0.14580   78.45570  144.60910
 10155.00000   80.27180    0.14710   78.37620  145.22570
 10155.50000   85.73830    0.16450   78.92760  143.57390
 10156.00000   89.98020    0.16500   80.52030  144.81620
 10156.50000   92.62690    0.16230   80.50030  146.67960
 10157.00000   90.63620    0.14910   79.80780  147.89990
 10157.50000   88.72060    0.14020   78.68550  147.88280
 10158.00000   87.07310    0.14330   77.78680  143.65600
 10158.50000   87.07890    0.14890   77.44950  139.49600
 10159.00000   86.81380    0.15090   77.53850  140.83840
 10159.50000   86.23950    0.15670   77.74390  142.17800
 10160.00000   83.61240    0.16910   77.95370  140.62970
 10160.50000   81.61360    0.18330   78.16340  140.63560
 10161.00000   79.87810    0.18610   78.91470  141.29380
 10161.50000   79.48540    0.18670   82.13340  143.70550
 10162.00000   81.41270    0.18710   83.92550  146.50480
 10162.50000   86.22160    0.18810   82.21710  148.13330
 10163.00000   88.14950    0.19040   82.81320  149.43080
 10163.50000   89.14440    0.19710   85.14640  152.46240
 10164.00000   90.51540    0.21150   86.85720  156.13190
 10164.50000   92.10480    0.20750   85.80760  155.17820
 10165.00000   93.83130    0.20110   82.86220  151.91200
 10165.50000   95.72100    0.18400   83.03910  151.42700
 10166.00000   97.61060    0.16790   85.65510  153.80130
 10166.50000  108.41610    0.16570   83.56490  145.00110
 10167.00000  112.75640    0.16620   82.86070  139.10730
 10167.50000  117.09670    0.16920   83.45390  136.86680
