~Version ---------------------------------------------------
VERS.   2.0 : CWLS log ASCII Standard -VERSION 2.0
WRAP.    NO : One line per depth step
DLM . SPACE : Column Data Section Delimiter
~Well ------------------------------------------------------
STRT .F                 8097.0 : START DEPTH
STOP .F                10276.0 : STOP DEPTH
STEP .F                    0.5 : STEP
NULL .                -9999.25 : NULL VALUE
COMP .                         : COMPANY
WELL .                         : WELL
FLD  .                         : FIELD
LOC  .                         : LOCATION
PROV .                         : PROVINCE
CNTY .                         : COUNTY
STAT .                         : STATE
CTRY .                         : COUNTRY
SRVC .                         : SERVICE COMPANY
DATE .                         : DATE
UWI  .                         : UNIQUE WELL ID
API  .                         : API NUMBER
SLAT .WGS84  6.137540532500793 : SURFACE LATITUDE
SLON .WGS84 3.9483581819232967 : SURFACE LONGITUDE
DATUM.F                2047.21 : DEPTH DATUM ELEV
~Curve Information -----------------------------------------
DEPT.F     : 
GRD .GAPI  : GAMMA RAY
NPHI.DEC   : NEUTRON POROSITY LIMESTONE
DTCO.US/F  : COMPRESSIONAL-WAVE INTERVAL TRANSIT TIME ACOUSTIC SLOWNESS
DTSM.US/F  : SHEAR-WAVE INTERVAL TRANSIT TIME DELTA-T
~Params ----------------------------------------------------
~Other -----------------------------------------------------
~ASCII -----------------------------------------------------
# ...
 8240.00000   89.78020    0.15840   73.69520  140.25310
 8240.50000   70.84050    0.11410   70.69430  159.61130
 8241.00000   59.07820    0.09850   69.60430  167.61490
 8241.50000   54.12980    0.09120   68.23620  168.34070
 8242.00000   47.89390    0.06580   65.90010  168.28980
 8242.50000   45.66140    0.05700   63.60280  168.33330
 8243.00000   46.76050    0.05620   62.27810  168.35120
 8243.50000   48.82860    0.05730   62.03810  168.30210
 8244.00000   51.51530    0.06040   62.86100  168.23790
 8244.50000   54.38180    0.06490   64.11410  168.28590
 8245.00000   55.48140    0.06870   65.67550  168.33400
 8245.50000   55.45540    0.07090   68.93300  168.37480
 8246.00000   54.77290    0.07000   68.39390  168.35700
 8246.50000   54.01440    0.06060   66.49050  168.33930
 8247.00000   53.32890    0.05130   72.85000  168.32150
 8247.50000   52.71350    0.04660   83.65050  168.30370
 8248.00000   52.60600    0.05180   92.42850  168.28590
 8248.50000   54.37920    0.06420   99.70210  168.26820
 8249.00000   57.08150    0.06860  100.55630  168.25200
 8249.50000   57.40240    0.06830  100.96300  168.33080
 8250.00000   55.57700    0.05980   99.87930  168.33120
 8250.50000   53.45670    0.04370   96.54800  168.33160
 8251.00000   52.02580    0.03790   93.20410  168.69050
 8251.50000   50.87450    0.03360   91.27600  169.32250
 8252.00000   48.77250    0.03190   89.30050  170.63710
 8252.50000   49.16730    0.03260   86.89190  170.20810
 8253.00000   51.16510    0.04420   81.75820  162.96270
 8253.50000   53.54820    0.05920   71.80110  151.31210
 8254.00000   57.89270    0.06990   61.48750  141.15680
 8254.50000   60.20010    0.07540   59.42690  136.16850
 8255.00000   62.11480    0.07950   61.36440  136.83260
 8255.50000   64.26180    0.08880   64.46500  139.70850
 8256.00000   67.32200    0.09870   68.30510  147.92220
 8256.50000   70.16760    0.10320   70.55970  152.78070
 8257.00000   73.01320    0.09920   71.23530  155.08090
 8257.50000   72.92410    0.08860   69.50150  153.95000
 8258.00000   67.41700    0.07020   67.83290  149.89620
 8258.50000   67.91000    0.06870   65.63290  146.18100
 8259.00000   74.81870    0.09160   63.23680  144.48640
 8259.50000   81.81570    0.10830   63.36760  144.12650
 8260.00000   89.75850    0.12300   64.78990  146.95990
 8260.50000   87.76730    0.13220   65.81330  149.42550
 8261.00000   82.21830    0.12120   66.33780  150.49810
 8261.50000   76.66920    0.10700   65.80260  150.60160
 8262.00000   67.03910    0.08510   64.78010  148.00050
 8262.50000   57.05360    0.06000   63.01690  144.19470
 8263.00000   54.15390    0.05090   61.61550  140.86080
 8263.50000   56.40470    0.05250   60.79850  139.59180
 8264.00000   61.27780    0.06060   60.56560  139.98660
 8264.50000   65.42220    0.06940   61.51330  140.89140
 8265.00000   66.98800    0.06900   62.24560  141.81170
 8265.50000   65.28030    0.06090   62.98330  142.42820
 8266.00000   62.73180    0.05260   63.29840  142.95240
 8266.50000   67.00550    0.05810   63.49370  143.54910
 8267.00000   69.48570    0.07470   63.40310  143.43250
 8267.50000   71.92670    0.08550   63.67480  143.17000
 8268.00000   78.96710    0.09420   65.74300  142.66790
 8268.50000   78.03670    0.09460   66.45740  141.98990
 8269.00000   73.83130    0.08500   64.65990  141.15820
 8269.50000   69.71200    0.07530   63.41910  137.55960
 8270.00000   65.59770    0.07230   60.75340  132.06110
 8270.50000   64.96450    0.07620   60.00420  128.71140
 8271.00000   69.00050    0.08040   60.69400  127.11780
 8271.50000   72.61900    0.08600   62.49650  126.74290
 8272.00000   76.96570    0.09560   63.97230  127.51520
 8272.50000   80.58860    0.10090   65.35410  128.37120
 8273.00000   82.17650    0.10290   66.59910  128.80730
 8273.50000   84.38920    0.10750   68.01260  129.25180
 8274.00000   88.68530    0.12180   70.16830  129.64210
 8274.50000   90.62570    0.13710   69.26430  129.06000
 8275.00000   90.58530    0.14650   69.44960  128.54500
 8275.50000   92.40960    0.15290   70.38090  128.74080
 8276.00000   95.12620    0.15190   71.66320  130.21820
 8276.50000   95.93100    0.14380   73.47680  131.97510
 8277.00000   95.57690    0.14040   75.29040  133.53370
 8277.50000   95.19030    0.14700   77.03770  134.76800
 8278.00000   96.10710    0.15490   77.38320  136.00230
 8278.50000   97.21350    0.16200   76.04310  135.46940
 8279.00000   98.20520    0.16210   74.53950  133.54810
 8279.50000   98.07080    0.15700   73.03230  131.62670
 8280.00000   96.26810    0.15280   72.33410  130.82180
 8280.50000   94.24200    0.14870   72.77180  130.98120
 8281.00000   93.02920    0.14330   72.80850  131.21310
 8281.50000   91.28040    0.13610   73.14540  131.26350
 8282.00000   93.52130    0.13840   72.53240  130.40420
 8282.50000   95.76210    0.15220   71.85880  130.23470
 8283.00000   98.86830    0.15750   72.05830  130.46880
 8283.50000  101.38800    0.16000   72.50350  131.66040
 8284.00000  100.84420    0.15860   74.10250  132.82810
 8284.50000   99.91700    0.15520   74.99260  132.88290
 8285.00000   99.26990    0.15550   73.80890  131.94790
 8285.50000   98.69680    0.15890   71.21750  130.24430
 8286.00000   98.22000    0.16780   70.23120  131.93220
 8286.50000   97.74540    0.17690   72.71440  144.19710
 8287.00000   98.29700    0.18600   73.43580  149.36000
 8287.50000   99.13480    0.19600   72.84190  151.04270
 8288.00000   99.92190    0.20410   71.96940  151.31450
 8288.50000  100.68490    0.20220   74.67210  151.54200
 8289.00000  100.68450    0.19770   73.41000  151.54680
 8289.50000  100.82330    0.19310   70.60530  151.55170
 8290.00000  103.25590    0.21060   72.82230  151.41980
 8290.50000  102.06350    0.23270   75.36630  150.86570
 8291.00000  100.96340    0.25080   76.50660  150.74390
 8291.50000   99.21320    0.25900   77.65020  150.73300
 8292.00000   96.90170    0.24830   78.93640  151.20660
 8292.50000   94.74210    0.25030   79.72960  152.12980
 8293.00000   95.47020    0.26560   80.27970  154.79030
 8293.50000   96.73620    0.30110   81.55650  158.78970
 8294.00000   97.18350    0.31750   82.86390  162.48660
 8294.50000   97.31370    0.30570   84.12270  166.18360
 8295.00000   97.76590    0.26450   86.09720  169.31150
 8295.50000   98.89810    0.25320   86.54000  172.44020
 8296.00000  100.42200    0.24410   84.55020  172.34630
 8296.50000  100.60350    0.23870   80.95710  168.30060
 8297.00000   99.64250    0.23340   81.19390  166.60420
 8297.50000   98.70300    0.22800   78.63200  165.47430
 8298.00000   97.18260    0.23400   79.95120  166.36890
 8298.50000   95.17860    0.23930   80.82190  167.38140
 8299.00000   94.03540    0.23820   80.97780  167.27830
 8299.50000   94.40140    0.22890   81.38410  166.86790
 8300.00000   96.25650    0.22560   81.77340  165.95820
 8300.50000   97.92870    0.23530   82.03320  164.63170
 8301.00000   98.73070    0.24050   82.29300  164.37560
 8301.50000   98.60930    0.24010   82.42700  164.64790
 8302.00000   99.39350    0.23730   82.14110  164.48930
 8302.50000  100.85370    0.22820   81.59550  163.76750
 8303.00000  101.96160    0.21910   80.39670  161.06970
 8303.50000  101.14720    0.20990   78.41090  157.71950
 8304.00000   99.76170    0.20130   76.24710  151.79330
 8304.50000   99.85050    0.19600   76.66050  153.88070
 8305.00000  101.13200    0.20860   77.87820  155.98920
 8305.50000  101.17260    0.22480   78.02710  156.45350
 8306.00000   99.98200    0.28400   78.04870  156.47320
 8306.50000   98.73860    0.27050   78.10580  156.51370
 8307.00000   97.85650    0.24790   79.05110  157.44800
 8307.50000   97.44380    0.22060   81.03070  161.86740
 8308.00000   97.80500    0.19710   81.41080  164.53570
 8308.50000   98.61170    0.20080   79.70760  160.37860
 8309.00000   99.59110    0.20210   77.90640  156.23270
 8309.50000  100.52930    0.19530   77.57980  154.45470
 8310.00000   99.77260    0.18940   78.56720  152.88140
 8310.50000   96.04770    0.19710   78.08120  151.05610
 8311.00000   93.42630    0.20550   77.40520  148.51320
