~Version ---------------------------------------------------
VERS.   2.0 : CWLS log ASCII Standard -VERSION 2.0
WRAP.    NO : One line per depth step
DLM . SPACE : Column Data Section Delimiter
~Well ------------------------------------------------------
STRT .F                 8097.0 : START DEPTH
STOP .F                10276.0 : STOP DEPTH
STEP .F                    0.5 : STEP
NULL .                -9999.25 : NULL VALUE
COMP .                         : COMPANY
WELL .                         : WELL
FLD  .                         : FIELD
LOC  .                         : LOCATION
PROV .                         : PROVINCE
CNTY .                         : COUNTY
STAT .                         : STATE
CTRY .                         : COUNTRY
SRVC .                         : SERVICE COMPANY
DATE .                         : DATE
UWI  .                         : UNIQUE WELL ID
API  .                         : API NUMBER
SLAT .WGS84  6.137540532500793 : SURFACE LATITUDE
SLON .WGS84 3.9483581819232967 : SURFACE LONGITUDE
DATUM.F                2047.21 : DEPTH DATUM ELEV
~Curve Information -----------------------------------------
DEPT.F     : 
GRD .GAPI  : GAMMA RAY
NPHI.DEC   : NEUTRON POROSITY LIMESTONE
DTCO.US/F  : COMPRESSIONAL-WAVE INTERVAL TRANSIT TIME ACOUSTIC SLOWNESS
DTSM.US/F  : SHEAR-WAVE INTERVAL TRANSIT TIME DELTA-T
~Params ----------------------------------------------------
~Other -----------------------------------------------------
~ASCII -----------------------------------------------------
# ...
 10238.50000   98.91050    0.15640   74.49530  134.89960
 10239.00000   98.36410    0.15680   74.62140  135.27390
 10239.50000  101.52950    0.15550   74.34130  135.64810
 10240.00000  104.33450    0.15760   73.85810  136.01840
 10240.50000  103.12670    0.16130   73.54580  136.33790
 10241.00000  101.35810    0.16500   73.47990  136.65100
 10241.50000  100.23640    0.16680   73.41400  136.96220
 10242.00000   99.97950    0.16080   73.34820  137.28060
 10242.50000  103.48840    0.16180   73.48040  137.58380
 10243.00000  102.73420    0.17180   73.64000  137.93320
 10243.50000  101.83300    0.17600   73.88640  138.59050
 10244.00000  102.09660    0.17920   74.19110  139.43720
 10244.50000  105.98040    0.17780   74.49590  140.26190
 10245.00000  107.95760    0.17450   74.92770  140.41060
 10245.50000  107.49210    0.16990   75.31360  140.31920
 10246.00000  104.59710    0.17490   75.69940  140.29660
 10246.50000  102.62850    0.17920   76.08530  140.40370
 10247.00000  103.20300    0.17920   76.48110  141.06560
 10247.50000  104.86590    0.17420   76.90190  142.42960
 10248.00000  106.84950    0.16760   77.28490  143.35820
 10248.50000  109.91160    0.16760   77.73390  142.20020
 10249.00000  110.51100    0.17070   77.78390  140.98620
 10249.50000  109.07960    0.17500   77.27190  139.79840
 10250.00000  106.99590    0.18240   74.50610  138.61060
 10250.50000  105.86260    0.18950   74.38340  138.18380
 10251.00000  105.20790    0.19010   76.76300  139.40270
 10251.50000  106.00290    0.18300   77.34470  138.91370
 10252.00000  107.45710    0.17410   77.22180  137.00200
 10252.50000  106.07270    0.15800   76.82180  134.95320
 10253.00000  105.29130    0.14780   76.28340  133.77590
 10253.50000  106.51070    0.14490   74.91770  131.56010
 10254.00000  105.38830    0.14160   72.36710  130.45960
 10254.50000  103.19150    0.13980   71.27580  130.41010
 10255.00000  101.11960    0.13960   71.15590  130.66280
 10255.50000  100.86170    0.14320   71.67890  131.77490
 10256.00000  102.83020    0.14970   72.21460  132.82900
 10256.50000  107.60950    0.15620   73.22360  133.18450
 10257.00000  106.51100    0.16110   74.05630  133.19430
 10257.50000  104.10040    0.16350   74.31100  133.20410
 10258.00000  104.01170    0.16520   74.24900  132.92860
 10258.50000  107.04840    0.16460   73.86680  132.59050
 10259.00000  110.03150    0.16240   73.33650  131.82010
 10259.50000  111.52570    0.15810   72.69030  131.04970
 10260.00000  110.26040    0.15300   70.84860  129.43470
 10260.50000  104.98120    0.15600   70.36480  129.70400
 10261.00000  105.63810    0.16160   71.51380  132.54110
 10261.50000  105.89400    0.16080   72.70410  136.89610
 10262.00000  105.35700    0.15620   74.83640  143.27300
 10262.50000  103.17200    0.15280   77.33870  144.42530
 10263.00000  101.45510    0.14970   79.84090  142.58840
 10263.50000  102.04700    0.14650   81.51600  140.15230
 10264.00000  106.09280    0.14330   81.10520  135.95170
 10264.50000  112.06700    0.14210   78.44630  130.65750
 10265.00000  114.81450    0.14590   76.35060  128.54760
 10265.50000  117.46620    0.15460   74.96250  127.28410
 10266.00000  119.19280    0.16450   74.10730  126.63050
 10266.50000   -9999.25    0.16380   73.38300  129.31860
 10267.00000   -9999.25    0.15890   73.20140  129.38360
 10267.50000   -9999.25    0.15180   73.12180  128.82730
 10268.00000   -9999.25    0.15330   72.76530  132.17010
 10268.50000   -9999.25    0.15720   71.16570  135.55950
 10269.00000   -9999.25    0.15880   70.86190  133.61460
 10269.50000   -9999.25    0.15480   72.71120  131.12160
 10270.00000   -9999.25    0.15630   73.46920  127.17540
 10270.50000   -9999.25    0.15720   74.33710  124.89190
 10271.00000   -9999.25    0.15670   74.51150  125.42440
 10271.50000   -9999.25    0.15560   74.56290  127.29420
 10272.00000   -9999.25    0.15510   74.39790  129.56310
 10272.50000   -9999.25    0.15700   73.70740  132.35650
 10273.00000   -9999.25    0.15570   72.22790  133.43240
 10273.50000   -9999.25   -9999.25   69.05860  134.20620
 10274.00000   -9999.25   -9999.25   68.68620  135.30010
 10274.50000   -9999.25   -9999.25   89.50370  164.55800
 10275.00000   -9999.25   -9999.25  100.03640  170.27330
 10275.50000   -9999.25   -9999.25  105.94160  174.35250
 10276.00000   -9999.25   -9999.25  105.35490  174.52420
