~Version ---------------------------------------------------
VERS.   2.0 : CWLS log ASCII Standard -VERSION 2.0
WRAP.    NO : One line per depth step
DLM . SPACE : Column Data Section Delimiter
~Well ------------------------------------------------------
STRT .F                 8097.0 : START DEPTH
STOP .F                10276.0 : STOP DEPTH
STEP .F                    0.5 : STEP
NULL .                -9999.25 : NULL VALUE
COMP .                         : COMPANY
WELL .                         : WELL
FLD  .                         : FIELD
LOC  .                         : LOCATION
PROV .                         : PROVINCE
CNTY .                         : COUNTY
STAT .                         : STATE
CTRY .                         : COUNTRY
SRVC .                         : SERVICE COMPANY
DATE .                         : DATE
UWI  .                         : UNIQUE WELL ID
API  .                         : API NUMBER
SLAT .WGS84  6.137540532500793 : SURFACE LATITUDE
SLON .WGS84 3.9483581819232967 : SURFACE LONGITUDE
DATUM.F                2047.21 : DEPTH DATUM ELEV
~Curve Information -----------------------------------------
DEPT.F     : 
GRD .GAPI  : GAMMA RAY
NPHI.DEC   : NEUTRON POROSITY LIMESTONE
DTCO.US/F  : COMPRESSIONAL-WAVE INTERVAL TRANSIT TIME ACOUSTIC SLOWNESS
DTSM.US/F  : SHEAR-WAVE INTERVAL TRANSIT TIME DELTA-T
~Params ----------------------------------------------------
~Other -----------------------------------------------------
~ASCII -----------------------------------------------------
# ...
 9384.00000   93.01530    0.17020   78.36540  157.82520
 9384.50000   95.83220    0.20180   75.98910  157.03160
 9385.00000   97.56390    0.21470   74.18890  156.69890
 9385.50000   99.30130    0.22700   74.88540  157.88220
 9386.00000   98.65510    0.23180   77.51910  163.38520
 9386.50000   96.33110    0.23570   78.52470  164.42230
 9387.00000   96.14570    0.23720   76.75740  161.84360
 9387.50000   96.54820    0.24140   75.44250  160.35620
 9388.00000   96.36420    0.24290   77.10300  158.48660
 9388.50000   94.87260    0.21720   78.53090  156.45130
 9389.00000   95.10750    0.19490   79.23980  151.88830
 9389.50000   96.48350    0.17250   79.85820  147.21300
 9390.00000   98.46230    0.16060   80.47650  142.83810
 9390.50000  100.55750    0.16460   81.09480  142.69840
 9391.00000  101.20760    0.17270   81.66180  144.81090
 9391.50000  101.36730    0.17730   82.61180  145.54030
 9392.00000  100.65880    0.17390   83.98180  146.07580
 9392.50000   99.82510    0.17140   85.52480  148.70400
 9393.00000   99.55710    0.18040   86.25270  150.09740
 9393.50000   99.55250    0.19150   86.41880  150.09550
 9394.00000  100.76440    0.19770   87.07250  151.28610
 9394.50000  102.11100    0.19620   90.34090  155.47050
 9395.00000  100.36150    0.19190   90.32210  155.16470
 9395.50000   97.10720    0.17250   87.78920  153.58980
 9396.00000   93.87240    0.17220   85.30420  153.01890
 9396.50000   93.72520    0.17860   85.00000  151.39400
 9397.00000   95.87770    0.18250   86.00440  150.41650
 9397.50000   98.29540    0.18360   87.62510  151.59240
 9398.00000  100.07150    0.18280   87.67460  154.69230
 9398.50000   99.54990    0.17360   84.52220  155.19640
 9399.00000   98.65260    0.17540   85.70460  155.18600
 9399.50000   98.55110    0.18350   86.43050  154.75310
 9400.00000   99.77870    0.19000   87.15040  155.44070
 9400.50000  100.95620    0.19600   87.81650  160.46040
 9401.00000  101.29240    0.20190   87.96800  160.51620
 9401.50000  100.93390    0.20230   89.30550  160.21640
 9402.00000   98.97160    0.19480   89.25800  158.44270
 9402.50000   96.93910    0.18700   88.66260  157.24250
 9403.00000   96.90290    0.18980   88.51870  158.55820
 9403.50000   97.88710    0.18940   88.62200  158.76550
 9404.00000   98.06290    0.18560   88.81270  159.35420
 9404.50000   99.79050    0.18660   89.53230  162.04080
 9405.00000  103.14880    0.20680   91.17700  164.67610
 9405.50000  107.25140    0.22600   92.88030  163.69490
 9406.00000  112.35960    0.24720   95.65160  162.81480
 9406.50000  114.24450    0.25370   98.83950  162.63750
 9407.00000  114.67280    0.25720  100.13130  162.65610
 9407.50000  115.54170    0.26060   99.72390  162.67230
 9408.00000  120.15870    0.26390   98.01460  162.68860
 9408.50000  134.34660    0.26580   97.88080  162.71180
 9409.00000  149.85680    0.26840   98.35230  162.81610
 9409.50000  161.41610    0.28290   99.26560  162.72880
 9410.00000  261.48260    0.29960  101.20410  162.82290
 9410.50000  297.21970    0.32330  103.28010  162.99080
 9411.00000  297.68940    0.34520  104.90300  163.07900
 9411.50000  269.39150    0.34450  105.03330  163.01100
 9412.00000  143.25060    0.32140   99.21900  162.57340
 9412.50000  120.30230    0.21050   91.54540  161.01000
 9413.00000  105.65720    0.17620   85.70490  155.15840
 9413.50000   91.27850    0.12630   79.73100  146.09020
 9414.00000   82.50610    0.13140   74.22140  140.85080
 9414.50000   84.55310    0.14190   72.05710  140.53550
 9415.00000   87.53180    0.15080   73.30210  141.00400
 9415.50000   90.11630    0.15360   75.14850  143.58930
 9416.00000   92.20490    0.16210   76.44360  146.16020
 9416.50000   93.19430    0.16980   77.07080  144.84900
 9417.00000   93.90590    0.17690   77.68700  143.98310
 9417.50000   94.57160    0.18770   79.03550  145.28630
 9418.00000   95.09010    0.20610   80.72630  147.65340
 9418.50000   94.68210    0.22500   83.03080  149.66400
 9419.00000   91.91990    0.23940   86.86360  152.43170
 9419.50000   88.94470    0.25140   89.46830  155.27080
 9420.00000   90.41810    0.26210   89.03120  153.75330
 9420.50000   94.00380    0.26950   88.04420  150.96870
 9421.00000   96.44350    0.26830   87.29290  149.68680
 9421.50000   97.63420    0.24090   86.93630  150.19440
 9422.00000   95.70440    0.20630   84.17530  151.51950
 9422.50000   93.57130    0.17160   81.34680  152.96510
 9423.00000   92.24350    0.15380   79.50970  153.99430
 9423.50000   91.35730    0.15240   77.94080  154.62570
 9424.00000   91.08660    0.16140   76.56690  152.53870
 9424.50000   90.71820    0.17050   76.73460  150.04590
 9425.00000   89.44740    0.17380   77.42160  149.81130
 9425.50000   87.64310    0.17250   77.54790  148.41600
 9426.00000   86.17560    0.16820   77.47310  146.39990
 9426.50000   87.45680    0.14890   77.13240  144.77640
 9427.00000   90.26370    0.14900   76.21060  144.07570
 9427.50000   92.59080    0.15260   74.30520  144.07420
 9428.00000   94.51980    0.15890   75.07620  148.64660
 9428.50000   95.91190    0.17170   79.33400  153.30370
 9429.00000   96.87120    0.18810   80.74460  156.32370
 9429.50000   97.62360    0.20860   81.73480  158.02130
 9430.00000   97.09650    0.22690   83.11870  160.46800
 9430.50000   96.01680    0.22760   84.93490  164.50220
 9431.00000   95.26770    0.21440   86.46800  165.52910
 9431.50000   96.00170    0.18920   86.72910  166.02720
 9432.00000   98.90900    0.17810   84.54840  164.06920
 9432.50000  101.93620    0.18500   82.61990  161.26700
 9433.00000  103.25780    0.19180   83.58370  160.44020
 9433.50000  103.69990    0.19520   82.40140  159.49840
 9434.00000  103.13660    0.20070   84.08960  160.01980
 9434.50000  102.57330    0.20470   87.46960  164.87450
 9435.00000  102.24160    0.20830   87.29580  166.71490
 9435.50000  102.13770    0.20540   83.91280  164.45790
 9436.00000  101.22280    0.19310   81.17210  159.41990
 9436.50000   98.62570    0.18010   81.54470  157.38000
 9437.00000   96.62830    0.17930   83.56590  158.13660
 9437.50000   94.71940    0.18610   86.75710  158.51190
 9438.00000   96.10940    0.18700   83.46200  158.53210
 9438.50000   98.92960    0.18270   83.58370  158.55230
 9439.00000  100.74880    0.17810   85.58380  158.57290
 9439.50000  101.77730    0.18200   87.53220  158.46200
 9440.00000  102.38390    0.18850   86.95170  158.47490
 9440.50000  101.27770    0.19170   85.21250  158.51400
 9441.00000   99.68940    0.18850   86.42730  158.55320
 9441.50000   98.07200    0.18030   85.57590  158.59230
 9442.00000   99.01090    0.17400   82.86740  158.62890
 9442.50000  102.05510    0.18020   84.36630  158.56790
 9443.00000  105.64160    0.18890   86.08580  158.52100
 9443.50000  110.43180    0.19920   87.80540  158.51800
 9444.00000  126.75750    0.22510   88.90020  158.52490
 9444.50000  139.61330    0.25000   89.81920  158.53550
 9445.00000  143.49510    0.26330   90.11020  158.54620
 9445.50000  140.56190    0.25500   89.85540  158.50200
 9446.00000  127.67800    0.24830   87.50010  158.44770
 9446.50000  106.80460    0.25550   86.40920  158.43330
 9447.00000   96.41600    0.26300   87.05460  158.45520
 9447.50000   89.05960    0.26640   86.79490  158.47720
 9448.00000   87.69440    0.26160   84.85050  158.49920
 9448.50000   88.45220    0.22460   84.69840  158.52110
 9449.00000   92.55250    0.22030   85.53710  158.53740
 9449.50000   96.96280    0.22200   86.18180  158.55570
 9450.00000  101.73710    0.22970   86.30620  158.60500
 9450.50000  100.32700    0.23110   85.90580  158.74910
 9451.00000   97.32840    0.21990   85.33380  158.89310
 9451.50000   95.25340    0.20750   84.76190  158.70740
 9452.00000   93.38830    0.17560   84.32840  158.35510
 9452.50000   93.40300    0.17540   83.72900  157.76890
 9453.00000   93.98460    0.18030   82.07680  156.15080
 9453.50000   95.25700    0.18060   78.94770  154.84850
 9454.00000   96.68280    0.17780   76.84330  155.99550
 9454.50000   97.99020    0.17590   78.49570  159.91370
 9455.00000   97.96240    0.17510   79.61120  161.91090
