~Version ---------------------------------------------------
VERS.   2.0 : CWLS log ASCII Standard -VERSION 2.0
WRAP.    NO : One line per depth step
DLM . SPACE : Column Data Section Delimiter
~Well ------------------------------------------------------
STRT .F                  86.0 : START DEPTH
STOP .F                6307.0 : STOP DEPTH
STEP .F                   0.5 : STEP
NULL .               -9999.25 : NULL VALUE
COMP .                        : COMPANY
WELL .                        : WELL
FLD  .                        : FIELD
LOC  .                        : LOCATION
PROV .                        : PROVINCE
CNTY .                        : COUNTY
STAT .                        : STATE
CTRY .                        : COUNTRY
SRVC .                        : SERVICE COMPANY
DATE .                        : DATE
UWI  .                        : UNIQUE WELL ID
API  .                        : API NUMBER
SLAT .WGS84 3.021649520318796 : SURFACE LATITUDE
SLON .WGS84 8.835648754501989 : SURFACE LONGITUDE
DATUM.F                   nan : DEPTH DATUM ELEV
~Curve Information -----------------------------------------
DEPT   .F     : 1 MEASURED DEPTH
DTSM   .US/F  : DELTA-T SHEAR
HSGRD  .GAPI  : HNGS STANDARD GAMMA RAY FROM DENSITY LOG
TNPH_LS.DEC   : THERMAL NEUTRON POROSITY [LIMESTONE]
PEFZ   .B/E   : HRDD STANDARD RESOLUTION FORMATION PHOTOELECTRIC FACTOR
DPHZ_LS.DEC   : HGRD STANDARD RESOLUTION DENSITY POROSITY
HCALD  .IN    : HRCC CALIPER CALIBRATED FROM DENSITY LOG
HDRA   .G/C3  : HRDD SPINE AND RIBS DENSITY CORRECTION
RHOZ   .G/C3  : HRDD STANDARD RESOLUTION FORMATION DENSITY
RLA3   .OHMM  : APPARENT RESISTIVITY FROM COMPUTED FOCUSING MODE 3
RLA5   .OHMM  : APPARENT RESISTIVITY FROM COMPUTED FOCUSING MODE 5
RXOZ   .OHMM  : INVADED FORMATION RESISTIVITY FILTERED AT 18 INCHES
~Params ----------------------------------------------------
~Other -----------------------------------------------------
~ASCII -----------------------------------------------------
# ...
 1641.50000   -9999.25   32.44400    0.05600    3.65940   -0.01340    9.44480    0.00370    2.70280   34.36030   36.28090   21.29110
 1642.00000   -9999.25   31.68520    0.05130    3.76660   -0.01750    9.44360    0.00320    2.71210   50.81940   53.66420   26.21890
 1642.50000   -9999.25   31.48280    0.05180    3.78150   -0.01790    9.44240    0.00270    2.72640   72.28780   82.76820   15.49820
 1643.00000   -9999.25   30.65570    0.05340    3.81590   -0.01840    9.44120    0.00220    2.73940   63.15690   71.35230   13.74790
 1643.50000   -9999.25   28.81380    0.05350    4.00140   -0.02940    9.44000    0.00170    2.76470   43.16420   44.73130   12.58250
 1644.00000   -9999.25   28.63360    0.05000    4.23700   -0.04600    9.43980    0.00120    2.79820   31.33800   33.05820   31.37360
 1644.50000   -9999.25   32.39760    0.04090    4.40280   -0.06110    9.44270    0.00070    2.80940   68.77380   77.11760   39.91100
 1645.00000   -9999.25   34.74630    0.03960    4.53880   -0.05960    9.44560    0.00020    2.80920   20.39530   16.91730   16.28930
 1645.50000   -9999.25   30.88220    0.03490    4.65530   -0.06360    9.44850   -0.00040    2.81960   32.35960   26.19390   18.33420
 1646.00000   -9999.25   23.95210    0.02640    4.76130   -0.07890    9.45130   -0.00150    2.85680  215.25120  233.53750   34.47740
 1646.50000   -9999.25   17.94160    0.01790    4.79420   -0.10500    9.45420   -0.00080    2.91610  274.15540  249.27130  152.42910
 1647.00000   -9999.25   14.22960    0.01610    4.84760   -0.13260    9.45710    0.00090    2.92690  410.06690  407.08480  208.59660
 1647.50000   -9999.25   14.31800    0.01500    4.88540   -0.13020    9.46000    0.00220    2.89930  146.76330  115.39340   69.03520
 1648.00000   -9999.25   15.60910    0.01330    4.93890   -0.11210    9.47850    0.00260    2.88450   63.13020   48.73710   45.34480
 1648.50000   -9999.25   15.83360    0.01150    4.93970   -0.10630    9.48330    0.00040    2.89360  100.10680  251.82910   58.30100
 1649.00000   -9999.25   15.39060    0.00730    4.94060   -0.11730    9.48090   -0.00350    2.90730  106.72290  177.50870  165.30360
 1649.50000   -9999.25   13.30260   -0.00020    4.94140   -0.13570    9.47850   -0.00440    2.95340  300.53850  141.90110  147.56280
 1650.00000   -9999.25    9.40930   -0.00610    4.97340   -0.15080    9.47970   -0.00390    2.98490 1949.24290 1831.36820 1192.91800
 1650.50000   -9999.25    7.25340   -0.01000    5.01640   -0.16860    9.48250   -0.00310    2.97880  626.95860  559.63020 1255.55490
 1651.00000   -9999.25    6.30590   -0.01040    5.05940   -0.16950    9.48540   -0.00140    2.97200   91.21510   90.52060  128.87680
 1651.50000   -9999.25    6.13040   -0.00850    5.12350   -0.16060    9.48600   -0.00010    2.96180  160.83380  125.97370  123.48870
 1652.00000   -9999.25    5.50010   -0.00730    5.16340   -0.15190    9.48320    0.00020    2.95790  403.78540  420.52140  197.64140
 1652.50000   -9999.25    4.52620   -0.01010    5.21060   -0.15200    9.48050    0.00050    2.96120  563.93930  606.00960  384.38180
 1653.00000   -9999.25    4.01720   -0.01310    5.18030   -0.15700    9.45930    0.00050    2.96590  607.94060  477.64370  508.20750
 1653.50000   -9999.25    4.31830   -0.01470    5.12770   -0.16070    9.45780    0.00030    2.97560  658.30670  583.43230  735.19480
 1654.00000   -9999.25    5.02450   -0.01240    5.06560   -0.16570    9.45400    0.00000    2.97710  680.29030  467.83150 1054.75680
 1654.50000   -9999.25    6.33700   -0.00490    5.00360   -0.15910    9.43650   -0.00020    2.96430  159.53420  137.27950   60.07150
 1655.00000   -9999.25    7.24750   -0.00110    4.94330   -0.14730    9.39530   -0.00030    2.94590  139.60020  116.29840   75.49870
 1655.50000   -9999.25    7.79030   -0.00110    4.90360   -0.13500    9.35420   -0.00030    2.93310  248.04760  227.31670  142.01870
 1656.00000   -9999.25    7.74020   -0.00100    4.82450   -0.14230    9.31680   -0.00030    2.94810  256.98150  255.26680  251.24960
 1656.50000   -9999.25    7.08110   -0.00100    4.71230   -0.15280    9.28130    0.00000    2.96230  527.07520  479.83930  270.98690
 1657.00000   -9999.25    7.01620    0.00190    4.54120   -0.15640    9.24450    0.00040    2.96270  415.26700  372.65700  300.81210
 1657.50000   -9999.25    7.58510    0.00760    4.16630   -0.14710    9.19680    0.00080    2.93660  172.75660  155.20530  125.59090
 1658.00000   -9999.25    7.86260    0.00800    4.08030   -0.12630    9.14290    0.00120    2.90850  143.58150  113.04950  110.65950
 1658.50000   -9999.25    6.95590    0.00560    4.18700   -0.12280    9.10020    0.00210    2.91020  762.17180  639.41960  150.26270
 1659.00000   -9999.25    4.64760   -0.00390    4.50970   -0.12710    9.12130    0.00340    2.91810 1229.20460 1210.99410  329.76650
 1659.50000   -9999.25    3.56490   -0.00790    4.80190   -0.13540    9.12070    0.00390    2.92680  385.33090  326.36160  238.23070
 1660.00000   -9999.25    4.28830   -0.00820    4.91570   -0.13240    9.10260    0.00370    2.91670  175.78840  165.49950  128.52290
 1660.50000   -9999.25    5.60940   -0.00620    4.90760   -0.13590    9.12920    0.00250    2.91580   85.66380   76.53620   64.01950
 1661.00000   -9999.25    6.28170   -0.00430    4.90030   -0.14230    9.18230    0.00080    2.92530   91.62310   58.06280   25.88090
 1661.50000   -9999.25    5.89460   -0.00250    4.95050   -0.14450    9.19450   -0.00640    2.92670 1350.90340 1637.68120   29.03020
 1662.00000   -9999.25    4.81480   -0.00780    5.05450   -0.15600    9.02090   -0.00690    2.92830 1709.44290 3668.90600   64.94030
 1662.50000   -9999.25    4.33420   -0.00830    5.18840   -0.15660    8.99370   -0.00370    2.93730  578.51720  470.78740  836.83870
 1663.00000   -9999.25    6.34700   -0.00430    5.21170   -0.16010    8.96370    0.00070    2.94330  107.61150   90.61380  337.15000
 1663.50000   -9999.25   11.20360    0.00420    5.09440   -0.14530    8.93370    0.00100    2.95190   53.25790   49.48000   50.64360
 1664.00000   -9999.25   14.85750    0.01690    4.67870   -0.12750    8.90360    0.00130    2.96540   69.66830   50.74930   39.04050
 1664.50000   -9999.25   15.05330    0.02710    4.51170   -0.11820    8.87360    0.00130    2.96530  516.94010  416.01450   40.32040
 1665.00000   -9999.25   12.92920    0.02730    4.36550   -0.12080    8.84770    0.00130    2.95560  272.13420  237.08740   97.25410
 1665.50000   -9999.25   11.85300    0.02620    4.23760   -0.13040    8.80140    0.00110    2.92640  164.29200  120.81150  133.38960
 1666.00000   -9999.25   11.80010    0.02750    4.00240   -0.12380    8.73290   -0.00110    2.90080  321.35970  228.23950  125.03910
 1666.50000   -9999.25   12.62520    0.03290    3.73160   -0.11170    8.66030   -0.00090    2.90160  466.18020  367.56680  211.50750
 1667.00000   -9999.25   14.43960    0.03870    3.44840   -0.09960    8.60610   -0.00060    2.92170  369.74180  355.15890  306.09030
 1667.50000   -9999.25   20.96850    0.04240    3.27120   -0.08750    8.55180   -0.00020    2.91990  103.23300   48.12320   32.53700
 1668.00000   -9999.25   33.30750    0.05710    3.10850   -0.04400    8.52320    0.00010    2.89510    7.02440    6.62910    1.58530
 1668.50000   -9999.25   45.54380    0.07930    3.03340   -0.01300    8.50580    0.00040    2.86540   31.80830   22.85850    1.53870
 1669.00000   -9999.25   52.99190    0.11110    2.97350    0.00260    8.48840    0.00070    2.82530  324.67140  195.01390    1.58830
 1669.50000   -9999.25   50.79320    0.11660    3.04260   -0.02200    8.47110    0.00120    2.78510  243.04070  215.11430   98.14040
 1670.00000   -9999.25   42.89100    0.07710    3.18740   -0.05920    8.45370    0.05270    2.70700  122.16440  108.34040   98.78610
 1670.50000   -9999.25   33.81980    0.03410    3.37430   -0.08280    8.44480    0.05730    2.71130  243.05940  203.11280   79.38060
 1671.00000   -9999.25   26.27630    0.01920    3.75950   -0.10930    8.44020    0.05170    2.77490  215.88260  168.41230   74.22020
 1671.50000   -9999.25   20.93720    0.01270    4.11700   -0.12910    8.43560    0.02770    2.83560  191.58970  139.74350   99.32560
