~Version ---------------------------------------------------
VERS.   2.0 : CWLS log ASCII Standard -VERSION 2.0
WRAP.    NO : One line per depth step
DLM . SPACE : Column Data Section Delimiter
~Well ------------------------------------------------------
STRT .F                  86.0 : START DEPTH
STOP .F                6307.0 : STOP DEPTH
STEP .F                   0.5 : STEP
NULL .               -9999.25 : NULL VALUE
COMP .                        : COMPANY
WELL .                        : WELL
FLD  .                        : FIELD
LOC  .                        : LOCATION
PROV .                        : PROVINCE
CNTY .                        : COUNTY
STAT .                        : STATE
CTRY .                        : COUNTRY
SRVC .                        : SERVICE COMPANY
DATE .                        : DATE
UWI  .                        : UNIQUE WELL ID
API  .                        : API NUMBER
SLAT .WGS84 3.021649520318796 : SURFACE LATITUDE
SLON .WGS84 8.835648754501989 : SURFACE LONGITUDE
DATUM.F                   nan : DEPTH DATUM ELEV
~Curve Information -----------------------------------------
DEPT   .F     : 1 MEASURED DEPTH
DTSM   .US/F  : DELTA-T SHEAR
HSGRD  .GAPI  : HNGS STANDARD GAMMA RAY FROM DENSITY LOG
TNPH_LS.DEC   : THERMAL NEUTRON POROSITY [LIMESTONE]
PEFZ   .B/E   : HRDD STANDARD RESOLUTION FORMATION PHOTOELECTRIC FACTOR
DPHZ_LS.DEC   : HGRD STANDARD RESOLUTION DENSITY POROSITY
HCALD  .IN    : HRCC CALIPER CALIBRATED FROM DENSITY LOG
HDRA   .G/C3  : HRDD SPINE AND RIBS DENSITY CORRECTION
RHOZ   .G/C3  : HRDD STANDARD RESOLUTION FORMATION DENSITY
RLA3   .OHMM  : APPARENT RESISTIVITY FROM COMPUTED FOCUSING MODE 3
RLA5   .OHMM  : APPARENT RESISTIVITY FROM COMPUTED FOCUSING MODE 5
RXOZ   .OHMM  : INVADED FORMATION RESISTIVITY FILTERED AT 18 INCHES
~Params ----------------------------------------------------
~Other -----------------------------------------------------
~ASCII -----------------------------------------------------
# ...
 3197.00000   -9999.25   12.60850    0.14130    3.15050    0.00580    8.73780   -0.00130    2.72770   10.66940    9.60700   13.19450
 3197.50000   -9999.25   12.04840    0.14720    3.24440    0.01460    8.74840   -0.00420    2.69090    9.28390    8.46430   10.47110
 3198.00000   -9999.25   11.13450    0.14470    3.35870    0.00540    8.75520   -0.00690    2.69770   13.03830   12.09040    8.63170
 3198.50000   -9999.25    9.45420    0.13310    3.45920   -0.01950    8.75470   -0.00710    2.73550   22.62980   20.26440   12.41360
 3199.00000   -9999.25    7.55970    0.12750    3.54480   -0.02790    8.75530   -0.00740    2.75590   18.64290   17.47450   15.32630
 3199.50000   -9999.25    5.48290    0.12940    3.59360   -0.02860    8.75690   -0.00760    2.75400   25.77710   15.91650   21.27570
 3200.00000   -9999.25    5.19400    0.13350    3.59720   -0.02130    8.75860   -0.00680    2.74470   18.71710   14.02630   15.11340
 3200.50000   -9999.25    5.81610    0.13500    3.58760   -0.01480    8.76030   -0.00590    2.73250   11.44260   11.11210   10.03180
 3201.00000   -9999.25    5.23620    0.13510    3.57800   -0.01750    8.76190   -0.00510    2.72580   10.00280    9.88510    7.65710
 3201.50000   -9999.25    4.09930    0.13660    3.56850   -0.01460    8.76360   -0.00420    2.71980   12.96730   12.56350   11.62290
 3202.00000   -9999.25    3.47520    0.13560    3.55890   -0.01120    8.76530   -0.00330    2.71990   15.64430   15.53670   13.31120
 3202.50000   -9999.25    2.93690    0.13200    3.55780   -0.00720    8.76690   -0.00240    2.73100   16.08320   15.93760   16.57270
 3203.00000   -9999.25    3.04250    0.12760    3.54240   -0.00540    8.76860   -0.00170    2.74520   19.29890   18.67560   23.51870
 3203.50000   -9999.25    3.32460    0.12390    3.51760   -0.01110    8.77030   -0.00100    2.73980   21.63850   21.50770   23.97530
 3204.00000   -9999.25    3.99470    0.12270    3.51510   -0.02000    8.76920   -0.00020    2.72520   18.01430   17.33740   14.68390
 3204.50000   -9999.25    4.56470    0.12220    3.56580   -0.02330    8.75930    0.00190    2.74550   17.79240   17.55770   17.63060
 3205.00000   -9999.25    4.87850    0.12370    3.66300   -0.00930    8.74930    0.00490    2.77990   17.86950   17.41980   16.13170
 3205.50000   -9999.25    4.88130    0.12230    3.68280   -0.01380    8.74890    0.00800    2.83280   14.72410   14.62310   12.66140
 3206.00000   -9999.25    5.03950    0.11690    3.61130   -0.03300    8.75180    0.00640    2.83160   16.75290   15.64560   17.80830
 3206.50000   -9999.25    5.27890    0.11050    3.55290   -0.06360    8.75380    0.00270    2.80150   38.03450   26.60710   35.75100
 3207.00000   -9999.25    5.29460    0.11320    3.54850   -0.04180    8.75420   -0.00130    2.76890   25.20740   25.47230   59.62330
 3207.50000   -9999.25    5.33910    0.10750    3.50930   -0.06970    8.75040   -0.00540    2.74420   32.92100   23.14700   53.70160
 3208.00000   -9999.25    5.50020    0.10000    3.39800   -0.07600    8.73000   -0.00560    2.72780   42.85780   39.11670   46.27220
 3208.50000   -9999.25    6.02750    0.09710    3.36880   -0.06300    8.70390   -0.00560    2.72270   36.15630   34.59540   42.83250
 3209.00000   -9999.25    8.65260    0.09680    3.41900   -0.04330    8.67780   -0.00520    2.72270   27.08550   30.13600   43.32240
 3209.50000   -9999.25   14.80870    0.10030    3.46500   -0.02830    8.65370   -0.00470    2.72540   21.53950   24.14420   25.40650
 3210.00000   -9999.25   19.30020    0.10760    3.43810   -0.01510    8.63430   -0.00420    2.73850   19.37550   23.33570   24.56990
 3210.50000   -9999.25   19.75180    0.11520    3.35620   -0.00910    8.61770   -0.00370    2.73770   18.55540   17.99270   19.76280
 3211.00000   -9999.25   18.37020    0.12020    3.22130   -0.00780    8.60930   -0.00340    2.71640   17.05070   16.44150   19.21320
 3211.50000   -9999.25   15.03270    0.12170    3.15310   -0.01000    8.59670   -0.00330    2.69310   17.42310   17.03490   25.29040
 3212.00000   -9999.25   13.28130    0.12330    3.14740   -0.01410    8.58420   -0.00310    2.68000   18.92380   18.74170   21.61550
 3212.50000   -9999.25   12.25860    0.12200    3.14780   -0.01900    8.55450   -0.00300    2.68370   17.90470   17.29470   17.12960
 3213.00000   -9999.25   12.10310    0.11640    3.14930   -0.00820    8.53230   -0.00280    2.68990   13.70570   13.24400   11.55280
 3213.50000   -9999.25   12.09420    0.10950    3.13620    0.00500    8.51220   -0.00270    2.70010   13.60680   13.19130   11.29010
 3214.00000   -9999.25   12.09600    0.10650    3.07950    0.01830    8.49490   -0.00250    2.71840   14.07910   14.84400   12.18560
 3214.50000   -9999.25   12.14400    0.11110    3.04190    0.01840    8.48500   -0.00230    2.74090   13.88660   15.96060   13.23390
 3215.00000   -9999.25   12.56450    0.11800    3.04410    0.01330    8.47500   -0.00180    2.75860   12.51270   12.32890   14.01130
 3215.50000   -9999.25   13.76520    0.12060    3.04640    0.00830    8.46470   -0.00130    2.75660   13.94080   13.22750   16.62860
 3216.00000   -9999.25   15.84590    0.12060    3.08910   -0.00140    8.45340   -0.00080    2.74010   21.05620   19.97510   23.34660
 3216.50000   -9999.25   18.33500    0.11460    3.14540   -0.01290    8.45850    0.00010    2.72370   30.58430   30.25330   32.13550
 3217.00000   -9999.25   19.94220    0.10780    3.18150   -0.02380    8.45850    0.00100    2.72130   30.60000   29.49160   34.66080
 3217.50000   -9999.25   19.28410    0.09620    3.16780   -0.03110    8.43700    0.00190    2.73420   24.30540   23.87630   22.27870
 3218.00000   -9999.25   17.13990    0.08710    3.14140   -0.02050    8.41210    0.00250    2.75660   25.97330   25.27560   19.64590
 3218.50000   -9999.25   15.44650    0.08000    3.06990   -0.01630    8.38810    0.00160    2.77120   28.99500   28.80700   18.17060
 3219.00000   -9999.25   14.12380    0.07360    2.99850   -0.00510    8.37950   -0.00120    2.77960   29.45400   29.24040   25.62180
 3219.50000   -9999.25   13.81060    0.06730    2.96650   -0.01310    8.38020   -0.00330    2.78470   40.39390   36.86980   29.92240
 3220.00000   -9999.25   13.95600    0.06650    3.01690   -0.02330    8.39410   -0.00520    2.77470   69.21250   70.11810   49.16570
 3220.50000   -9999.25   16.28850    0.06770    3.09250   -0.03340    8.40810   -0.00700    2.76100   86.94720   72.90100   52.27130
 3221.00000   -9999.25   21.17780    0.07240    3.14620   -0.04090    8.42200   -0.00780    2.74690   88.20800   83.83500   48.06190
 3221.50000   -9999.25   24.75790    0.07760    3.14600   -0.04570    8.43600   -0.00510    2.74210   84.41210   83.11000   91.10730
 3222.00000   -9999.25   25.79870    0.08380    3.15660   -0.04160    8.44990   -0.00010    2.77060   51.19030   46.55150   40.29410
 3222.50000   -9999.25   23.28830    0.09170    3.20900   -0.03600    8.46390    0.00470    2.81800   24.15360   23.20250   18.53200
 3223.00000   -9999.25   20.90330    0.10000    3.28560   -0.02360    8.47740    0.00520    2.83000   41.75970   38.30800   28.55780
 3223.50000   -9999.25   21.58430    0.10610    3.35340   -0.01910    8.48100    0.00320    2.82230   66.03730   80.23080   92.51940
 3224.00000   -9999.25   23.29740    0.10630    3.30390   -0.03980    8.48460    0.00060    2.81660   28.97910   22.68240  263.68860
 3224.50000   -9999.25   25.08650    0.09540    3.25430   -0.06110    8.48830   -0.00100    2.81150   34.08950   27.06510  164.39390
 3225.00000   -9999.25   25.85280    0.08530    3.23540   -0.07350    8.49190   -0.00130    2.79040   89.23780   84.09130  120.03780
 3225.50000   -9999.25   24.98510    0.08270    3.23750   -0.06780    8.49300   -0.00160    2.75440  117.55640  107.76380  107.55630
 3226.00000   -9999.25   23.71580    0.08490    3.21630   -0.06460    8.48890   -0.00080    2.71740   55.06410   49.78030   74.47110
 3226.50000   -9999.25   21.74680    0.08660    3.15800   -0.06110    8.48480    0.00070    2.69230   25.41620   23.78330   34.92390
 3227.00000   -9999.25   19.77950    0.08970    3.20000   -0.04580    8.48070    0.00260    2.69090   15.03590   14.06540   18.13980
