~Version ---------------------------------------------------
VERS.   2.0 : CWLS log ASCII Standard -VERSION 2.0
WRAP.    NO : One line per depth step
DLM . SPACE : Column Data Section Delimiter
~Well ------------------------------------------------------
STRT .F                  86.0 : START DEPTH
STOP .F                6307.0 : STOP DEPTH
STEP .F                   0.5 : STEP
NULL .               -9999.25 : NULL VALUE
COMP .                        : COMPANY
WELL .                        : WELL
FLD  .                        : FIELD
LOC  .                        : LOCATION
PROV .                        : PROVINCE
CNTY .                        : COUNTY
STAT .                        : STATE
CTRY .                        : COUNTRY
SRVC .                        : SERVICE COMPANY
DATE .                        : DATE
UWI  .                        : UNIQUE WELL ID
API  .                        : API NUMBER
SLAT .WGS84 3.021649520318796 : SURFACE LATITUDE
SLON .WGS84 8.835648754501989 : SURFACE LONGITUDE
DATUM.F                   nan : DEPTH DATUM ELEV
~Curve Information -----------------------------------------
DEPT   .F     : 1 MEASURED DEPTH
DTSM   .US/F  : DELTA-T SHEAR
HSGRD  .GAPI  : HNGS STANDARD GAMMA RAY FROM DENSITY LOG
TNPH_LS.DEC   : THERMAL NEUTRON POROSITY [LIMESTONE]
PEFZ   .B/E   : HRDD STANDARD RESOLUTION FORMATION PHOTOELECTRIC FACTOR
DPHZ_LS.DEC   : HGRD STANDARD RESOLUTION DENSITY POROSITY
HCALD  .IN    : HRCC CALIPER CALIBRATED FROM DENSITY LOG
HDRA   .G/C3  : HRDD SPINE AND RIBS DENSITY CORRECTION
RHOZ   .G/C3  : HRDD STANDARD RESOLUTION FORMATION DENSITY
RLA3   .OHMM  : APPARENT RESISTIVITY FROM COMPUTED FOCUSING MODE 3
RLA5   .OHMM  : APPARENT RESISTIVITY FROM COMPUTED FOCUSING MODE 5
RXOZ   .OHMM  : INVADED FORMATION RESISTIVITY FILTERED AT 18 INCHES
~Params ----------------------------------------------------
~Other -----------------------------------------------------
~ASCII -----------------------------------------------------
# ...
  482.50000   -9999.25   26.40300    0.22790   -9999.25   -9999.25   -9999.25   -9999.25   -9999.25   -9999.25   -9999.25   -9999.25
  483.00000   -9999.25   28.04380    0.27050   -9999.25   -9999.25   -9999.25   -9999.25   -9999.25   -9999.25   -9999.25   -9999.25
  483.50000   -9999.25   29.38930    0.30560   -9999.25   -9999.25   -9999.25   -9999.25   -9999.25   -9999.25   -9999.25   -9999.25
  484.00000   -9999.25   30.22470    0.30590   -9999.25   -9999.25   -9999.25   -9999.25   -9999.25   -9999.25   -9999.25   -9999.25
  484.50000   -9999.25   28.21230    0.29850   -9999.25   -9999.25   -9999.25   -9999.25   -9999.25   -9999.25   -9999.25   -9999.25
  485.00000   -9999.25   20.93850    0.22450   -9999.25   -9999.25   -9999.25   -9999.25   -9999.25   -9999.25   -9999.25   -9999.25
  485.50000   -9999.25   13.66480    0.13650   -9999.25   -9999.25   -9999.25   -9999.25   -9999.25   -9999.25   -9999.25   -9999.25
  486.00000   -9999.25    9.71610    0.09950   -9999.25   -9999.25   -9999.25   -9999.25   -9999.25   -9999.25   -9999.25   -9999.25
  486.50000   -9999.25    9.85040    0.09900   -9999.25   -9999.25   -9999.25   -9999.25   -9999.25   -9999.25   -9999.25   -9999.25
  487.00000   -9999.25   10.98220    0.11560   -9999.25   -9999.25   -9999.25   -9999.25   -9999.25   -9999.25   -9999.25   -9999.25
  487.50000   -9999.25   15.09190    0.14020   -9999.25   -9999.25   -9999.25   -9999.25   -9999.25   -9999.25   -9999.25   -9999.25
  488.00000   -9999.25   19.52360    0.16750   -9999.25   -9999.25   -9999.25   -9999.25   -9999.25   -9999.25   -9999.25   -9999.25
  488.50000   -9999.25   23.99490    0.21020   -9999.25   -9999.25   -9999.25   -9999.25   -9999.25   -9999.25   -9999.25   -9999.25
  489.00000   -9999.25   28.01610    0.26150   -9999.25   -9999.25   -9999.25   -9999.25   -9999.25   -9999.25   -9999.25   -9999.25
  489.50000   -9999.25   31.80000    0.28630   -9999.25   -9999.25   -9999.25   -9999.25   -9999.25   -9999.25   -9999.25   -9999.25
  490.00000   -9999.25   34.49440    0.31110   -9999.25   -9999.25   -9999.25   -9999.25   -9999.25   -9999.25   -9999.25   -9999.25
  490.50000   -9999.25   35.00490    0.30260   -9999.25   -9999.25   -9999.25   -9999.25   -9999.25   -9999.25   -9999.25   -9999.25
  491.00000   -9999.25   32.87510    0.29830   -9999.25   -9999.25   -9999.25   -9999.25   -9999.25   -9999.25   -9999.25   -9999.25
  491.50000   -9999.25   28.78350    0.29390   -9999.25   -9999.25   -9999.25   -9999.25   -9999.25   -9999.25   -9999.25   -9999.25
  492.00000   -9999.25   23.03760    0.26010   -9999.25   -9999.25   -9999.25   -9999.25   -9999.25   -9999.25   -9999.25   -9999.25
  492.50000   -9999.25   16.55490    0.19190   -9999.25   -9999.25   -9999.25   -9999.25   -9999.25   -9999.25   -9999.25   -9999.25
  493.00000   -9999.25   12.33830    0.13130   -9999.25   -9999.25   -9999.25   -9999.25   -9999.25   -9999.25   -9999.25   -9999.25
  493.50000   -9999.25    9.86990    0.10070   -9999.25   -9999.25   -9999.25   -9999.25   -9999.25   -9999.25   -9999.25   -9999.25
  494.00000   -9999.25    9.13920    0.08360   -9999.25   -9999.25   -9999.25   -9999.25   -9999.25   -9999.25   -9999.25   -9999.25
  494.50000   -9999.25   10.19740    0.09430   -9999.25   -9999.25   -9999.25   -9999.25   -9999.25   -9999.25   -9999.25   -9999.25
  495.00000   -9999.25   11.14090    0.11830   -9999.25   -9999.25   -9999.25   -9999.25   -9999.25   -9999.25   -9999.25   -9999.25
  495.50000   -9999.25   12.18540    0.14890   -9999.25   -9999.25   -9999.25   -9999.25   -9999.25   -9999.25   -9999.25   -9999.25
  496.00000   -9999.25   13.33540    0.17960    9.87410   -0.21920    8.24960    0.01150    3.23680   -9999.25   -9999.25   -9999.25
  496.50000   -9999.25   14.61440    0.21750    9.14740   -0.01730    8.36400    0.01160    3.10280   -9999.25   -9999.25   -9999.25
  497.00000   -9999.25   15.17410    0.25910    7.02430    0.18130    9.41380    0.01170    2.74920    0.25100    0.23320   -9999.25
  497.50000   -9999.25   13.45520    0.29430    5.40250    0.28100   10.85400    0.01180    2.25200    0.66880    0.59300   -9999.25
  498.00000   -9999.25   10.45090    0.27380    4.93340    0.23310   10.81170    0.01190    2.32380    1.69420    1.42250    0.21270
  498.50000   -9999.25    7.44420    0.19630    4.68050    0.05280   10.34130    0.01200    2.47700    4.13690    3.63870    0.36920
  499.00000   -9999.25   10.85890    0.09330    4.70750   -0.12160    8.47610    0.01170    2.93260   42.69400   26.03660    0.88100
  499.50000   -9999.25   21.93100    0.03360    4.62350   -0.12690    8.51190    0.01100    2.89990   56.75930   19.08350    8.23730
  500.00000   -9999.25   33.00320    0.05860    4.34030   -0.07200    8.52480    0.01040    2.79010   14.49520    1.59380   10.74390
  500.50000   -9999.25   43.76650    0.10620    3.81220    0.03740    8.52890    0.00980    2.68040    8.00040    1.33280    4.42930
  501.00000   -9999.25   46.99990    0.15060    3.48230    0.08250    8.53300    0.00910    2.55120   10.60520    2.11580    4.45600
  501.50000   -9999.25   44.15460    0.18780    3.42730    0.09910    8.53710    0.00780    2.55120    7.35820    1.84350    4.68140
  502.00000   -9999.25   37.42220    0.21270    3.51130    0.08410    8.54120    0.00600    2.61710    5.00960    1.06610    3.26250
  502.50000   -9999.25   30.62990    0.18240    3.75800    0.03250    8.54530    0.00430    2.70030   10.59030    1.64950    2.92690
  503.00000   -9999.25   26.02890    0.12120    4.02010   -0.02470    8.54940    0.00250    2.76030   42.75560    4.41210    9.11580
  503.50000   -9999.25   25.69610    0.10440    4.17960   -0.03460    8.55350    0.00200    2.77600   69.45560    5.01690   14.94860
  504.00000   -9999.25   27.73880    0.11480    4.23980   -0.01050    8.55760    0.00190    2.73680   13.06860    3.74450   10.36990
  504.50000   -9999.25   27.03660    0.12370    4.31450    0.00570    8.56160    0.00190    2.70770   11.14430    3.41770    7.35970
  505.00000   -9999.25   22.67530    0.11830    4.42540   -0.04370    8.56570    0.00190    2.72560   11.41990    4.25600    7.27110
  505.50000   -9999.25   18.26420    0.09470    4.52570   -0.09180    8.56980    0.00180    2.82880   16.19140    6.58210    9.19740
  506.00000   -9999.25   14.30920    0.07130    4.70490   -0.10340    8.58040    0.00180    2.88330   32.68370   12.06070   18.82130
  506.50000   -9999.25   13.67530    0.05000    4.82780   -0.11360    8.59120    0.00210    2.89380   39.80970   18.66340   30.98780
  507.00000   -9999.25   13.03640    0.03850    4.83920   -0.11680    8.60210    0.00270    2.90330   12.17660   11.39710    8.95720
  507.50000   -9999.25   17.72080    0.03640    4.68310   -0.12210    8.61290    0.00310    2.90390   61.39130   25.87080   12.39730
  508.00000   -9999.25   31.27630    0.04970    4.28800   -0.08130    8.62380    0.00350    2.86000  188.27440  187.13610   18.69660
  508.50000   -9999.25   45.11080    0.08210    3.90040   -0.01630    8.63080    0.00380    2.81470   23.14200   19.52500    9.57490
  509.00000   -9999.25   55.59120    0.11240    3.48780    0.04420    8.63300    0.00410    2.60310    8.85740    8.43000    4.59650
  509.50000   -9999.25   57.93610    0.14220    3.22840    0.08570    8.63310    0.00410    2.56020    7.88570    7.83800    3.45170
  510.00000   -9999.25   57.83180    0.14490    3.07340    0.11230    8.63320   -0.00170    2.53620    8.20290    8.06990    3.86810
  510.50000   -9999.25   58.18560    0.14560    3.05960    0.10900    8.63470   -0.00270    2.53060    9.23840    9.08960    4.18030
  511.00000   -9999.25   59.72150    0.15580    3.04580    0.11390    8.63640   -0.00360    2.52520    9.55120    9.49350    4.85040
  511.50000   -9999.25   60.32110    0.17500    3.06030    0.12560    8.63560   -0.00190    2.50480    7.91900    7.63720    4.58150
  512.00000   -9999.25   54.78800    0.21690    3.15400    0.12770    8.63460    0.00110    2.50400    5.97170    5.75930    3.50740
  512.50000   -9999.25   42.25420    0.20890    3.47460    0.09120    8.63480    0.00410    2.56690    4.92770    4.84070    2.77830
