~Version ---------------------------------------------------
VERS.   2.0 : CWLS log ASCII Standard -VERSION 2.0
WRAP.    NO : One line per depth step
DLM . SPACE : Column Data Section Delimiter
~Well ------------------------------------------------------
STRT .F                  86.0 : START DEPTH
STOP .F                6307.0 : STOP DEPTH
STEP .F                   0.5 : STEP
NULL .               -9999.25 : NULL VALUE
COMP .                        : COMPANY
WELL .                        : WELL
FLD  .                        : FIELD
LOC  .                        : LOCATION
PROV .                        : PROVINCE
CNTY .                        : COUNTY
STAT .                        : STATE
CTRY .                        : COUNTRY
SRVC .                        : SERVICE COMPANY
DATE .                        : DATE
UWI  .                        : UNIQUE WELL ID
API  .                        : API NUMBER
SLAT .WGS84 3.021649520318796 : SURFACE LATITUDE
SLON .WGS84 8.835648754501989 : SURFACE LONGITUDE
DATUM.F                   nan : DEPTH DATUM ELEV
~Curve Information -----------------------------------------
DEPT   .F     : 1 MEASURED DEPTH
DTSM   .US/F  : DELTA-T SHEAR
HSGRD  .GAPI  : HNGS STANDARD GAMMA RAY FROM DENSITY LOG
TNPH_LS.DEC   : THERMAL NEUTRON POROSITY [LIMESTONE]
PEFZ   .B/E   : HRDD STANDARD RESOLUTION FORMATION PHOTOELECTRIC FACTOR
DPHZ_LS.DEC   : HGRD STANDARD RESOLUTION DENSITY POROSITY
HCALD  .IN    : HRCC CALIPER CALIBRATED FROM DENSITY LOG
HDRA   .G/C3  : HRDD SPINE AND RIBS DENSITY CORRECTION
RHOZ   .G/C3  : HRDD STANDARD RESOLUTION FORMATION DENSITY
RLA3   .OHMM  : APPARENT RESISTIVITY FROM COMPUTED FOCUSING MODE 3
RLA5   .OHMM  : APPARENT RESISTIVITY FROM COMPUTED FOCUSING MODE 5
RXOZ   .OHMM  : INVADED FORMATION RESISTIVITY FILTERED AT 18 INCHES
~Params ----------------------------------------------------
~Other -----------------------------------------------------
~ASCII -----------------------------------------------------
# ...
 2800.50000   -9999.25   22.53990    0.08420    2.95800   -0.01340    8.08360    0.00900    2.75070   27.77620   26.88840   15.99490
 2801.00000   -9999.25   25.25980    0.07880    2.95950   -0.02620    8.08440    0.00910    2.76340   31.55730   30.98620   18.39300
 2801.50000   -9999.25   27.25720    0.07170    2.92810   -0.03820    8.08210    0.00760    2.77120   34.55320   35.99360   26.70790
 2802.00000   -9999.25   27.54700    0.06650    2.89680   -0.03740    8.08200    0.00620    2.77060   38.59470   41.71640   28.23900
 2802.50000   -9999.25   26.66870    0.06320    2.86930   -0.03280    8.08610    0.00480    2.76380   45.47020   51.72050   31.12740
 2803.00000   -9999.25   25.59980    0.05950    2.84840   -0.02740    8.09160    0.00380    2.75350   53.33220   61.93940   31.48420
 2803.50000   -9999.25   24.07010    0.05490    2.81580   -0.02080    8.09710    0.00370    2.74060   65.70630   82.94910   44.24190
 2804.00000   -9999.25   22.16050    0.05210    2.77150   -0.01370    8.10250    0.00400    2.72710   76.22660   94.79510   44.61090
 2804.50000   -9999.25   19.91780    0.04930    2.73620   -0.00860    8.10800    0.00320    2.72130   60.87440   74.64170   46.36320
 2805.00000   -9999.25   16.43140    0.04650    2.75510   -0.00690    8.11210    0.00040    2.73200   57.63800   68.82150   52.88090
 2805.50000   -9999.25   14.21140    0.04490    2.81870   -0.01750    8.11240   -0.00330    2.74320  118.49910  111.01860   83.09650
 2806.00000   -9999.25   12.95490    0.04450    2.93570   -0.02230    8.10860   -0.00520    2.75360  126.00270  124.69360   95.04780
 2806.50000   -9999.25   12.91800    0.04460    2.96840   -0.02920    8.10410   -0.00650    2.75740  118.69690  117.10130   71.30030
 2807.00000   -9999.25   12.88100    0.04470    2.97990   -0.02930    8.09950   -0.00500    2.75920   79.17370   75.17470   61.99190
 2807.50000   -9999.25   12.82620    0.04480    2.96620   -0.03020    8.09490   -0.00190    2.76350   59.69550   65.14610   68.17280
 2808.00000   -9999.25   12.70480    0.04500    2.96290   -0.03050    8.09040    0.00350    2.77190   54.31520   63.14930   49.15480
 2808.50000   -9999.25   12.58350    0.04490    2.96040   -0.03040    8.08580    0.00520    2.77580   62.11720   62.31500   38.48930
 2809.00000   -9999.25   12.46210    0.05150    2.96150   -0.03150    8.08130    0.00610    2.78550   76.49120   74.02400   46.55720
 2809.50000   -9999.25   12.34080    0.06000    2.96730   -0.03800    8.07670    0.00590    2.78630   89.45280   88.26250   84.59780
 2810.00000   -9999.25   12.08300    0.06570    2.99830   -0.04000    8.07210    0.00570    2.76860   74.77270   72.70090   57.97980
 2810.50000   -9999.25   11.73930    0.06760    3.06310   -0.04090    8.06280    0.00350    2.71930   70.26200   69.06110   61.45400
 2811.00000   -9999.25   11.45060    0.06220    3.12740   -0.04800    8.05200    0.00040    2.70510   79.93150   78.59370   46.41370
 2811.50000   -9999.25   11.91650    0.05670    2.98100   -0.04200    8.04260   -0.00230    2.69470   90.93180   93.32870   47.32890
 2812.00000   -9999.25   13.62270    0.05180    2.83080   -0.02760    8.04440   -0.00410    2.68380   91.01480   89.74390   41.00070
 2812.50000   -9999.25   17.66830    0.04940    2.68340   -0.00350    8.04630   -0.00450    2.67540   87.41690   81.34690   43.72000
 2813.00000   -9999.25   22.03800    0.04980    2.62220    0.00760    8.04810   -0.00480    2.68890   86.86800   76.95150   46.13790
 2813.50000   -9999.25   23.29630    0.05150    2.69430    0.01300    8.04990   -0.00490    2.71330   92.65260   80.21730   71.17810
 2814.00000   -9999.25   22.92850    0.05490    2.73820    0.01750    8.05170   -0.00500    2.74060   90.54750   78.22990   86.43500
 2814.50000   -9999.25   22.01330    0.05530    2.69370    0.01950    8.05350   -0.00510    2.75150   70.68840   68.46120   64.15210
 2815.00000   -9999.25   20.93360    0.05290    2.63070    0.00780    8.05530   -0.00520    2.75120   59.75560   58.73070   39.92080
 2815.50000   -9999.25   19.85380    0.05030    2.60110   -0.01460    8.05710   -0.00520    2.75020   96.73690   95.77000   64.00890
 2816.00000   -9999.25   18.77400    0.04830    2.67050   -0.02340    8.08510   -0.00530    2.73660   79.75190   75.54190   49.31170
 2816.50000   -9999.25   17.05000    0.04800    2.77870   -0.02590    8.11550   -0.00540    2.72730   60.62970   56.18880   34.53170
 2817.00000   -9999.25   15.34360    0.04820    2.92030   -0.02360    8.14590   -0.00550    2.73340  100.01860   97.63900   37.66370
 2817.50000   -9999.25   13.50210    0.04960    3.00880   -0.01950    8.17740   -0.00580    2.75240   57.78530   53.50360   44.89280
 2818.00000   -9999.25   12.42920    0.05260    3.07790   -0.01330    8.21060   -0.00690    2.77200   57.08620   51.44990   79.15050
 2818.50000   -9999.25   11.34660    0.05560    3.14900   -0.01030    8.24380   -0.00810    2.79400   82.47810   81.91220  101.72110
 2819.00000   -9999.25   10.93730    0.05860    3.24190   -0.01900    8.27400   -0.00890    2.80950   76.82160   75.62110   93.85140
 2819.50000   -9999.25   11.05740    0.05650    3.39830   -0.04080    8.27320   -0.00850    2.81270   82.54270   70.82300  149.44350
 2820.00000   -9999.25   11.32870    0.04880    3.53960   -0.05620    8.25270   -0.00820    2.81590   86.66860   81.38900  135.12110
 2820.50000   -9999.25   11.96540    0.03910    3.60280   -0.06350    8.23090   -0.00590    2.81880   96.16230   95.50610  171.23610
 2821.00000   -9999.25   12.65090    0.02940    3.60740   -0.06490    8.21120   -0.00300    2.82430   97.47070   96.76730  192.76050
 2821.50000   -9999.25   12.83880    0.02730    3.52960   -0.06560    8.19640   -0.00240    2.82450  101.62430  100.72810  103.71980
 2822.00000   -9999.25   13.19710    0.02770    3.42390   -0.06680    8.18150   -0.00180    2.80660  105.28000  104.64340   99.82170
 2822.50000   -9999.25   13.92950    0.03040    3.29910   -0.07360    8.16660   -0.00120    2.79280   88.29780   85.86370   81.26490
 2823.00000   -9999.25   16.03630    0.03430    3.13480   -0.06540    8.15180   -0.00060    2.78500   92.42950   90.48280   75.52640
 2823.50000   -9999.25   18.70890    0.03810    3.03990   -0.05510    8.13690   -0.00060    2.77950  108.88700  106.59290   81.64430
 2824.00000   -9999.25   19.97330    0.04290    2.98020   -0.04710    8.12210   -0.00060    2.76740  128.27470  125.57140  106.22300
 2824.50000   -9999.25   20.75700    0.04460    2.92050   -0.04460    8.10720   -0.00060    2.73720  135.42190  134.60300  131.31420
 2825.00000   -9999.25   20.35810    0.04430    2.89320   -0.03490    8.09230   -0.00060    2.72170  133.84340  132.98990  112.55520
 2825.50000   -9999.25   18.43120    0.04210    2.89050   -0.01960    8.07750   -0.00060    2.72040  169.89040  163.78220  113.79210
 2826.00000   -9999.25   17.01120    0.04120    2.84050   -0.00830    8.06860   -0.00060    2.74170  186.66690  183.85870  105.45480
 2826.50000   -9999.25   15.57440    0.04030    2.79240   -0.00540    8.07220   -0.00060    2.77740  156.38050  152.11500  133.37950
 2827.00000   -9999.25   14.51610    0.03480    2.77480   -0.01510    8.07580   -0.00060    2.81410  165.92200  155.28650  169.21120
 2827.50000   -9999.25   15.16450    0.03200    2.99610   -0.04200    8.07700   -0.00060    2.84520  252.66130  236.08540  201.10890
 2828.00000   -9999.25   16.69680    0.02980    3.32410   -0.06520    8.09020   -0.00060    2.84590  294.27290  347.29750  219.10770
 2828.50000   -9999.25   16.86970    0.02830    3.46640   -0.08690    8.10670   -0.00060    2.84380  224.73920  278.11330  197.59200
 2829.00000   -9999.25   16.44020    0.02770    3.51980   -0.07980    8.11110   -0.00060    2.81120  311.27160  341.97510  202.25530
 2829.50000   -9999.25   16.01590    0.02940    3.31470   -0.06860    8.11550   -0.00060    2.79310  237.62580  223.67650  179.52790
 2830.00000   -9999.25   16.37730    0.03190    3.04660   -0.05230    8.11990   -0.00060    2.78950  178.72510  177.49720  178.35950
 2830.50000   -9999.25   16.93520    0.03450    2.97020   -0.04970    8.12040   -0.00060    2.78730  151.55150  145.78390  126.86170
