~Version ---------------------------------------------------
VERS.   2.0 : CWLS log ASCII Standard -VERSION 2.0
WRAP.    NO : One line per depth step
DLM . SPACE : Column Data Section Delimiter
~Well ------------------------------------------------------
STRT .F                  86.0 : START DEPTH
STOP .F                6307.0 : STOP DEPTH
STEP .F                   0.5 : STEP
NULL .               -9999.25 : NULL VALUE
COMP .                        : COMPANY
WELL .                        : WELL
FLD  .                        : FIELD
LOC  .                        : LOCATION
PROV .                        : PROVINCE
CNTY .                        : COUNTY
STAT .                        : STATE
CTRY .                        : COUNTRY
SRVC .                        : SERVICE COMPANY
DATE .                        : DATE
UWI  .                        : UNIQUE WELL ID
API  .                        : API NUMBER
SLAT .WGS84 3.021649520318796 : SURFACE LATITUDE
SLON .WGS84 8.835648754501989 : SURFACE LONGITUDE
DATUM.F                   nan : DEPTH DATUM ELEV
~Curve Information -----------------------------------------
DEPT   .F     : 1 MEASURED DEPTH
DTSM   .US/F  : DELTA-T SHEAR
HSGRD  .GAPI  : HNGS STANDARD GAMMA RAY FROM DENSITY LOG
TNPH_LS.DEC   : THERMAL NEUTRON POROSITY [LIMESTONE]
PEFZ   .B/E   : HRDD STANDARD RESOLUTION FORMATION PHOTOELECTRIC FACTOR
DPHZ_LS.DEC   : HGRD STANDARD RESOLUTION DENSITY POROSITY
HCALD  .IN    : HRCC CALIPER CALIBRATED FROM DENSITY LOG
HDRA   .G/C3  : HRDD SPINE AND RIBS DENSITY CORRECTION
RHOZ   .G/C3  : HRDD STANDARD RESOLUTION FORMATION DENSITY
RLA3   .OHMM  : APPARENT RESISTIVITY FROM COMPUTED FOCUSING MODE 3
RLA5   .OHMM  : APPARENT RESISTIVITY FROM COMPUTED FOCUSING MODE 5
RXOZ   .OHMM  : INVADED FORMATION RESISTIVITY FILTERED AT 18 INCHES
~Params ----------------------------------------------------
~Other -----------------------------------------------------
~ASCII -----------------------------------------------------
# ...
 3563.00000   -9999.25   43.20970    0.05250    2.87720   -0.01530    8.30870    0.00650    2.63980   19.87470   18.13740   14.84810
 3563.50000   -9999.25   49.11980    0.05970    2.73770    0.03230    8.30890    0.00440    2.71500   76.85370   64.15980   26.40730
 3564.00000   -9999.25   51.61930    0.07320    2.61130    0.06190    8.30900    0.00220    2.81810  188.58700  154.49830  159.87900
 3564.50000   -9999.25   48.40530    0.08770    2.59350    0.05400    8.31060    0.00050    2.86060  170.18990  205.82410  145.46270
 3565.00000   -9999.25   41.74110    0.09270    2.67340    0.01350    8.30910    0.00050    2.85800  195.97560  197.91720  156.73470
 3565.50000   -9999.25   30.67680    0.07720    2.81980   -0.04140    8.30590    0.00180    2.84560  152.72570  144.52690  151.58220
 3566.00000   -9999.25   21.47420    0.05990    2.98640   -0.08770    8.30370    0.00570    2.84370   98.17260   92.89520  120.87550
 3566.50000   -9999.25   18.43990    0.04490    3.10680   -0.09620    8.30150    0.00660    2.84270  192.53870  167.73690  132.69260
 3567.00000   -9999.25   18.32600    0.04290    3.09230   -0.08970    8.29930    0.00590    2.84170  312.14980  295.23940  191.37500
 3567.50000   -9999.25   18.97740    0.04090    3.08690   -0.08330    8.29720    0.00100    2.83680  220.83410  202.98590  276.00930
 3568.00000   -9999.25   18.60000    0.04000    3.08790   -0.08190    8.29500   -0.00390    2.81660   85.66630   73.74190   78.80740
 3568.50000   -9999.25   17.36900    0.03970    3.09580   -0.08220    8.29720   -0.00620    2.80610   35.51810   38.55570   55.53390
 3569.00000   -9999.25   17.81990    0.03980    3.14420   -0.08150    8.30200   -0.00740    2.79310   40.36230   40.53530   47.17370
 3569.50000   -9999.25   18.65770    0.04110    3.18200   -0.07340    8.30670   -0.00790    2.78020   54.94950   53.11890   62.43390
 3570.00000   -9999.25   20.55840    0.05140    3.21440   -0.05670    8.31150   -0.00750    2.77070   72.02710   69.60900   82.12400
 3570.50000   -9999.25   21.50540    0.06160    3.20100   -0.04600    8.31620    0.00160    2.76370   73.02710   72.26820   73.76680
 3571.00000   -9999.25   22.02710    0.06550    3.17670   -0.04330    8.32100    0.00230    2.75370   61.16430   59.65810   57.98790
 3571.50000   -9999.25   23.16940    0.06630    3.14910   -0.04040    8.32580    0.00300    2.74670   50.35000   49.11270   45.86220
 3572.00000   -9999.25   24.92720    0.06810    3.11460   -0.03680    8.33050    0.00380    2.73730   49.67790   49.17640   45.53770
 3572.50000   -9999.25   25.92230    0.07380    3.06530   -0.02910    8.33530    0.00200    2.72000   57.94710   56.37000   50.19610
 3573.00000   -9999.25   25.97310    0.07870    3.01600   -0.02640    8.34000   -0.00020    2.69230   63.30710   62.84360   51.02310
 3573.50000   -9999.25   26.39160    0.08260    2.96670   -0.01870    8.34480   -0.00120    2.67540   42.35700   39.92950   42.79540
 3574.00000   -9999.25   29.87710    0.08360    2.91180   -0.01200    8.34960   -0.00120    2.67740   26.57890   28.62550   32.61020
 3574.50000   -9999.25   35.37000    0.08400    2.85170    0.00520    8.35430   -0.00120    2.68580   26.77990   29.36510   29.79110
 3575.00000   -9999.25   41.46770    0.08640    2.79870    0.01990    8.35910   -0.00020    2.70620   24.65500   27.47080   24.88360
 3575.50000   -9999.25   47.89880    0.08930    2.74110    0.02150    8.36380    0.00010    2.73500   26.21350   26.47390   26.01070
 3576.00000   -9999.25   50.38480    0.09130    2.75130    0.01460    8.36860   -0.00100    2.74780   51.97200   47.49350   32.62420
 3576.50000   -9999.25   45.98600    0.08830    2.77270    0.00070    8.37340   -0.00210    2.72460   64.55650   79.51860   44.28280
 3577.00000   -9999.25   43.31850    0.08010    2.75330   -0.01990    8.37810   -0.00480    2.63710   47.96370   46.51820   34.61080
 3577.50000   -9999.25   45.80090    0.07280    2.67360   -0.02260    8.38290   -0.00730    2.57750   25.56930   23.96510   18.37320
 3578.00000   -9999.25   50.41040    0.06830    2.58730    0.00740    8.39660   -0.00820    2.56660   15.59530   14.93030   11.97400
 3578.50000   -9999.25   54.74620    0.07570    2.50260    0.05530    8.42660   -0.00880    2.57800   11.79310   10.55070    9.58860
 3579.00000   -9999.25   56.67540    0.08480    2.50210    0.08080    8.45030   -0.00930    2.60160   12.45590   11.21860    8.69670
 3579.50000   -9999.25   59.15740    0.09210    2.50320    0.08590    8.45950   -0.00860    2.61290   14.59740   12.71680    9.41250
 3580.00000   -9999.25   61.90480    0.09840    2.51270    0.07680    8.46370   -0.00730    2.63240   12.68280   11.83620    9.77920
 3580.50000   -9999.25   67.13200    0.10470    2.54300    0.06580    8.46790   -0.00610    2.67150   11.10950   10.83580    7.32180
 3581.00000   -9999.25   72.35920    0.11010    2.55220    0.05730    8.47150   -0.00500    2.70310   11.10930   10.69660    9.23660
 3581.50000   -9999.25   74.16300    0.11400    2.57720    0.04570    8.45670   -0.00380    2.72690   10.58620   10.01780    8.75250
 3582.00000   -9999.25   65.05560    0.11120    2.67690    0.02540    8.42990   -0.00260    2.74470    9.96150    8.38810    7.19030
 3582.50000   -9999.25   51.03930    0.09490    2.79220    0.00170    8.38780   -0.00140    2.74510   15.01010   13.20830    8.50290
 3583.00000   -9999.25   35.86070    0.08480    2.87780   -0.01340    8.34920   -0.00080    2.74190   37.24140   34.06870   18.47310
 3583.50000   -9999.25   31.94430    0.07490    2.96330   -0.01910    8.34070   -0.00040    2.73300   76.23320   69.68480   46.79440
 3584.00000   -9999.25   30.24940    0.07300    2.95450   -0.02080    8.33810    0.00000    2.71070   81.00600   78.16840   60.21150
 3584.50000   -9999.25   31.59790    0.07570    2.91100   -0.02010    8.33550    0.00050    2.72080   61.08110   58.93910   50.95010
 3585.00000   -9999.25   32.63400    0.07900    2.90210   -0.00780    8.33300    0.00020    2.74030   61.97250   60.91400   46.22450
 3585.50000   -9999.25   34.99220    0.08170    2.87660   -0.00060    8.33130   -0.00020    2.74780   62.06880   59.04130   48.89880
 3586.00000   -9999.25   37.31900    0.08090    2.82480   -0.00530    8.33150   -0.00140    2.74660   39.81090   40.87300   50.98770
 3586.50000   -9999.25   38.59470    0.07730    2.81500   -0.02250    8.33170   -0.00330    2.69970   36.06530   48.01740   48.91480
 3587.00000   -9999.25   40.54730    0.07370    2.83300   -0.02300    8.33190   -0.00460    2.67220   40.56220   41.05180   56.00510
 3587.50000   -9999.25   44.05140    0.07400    2.89910   -0.00500    8.33340   -0.00510    2.66640   41.74470   41.13380   48.31690
 3588.00000   -9999.25   45.87820    0.07860    2.89850    0.01860    8.33660   -0.00560    2.66090   38.29190   45.22770   41.20740
 3588.50000   -9999.25   46.31230    0.08350    2.88820    0.02760    8.33980   -0.00610    2.65690   33.62380   40.20710   35.19200
 3589.00000   -9999.25   45.96550    0.08820    2.85910    0.02790    8.34310   -0.00650    2.65890   30.90570   34.20950   31.14340
 3589.50000   -9999.25   46.76190    0.09240    2.81090    0.02760    8.34630   -0.00670    2.66470   35.34770   34.52300   30.21480
 3590.00000   -9999.25   48.08220    0.09570    2.81040    0.03270    8.34950   -0.00670    2.66550   43.95620   47.98200   35.10500
 3590.50000   -9999.25   48.00670    0.09550    2.80980    0.03210    8.35270   -0.00670    2.65750   34.02050   32.60210   27.46900
 3591.00000   -9999.25   45.58350    0.09120    2.81620    0.01730    8.35590   -0.00600    2.65580   31.01740   33.72020   27.91840
 3591.50000   -9999.25   43.28070    0.08490    2.82980   -0.00730    8.35920   -0.00520    2.66210   32.02790   33.48950   26.56430
 3592.00000   -9999.25   42.46300    0.07850    2.86600   -0.02190    8.36240   -0.00440    2.67140   59.01560   53.42190   33.60770
 3592.50000   -9999.25   43.26580    0.07560    2.90350   -0.02200    8.36560   -0.00370    2.70450   81.98460   92.49110   45.30010
 3593.00000   -9999.25   45.65200    0.07650    2.89690   -0.01280    8.36880   -0.00300    2.74040   45.85230   55.21250   45.48120
