~Version ---------------------------------------------------
VERS.   2.0 : CWLS log ASCII Standard -VERSION 2.0
WRAP.    NO : One line per depth step
DLM . SPACE : Column Data Section Delimiter
~Well ------------------------------------------------------
STRT .F                  86.0 : START DEPTH
STOP .F                6307.0 : STOP DEPTH
STEP .F                   0.5 : STEP
NULL .               -9999.25 : NULL VALUE
COMP .                        : COMPANY
WELL .                        : WELL
FLD  .                        : FIELD
LOC  .                        : LOCATION
PROV .                        : PROVINCE
CNTY .                        : COUNTY
STAT .                        : STATE
CTRY .                        : COUNTRY
SRVC .                        : SERVICE COMPANY
DATE .                        : DATE
UWI  .                        : UNIQUE WELL ID
API  .                        : API NUMBER
SLAT .WGS84 3.021649520318796 : SURFACE LATITUDE
SLON .WGS84 8.835648754501989 : SURFACE LONGITUDE
DATUM.F                   nan : DEPTH DATUM ELEV
~Curve Information -----------------------------------------
DEPT   .F     : 1 MEASURED DEPTH
DTSM   .US/F  : DELTA-T SHEAR
HSGRD  .GAPI  : HNGS STANDARD GAMMA RAY FROM DENSITY LOG
TNPH_LS.DEC   : THERMAL NEUTRON POROSITY [LIMESTONE]
PEFZ   .B/E   : HRDD STANDARD RESOLUTION FORMATION PHOTOELECTRIC FACTOR
DPHZ_LS.DEC   : HGRD STANDARD RESOLUTION DENSITY POROSITY
HCALD  .IN    : HRCC CALIPER CALIBRATED FROM DENSITY LOG
HDRA   .G/C3  : HRDD SPINE AND RIBS DENSITY CORRECTION
RHOZ   .G/C3  : HRDD STANDARD RESOLUTION FORMATION DENSITY
RLA3   .OHMM  : APPARENT RESISTIVITY FROM COMPUTED FOCUSING MODE 3
RLA5   .OHMM  : APPARENT RESISTIVITY FROM COMPUTED FOCUSING MODE 5
RXOZ   .OHMM  : INVADED FORMATION RESISTIVITY FILTERED AT 18 INCHES
~Params ----------------------------------------------------
~Other -----------------------------------------------------
~ASCII -----------------------------------------------------
# ...
 1245.00000   -9999.25    7.19410   -0.00240    4.84270   -0.14350    8.51020    0.00130    2.88710  728.93380  572.13400  126.41370
 1245.50000   -9999.25    7.12750   -0.00210    4.85610   -0.16280    8.51980    0.00210    2.90890 1947.24610 3120.08640  187.41690
 1246.00000   -9999.25   12.31390    0.00180    4.86820   -0.16820    8.54010    0.00300    2.93260 1323.66480 1796.13790  924.26190
 1246.50000   -9999.25   18.76770    0.02140    4.88030   -0.14990    8.55370    0.00390    2.96010  234.94830  180.01970   77.45430
 1247.00000   -9999.25   24.49390    0.05640    4.79510   -0.11760    8.55640    0.00470    2.93580   25.00010   18.04260   14.29420
 1247.50000   -9999.25   24.34410    0.06660    4.69660   -0.10900    8.55790    0.00470    2.93500   22.37960   15.64560   12.64240
 1248.00000   -9999.25   18.59860    0.05830    4.66200   -0.12130    8.55800    0.00470    2.96000  123.55130   86.88570   14.38250
 1248.50000   -9999.25   13.25310    0.01910    4.70360   -0.14560    8.51480    0.00390    2.93680 1217.38590 1373.56380   63.10740
 1249.00000   -9999.25   11.72230    0.00560    4.58410   -0.15310    8.51310    0.00270    2.96000 1414.57870 1265.35300  846.10770
 1249.50000   -9999.25   12.26150    0.00480    4.47910   -0.13460    8.49870    0.00140    2.95510  541.43230  480.08230  333.63630
 1250.00000   -9999.25   12.62010    0.00720    4.44450   -0.12870    8.49700   -0.00680    2.91680  619.37280  437.02070  270.83930
 1250.50000   -9999.25   13.18410    0.01400    4.40630   -0.12320    8.53560   -0.01020    2.89940 1998.88220 1907.81570  296.03940
 1251.00000   -9999.25   17.71470    0.03210    4.34930   -0.09780    8.57390   -0.01230    2.85510  678.59610  487.61250  258.42370
 1251.50000   -9999.25   26.85770    0.06660    4.22140   -0.04830    8.60210   -0.01060    2.75610  895.64970  895.33110  280.90770
 1252.00000   -9999.25   35.62070    0.10230    4.03740   -0.01570    8.63680   -0.00640    2.72130  235.81880  182.75930  103.02320
 1252.50000   -9999.25   38.34310    0.12140    3.88160   -0.00760    8.62730   -0.00380    2.72090   54.18420   46.97490   30.29240
 1253.00000   -9999.25   38.13600    0.10950    3.83540   -0.01190    8.61770   -0.00120    2.73620   19.86590   19.64090   16.62930
 1253.50000   -9999.25   32.19060    0.09050    3.87940   -0.02550    8.60810    0.00850    2.76110   41.81590   35.91970   14.80210
 1254.00000   -9999.25   26.40040    0.07290    4.12270   -0.05820    8.59860    0.01320    2.80990   58.05700   52.43090   19.10710
 1254.50000   -9999.25   20.61020    0.06850    4.38540   -0.08700    8.58900    0.01670    2.85860   42.69560   32.83000   21.17100
 1255.00000   -9999.25   19.12740    0.07940    4.68830   -0.08740    8.57950    0.01700    2.85770  100.56750   88.11930   26.33380
 1255.50000   -9999.25   20.19190    0.09710    4.82300   -0.06730    8.56990    0.00550    2.81380  228.71950  217.17420   54.68940
 1256.00000   -9999.25   20.14560    0.10680    4.84460   -0.06300    8.56030    0.00360    2.84460   58.23160   45.66060   32.42300
 1256.50000   -9999.25   17.45580    0.07960    4.90770   -0.09370    8.54870    0.00150    2.89660   18.11200   16.69640   15.14660
 1257.00000   -9999.25   13.11290    0.04280    4.96260   -0.12900    8.53120    0.00010    2.94700   22.63150   21.02130   10.92430
 1257.50000   -9999.25   10.12340    0.01210    4.99720   -0.15610    8.51330   -0.00120    2.96760   44.53640   38.30980   15.84410
 1258.00000   -9999.25   11.25160    0.00680    4.90320   -0.15500    8.49230   -0.00250    2.92920  327.88090  250.93830   44.41470
 1258.50000   -9999.25   12.31040    0.00670    4.74450   -0.13570    8.47390   -0.00220    2.92320 1474.67130 1417.64420  179.92250
 1259.00000   -9999.25   12.10680    0.00500    4.62580   -0.12830    8.45890    0.01340    2.92600  623.35090  562.69920  480.24150
 1259.50000   -9999.25    8.68590   -0.00050    4.69170   -0.13600    8.44540    0.01630    2.96200  248.08930  222.03530  158.32840
 1260.00000   -9999.25    6.58000   -0.00860    4.92950   -0.16050    8.43910    0.01530    2.98920  483.08320  395.79150  175.74690
 1260.50000   -9999.25    5.62020   -0.01110    5.16150   -0.17050    8.44340    0.01410    2.98580 1170.64750 2152.33130  288.42180
 1261.00000   -9999.25    4.57810   -0.01350    5.23870   -0.16880    8.45300    0.01280    2.99330 1324.10600 2137.62600 1053.83360
 1261.50000   -9999.25    3.78980   -0.01420    5.15970   -0.17290    8.46920    0.01150    3.00410  432.66380  950.92770  716.27750
 1262.00000   -9999.25    3.93920   -0.01450    5.08080   -0.18510    8.47250    0.00120    3.01770  517.07800  636.65800  721.24610
 1262.50000   -9999.25    4.61590   -0.01470    5.01010   -0.19130    8.47730   -0.00030    3.01720 1258.05740 1705.85340 1099.56490
 1263.00000   -9999.25    5.66480   -0.01260    4.94090   -0.18780    8.48210   -0.00030    2.99040 1747.67430 2446.31640 1979.01870
 1263.50000   -9999.25    6.39910   -0.01010    4.90980   -0.18170    8.48710   -0.00030    2.96360  509.86520  634.74800  549.49800
 1264.00000   -9999.25    8.89850    0.00070    4.90370   -0.16850    8.51030    0.00180    2.90010  858.16610 1007.90290  757.88010
 1264.50000   -9999.25   14.94450    0.01680    4.82390   -0.14220    8.52430    0.00490    2.82050 1324.28260 3263.48340  817.78280
 1265.00000   -9999.25   22.60100    0.06690    4.64040   -0.11940    8.53830    0.00580    2.76250  705.01390  588.84910  402.20580
 1265.50000   -9999.25   30.24200    0.11540    4.47810   -0.04130    8.55230    0.00670    2.73040  151.47080  124.14730   50.67970
 1266.00000   -9999.25   31.87770    0.15860    4.38450   -0.01210    8.56630    0.00730    2.73550   28.72530   23.56030   16.76290
 1266.50000   -9999.25   26.81810    0.15010    4.42470   -0.03010    8.58030    0.00730    2.93530   17.13260   15.18750    9.20320
 1267.00000   -9999.25   19.20890    0.09790    4.57240   -0.08100    8.59440    0.00730    2.98600   21.02660   18.25170    9.38190
 1267.50000   -9999.25   11.59970    0.03060    4.72670   -0.14510    8.60840    0.00730    2.99110  122.96110   90.45850   15.94680
 1268.00000   -9999.25    5.39870    0.00670    4.81660   -0.17140    8.62230   -0.00020    2.97450  714.66710 1204.52820   55.90070
 1268.50000   -9999.25    5.15600    0.00150    4.84640   -0.16900    8.62020   -0.00410    2.89470  370.14080  328.84490  192.58540
 1269.00000   -9999.25    7.56340    0.01260    4.86200   -0.15200    8.61800   -0.00600    2.82850  384.34660  299.36340  157.24960
 1269.50000   -9999.25   16.33570    0.03890    4.78860   -0.11600    8.61590   -0.00610    2.72980  455.52490  446.05610  167.79490
 1270.00000   -9999.25   25.10800    0.06530    4.56910   -0.07390    8.61370   -0.00480    2.73900   79.56070   48.09360  108.50500
 1270.50000   -9999.25   33.01660    0.09790    4.27750   -0.02790    8.61160    0.00200    2.85630   16.83720   14.21470   16.42820
 1271.00000   -9999.25   31.59810    0.11000    4.14140   -0.00960    8.60940    0.00510    2.91690   15.21600   14.08210    8.71190
 1271.50000   -9999.25   23.57350    0.07670    4.26870   -0.04950    8.60360    0.00600    2.95530   33.50000   30.27580    8.86520
 1272.00000   -9999.25   14.18300    0.03400    4.57480   -0.09640    8.58700    0.00650    2.97540  159.83940  123.92480   20.64000
 1272.50000   -9999.25    9.38900    0.00780    4.79220   -0.14280    8.57050    0.00710    2.97420 1075.62830  917.63680  158.20930
 1273.00000   -9999.25    7.67060    0.00150    4.91330   -0.16150    8.55550    0.00710    2.89590  687.27760  595.83110  380.87350
 1273.50000   -9999.25    9.09480    0.00100    4.89310   -0.16000    8.54620    0.00680    2.82010  724.07120  652.56540  435.18270
 1274.00000   -9999.25   16.28220    0.01920    4.80870   -0.12520    8.53690    0.00650    2.75850  936.40230  744.53940  452.73490
 1274.50000   -9999.25   25.66740    0.04090    4.64940   -0.07700    8.52760    0.00610    2.78610  134.88000  103.30860   60.50260
 1275.00000   -9999.25   32.70360    0.06810    4.42580   -0.03490    8.51830    0.00580    2.82240   53.84460   47.42900   28.38260
