~Version ---------------------------------------------------
VERS.   2.0 : CWLS log ASCII Standard -VERSION 2.0
WRAP.    NO : One line per depth step
DLM . SPACE : Column Data Section Delimiter
~Well ------------------------------------------------------
STRT .F                  86.0 : START DEPTH
STOP .F                6307.0 : STOP DEPTH
STEP .F                   0.5 : STEP
NULL .               -9999.25 : NULL VALUE
COMP .                        : COMPANY
WELL .                        : WELL
FLD  .                        : FIELD
LOC  .                        : LOCATION
PROV .                        : PROVINCE
CNTY .                        : COUNTY
STAT .                        : STATE
CTRY .                        : COUNTRY
SRVC .                        : SERVICE COMPANY
DATE .                        : DATE
UWI  .                        : UNIQUE WELL ID
API  .                        : API NUMBER
SLAT .WGS84 3.021649520318796 : SURFACE LATITUDE
SLON .WGS84 8.835648754501989 : SURFACE LONGITUDE
DATUM.F                   nan : DEPTH DATUM ELEV
~Curve Information -----------------------------------------
DEPT   .F     : 1 MEASURED DEPTH
DTSM   .US/F  : DELTA-T SHEAR
HSGRD  .GAPI  : HNGS STANDARD GAMMA RAY FROM DENSITY LOG
TNPH_LS.DEC   : THERMAL NEUTRON POROSITY [LIMESTONE]
PEFZ   .B/E   : HRDD STANDARD RESOLUTION FORMATION PHOTOELECTRIC FACTOR
DPHZ_LS.DEC   : HGRD STANDARD RESOLUTION DENSITY POROSITY
HCALD  .IN    : HRCC CALIPER CALIBRATED FROM DENSITY LOG
HDRA   .G/C3  : HRDD SPINE AND RIBS DENSITY CORRECTION
RHOZ   .G/C3  : HRDD STANDARD RESOLUTION FORMATION DENSITY
RLA3   .OHMM  : APPARENT RESISTIVITY FROM COMPUTED FOCUSING MODE 3
RLA5   .OHMM  : APPARENT RESISTIVITY FROM COMPUTED FOCUSING MODE 5
RXOZ   .OHMM  : INVADED FORMATION RESISTIVITY FILTERED AT 18 INCHES
~Params ----------------------------------------------------
~Other -----------------------------------------------------
~ASCII -----------------------------------------------------
# ...
 6277.50000   81.52150   -9999.25    0.05510    3.20070   -0.09500    7.95020    0.01690    2.84200   -9999.25   -9999.25  119.37750
 6278.00000   81.48800   -9999.25    0.05920    3.16790   -0.08290    7.93940    0.01730    2.84470   -9999.25   -9999.25   67.71300
 6278.50000   81.45440   -9999.25    0.06260    3.12120   -0.06390    7.93950    0.01560    2.85660   -9999.25   -9999.25   47.60410
 6279.00000   81.42090   -9999.25    0.06480    3.09380   -0.05690    7.93960    0.01310    2.86340   -9999.25   -9999.25   39.41340
 6279.50000   81.38740   -9999.25    0.06640    3.08910   -0.05850    7.93980    0.01060    2.83250   -9999.25   -9999.25   41.02460
 6280.00000   81.35390   -9999.25    0.06650    3.11500   -0.06890    7.93990    0.00840    2.80460   -9999.25   -9999.25   59.81670
 6280.50000   -9999.25   -9999.25    0.06670    3.14960   -0.06760    7.94010    0.00670    2.80620   -9999.25   -9999.25   74.84900
 6281.00000   -9999.25   -9999.25    0.06850    3.22350   -0.05980    7.94020    0.00490    2.81470   -9999.25   -9999.25   69.62080
 6281.50000   -9999.25   -9999.25    0.07090    3.27480   -0.05100    7.94030    0.00310    2.82300   -9999.25   -9999.25   59.90040
 6282.00000   -9999.25   -9999.25    0.06510    3.27300   -0.05140    7.94050    0.00180    2.81710   -9999.25   -9999.25   61.10440
 6282.50000   -9999.25   -9999.25    0.05570    3.21350   -0.05700    7.94060    0.00220    2.79610   -9999.25   -9999.25   69.92970
 6283.00000   -9999.25   -9999.25    0.04540    3.17960   -0.06810    7.94080    0.00250    2.79170   -9999.25   -9999.25   75.96180
 6283.50000   -9999.25   -9999.25    0.03790    3.14570   -0.07150    7.94090    0.00290    2.79640   -9999.25   -9999.25   81.58700
 6284.00000   -9999.25   -9999.25    0.03100    3.11270   -0.07990    7.94100    0.00330    2.81880   -9999.25   -9999.25   93.59320
 6284.50000   -9999.25   -9999.25    0.03130    3.10330   -0.08450    7.94120    0.00360    2.82680   -9999.25   -9999.25  109.54900
 6285.00000   -9999.25   -9999.25    0.03150    3.09400   -0.08750    7.94130    0.00400    2.83780   -9999.25   -9999.25  114.44610
 6285.50000   -9999.25   -9999.25    0.03180    3.10220   -0.09010    7.94150    0.00610    2.84650   -9999.25   -9999.25  116.36030
 6286.00000   -9999.25   -9999.25    0.03190    3.12940   -0.09610    7.94160    0.00760    2.85130   -9999.25   -9999.25  130.25910
 6286.50000   -9999.25   -9999.25    0.03110    3.15350   -0.09670    7.94170    0.00840    2.85750   -9999.25   -9999.25  140.43890
 6287.00000   -9999.25   -9999.25    0.03100    3.15490   -0.09270    7.94190    0.00910    2.86600   -9999.25   -9999.25  164.98840
 6287.50000   -9999.25   -9999.25    0.03200    3.15620   -0.09050    7.94200    0.00970    2.85960   -9999.25   -9999.25  159.73100
 6288.00000   -9999.25   -9999.25    0.03380    3.20370   -0.09900    7.94220    0.00940    2.85530   -9999.25   -9999.25  145.29180
 6288.50000   -9999.25   -9999.25    0.03580    3.20400   -0.10480    7.94230    0.00770    2.86570   -9999.25   -9999.25  144.29510
 6289.00000   -9999.25   -9999.25    0.03780    3.19740   -0.10660    7.94240    0.00590    2.87860   -9999.25   -9999.25  124.07350
 6289.50000   -9999.25   -9999.25    0.04150    3.19080   -0.09750    7.94260    0.00360    2.88670   -9999.25   -9999.25  133.75410
 6290.00000   -9999.25   -9999.25    0.04640    3.16720   -0.08500    7.94270    0.00210    2.86980   -9999.25   -9999.25  135.80110
 6290.50000   -9999.25   -9999.25    0.05550    3.18040   -0.07850    7.94280    0.00180    2.85320   -9999.25   -9999.25  119.49750
 6291.00000   -9999.25   -9999.25    0.06160    3.16360   -0.07760    7.94300    0.00560    2.83910   -9999.25   -9999.25   92.63780
 6291.50000   -9999.25   -9999.25    0.05990    3.13660   -0.07690    7.94310    0.00600    2.83590   -9999.25   -9999.25   99.66950
 6292.00000   -9999.25   -9999.25    0.05300    3.09880   -0.07520    7.94330    0.00460    2.83410   -9999.25   -9999.25  136.13680
 6292.50000   -9999.25   -9999.25    0.04920    3.06510   -0.07370    7.94340    0.00330    2.83090   -9999.25   -9999.25  173.43880
 6293.00000   -9999.25   -9999.25    0.04650    3.10390   -0.06830    7.94350    0.00110    2.82550   -9999.25   -9999.25  149.62150
 6293.50000   -9999.25   -9999.25   -9999.25    3.14520   -0.06480    7.94370   -0.00100    2.81890   -9999.25   -9999.25  106.62610
 6294.00000   -9999.25   -9999.25   -9999.25    3.19330   -0.05890    7.94380   -0.00320    2.81210   -9999.25   -9999.25   81.54000
 6294.50000   -9999.25   -9999.25   -9999.25    3.23420   -0.04980    7.94400   -0.00350    2.79810   -9999.25   -9999.25   66.88650
 6295.00000   -9999.25   -9999.25   -9999.25    3.27410   -0.04470    7.94440   -0.00360    2.78440   -9999.25   -9999.25   69.49860
 6295.50000   -9999.25   -9999.25   -9999.25    3.31230   -0.04660    7.94500   -0.00380    2.78330   -9999.25   -9999.25   74.07580
 6296.00000   -9999.25   -9999.25   -9999.25    3.30850   -0.05270    7.94550   -0.00340    2.79690   -9999.25   -9999.25   59.05000
 6296.50000   -9999.25   -9999.25   -9999.25    3.24440   -0.06240    7.94610   -0.00220    2.80920   -9999.25   -9999.25   67.77500
 6297.00000   -9999.25   -9999.25   -9999.25    3.16380   -0.07020    7.94660   -0.00100    2.82160   -9999.25   -9999.25   76.66750
 6297.50000   -9999.25   -9999.25   -9999.25    3.12180   -0.07720    7.94710    0.00020    2.83270   -9999.25   -9999.25  121.09390
 6298.00000   -9999.25   -9999.25   -9999.25    3.11160   -0.08390    7.94770    0.00200    2.84360   -9999.25   -9999.25  143.12670
 6298.50000   -9999.25   -9999.25   -9999.25    3.11530   -0.08960    7.94820    0.00470    2.85370   -9999.25   -9999.25  174.96320
 6299.00000   -9999.25   -9999.25   -9999.25    3.14050   -0.08920    7.94880    0.00080    2.85040   -9999.25   -9999.25  172.15200
 6299.50000   -9999.25   -9999.25   -9999.25    3.16280   -0.08210    7.94930   -0.00000    2.83910   -9999.25   -9999.25  149.00570
 6300.00000   -9999.25   -9999.25   -9999.25    3.17350   -0.08180    7.94980    0.00100    2.84050   -9999.25   -9999.25  116.56490
 6300.50000   -9999.25   -9999.25   -9999.25    3.18020   -0.08870    7.95040    0.06610    2.87150   -9999.25   -9999.25   89.86120
 6301.00000   -9999.25   -9999.25   -9999.25    3.18700   -0.09900    7.95090    0.06440    2.87200   -9999.25   -9999.25   79.80210
 6301.50000   -9999.25   -9999.25   -9999.25    3.18800   -0.09850    7.95150    0.04800    2.86330   -9999.25   -9999.25   83.73620
 6302.00000   -9999.25   -9999.25   -9999.25    3.13010   -0.08780    7.95200    0.02840    2.84560   -9999.25   -9999.25   97.02100
 6302.50000   -9999.25   -9999.25   -9999.25    3.08240   -0.07880    7.95250    0.01670    2.83240   -9999.25   -9999.25  107.49480
 6303.00000   -9999.25   -9999.25   -9999.25    3.06440   -0.07310    7.95310    0.01280    2.82630   -9999.25   -9999.25  110.19010
 6303.50000   -9999.25   -9999.25   -9999.25    3.05090   -0.07360    7.95360    0.01150    2.82030   -9999.25   -9999.25   99.75380
 6304.00000   -9999.25   -9999.25   -9999.25    3.05100   -0.07330    7.95420    0.01070    2.81540   -9999.25   -9999.25   72.57030
 6304.50000   -9999.25   -9999.25   -9999.25    3.05350   -0.07010    7.95470    0.00990    2.81520   -9999.25   -9999.25   66.15170
 6305.00000   -9999.25   -9999.25   -9999.25    3.08730   -0.06660    7.95520    0.00930    2.82250   -9999.25   -9999.25   78.35400
 6305.50000   -9999.25   -9999.25   -9999.25    3.11400   -0.05990    7.95580    0.00890    2.82290   -9999.25   -9999.25   87.56960
 6306.00000   -9999.25   -9999.25   -9999.25    3.15600   -0.05640    7.95630    0.00850    2.81770   -9999.25   -9999.25   87.11630
 6306.50000   -9999.25   -9999.25   -9999.25    3.20010   -0.05430    7.95690    0.00800    2.80540   -9999.25   -9999.25   87.04070
 6307.00000   -9999.25   -9999.25   -9999.25    3.18570   -0.05230    7.96520    0.00650    2.80260   -9999.25   -9999.25   87.30860
