~Version ---------------------------------------------------
VERS.   2.0 : CWLS log ASCII Standard -VERSION 2.0
WRAP.    NO : One line per depth step
DLM . SPACE : Column Data Section Delimiter
~Well ------------------------------------------------------
STRT .F                  86.0 : START DEPTH
STOP .F                6307.0 : STOP DEPTH
STEP .F                   0.5 : STEP
NULL .               -9999.25 : NULL VALUE
COMP .                        : COMPANY
WELL .                        : WELL
FLD  .                        : FIELD
LOC  .                        : LOCATION
PROV .                        : PROVINCE
CNTY .                        : COUNTY
STAT .                        : STATE
CTRY .                        : COUNTRY
SRVC .                        : SERVICE COMPANY
DATE .                        : DATE
UWI  .                        : UNIQUE WELL ID
API  .                        : API NUMBER
SLAT .WGS84 3.021649520318796 : SURFACE LATITUDE
SLON .WGS84 8.835648754501989 : SURFACE LONGITUDE
DATUM.F                   nan : DEPTH DATUM ELEV
~Curve Information -----------------------------------------
DEPT   .F     : 1 MEASURED DEPTH
DTSM   .US/F  : DELTA-T SHEAR
HSGRD  .GAPI  : HNGS STANDARD GAMMA RAY FROM DENSITY LOG
TNPH_LS.DEC   : THERMAL NEUTRON POROSITY [LIMESTONE]
PEFZ   .B/E   : HRDD STANDARD RESOLUTION FORMATION PHOTOELECTRIC FACTOR
DPHZ_LS.DEC   : HGRD STANDARD RESOLUTION DENSITY POROSITY
HCALD  .IN    : HRCC CALIPER CALIBRATED FROM DENSITY LOG
HDRA   .G/C3  : HRDD SPINE AND RIBS DENSITY CORRECTION
RHOZ   .G/C3  : HRDD STANDARD RESOLUTION FORMATION DENSITY
RLA3   .OHMM  : APPARENT RESISTIVITY FROM COMPUTED FOCUSING MODE 3
RLA5   .OHMM  : APPARENT RESISTIVITY FROM COMPUTED FOCUSING MODE 5
RXOZ   .OHMM  : INVADED FORMATION RESISTIVITY FILTERED AT 18 INCHES
~Params ----------------------------------------------------
~Other -----------------------------------------------------
~ASCII -----------------------------------------------------
# ...
 4356.00000   -9999.25   66.53840    0.08280    2.62130    0.05900    8.65580   -0.00510    2.61640   12.40320   13.32210    9.80550
 4356.50000   -9999.25   66.26940    0.07690    2.61980    0.05900    8.65620   -0.00620    2.62750   15.08910   16.16730   11.50540
 4357.00000   -9999.25   65.25610    0.07770    2.60950    0.06090    8.65700   -0.00570    2.64910   17.19050   17.94730   12.74630
 4357.50000   -9999.25   63.82190    0.07940    2.61770    0.05640    8.65640   -0.00410    2.66850   17.11060   18.21610   14.12130
 4358.00000   -9999.25   62.90580    0.07780    2.66120    0.04290    8.65570   -0.00260    2.69420   21.60830   26.51170   19.31610
 4358.50000   -9999.25   62.11150    0.07420    2.68930    0.02800    8.65260   -0.00150    2.69580   25.87670   30.03800   24.74640
 4359.00000   -9999.25   60.14150    0.07360    2.70380    0.01350    8.64940   -0.00200    2.68710   23.36070   24.41660   24.07840
 4359.50000   -9999.25   59.08000    0.07420    2.69400    0.00730    8.65480   -0.00300    2.67890   22.44050   20.30340   23.36270
 4360.00000   -9999.25   60.01510    0.07570    2.72080    0.01070    8.65830   -0.00400    2.69900   27.43500   25.09170   27.92420
 4360.50000   -9999.25   61.55580    0.07710    2.73640    0.01820    8.65890   -0.00450    2.74130   35.58030   32.94520   36.42970
 4361.00000   -9999.25   61.49480    0.07840    2.82600    0.01660    8.66310   -0.00500    2.75800   46.14380   43.53600   46.72700
 4361.50000   -9999.25   58.01230    0.07610    2.88190   -0.00470    8.66210   -0.00550    2.80270   66.76520   67.97800   72.88880
 4362.00000   -9999.25   51.95140    0.06580    2.95230   -0.03370    8.66110   -0.00600    2.82940   96.93270  138.03930  126.63500
 4362.50000   -9999.25   44.42830    0.05660    3.02230   -0.06290    8.66020   -0.00680    2.84430  192.06540  418.15650  310.14400
 4363.00000   -9999.25   40.13840    0.04870    3.09030   -0.07930    8.65480   -0.00730    2.84540  392.86130  752.51420  491.08870
 4363.50000   -9999.25   38.24660    0.04080    3.16560   -0.08380    8.65030   -0.00760    2.84030  512.52090  591.11990  627.72690
 4364.00000   -9999.25   36.30380    0.03530    3.19900   -0.08520    8.65820   -0.00720    2.83920  384.75290  430.72530  616.50260
 4364.50000   -9999.25   34.39530    0.03170    3.20120   -0.07970    8.66910   -0.00600    2.84060  304.28690  313.85210  491.74510
 4365.00000   -9999.25   32.77270    0.03170    3.17930   -0.08010    8.67990   -0.00480    2.84010  280.77280  322.49270  477.09030
 4365.50000   -9999.25   31.87400    0.03280    3.16050   -0.08000    8.68060   -0.00350    2.84030  323.15050  309.80980  487.31600
 4366.00000   -9999.25   30.87590    0.03390    3.15900   -0.08130    8.67300   -0.00230    2.84270  274.41790  271.25410  394.11400
 4366.50000   -9999.25   30.78540    0.03400    3.23320   -0.08180    8.67170   -0.00110    2.84320  365.36460  384.37780  304.44150
 4367.00000   -9999.25   30.97900    0.03400    3.26160   -0.08280    8.68940   -0.00110    2.83630  300.27790  341.59450  217.20150
 4367.50000   -9999.25   31.31210    0.03410    3.28200   -0.08020    8.69880   -0.00110    2.82730  233.43510  239.35050  183.70790
 4368.00000   -9999.25   31.07850    0.03480    3.26350   -0.07320    8.70780   -0.00200    2.82730  280.38060  293.13870  179.20430
 4368.50000   -9999.25   29.51980    0.03540    3.17890   -0.07240    8.71680   -0.00520    2.82750  328.40420  339.36930  208.97370
 4369.00000   -9999.25   27.68010    0.03610    3.16150   -0.07270    8.72580   -0.00610    2.82920  316.03760  335.66190  238.87290
 4369.50000   -9999.25   27.14440    0.03540    3.15990   -0.07300    8.73480   -0.00530    2.83170  374.30860  392.30270  212.47540
 4370.00000   -9999.25   28.01490    0.03450    3.17500   -0.07550    8.74390   -0.00370    2.83260  390.04080  388.49100  194.20820
 4370.50000   -9999.25   28.37160    0.03310    3.19010   -0.07720    8.75290   -0.00110    2.82990  333.01630  332.39090  192.74170
 4371.00000   -9999.25   26.48540    0.03180    3.18740   -0.07460    8.76190    0.00140    2.82870  315.97840  354.33450  223.97360
 4371.50000   -9999.25   24.06350    0.03120    3.16020   -0.07280    8.77120    0.00180    2.82660  352.61020  348.40580  261.96050
 4372.00000   -9999.25   24.66870    0.03140    3.15920   -0.07370    8.79020    0.00230    2.82430  302.37310  305.35470  280.75860
 4372.50000   -9999.25   26.66290    0.03150    3.15930   -0.07220    8.80920    0.00270    2.81710  439.56060  446.85320  224.46940
 4373.00000   -9999.25   28.62230    0.03160    3.15960   -0.06650    8.84690    0.00300    2.81900  357.21400  355.58030  209.85160
 4373.50000   -9999.25   29.44390    0.03160    3.16940   -0.06740    8.87630    0.00250    2.82330  362.79310  403.73310  218.29410
 4374.00000   -9999.25   30.33100    0.03200    3.13560   -0.07160    8.88640    0.00190    2.80080  211.73260  258.54810  125.07630
 4374.50000   -9999.25   29.96870    0.03210    3.12290   -0.07090    8.89640    0.00140    2.73010  163.86780  156.21530   94.02850
 4375.00000   -9999.25   31.67570    0.03320    3.09640   -0.06770    8.90650    0.00090    2.59940  235.49340  247.89710  116.52560
 4375.50000   -9999.25   37.94960    0.03670    2.93280   -0.04010    8.91650   -0.00030    2.55720  338.42640  392.03050  179.11990
 4376.00000   -9999.25   46.70610    0.05120    2.68490    0.01440    8.92660   -0.00250    2.55580  311.18580  334.76880  269.20820
 4376.50000   -9999.25   56.43690    0.06930    2.55760    0.05790    8.93660   -0.00440    2.56260  248.37980  254.31090  283.76930
 4377.00000   -9999.25   61.50500    0.09010    2.50150    0.09440    8.94440   -0.00600    2.56710   35.89890   99.65890   27.80010
 4377.50000   -9999.25   62.45610    0.09580    2.49080    0.09740    8.95860   -0.00590    2.56760    8.12610   13.27510    9.09730
 4378.00000   -9999.25   61.70190    0.08750    2.48120    0.09030    8.97280   -0.00570    2.56670    8.03120    8.46380    6.92870
 4378.50000   -9999.25   59.28420    0.08640    2.47680    0.08580    8.98700   -0.00550    2.57460    8.74140    9.88180    7.23950
 4379.00000   -9999.25   57.24540    0.08820    2.47700    0.08890    9.00120   -0.00530    2.59370    9.59410   11.09490    8.06170
 4379.50000   -9999.25   55.33980    0.08870    2.47700    0.08860    9.00770   -0.00320    2.59590   10.58370   12.75180    8.65820
 4380.00000   -9999.25   54.12850    0.08630    2.47660    0.08150    9.01250   -0.00110    2.58410   10.88070   13.93170    8.65060
 4380.50000   -9999.25   54.52060    0.08240    2.44800    0.07100    9.01990   -0.00070    2.57060   10.18620   14.07250    8.59090
 4381.00000   -9999.25   57.71670    0.07970    2.46420    0.07710    9.02730   -0.00020    2.57050   10.12070   14.51690    8.76250
 4381.50000   -9999.25   61.26180    0.08390    2.47440    0.08690    9.07840    0.00020    2.58190   14.34660   21.11580   11.63400
 4382.00000   -9999.25   62.24150    0.09320    2.46830    0.08640    9.10680    0.00070    2.58720   15.07860   22.49140   10.14590
 4382.50000   -9999.25   61.75450    0.09570    2.42470    0.07570    9.12090    0.00110    2.57400    8.32730    8.29890    5.91250
 4383.00000   -9999.25   60.81120    0.09840    2.38110    0.07770    9.12210    0.00160    2.57680    7.43230   11.85920    5.80920
 4383.50000   -9999.25   60.70150    0.10290    2.39960    0.09830    9.12400    0.00200    2.58150    8.66140   13.03970    7.41560
 4384.00000   -9999.25   60.74340    0.10730    2.40760    0.11050    9.12860    0.00120    2.58860    7.72540   11.62260    7.02720
 4384.50000   -9999.25   60.14030    0.11080    2.39840    0.12380    9.12980   -0.00050    2.58420    7.05450   10.42450    6.37790
 4385.00000   -9999.25   59.62470    0.11400    2.35980    0.12920    9.12580   -0.00250    2.55050    6.82710    9.66010    5.50630
 4385.50000   -9999.25   59.40540    0.11730    2.32190    0.13400    9.12310   -0.00450    2.52390    7.07270    9.43630    5.51580
 4386.00000   -9999.25   59.76620    0.11910    2.31630    0.13520    9.11560   -0.00540    2.50690    7.47360    9.70480    5.46900
