~Version ---------------------------------------------------
VERS.   2.0 : CWLS log ASCII Standard -VERSION 2.0
WRAP.    NO : One line per depth step
DLM . SPACE : Column Data Section Delimiter
~Well ------------------------------------------------------
STRT .F                  86.0 : START DEPTH
STOP .F                6307.0 : STOP DEPTH
STEP .F                   0.5 : STEP
NULL .               -9999.25 : NULL VALUE
COMP .                        : COMPANY
WELL .                        : WELL
FLD  .                        : FIELD
LOC  .                        : LOCATION
PROV .                        : PROVINCE
CNTY .                        : COUNTY
STAT .                        : STATE
CTRY .                        : COUNTRY
SRVC .                        : SERVICE COMPANY
DATE .                        : DATE
UWI  .                        : UNIQUE WELL ID
API  .                        : API NUMBER
SLAT .WGS84 3.021649520318796 : SURFACE LATITUDE
SLON .WGS84 8.835648754501989 : SURFACE LONGITUDE
DATUM.F                   nan : DEPTH DATUM ELEV
~Curve Information -----------------------------------------
DEPT   .F     : 1 MEASURED DEPTH
DTSM   .US/F  : DELTA-T SHEAR
HSGRD  .GAPI  : HNGS STANDARD GAMMA RAY FROM DENSITY LOG
TNPH_LS.DEC   : THERMAL NEUTRON POROSITY [LIMESTONE]
PEFZ   .B/E   : HRDD STANDARD RESOLUTION FORMATION PHOTOELECTRIC FACTOR
DPHZ_LS.DEC   : HGRD STANDARD RESOLUTION DENSITY POROSITY
HCALD  .IN    : HRCC CALIPER CALIBRATED FROM DENSITY LOG
HDRA   .G/C3  : HRDD SPINE AND RIBS DENSITY CORRECTION
RHOZ   .G/C3  : HRDD STANDARD RESOLUTION FORMATION DENSITY
RLA3   .OHMM  : APPARENT RESISTIVITY FROM COMPUTED FOCUSING MODE 3
RLA5   .OHMM  : APPARENT RESISTIVITY FROM COMPUTED FOCUSING MODE 5
RXOZ   .OHMM  : INVADED FORMATION RESISTIVITY FILTERED AT 18 INCHES
~Params ----------------------------------------------------
~Other -----------------------------------------------------
~ASCII -----------------------------------------------------
# ...
 5515.00000   90.45110   43.12720    0.04500    3.16180   -0.07580    8.11570   -0.00290    2.83260  847.95840  837.16270  638.64320
 5515.50000   91.28830   55.36230    0.06830    3.17540   -0.06190    8.11670   -0.00210    2.81280  773.00850  763.13900  165.76190
 5516.00000   91.16890   58.44890    0.08590    3.15160   -0.06610    8.11540   -0.00140    2.80960   37.28670   39.25770   14.17660
 5516.50000   89.28460   48.94190    0.08560    3.12830   -0.08160    8.11320   -0.00180    2.84260   27.13550   23.14630   18.49000
 5517.00000   87.36370   39.02590    0.06270    3.11130   -0.10190    8.11280   -0.00220    2.86470   27.13550   22.95210   14.66940
 5517.50000   85.28030   35.32140    0.04050    3.16460   -0.10260    8.11250   -0.00350    2.88000   30.47160   25.23950   18.49070
 5518.00000   83.19680   34.58680    0.02950    3.25130   -0.09660    8.11860   -0.00510    2.86700   96.11620   79.46940   26.26090
 5518.50000   81.21090   33.61070    0.02510    3.29720   -0.09370    8.12460   -0.00560    2.86200  209.86190  196.54790  128.48830
 5519.00000   79.60510   32.06790    0.02280    3.30190   -0.09300    8.13740   -0.00410    2.86110  358.82640  335.93800  273.90110
 5519.50000   77.70250   31.63830    0.02070    3.28720   -0.08890    8.15450   -0.00120    2.85360  580.14450  548.96770  265.09010
 5520.00000   76.40960   32.08240    0.01930    3.28630   -0.08420    8.15540    0.00030    2.84660  877.10780  878.12450  270.99540
 5520.50000   76.73900   33.15900    0.01930    3.26620   -0.08620    8.16960    0.00030    2.84930  989.00450 1198.93770  323.06750
 5521.00000   77.93810   34.66050    0.01930    3.23860   -0.09360    8.16040   -0.00090    2.86130  903.42200 1054.26010  364.77340
 5521.50000   79.94710   35.60400    0.01980    3.21810   -0.09780    8.15420   -0.00230    2.86740  809.20510 1357.00810  355.99400
 5522.00000   80.52860   36.34390    0.02220    3.21450   -0.09140    8.15200   -0.00280    2.86670  781.54440  909.98790  315.18320
 5522.50000   80.65470   36.86520    0.02610    3.23290   -0.08450    8.14970   -0.00240    2.84330 1091.15310 1595.75060  322.35800
 5523.00000   81.43620   34.44440    0.02710    3.21380   -0.07850    8.14750   -0.00200    2.83840 1227.78300 1564.51530  328.85920
 5523.50000   82.67890   32.11880    0.02690    3.16630   -0.08230    8.14520   -0.00160    2.84310 1183.45320 1550.35570  330.72780
 5524.00000   82.82410   32.24920    0.02430    3.13870   -0.08460    8.14300   -0.00140    2.84790 1064.17150 1544.75020  369.96060
 5524.50000   82.69770   36.50420    0.02680    3.12280   -0.08920    8.14070   -0.00140    2.85340  992.31760 1270.90780  445.01170
 5525.00000   83.22910   39.99060    0.03130    3.12860   -0.08770    8.13850   -0.00140    2.85390  618.69280  459.31570  391.57200
 5525.50000   83.68400   41.54720    0.03500    3.16090   -0.08730    8.13620   -0.00170    2.85150   79.03640   70.32170  128.13860
 5526.00000   84.59970   42.12610    0.03480    3.13880   -0.08910    8.13400   -0.00190    2.85540   90.02050   67.43220  130.43680
 5526.50000   86.85590   44.29410    0.03380    3.15050   -0.09150    8.13170   -0.00210    2.85830  648.63870 1603.62370  337.62880
 5527.00000   89.04130   51.08170    0.03730    3.16640   -0.08820    8.12950   -0.00220    2.84850  408.30530  427.63900  184.03610
 5527.50000   90.91120   70.23260    0.04290    3.18230   -0.06690    8.12720   -0.00220    2.81980   87.37120   86.60280   84.87770
 5528.00000   91.44570   92.15470    0.05390    3.21000   -0.05670    8.12580   -0.00230    2.80560  238.65250  178.69260  116.95410
 5528.50000   91.57680   97.93570    0.06710    3.23180   -0.04990    8.12470   -0.00240    2.79140  607.89260  661.88010  221.17660
 5529.00000   91.52970   85.38100    0.07070    3.22880   -0.05880    8.12350   -0.00310    2.79360  656.60930  603.56930  458.03980
 5529.50000   91.41630   69.19640    0.05830    3.20780   -0.06960    8.12240   -0.00410    2.81750  587.92110  421.01300  474.53740
 5530.00000   89.41430   58.60420    0.04650    3.23530   -0.07330    8.12120   -0.00510    2.82730  387.88370  391.64590  109.05540
 5530.50000   86.58880   53.05090    0.03550    3.27050   -0.07450    8.12010   -0.00610    2.83270   67.10470   52.44880   25.16380
 5531.00000   80.48300   48.31960    0.03050    3.31190   -0.07980    8.11890   -0.00650    2.84160   17.76870   12.42440   17.23740
 5531.50000   80.21830   43.73120    0.02560    3.33910   -0.08530    8.11780   -0.00670    2.84840  420.06460  409.64680   52.92620
 5532.00000   79.95360   41.09580    0.02100    3.33830   -0.09050    8.11660   -0.00690    2.85700  260.85990  212.35600  148.73770
 5532.50000   80.02650   42.27540    0.01730    3.27290   -0.09220    8.11550   -0.00700    2.85920  327.84040  446.70850  149.46720
 5533.00000   80.30560   47.87200    0.01790    3.20750   -0.09540    8.11430   -0.00720    2.86530  193.77380  188.58850  149.75170
 5533.50000   81.06860   53.69860    0.02260    3.14680   -0.10010    8.11320   -0.00680    2.87050  650.30490  532.77800  290.08030
 5534.00000   81.53590   58.07940    0.03040    3.12030   -0.09810    8.11330   -0.00620    2.87050 1488.76590 1897.05960  536.05540
 5534.50000   82.00320   59.61710    0.03890    3.12160   -0.09290    8.11330   -0.00550    2.86140 2327.22680 3261.34130  675.00590
 5535.00000   83.28940   61.51070    0.04510    3.13680   -0.08020    8.11420   -0.00490    2.83520 2176.39180 2442.90890  738.92420
 5535.50000   84.01860   64.34470    0.05740    3.14800   -0.07900    8.12590   -0.00420    2.83350  729.51950  642.21140  475.45270
 5536.00000   84.07940   66.96920    0.05810    3.13020   -0.09050    8.13560   -0.00330    2.84440  257.04150  254.44820  227.62960
 5536.50000   83.47600   70.03680    0.05400    3.12590   -0.09840    8.13560   -0.00240    2.86630  249.62010  247.10180  202.17780
 5537.00000   82.72060   74.22500    0.04160    3.16080   -0.09810    8.13280   -0.00140    2.86980   91.68590   78.76650  134.68880
 5537.50000   81.42810   77.46950    0.02610    3.16970   -0.09790    8.12990   -0.00040    2.87170   67.23050   55.64860  122.26670
 5538.00000   78.61340   80.01160    0.02430    3.13920   -0.10110    8.13050    0.00020    2.87960  173.59180  153.41340  136.19020
 5538.50000   77.12310   84.45960    0.02350    3.10150   -0.11100    8.13340   -0.00000    2.88890  391.56440  359.22200  188.05300
 5539.00000   76.92520   90.32040    0.02270    3.06810   -0.11270    8.13460   -0.00030    2.89300  679.13540  665.30520  297.61580
 5539.50000   76.81980   94.77830    0.02210    3.04780   -0.11130    8.13450   -0.00050    2.89170 1042.43680 1026.64490  335.28490
 5540.00000   76.62450   94.96740    0.02200    3.04330   -0.10960    8.14040   -0.00120    2.88860 1625.36740 1843.53830  380.16350
 5540.50000   76.38320   87.29890    0.02130    3.05750   -0.10820    8.14900   -0.00250    2.88690 1187.35910 1097.39160  481.58530
 5541.00000   76.14200   78.41840    0.01940    3.08720   -0.10880    8.15760   -0.00370    2.88710  832.00550  820.14040  419.70270
 5541.50000   76.06650   62.11120    0.01740    3.12060   -0.11170    8.16690   -0.00480    2.88910  703.06560  767.39770  408.11730
 5542.00000   75.99650   48.19000    0.01540    3.16260   -0.11010    8.17620   -0.00520    2.89100  903.50580 1135.67540  487.66660
 5542.50000   75.30440   40.13900    0.01340    3.21000   -0.10060    8.18060   -0.00570    2.88410 1080.59520 1217.24480  699.28630
 5543.00000   75.36560   32.74470    0.01320    3.21010   -0.09470    8.19260   -0.00610    2.86710 1134.00950 1259.73330  647.47750
 5543.50000   76.77210   29.73930    0.01480    3.17950   -0.09200    8.18520   -0.00640    2.86150  724.04690  669.55290  492.25230
 5544.00000   80.66920   32.47210    0.01910    3.15090   -0.09140    8.17790   -0.00640    2.85840  587.14570  684.20650  507.69060
 5544.50000   83.41780   39.86060    0.02530    3.12230   -0.08740    8.14030   -0.00640    2.85660 1650.79110 1703.68590  707.85660
 5545.00000   86.74200   48.97810    0.03790    3.12560   -0.08280    8.11770   -0.00640    2.85020 1577.43100 1357.37990  552.83820
