~Version ---------------------------------------------------
VERS.   2.0 : CWLS log ASCII Standard -VERSION 2.0
WRAP.    NO : One line per depth step
DLM . SPACE : Column Data Section Delimiter
~Well ------------------------------------------------------
STRT .F                  86.0 : START DEPTH
STOP .F                6307.0 : STOP DEPTH
STEP .F                   0.5 : STEP
NULL .               -9999.25 : NULL VALUE
COMP .                        : COMPANY
WELL .                        : WELL
FLD  .                        : FIELD
LOC  .                        : LOCATION
PROV .                        : PROVINCE
CNTY .                        : COUNTY
STAT .                        : STATE
CTRY .                        : COUNTRY
SRVC .                        : SERVICE COMPANY
DATE .                        : DATE
UWI  .                        : UNIQUE WELL ID
API  .                        : API NUMBER
SLAT .WGS84 3.021649520318796 : SURFACE LATITUDE
SLON .WGS84 8.835648754501989 : SURFACE LONGITUDE
DATUM.F                   nan : DEPTH DATUM ELEV
~Curve Information -----------------------------------------
DEPT   .F     : 1 MEASURED DEPTH
DTSM   .US/F  : DELTA-T SHEAR
HSGRD  .GAPI  : HNGS STANDARD GAMMA RAY FROM DENSITY LOG
TNPH_LS.DEC   : THERMAL NEUTRON POROSITY [LIMESTONE]
PEFZ   .B/E   : HRDD STANDARD RESOLUTION FORMATION PHOTOELECTRIC FACTOR
DPHZ_LS.DEC   : HGRD STANDARD RESOLUTION DENSITY POROSITY
HCALD  .IN    : HRCC CALIPER CALIBRATED FROM DENSITY LOG
HDRA   .G/C3  : HRDD SPINE AND RIBS DENSITY CORRECTION
RHOZ   .G/C3  : HRDD STANDARD RESOLUTION FORMATION DENSITY
RLA3   .OHMM  : APPARENT RESISTIVITY FROM COMPUTED FOCUSING MODE 3
RLA5   .OHMM  : APPARENT RESISTIVITY FROM COMPUTED FOCUSING MODE 5
RXOZ   .OHMM  : INVADED FORMATION RESISTIVITY FILTERED AT 18 INCHES
~Params ----------------------------------------------------
~Other -----------------------------------------------------
~ASCII -----------------------------------------------------
# ...
  879.00000   -9999.25   18.20260    0.00730    4.82450   -0.15050    8.31030   -0.00040    2.96210 1898.36000 2204.21630  785.35760
  879.50000   -9999.25   19.39530    0.01340    4.75040   -0.13620    8.30930   -0.00090    2.93940  324.17990  204.08370   73.85730
  880.00000   -9999.25   15.88490    0.01730    4.76400   -0.13970    8.30860   -0.00140    2.89910   68.49130   71.59730   47.69520
  880.50000   -9999.25   12.62460    0.01750    4.84380   -0.14950    8.32080   -0.00180    2.85400  302.30190  483.61230   94.58450
  881.00000   -9999.25   14.60160    0.02550    4.83490   -0.14860    8.33290   -0.00160    2.88870 1090.41530 1554.09160  200.82720
  881.50000   -9999.25   18.82680    0.04070    4.74740   -0.11470    8.34710   -0.00150    2.93450  622.16800 1728.15590  775.28190
  882.00000   -9999.25   18.16310    0.05770    4.63210   -0.09070    8.34480   -0.00130    2.97270   36.12560  129.23750   19.10880
  882.50000   -9999.25   14.15780    0.03230    4.64280   -0.10650    8.34070   -0.00110    2.95440   27.03370   28.81420   25.13000
  883.00000   -9999.25   10.53310    0.03120    4.72420   -0.14190    8.33660   -0.00090    2.95240   50.00520   57.80530   25.41210
  883.50000   -9999.25    8.87530    0.02150    4.81950   -0.16100    8.33340   -0.00040    2.97080   15.85140   14.93690   13.17810
  884.00000   -9999.25    9.57170    0.01280    4.91830   -0.15380    8.33080    0.00000    2.97740   80.24480   61.85680   15.08010
  884.50000   -9999.25    9.32230    0.01090    4.97650   -0.14830    8.33750    0.00040    2.97260  123.49750  106.67820   67.34240
  885.00000   -9999.25    8.51760    0.00880    4.94410   -0.15240    8.33560    0.00090    2.96660  259.95140  199.39990  120.63120
  885.50000   -9999.25    7.71290    0.00680    4.91430   -0.16400    8.33270    0.00130    2.93070  385.91320  316.77580  156.94720
  886.00000   -9999.25    6.91410    0.00710    4.98980   -0.16400    8.33020    0.00150    2.88220  124.73970  110.58780  137.47790
  886.50000   -9999.25    9.28590    0.01280    4.94490   -0.16270    8.33010    0.00150    2.80660  201.85730  194.99900  117.71820
  887.00000   -9999.25   16.28420    0.02600    4.83150   -0.14230    8.33150    0.00150    2.81340  219.90350  249.40340  184.61380
  887.50000   -9999.25   23.24860    0.05590    4.74580   -0.09090    8.33410    0.00150    2.88130  366.72870  497.14120  307.53680
  888.00000   -9999.25   26.01140    0.08740    4.53980   -0.05960    8.33660    0.00150    2.91700  104.17970   92.63840  146.15250
  888.50000   -9999.25   21.49170    0.09370    4.49170   -0.06030    8.33920    0.00150    2.95880  133.67190  183.18110  172.45010
  889.00000   -9999.25   16.84190    0.05730    4.68230   -0.09290    8.34180    0.00150    2.97620  149.33810  107.09760   25.02960
  889.50000   -9999.25   11.10320    0.02590    4.84930   -0.12410    8.34430    0.00150    2.99190   11.11990   13.01930   10.03690
  890.00000   -9999.25    7.83320    0.01900    5.05540   -0.14170    8.34690    0.00150    2.99840   21.81810   27.66090    8.72900
  890.50000   -9999.25    6.33900    0.01220    5.05720   -0.15920    8.34950    0.00150    2.99780  110.60470  138.65400   15.14400
  891.00000   -9999.25    5.23320    0.00500    5.06990   -0.17010    8.35210    0.00150    2.98870  261.39180  293.37090   81.71000
  891.50000   -9999.25    4.90640    0.00220    5.11340   -0.17540    8.35370    0.00150    2.98910   62.10050   61.64790   71.34870
  892.00000   -9999.25    4.89970    0.00070    5.15690   -0.17560    8.35650    0.00150    2.99430  445.71860  316.99040   62.07430
  892.50000   -9999.25    4.60990   -0.00030    5.18240   -0.17580    8.36370    0.00150    2.99750 1660.73170 2256.84520  205.78340
  893.00000   -9999.25    6.64930   -0.00030    5.14560   -0.17750    8.37080    0.01080    2.99750 1578.53030 1581.07570  882.55230
  893.50000   -9999.25    9.52850   -0.00010    5.03160   -0.17340    8.37800    0.02300    2.92360  683.73600  606.08420 1275.73670
  894.00000   -9999.25   11.79500    0.00010    4.86070   -0.17130    8.39190    0.03530    2.81480  246.39840  216.16090  184.49710
  894.50000   -9999.25   10.59670   -0.00210    4.68990   -0.16980    8.39180    0.04750    2.67890  106.31290  104.86300   88.33830
  895.00000   -9999.25    8.72810   -0.00540    4.68210   -0.18270    8.39160    0.04130    2.63750  388.17930  285.76480  152.73790
  895.50000   -9999.25    7.41500   -0.00230    4.75230   -0.18780    8.42710    0.02260    2.63760 1253.92930 1011.92580  409.51190
  896.00000   -9999.25   11.39720    0.01340    4.78020   -0.16290    8.47550    0.01590    2.70030 1894.85600 1837.18350  861.69490
  896.50000   -9999.25   24.81190    0.04360    4.42500   -0.08110    8.52400    0.03640    2.69950  176.64370   70.53820 1145.30620
  897.00000   -9999.25   35.05950    0.09290    4.01090    0.00070    8.57240    0.03520    2.64010    7.04920    6.97030    1.29950
  897.50000   -9999.25   40.32970    0.12780    3.67190    0.04690    8.56130    0.02410    2.63430   16.47330   14.27560    1.24540
  898.00000   -9999.25   28.47010    0.11270    3.85020    0.00830    8.54050    0.01260    2.63580   38.33710   35.00040    4.12400
  898.50000   -9999.25   16.99110    0.06500    4.29420   -0.07040    8.51960    0.00100    2.79800   80.20650   73.26020   17.48040
  899.00000   -9999.25   11.98640    0.02060    4.74840   -0.11840    8.49880   -0.00520    2.91460  317.85320  259.11190   94.60180
  899.50000   -9999.25   10.12370    0.00620    4.93220   -0.14800    8.47800   -0.00520    2.95160 1360.69690 1169.16200  245.66360
  900.00000   -9999.25   12.06050    0.00940    4.89650   -0.12290    8.47590   -0.00510    2.95150 1976.15370 2085.97900  365.78370
  900.50000   -9999.25   13.82590    0.01570    4.64670   -0.10370    8.48370   -0.00470    2.84480  429.89750  271.09560  130.99230
  901.00000   -9999.25   12.71510    0.02050    4.57170   -0.08440    8.49730   -0.00360    2.86020   82.71150   81.10410   72.38080
  901.50000   -9999.25   10.15820    0.01380    4.66860   -0.11830    8.51130   -0.00250    2.88590  179.69640  143.57980   72.64670
  902.00000   -9999.25    7.25280    0.00060    4.81780   -0.14500    8.52520   -0.00140    2.92750 1276.99020 2927.03270  260.91960
  902.50000   -9999.25    5.57530   -0.00920    4.89520   -0.17140    8.53080    0.00010    2.97480 1421.56960 1491.92600  654.09940
  903.00000   -9999.25    5.21040   -0.01020    4.93430   -0.17120    8.53430    0.00170    2.98690  541.69150  531.53700  507.26010
  903.50000   -9999.25    8.21240   -0.00440    4.89410   -0.16440    8.55310    0.00340    2.98380  664.08570  658.74160  331.54200
  904.00000   -9999.25   19.00670    0.01800    4.60240   -0.12930    8.60010    0.00570    2.93940  468.36010  387.59180  189.28390
  904.50000   -9999.25   31.24100    0.05360    4.15090   -0.07560    8.66990    0.00820    2.86270   92.93720   23.47030   28.16230
  905.00000   -9999.25   43.47540    0.10390    3.64910   -0.02180    8.66200    0.01060    2.74780   11.05150   10.86610    8.60130
  905.50000   -9999.25   42.61350    0.12550    3.67430    0.01820    8.60370    0.01190    2.68200   17.09120   16.03360    6.66380
  906.00000   -9999.25   32.88770    0.09590    3.97150   -0.00390    8.55360    0.00990    2.70860   32.50580   30.74050    9.36400
  906.50000   -9999.25   23.16180    0.05400    4.36460   -0.05190    8.51360    0.00790    2.76130  100.91600   81.11130   21.63940
  907.00000   -9999.25   13.43600    0.02780    4.78240   -0.09420    8.47370    0.00580    2.81920  348.88800  303.21840   72.95710
  907.50000   -9999.25    7.73250    0.00790    5.08120   -0.16000    8.43970    0.00380    2.95710  601.67140  559.55680  168.15750
  908.00000   -9999.25    7.13560   -0.00260    5.14910   -0.17270    8.44680    0.00110    2.98880  368.68940  347.50360  350.19090
  908.50000   -9999.25    7.72380   -0.00460    5.13000   -0.17020    8.45400   -0.00120    2.99280  337.75560  334.18640  414.86360
  909.00000   -9999.25    8.77320   -0.00440    5.09010   -0.15390    8.46120   -0.00250    2.99170  206.49160  182.36770  109.32440
