~Version ---------------------------------------------------
VERS.   2.0 : CWLS log ASCII Standard -VERSION 2.0
WRAP.    NO : One line per depth step
DLM . SPACE : Column Data Section Delimiter
~Well ------------------------------------------------------
STRT .F                  86.0 : START DEPTH
STOP .F                6307.0 : STOP DEPTH
STEP .F                   0.5 : STEP
NULL .               -9999.25 : NULL VALUE
COMP .                        : COMPANY
WELL .                        : WELL
FLD  .                        : FIELD
LOC  .                        : LOCATION
PROV .                        : PROVINCE
CNTY .                        : COUNTY
STAT .                        : STATE
CTRY .                        : COUNTRY
SRVC .                        : SERVICE COMPANY
DATE .                        : DATE
UWI  .                        : UNIQUE WELL ID
API  .                        : API NUMBER
SLAT .WGS84 3.021649520318796 : SURFACE LATITUDE
SLON .WGS84 8.835648754501989 : SURFACE LONGITUDE
DATUM.F                   nan : DEPTH DATUM ELEV
~Curve Information -----------------------------------------
DEPT   .F     : 1 MEASURED DEPTH
DTSM   .US/F  : DELTA-T SHEAR
HSGRD  .GAPI  : HNGS STANDARD GAMMA RAY FROM DENSITY LOG
TNPH_LS.DEC   : THERMAL NEUTRON POROSITY [LIMESTONE]
PEFZ   .B/E   : HRDD STANDARD RESOLUTION FORMATION PHOTOELECTRIC FACTOR
DPHZ_LS.DEC   : HGRD STANDARD RESOLUTION DENSITY POROSITY
HCALD  .IN    : HRCC CALIPER CALIBRATED FROM DENSITY LOG
HDRA   .G/C3  : HRDD SPINE AND RIBS DENSITY CORRECTION
RHOZ   .G/C3  : HRDD STANDARD RESOLUTION FORMATION DENSITY
RLA3   .OHMM  : APPARENT RESISTIVITY FROM COMPUTED FOCUSING MODE 3
RLA5   .OHMM  : APPARENT RESISTIVITY FROM COMPUTED FOCUSING MODE 5
RXOZ   .OHMM  : INVADED FORMATION RESISTIVITY FILTERED AT 18 INCHES
~Params ----------------------------------------------------
~Other -----------------------------------------------------
~ASCII -----------------------------------------------------
# ...
 2404.00000   -9999.25   15.46950    0.03180    3.50190   -0.08600    8.35810   -0.00120    2.85180  905.73320 1481.46290  499.70510
 2404.50000   -9999.25   16.03150    0.03410    3.52790   -0.08060    8.35930   -0.00080    2.84410  685.76640  823.86290  343.90610
 2405.00000   -9999.25   16.54290    0.03820    3.53340   -0.07930    8.36050   -0.00040    2.83930  521.80770  605.87360  256.62860
 2405.50000   -9999.25   17.04690    0.04200    3.53880   -0.07040    8.36840   -0.00000    2.83380  503.07860  634.86130  255.35400
 2406.00000   -9999.25   17.03290    0.04900    3.50780   -0.04900    8.37650    0.00020    2.80850  612.76590  740.47380  228.51430
 2406.50000   -9999.25   16.06020    0.05270    3.44430   -0.04570    8.37380    0.00010    2.78670  489.92840  461.11050  216.56900
 2407.00000   -9999.25   15.17710    0.05600    3.36860   -0.04530    8.37100    0.00000    2.78390  313.80730  308.94150  169.95330
 2407.50000   -9999.25   15.49580    0.05760    3.30790   -0.04420    8.37480   -0.00010    2.78240  334.57040  329.89090  147.41300
 2408.00000   -9999.25   16.32050    0.05760    3.30110   -0.04000    8.37150   -0.00010    2.77730  377.82860  368.67970  147.16850
 2408.50000   -9999.25   16.55280    0.05580    3.25090   -0.04170    8.37740   -0.00020    2.77300  871.70320  776.05220  189.48050
 2409.00000   -9999.25   15.16800    0.05490    3.23080   -0.04860    8.38640   -0.00030    2.77910 1288.27330 1153.00890  246.07470
 2409.50000   -9999.25   13.89000    0.05970    3.20130   -0.05460    8.38900   -0.00030    2.79450  724.30570  677.13220  246.51280
 2410.00000   -9999.25   13.80090    0.06480    3.18590   -0.05430    8.39160   -0.00040    2.80140  315.51490  305.06470  181.99950
 2410.50000   -9999.25   14.56870    0.07280    3.17060   -0.04930    8.39920   -0.00050    2.78960  231.39500  225.88020  140.99910
 2411.00000   -9999.25   16.27330    0.07940    3.15600   -0.05010    8.40420   -0.00060    2.79040  290.50260  279.48390  140.59300
 2411.50000   -9999.25   17.16150    0.08050    3.13740   -0.05350    8.40360   -0.00060    2.79480  346.70600  338.34890  157.60230
 2412.00000   -9999.25   17.82780    0.08230    3.05620   -0.05350    8.40040   -0.00070    2.79570  215.72880  204.39770  154.05540
 2412.50000   -9999.25   17.70730    0.08570    2.97510   -0.03980    8.39570   -0.00080    2.78380  241.29790  223.81110  130.70130
 2413.00000   -9999.25   17.45840    0.08410    3.02370   -0.02810    8.39110   -0.00090    2.76110  399.10100  381.11940  125.50550
 2413.50000   -9999.25   17.27520    0.07700    3.09770   -0.02790    8.39770   -0.00090    2.75490  481.21340  472.69010  153.95880
 2414.00000   -9999.25   16.50310    0.06600    3.14910   -0.04480    8.43750   -0.00100    2.76730  680.11250  609.52470  206.18500
 2414.50000   -9999.25   15.78190    0.05670    3.18770   -0.05700    8.44170   -0.00110    2.78130 1011.75190 1069.11190  266.49190
 2415.00000   -9999.25   15.06140    0.05140    3.22730   -0.06190    8.44210   -0.00120    2.80800 1558.21780 2451.00100  306.92730
 2415.50000   -9999.25   13.57480    0.04770    3.29900   -0.05290    8.44140   -0.00120    2.80770 1547.92600 2354.34200  357.80340
 2416.00000   -9999.25   12.52680    0.05170    3.39290   -0.04650    8.43730   -0.00140    2.79180 1668.75590 2565.27910  357.66960
 2416.50000   -9999.25   12.35720    0.05730    3.48030   -0.03870    8.43310   -0.00180    2.77820 1536.15150 1387.43120  284.86210
 2417.00000   -9999.25   14.07210    0.06670    3.48010   -0.02730    8.43630   -0.00220    2.76470  364.17530  333.03480  196.70670
 2417.50000   -9999.25   16.44020    0.07710    3.44200   -0.01730    8.44070   -0.00250    2.74030  180.69240  165.30390  136.68230
 2418.00000   -9999.25   18.12480    0.08880    3.37270   -0.02020    8.44120   -0.00290    2.73920  144.78800  143.91230   99.28550
 2418.50000   -9999.25   18.62980    0.08890    3.27760   -0.02810    8.44160   -0.00330    2.74530  200.89120  190.42390  102.94890
 2419.00000   -9999.25   18.66560    0.08650    3.18670   -0.04690    8.43830   -0.00360    2.76280  360.51310  344.57830  114.81040
 2419.50000   -9999.25   18.66720    0.07610    3.15180   -0.06020    8.43450   -0.00370    2.80790  513.44820  490.88820  179.33400
 2420.00000   -9999.25   17.98670    0.06570    3.10940   -0.07260    8.43510   -0.00110    2.82710  425.67080  418.82600  212.99100
 2420.50000   -9999.25   16.76720    0.05690    3.12690   -0.08070    8.43930    0.00230    2.84150  515.63010  512.51210  196.41690
 2421.00000   -9999.25   16.44720    0.05500    3.21720   -0.08040    8.43920    0.00270    2.84080  292.28830  268.48600  196.96020
 2421.50000   -9999.25   17.55400    0.05600    3.30750   -0.06870    8.43910    0.00270    2.82460  149.38480  137.23530  154.58740
 2422.00000   -9999.25   19.24220    0.06260    3.39770   -0.04920    8.43860    0.00240    2.80050  116.31670  115.09750  101.49070
 2422.50000   -9999.25   20.27280    0.06720    3.44080   -0.04650    8.43780    0.00010    2.78600  186.53180  174.37170   94.55850
 2423.00000   -9999.25   18.39670    0.07050    3.46250   -0.05140    8.43700   -0.00230    2.78910  409.65670  347.93910  146.46020
 2423.50000   -9999.25   14.52810    0.06920    3.51570   -0.05900    8.43720   -0.00360    2.80510  571.64180  681.71660  201.72200
 2424.00000   -9999.25   11.76510    0.06390    3.59460   -0.06940    8.43910   -0.00440    2.82080  923.26640 1022.21100  309.65670
 2424.50000   -9999.25   11.14890    0.05770    3.60100   -0.07460    8.44070   -0.00480    2.83050 1170.45530 1543.71180  374.80040
 2425.00000   -9999.25   11.50500    0.05330    3.53130   -0.08110    8.44220   -0.00480    2.84190 1192.53550 1714.93510  460.56300
 2425.50000   -9999.25   12.89800    0.04900    3.42560   -0.08400    8.44380   -0.00420    2.84460 1111.56640 1935.29310  465.95630
 2426.00000   -9999.25   15.99970    0.04840    3.33370   -0.07590    8.44530   -0.00280    2.83830  648.57860  938.06680  441.82280
 2426.50000   -9999.25   19.28550    0.05330    3.24180   -0.06120    8.44690   -0.00150    2.82670  421.73330  530.26860  470.22540
 2427.00000   -9999.25   24.51670    0.06390    3.19020   -0.03890    8.44840    0.00190    2.79150  272.77700  307.35660  212.36370
 2427.50000   -9999.25   26.44220    0.07580    3.16000   -0.02820    8.45000    0.00520    2.75770  216.27640  297.72590  189.37260
 2428.00000   -9999.25   23.12080    0.07430    3.35450   -0.03740    8.45150    0.00690    2.77470  454.91110  624.41300  193.75070
 2428.50000   -9999.25   19.61420    0.07080    3.44190   -0.05260    8.45310    0.00460    2.81210  233.30870  283.46400  202.20470
 2429.00000   -9999.25   16.91350    0.06600    3.46150   -0.07020    8.45460   -0.00280    2.81870  174.77270  176.65380  168.28080
 2429.50000   -9999.25   17.39560    0.06590    3.44450   -0.05700    8.45620   -0.00360    2.81830  229.74770  284.67110  140.04840
 2430.00000   -9999.25   18.30780    0.06360    3.30590   -0.03690    8.45770    0.00230    2.78140  595.06840  725.25710  208.93690
 2430.50000   -9999.25   17.79730    0.05860    3.31040   -0.02820    8.45930    0.01130    2.75930 1041.88180 1459.58110  302.36990
 2431.00000   -9999.25   16.57520    0.04930    3.37190   -0.04130    8.46080    0.01760    2.77100  996.23020 1342.30660  502.34750
 2431.50000   -9999.25   15.97120    0.04140    3.45470   -0.05030    8.46080    0.01880    2.79040  702.16260  572.92930  626.81510
 2432.00000   -9999.25   17.69350    0.04250    3.50700   -0.06580    8.45630    0.01680    2.81480  398.63630  355.56410  359.77110
 2432.50000   -9999.25   20.90880    0.04670    3.55940   -0.07560    8.45180    0.01420    2.83250  220.26090  200.54570  142.43700
 2433.00000   -9999.25   27.69170    0.05590    3.63530   -0.08450    8.44730    0.01170    2.84760  158.02000  156.97420  138.93940
 2433.50000   -9999.25   33.96670    0.06710    3.71540   -0.09140    8.44280    0.00220    2.85780  144.97140  142.75070  156.84350
 2434.00000   -9999.25   37.66400    0.07940    3.70440   -0.09390    8.43830   -0.00150    2.85970  129.57980  127.61590  118.87760
