~Version ---------------------------------------------------
VERS.   2.0 : CWLS log ASCII Standard -VERSION 2.0
WRAP.    NO : One line per depth step
DLM . SPACE : Column Data Section Delimiter
~Well ------------------------------------------------------
STRT .F                  86.0 : START DEPTH
STOP .F                6307.0 : STOP DEPTH
STEP .F                   0.5 : STEP
NULL .               -9999.25 : NULL VALUE
COMP .                        : COMPANY
WELL .                        : WELL
FLD  .                        : FIELD
LOC  .                        : LOCATION
PROV .                        : PROVINCE
CNTY .                        : COUNTY
STAT .                        : STATE
CTRY .                        : COUNTRY
SRVC .                        : SERVICE COMPANY
DATE .                        : DATE
UWI  .                        : UNIQUE WELL ID
API  .                        : API NUMBER
SLAT .WGS84 3.021649520318796 : SURFACE LATITUDE
SLON .WGS84 8.835648754501989 : SURFACE LONGITUDE
DATUM.F                   nan : DEPTH DATUM ELEV
~Curve Information -----------------------------------------
DEPT   .F     : 1 MEASURED DEPTH
DTSM   .US/F  : DELTA-T SHEAR
HSGRD  .GAPI  : HNGS STANDARD GAMMA RAY FROM DENSITY LOG
TNPH_LS.DEC   : THERMAL NEUTRON POROSITY [LIMESTONE]
PEFZ   .B/E   : HRDD STANDARD RESOLUTION FORMATION PHOTOELECTRIC FACTOR
DPHZ_LS.DEC   : HGRD STANDARD RESOLUTION DENSITY POROSITY
HCALD  .IN    : HRCC CALIPER CALIBRATED FROM DENSITY LOG
HDRA   .G/C3  : HRDD SPINE AND RIBS DENSITY CORRECTION
RHOZ   .G/C3  : HRDD STANDARD RESOLUTION FORMATION DENSITY
RLA3   .OHMM  : APPARENT RESISTIVITY FROM COMPUTED FOCUSING MODE 3
RLA5   .OHMM  : APPARENT RESISTIVITY FROM COMPUTED FOCUSING MODE 5
RXOZ   .OHMM  : INVADED FORMATION RESISTIVITY FILTERED AT 18 INCHES
~Params ----------------------------------------------------
~Other -----------------------------------------------------
~ASCII -----------------------------------------------------
# ...
 3959.50000   -9999.25   15.40550    0.07080    3.36010   -0.03490    8.42950    0.00310    2.77050   50.92730   57.71920   40.59430
 3960.00000   -9999.25   14.26760    0.07100    3.31230   -0.04380    8.42810    0.00070    2.79000   72.95500   80.04600   55.84160
 3960.50000   -9999.25   14.26880    0.06840    3.28000   -0.05130    8.43060   -0.00160    2.80220   79.36110   80.82060   72.41940
 3961.00000   -9999.25   16.79290    0.06300    3.34090   -0.05990    8.43300   -0.00380    2.81720   82.90970   94.42060   82.91610
 3961.50000   -9999.25   18.89660    0.05940    3.45680   -0.06860    8.43540   -0.00560    2.83300  120.26660  146.48010  124.85590
 3962.00000   -9999.25   21.21290    0.05780    3.60110   -0.07710    8.43790   -0.00700    2.83380  171.84200  219.10930  183.90860
 3962.50000   -9999.25   24.32560    0.05930    3.75110   -0.07720    8.44030   -0.00680    2.82530  111.95170  140.49290  175.64410
 3963.00000   -9999.25   26.38900    0.06120    3.67670   -0.07100    8.44060   -0.00650    2.80540   70.02560   73.03010   74.20050
 3963.50000   -9999.25   27.67150    0.06310    3.53750   -0.05350    8.41210   -0.00620    2.77910   65.16440   68.70930   47.06690
 3964.00000   -9999.25   25.12790    0.06470    3.40740   -0.03410    8.38350   -0.00510    2.75610   53.35010   55.99790   37.40770
 3964.50000   -9999.25   20.74410    0.06630    3.30880   -0.02290    8.36030   -0.00390    2.74510   47.68270   51.81850   35.26780
 3965.00000   -9999.25   18.96100    0.06890    3.28190   -0.02330    8.34750   -0.00250    2.75210   39.11630   41.36590   26.01410
 3965.50000   -9999.25   17.62770    0.07360    3.32600   -0.02760    8.33470   -0.00040    2.75990   43.32000   45.42200   28.86190
 3966.00000   -9999.25   17.16400    0.07240    3.41020   -0.03320    8.32190    0.00170    2.76260   49.02450   49.92590   33.48850
 3966.50000   -9999.25   16.80500    0.06830    3.46950   -0.03360    8.32630    0.00390    2.76270   53.61640   58.22710   38.62920
 3967.00000   -9999.25   16.08400    0.06470    3.46060   -0.03110    8.31800    0.00600    2.76170   72.58090   81.65820   36.66360
 3967.50000   -9999.25   16.14380    0.06470    3.40030   -0.03460    8.30980    0.00710    2.76070  109.91310  138.92670   49.14870
 3968.00000   -9999.25   17.15210    0.06160    3.32600   -0.04680    8.30310    0.00710    2.75990  176.43970  190.72640   96.49540
 3968.50000   -9999.25   18.23790    0.05350    3.27230   -0.05960    8.30280    0.00390    2.75930  259.94940  306.73630  171.26810
 3969.00000   -9999.25   18.12280    0.04650    3.30820   -0.06550    8.30210   -0.00250    2.76310  342.28100  483.48540  204.78580
 3969.50000   -9999.25   17.63400    0.03870    3.36270   -0.06980    8.29640   -0.00570    2.77340  388.28720  531.63940  226.77480
 3970.00000   -9999.25   16.73860    0.03180    3.47280   -0.07700    8.28300   -0.00570    2.79470  435.07040  598.50910  308.72810
 3970.50000   -9999.25   16.00160    0.03180    3.54800   -0.08020    8.26960   -0.00560    2.81010  420.63850  619.97420  506.91880
 3971.00000   -9999.25   14.76510    0.03210    3.56440   -0.08340    8.25620   -0.00550    2.82130  407.19550  624.51580  429.90170
 3971.50000   -9999.25   14.32550    0.03270    3.59030   -0.08340    8.24280   -0.00490    2.83250  419.45370  516.89240  253.78780
 3972.00000   -9999.25   14.84980    0.03480    3.59810   -0.08100    8.22940    0.00190    2.83810  450.64450  566.56120  212.68170
 3972.50000   -9999.25   16.13310    0.03710    3.59790   -0.07610    8.22580    0.00130    2.84160  371.36080  457.66550  141.44510
 3973.00000   -9999.25   17.43720    0.03930    3.54280   -0.06710    8.21960    0.00080    2.84380  244.35380  264.08760  133.65380
 3973.50000   -9999.25   18.53150    0.04430    3.48570   -0.06840    8.21330    0.00090    2.84350  221.53500  229.64260  127.93400
 3974.00000   -9999.25   19.38770    0.05000    3.42870   -0.06910    8.20710    0.00100    2.83980  194.19510  222.51820  162.52220
 3974.50000   -9999.25   20.24390    0.05000    3.41830   -0.06910    8.20080    0.00110    2.82530  143.83130  145.71210  154.19500
 3975.00000   -9999.25   21.55670    0.05090    3.40020   -0.06890    8.19460    0.00130    2.81930  144.00480  169.41700  130.92170
 3975.50000   -9999.25   22.53740    0.05320    3.31320   -0.06690    8.18840    0.00090    2.82060  196.79970  223.01540  129.12050
 3976.00000   -9999.25   21.51640    0.05290    3.24300   -0.06230    8.18210    0.00040    2.82050  261.27050  320.32050  151.40780
 3976.50000   -9999.25   20.75590    0.05200    3.19890   -0.05880    8.17590   -0.00010    2.81760  404.16820  440.76270  174.67460
 3977.00000   -9999.25   21.11410    0.05180    3.19450   -0.05800    8.16960   -0.00100    2.80620  469.95720  467.10090  230.36400
 3977.50000   -9999.25   19.71020    0.05180    3.19450   -0.05810    8.16340   -0.00200    2.80420  426.88560  444.10530  278.72310
 3978.00000   -9999.25   17.17290    0.04700    3.15510   -0.06020    8.15710   -0.00290    2.80790  296.57160  338.36470  291.09200
 3978.50000   -9999.25   14.73850    0.04140    3.24170   -0.06000    8.15670   -0.00390    2.81190  277.34040  283.63530  279.94240
 3979.00000   -9999.25   13.12070    0.03680    3.38980   -0.06090    8.16730   -0.00480    2.82170  240.62370  256.36640  254.83320
 3979.50000   -9999.25   12.77110    0.03290    3.48780   -0.07020    8.17790   -0.00540    2.84060  202.05540  214.89090  192.63440
 3980.00000   -9999.25   12.82340    0.03200    3.48280   -0.07970    8.16940   -0.00550    2.85570  197.79630  211.12910  167.99020
 3980.50000   -9999.25   12.68610    0.03520    3.47460   -0.08810    8.17080   -0.00620    2.85710  363.95770  613.74090  179.72330
 3981.00000   -9999.25   12.55060    0.03890    3.46650   -0.09060    8.17200   -0.00680    2.84610  351.03340  427.38850  231.19500
 3981.50000   -9999.25   14.13870    0.04310    3.46320   -0.08410    8.17130   -0.00710    2.81670  276.39460  307.19230  257.13350
 3982.00000   -9999.25   17.48660    0.04730    3.47260   -0.06930    8.17070    0.00210    2.81490  276.40170  305.98500  226.52030
 3982.50000   -9999.25   19.00370    0.04910    3.50450   -0.06380    8.17000    0.00200    2.81540  274.83220  305.99290  247.66190
 3983.00000   -9999.25   17.31860    0.05010    3.59230   -0.06490    8.16930    0.00170    2.81560  235.32050  292.21530  186.36370
 3983.50000   -9999.25   15.97030    0.04630    3.69590   -0.06570    8.16860    0.00130    2.81000  120.89930  140.87840  106.48990
 3984.00000   -9999.25   15.58840    0.04290    3.72160   -0.05990    8.16800   -0.00030    2.78650  101.23690  154.44260   91.31280
 3984.50000   -9999.25   17.96310    0.04130    3.63020   -0.04570    8.16730   -0.00160    2.77130   97.65240  137.60930   83.19490
 3985.00000   -9999.25   20.82990    0.04610    3.49230   -0.03490    8.16660   -0.00280    2.77860   97.52860  138.27240   98.59430
 3985.50000   -9999.25   22.02280    0.05130    3.38910   -0.03850    8.16590   -0.00400    2.78340  103.98730  101.08890   83.02180
 3986.00000   -9999.25   21.92850    0.05170    3.29710   -0.04440    8.16530   -0.00520    2.78390  110.87380  102.63190   76.59090
 3986.50000   -9999.25   20.73190    0.05090    3.30290   -0.04620    8.16460   -0.00530    2.77620  103.23420   97.98680   68.00830
 3987.00000   -9999.25   20.86200    0.05030    3.31950   -0.04090    8.16390   -0.00520    2.76960   86.49190   91.26350   56.79170
 3987.50000   -9999.25   21.01200    0.05400    3.28790   -0.03620    8.16320   -0.00490    2.75390   75.84950   69.45040   44.89680
 3988.00000   -9999.25   21.39740    0.05910    3.30060   -0.02730    8.16260   -0.00460    2.74780   82.08940   77.14850   40.81940
 3988.50000   -9999.25   22.52280    0.06350    3.31460   -0.02310    8.16190   -0.00340    2.75320   73.90570   66.27970   37.02220
 3989.00000   -9999.25   23.72630    0.06810    3.28210   -0.02820    8.16120   -0.00220    2.76000   61.60490   52.76760   31.84970
 3989.50000   -9999.25   24.92240    0.07350    3.15480   -0.03320    8.16050   -0.00100    2.75260   69.15240   71.43430   32.01270
