~Version ---------------------------------------------------
VERS.   2.0 : CWLS log ASCII Standard -VERSION 2.0
WRAP.    NO : One line per depth step
DLM . SPACE : Column Data Section Delimiter
~Well ------------------------------------------------------
STRT .F                  86.0 : START DEPTH
STOP .F                6307.0 : STOP DEPTH
STEP .F                   0.5 : STEP
NULL .               -9999.25 : NULL VALUE
COMP .                        : COMPANY
WELL .                        : WELL
FLD  .                        : FIELD
LOC  .                        : LOCATION
PROV .                        : PROVINCE
CNTY .                        : COUNTY
STAT .                        : STATE
CTRY .                        : COUNTRY
SRVC .                        : SERVICE COMPANY
DATE .                        : DATE
UWI  .                        : UNIQUE WELL ID
API  .                        : API NUMBER
SLAT .WGS84 3.021649520318796 : SURFACE LATITUDE
SLON .WGS84 8.835648754501989 : SURFACE LONGITUDE
DATUM.F                   nan : DEPTH DATUM ELEV
~Curve Information -----------------------------------------
DEPT   .F     : 1 MEASURED DEPTH
DTSM   .US/F  : DELTA-T SHEAR
HSGRD  .GAPI  : HNGS STANDARD GAMMA RAY FROM DENSITY LOG
TNPH_LS.DEC   : THERMAL NEUTRON POROSITY [LIMESTONE]
PEFZ   .B/E   : HRDD STANDARD RESOLUTION FORMATION PHOTOELECTRIC FACTOR
DPHZ_LS.DEC   : HGRD STANDARD RESOLUTION DENSITY POROSITY
HCALD  .IN    : HRCC CALIPER CALIBRATED FROM DENSITY LOG
HDRA   .G/C3  : HRDD SPINE AND RIBS DENSITY CORRECTION
RHOZ   .G/C3  : HRDD STANDARD RESOLUTION FORMATION DENSITY
RLA3   .OHMM  : APPARENT RESISTIVITY FROM COMPUTED FOCUSING MODE 3
RLA5   .OHMM  : APPARENT RESISTIVITY FROM COMPUTED FOCUSING MODE 5
RXOZ   .OHMM  : INVADED FORMATION RESISTIVITY FILTERED AT 18 INCHES
~Params ----------------------------------------------------
~Other -----------------------------------------------------
~ASCII -----------------------------------------------------
# ...
 2038.00000   -9999.25   21.17660    0.03160    3.12720   -0.08230    8.30190    0.00090    2.82180   38.46080   37.14650   39.65410
 2038.50000   -9999.25   25.46280    0.04120    3.08430   -0.06940    8.30070    0.00110    2.81850   44.44050   44.13550   36.90350
 2039.00000   -9999.25   27.83700    0.04890    3.06860   -0.06770    8.29810    0.00120    2.81090   43.55790   43.27010   33.41480
 2039.50000   -9999.25   27.25630    0.04520    3.05290   -0.06540    8.29790    0.00160    2.80110   55.40630   49.54510   44.47230
 2040.00000   -9999.25   26.86610    0.04100    3.05530   -0.05850    8.29780    0.00230    2.78440   67.86490   61.71320   52.08520
 2040.50000   -9999.25   29.35090    0.03860    3.08690   -0.04280    8.29780    0.00290    2.76810   69.70640   46.42350   32.91690
 2041.00000   -9999.25   33.72290    0.04010    3.06470   -0.03650    8.29780    0.00360    2.76720   68.90510   53.64960   32.03480
 2041.50000   -9999.25   38.80120    0.04310    3.03650   -0.03410    8.29790    0.00410    2.77610   44.02620   41.47200   28.11550
 2042.00000   -9999.25   40.29060    0.04600    3.01910   -0.03840    8.29790    0.00450    2.80020   30.62200   30.43670   24.99430
 2042.50000   -9999.25   37.34180    0.04730    2.99310   -0.05410    8.29710    0.00490    2.82370   57.44950   56.67500   25.58130
 2043.00000   -9999.25   34.83810    0.04690    2.97030   -0.06960    8.29380    0.00530    2.83420   51.83640   51.52280   44.07260
 2043.50000   -9999.25   34.04010    0.04700    3.00280   -0.07930    8.29050    0.00490    2.83720   48.26560   46.84840   41.04900
 2044.00000   -9999.25   34.37770    0.04710    3.05860   -0.07830    8.29640    0.00330    2.84410   40.95010   39.49580   32.89050
 2044.50000   -9999.25   32.71580    0.04670    3.11440   -0.08770    8.30540    0.00140    2.85840   73.39940   68.34340   24.57310
 2045.00000   -9999.25   29.84960    0.04420    3.17020   -0.09510    8.31390   -0.00040    2.87290  101.17410   98.11410   26.11570
 2045.50000   -9999.25   27.24500    0.04220    3.16920   -0.10250    8.31960   -0.00070    2.87450   92.84830   90.16550   34.91740
 2046.00000   -9999.25   26.31610    0.04210    3.10270   -0.10150    8.31620   -0.00100    2.86950   73.50400   71.39200   64.30070
 2046.50000   -9999.25   26.49070    0.04200    3.06240   -0.09220    8.31060   -0.00220    2.84540   58.18990   56.52730   71.43790
 2047.00000   -9999.25   27.36020    0.04130    3.08140   -0.07720    8.32220   -0.00370    2.83240   58.26040   56.83070   61.94470
 2047.50000   -9999.25   29.36230    0.04050    3.10860   -0.07210    8.33950   -0.00410    2.81900   59.20060   58.84240   86.59060
 2048.00000   -9999.25   31.75650    0.03980    3.14400   -0.06660    8.34100   -0.00450    2.81850   62.90060   61.70750   83.19410
 2048.50000   -9999.25   32.63000    0.04000    3.19510   -0.07010    8.34340   -0.00490    2.82160   73.03600   71.65440   73.67030
 2049.00000   -9999.25   31.30750    0.03930    3.21410   -0.07040    8.34400   -0.00530    2.82390  203.71770  187.47360  107.26890
 2049.50000   -9999.25   29.03000    0.03850    3.19280   -0.08130    8.34450   -0.00200    2.83270  222.03620  202.38120  163.29450
 2050.00000   -9999.25   27.23100    0.03660    3.14330   -0.10220    8.34790    0.00160    2.85630  175.08360  136.14850  165.13220
 2050.50000   -9999.25   26.48580    0.03440    3.09380   -0.09660    8.36100    0.00240    2.87400   84.42570   89.56310   93.18040
 2051.00000   -9999.25   25.99370    0.03410    3.04440   -0.09090    8.38260    0.00260    2.86910   71.14950   76.39890   85.83200
 2051.50000   -9999.25   25.03820    0.03410    3.05640   -0.08530    8.35630   -0.00190    2.84950   72.55100   82.02460   97.00580
 2052.00000   -9999.25   25.26640    0.03410    3.07700   -0.07740    8.38010   -0.00630    2.83560   74.36870   75.98460  114.19900
 2052.50000   -9999.25   26.14450    0.03410    3.08210   -0.07270    8.38910   -0.00890    2.82710  103.49210   95.56810   97.84620
 2053.00000   -9999.25   27.72550    0.03360    3.10460   -0.07220    8.39820   -0.00890    2.82470  139.30670  140.94080   96.38530
 2053.50000   -9999.25   27.64680    0.03170    3.15980   -0.07290    8.41860   -0.00730    2.83500  131.13840  134.61960  114.02870
 2054.00000   -9999.25   26.68450    0.02970    3.24940   -0.08480    8.43470   -0.00380    2.86190  217.56480  201.25300  154.60590
 2054.50000   -9999.25   25.81080    0.02710    3.35040   -0.10560    8.45940   -0.00150    2.88730 1061.95210 1626.27700  230.47150
 2055.00000   -9999.25   25.54970    0.02450    3.34290   -0.11750    8.46690   -0.00140    2.89930  953.06730 2000.20830  465.13670
 2055.50000   -9999.25   25.55530    0.02360    3.30890   -0.12010    8.46210   -0.00160    2.89840  506.07100  482.82340  408.71350
 2056.00000   -9999.25   25.60300    0.02390    3.27480   -0.11990    8.46040   -0.00180    2.88460  252.60460  327.63290  232.30670
 2056.50000   -9999.25   25.61450    0.02390    3.22040   -0.11650    8.46070   -0.00180    2.87200  191.07620  231.42930  201.14500
 2057.00000   -9999.25   26.24090    0.02470    3.16610   -0.11260    8.46100   -0.00160    2.84820  237.38580  266.72530  214.91180
 2057.50000   -9999.25   27.19110    0.02620    3.11180   -0.10620    8.46130   -0.00130    2.80290  115.18960  100.50280   98.31060
 2058.00000   -9999.25   28.66110    0.02730    3.05740   -0.09670    8.46160   -0.00110    2.75800   51.58050   51.12380   65.24630
 2058.50000   -9999.25   32.42610    0.02970    2.99540   -0.08730    8.46190   -0.00080    2.73940   39.25930   35.99540   45.32920
 2059.00000   -9999.25   36.29180    0.03240    2.92770   -0.05970    8.46220   -0.00060    2.70780   26.49180   18.09330   23.19720
 2059.50000   -9999.25   43.57960    0.03730    2.86000   -0.03030    8.46250   -0.00050    2.67740   24.38200   19.75790   21.36750
 2060.00000   -9999.25   48.94130    0.04280    2.76300   -0.01920    8.46280   -0.00040    2.64810   20.05480   14.87970   17.04170
 2060.50000   -9999.25   56.86600    0.04820    2.66910   -0.00720    8.46310   -0.00030    2.64940   15.81340   13.36250   16.10190
 2061.00000   -9999.25   63.02310    0.05400    2.64120    0.01750    8.46360   -0.00020    2.68470   27.56600   21.81370   15.73520
 2061.50000   -9999.25   66.29290    0.06030    2.63830    0.03830    8.46030   -0.00010    2.71390   54.66200   42.54050   29.81460
 2062.00000   -9999.25   65.34970    0.06610    2.65040    0.04000    8.43600   -0.00010    2.74230   34.37260   28.79830   34.48450
 2062.50000   -9999.25   59.87480    0.06700    2.74240    0.02360    8.46400    0.00000    2.76060   49.61620   40.88900   33.43670
 2063.00000   -9999.25   51.78740    0.06800    2.89250   -0.00230    8.46460    0.00010    2.78880  140.41490  130.91830   44.73250
 2063.50000   -9999.25   45.99860    0.06610    3.03650   -0.01660    8.46620    0.00020    2.82230  244.44340  228.00830  136.25640
 2064.00000   -9999.25   40.75720    0.06170    3.10490   -0.02570    8.45880    0.00030    2.85410  762.93920  631.36960  174.54070
 2064.50000   -9999.25   32.08810    0.05480    3.11100   -0.04180    8.45130    0.00040    2.86350  899.98900 1261.11240  267.30700
 2065.00000   -9999.25   23.75300    0.04210    3.11050   -0.06250    8.44390    0.00040    2.86290  975.33780 1186.86250  378.40500
 2065.50000   -9999.25   15.81500    0.02950    3.13900   -0.08110    8.43640    0.00010    2.86020  925.71920 1053.54380  413.10710
 2066.00000   -9999.25   10.29740    0.02280    3.17740   -0.09350    8.42900   -0.00030    2.86190  930.60780  883.39670  435.73490
 2066.50000   -9999.25   10.03720    0.01690    3.17810   -0.09510    8.42160   -0.00060    2.86770  917.44340  894.65160  435.63880
 2067.00000   -9999.25   11.17530    0.01260    3.17890   -0.09500    8.41410   -0.00090    2.86880  852.76620  908.48250  465.98520
 2067.50000   -9999.25   12.64630    0.01140    3.17680   -0.09390    8.40670   -0.00120    2.86450  727.38790  781.72330  477.05960
 2068.00000   -9999.25   15.08600    0.00980    3.17410   -0.09640    8.39920   -0.00160    2.85240  551.54930  490.06670  458.97190
