~Version ---------------------------------------------------
VERS.   2.0 : CWLS log ASCII Standard -VERSION 2.0
WRAP.    NO : One line per depth step
DLM . SPACE : Column Data Section Delimiter
~Well ------------------------------------------------------
STRT .F                  86.0 : START DEPTH
STOP .F                6307.0 : STOP DEPTH
STEP .F                   0.5 : STEP
NULL .               -9999.25 : NULL VALUE
COMP .                        : COMPANY
WELL .                        : WELL
FLD  .                        : FIELD
LOC  .                        : LOCATION
PROV .                        : PROVINCE
CNTY .                        : COUNTY
STAT .                        : STATE
CTRY .                        : COUNTRY
SRVC .                        : SERVICE COMPANY
DATE .                        : DATE
UWI  .                        : UNIQUE WELL ID
API  .                        : API NUMBER
SLAT .WGS84 3.021649520318796 : SURFACE LATITUDE
SLON .WGS84 8.835648754501989 : SURFACE LONGITUDE
DATUM.F                   nan : DEPTH DATUM ELEV
~Curve Information -----------------------------------------
DEPT   .F     : 1 MEASURED DEPTH
DTSM   .US/F  : DELTA-T SHEAR
HSGRD  .GAPI  : HNGS STANDARD GAMMA RAY FROM DENSITY LOG
TNPH_LS.DEC   : THERMAL NEUTRON POROSITY [LIMESTONE]
PEFZ   .B/E   : HRDD STANDARD RESOLUTION FORMATION PHOTOELECTRIC FACTOR
DPHZ_LS.DEC   : HGRD STANDARD RESOLUTION DENSITY POROSITY
HCALD  .IN    : HRCC CALIPER CALIBRATED FROM DENSITY LOG
HDRA   .G/C3  : HRDD SPINE AND RIBS DENSITY CORRECTION
RHOZ   .G/C3  : HRDD STANDARD RESOLUTION FORMATION DENSITY
RLA3   .OHMM  : APPARENT RESISTIVITY FROM COMPUTED FOCUSING MODE 3
RLA5   .OHMM  : APPARENT RESISTIVITY FROM COMPUTED FOCUSING MODE 5
RXOZ   .OHMM  : INVADED FORMATION RESISTIVITY FILTERED AT 18 INCHES
~Params ----------------------------------------------------
~Other -----------------------------------------------------
~ASCII -----------------------------------------------------
# ...
 4722.00000   -9999.25   29.64020    0.09290    2.88820    0.01300    8.25850   -0.00120    2.70020   21.30380   21.85340   11.38470
 4722.50000   -9999.25   29.47690    0.09200    2.88660    0.01260    8.25850   -0.00120    2.69840   26.23320   27.85630   14.10050
 4723.00000   -9999.25   29.70940    0.09110    2.88500    0.00750    8.25860   -0.00120    2.69000   33.87380   32.92970   12.15330
 4723.50000   -9999.25   30.11050    0.08920    2.87980    0.00540    8.25130   -0.00110    2.68780   26.53650   23.31160   17.14880
 4724.00000   -9999.25   31.15980    0.08580    2.86150    0.00640    8.23850   -0.00100    2.68980   19.49870   19.95860   12.99790
 4724.50000   -9999.25   32.31090    0.08330    2.84090    0.01140    8.23210   -0.00090    2.69310   24.22040   23.63310   14.63140
 4725.00000   -9999.25   33.12730    0.08210    2.81810    0.01310    8.22540   -0.00080    2.69270   22.33330   21.75590   13.45400
 4725.50000   -9999.25   32.77830    0.08120    2.81850    0.01470    8.22370   -0.00070    2.68800   21.10090   22.02260   12.73350
 4726.00000   -9999.25   32.20740    0.08040    2.81890    0.01080    8.22240   -0.00060    2.68510   23.49850   21.36820   11.81130
 4726.50000   -9999.25   32.11450    0.07870    2.82400    0.01140    8.23160   -0.00050    2.69210   24.26710   23.78000   15.12800
 4727.00000   -9999.25   32.40520    0.07620    2.83440    0.01370    8.22740   -0.00040    2.69830   22.12040   21.24300   12.70630
 4727.50000   -9999.25   33.22780    0.07670    2.83940    0.01700    8.22610   -0.00030    2.70390   21.05680   20.45990   12.38320
 4728.00000   -9999.25   34.48320    0.07790    2.81030    0.01440    8.22520   -0.00020    2.70920   26.34850   24.69170   14.48900
 4728.50000   -9999.25   35.55860    0.07810    2.78130    0.00930    8.23360   -0.00020    2.71960   33.69510   32.92820   20.27930
 4729.00000   -9999.25   35.24410    0.07830    2.77350    0.00660    8.24190   -0.00010    2.72670   34.35660   33.62590   22.05150
 4729.50000   -9999.25   34.64130    0.07700    2.77720    0.00320    8.25020    0.00000    2.72430   30.36230   32.90200   16.45430
 4730.00000   -9999.25   33.42740    0.07740    2.82030   -0.00330    8.24970    0.00010    2.72290   25.99060   27.91890   16.52610
 4730.50000   -9999.25   32.64930    0.07920    2.84120   -0.00740    8.24740    0.00020    2.72560   29.19070   28.26170   19.96990
 4731.00000   -9999.25   32.63360    0.08180    2.88180   -0.01220    8.23730    0.00030    2.73040   33.67380   32.39700   22.64320
 4731.50000   -9999.25   32.62480    0.08390    2.89530   -0.01020    8.23370    0.00040    2.73900   31.61710   30.05890   21.62210
 4732.00000   -9999.25   32.72800    0.08520    2.90560   -0.00880    8.23060    0.00060    2.74360   33.24160   30.91880   23.11890
 4732.50000   -9999.25   33.09280    0.08470    2.92440   -0.00880    8.22840    0.00080    2.74790   34.01130   31.33300   23.94880
 4733.00000   -9999.25   32.64610    0.08370    2.93450   -0.00910    8.22440    0.00110    2.75120   34.74690   33.37730   19.52190
 4733.50000   -9999.25   30.54290    0.08130    2.93170   -0.00910    8.22360    0.00140    2.75120   35.13660   34.25610   19.14440
 4734.00000   -9999.25   27.74660    0.08030    2.93080   -0.01200    8.22340    0.00160    2.75020   35.79110   36.14870   20.94490
 4734.50000   -9999.25   25.36360    0.07940    2.94410   -0.01880    8.22350    0.00190    2.74910   32.48730   31.34470   28.52600
 4735.00000   -9999.25   24.75620    0.07920    2.95790   -0.02230    8.22350    0.00220    2.74550   28.53600   27.31590   18.82000
 4735.50000   -9999.25   25.76530    0.07910    2.97170   -0.02030    8.22360    0.00240    2.74070   38.50300   34.63500   20.65700
 4736.00000   -9999.25   26.84590    0.07950    2.93840   -0.01710    8.22310    0.00270    2.73490   40.88810   33.46820   17.45590
 4736.50000   -9999.25   27.55840    0.08160    2.93780   -0.01380    8.22210    0.00290    2.72790   28.94920   26.79340   20.18010
 4737.00000   -9999.25   27.91210    0.08230    2.90850   -0.00870    8.21350    0.00230    2.71950   34.47840   30.51550   19.22770
 4737.50000   -9999.25   28.93730    0.08100    2.87900   -0.00440    8.19350    0.00160    2.72120   45.25620   41.35710   25.28450
 4738.00000   -9999.25   29.98150    0.08010    2.84420   -0.00610    8.19250    0.00100    2.72520   48.91930   44.75120   30.69690
 4738.50000   -9999.25   30.96810    0.07930    2.84350   -0.01040    8.19320    0.00030    2.73140   47.48750   39.91680   26.36600
 4739.00000   -9999.25   31.64270    0.07840    2.85550   -0.01350    8.20510   -0.00050    2.73510   44.91860   41.54470   24.74480
 4739.50000   -9999.25   32.35860    0.07780    2.85360   -0.01660    8.20630   -0.00130    2.73770   43.12330   41.25470   24.28690
 4740.00000   -9999.25   33.85740    0.07650    2.85880   -0.01710    8.21000   -0.00220    2.73590   47.00510   43.09780   27.07100
 4740.50000   -9999.25   34.90470    0.07470    2.91250   -0.01280    8.22340   -0.00300    2.73060   53.64790   49.49360   25.90190
 4741.00000   -9999.25   34.13720    0.07300    2.93100   -0.00250    8.22460   -0.00380    2.71140   58.78290   54.53350   32.22150
 4741.50000   -9999.25   33.34070    0.07150    2.86880   -0.00100    8.22500   -0.00420    2.71300   77.73520   62.95370   37.57840
 4742.00000   -9999.25   34.24830    0.06990    2.82600   -0.00220    8.21970   -0.00470    2.71180   72.83620   85.67420   51.93800
 4742.50000   -9999.25   35.65070    0.06900    2.82840   -0.00140    8.21130   -0.00520    2.70850   57.71460   53.05080   45.97690
 4743.00000   -9999.25   36.99540    0.06850    2.86540    0.00140    8.20400   -0.00550    2.70430   69.50630   64.11480   43.70980
 4743.50000   -9999.25   37.28440    0.06780    2.93270    0.00490    8.21400   -0.00570    2.70700   77.57380   68.06620   45.42370
 4744.00000   -9999.25   36.36570    0.06830    2.97530    0.00140    8.22360   -0.00580    2.71190   50.50320   50.11000   42.25050
 4744.50000   -9999.25   35.94220    0.06890    3.03590   -0.00220    8.22500   -0.00600    2.71730   49.88700   43.11950   39.52330
 4745.00000   -9999.25   37.19530    0.07190    3.04050   -0.00570    8.22440   -0.00610    2.72050   69.54440   60.75950   43.64590
 4745.50000   -9999.25   38.94270    0.07530    2.99060   -0.00620    8.22280   -0.00620    2.72190   58.56530   50.07790   36.90150
 4746.00000   -9999.25   38.88600    0.07390    2.94530   -0.00650    8.22130   -0.00610    2.72680   55.84840   47.23780   39.78670
 4746.50000   -9999.25   38.27740    0.07210    2.89570   -0.01280    8.23050   -0.00610    2.73570   55.67750   44.53540   35.04960
 4747.00000   -9999.25   38.20370    0.07090    2.82630   -0.01920    8.23560   -0.00600    2.74100   50.47110   47.81640   39.16950
 4747.50000   -9999.25   37.60050    0.07120    2.78260   -0.01960    8.23260   -0.00600    2.73990   55.24330   49.05050   38.89530
 4748.00000   -9999.25   34.68370    0.07120    2.74280   -0.01680    8.23180   -0.00590    2.73720   73.16280   54.66950   41.90560
 4748.50000   -9999.25   28.48810    0.06960    2.73560   -0.01620    8.25080   -0.00590    2.73460   39.00530   29.19440   20.86840
 4749.00000   -9999.25   25.46060    0.06810    2.73670   -0.01230    8.26860   -0.00580    2.72980   35.91510   28.44210   16.73770
 4749.50000   -9999.25   24.80460    0.06660    2.74540   -0.01200    8.27480   -0.00580    2.72800   67.56340   41.80730   19.47200
 4750.00000   -9999.25   27.24860    0.06670    2.78070   -0.01970    8.28590   -0.00570    2.73740   64.93990   64.13120   33.05710
 4750.50000   -9999.25   30.35340    0.06770    2.83020   -0.02100    8.31750   -0.00570    2.74110   62.02650   61.84270   35.93540
 4751.00000   -9999.25   33.84580    0.06990    2.88840   -0.01020    8.32460   -0.00560    2.72500   62.46800   62.05700   35.25840
 4751.50000   -9999.25   36.40640    0.07320    2.94590   -0.00470    8.33180   -0.00550    2.71880   89.95830   68.63730   34.54490
 4752.00000   -9999.25   34.98710    0.07360    2.99710   -0.01280    8.34040   -0.00550    2.72050   65.27700   50.20240   40.77960
