~Version ---------------------------------------------------
VERS.   2.0 : CWLS log ASCII Standard -VERSION 2.0
WRAP.    NO : One line per depth step
DLM . SPACE : Column Data Section Delimiter
~Well ------------------------------------------------------
STRT .F                  86.0 : START DEPTH
STOP .F                6307.0 : STOP DEPTH
STEP .F                   0.5 : STEP
NULL .               -9999.25 : NULL VALUE
COMP .                        : COMPANY
WELL .                        : WELL
FLD  .                        : FIELD
LOC  .                        : LOCATION
PROV .                        : PROVINCE
CNTY .                        : COUNTY
STAT .                        : STATE
CTRY .                        : COUNTRY
SRVC .                        : SERVICE COMPANY
DATE .                        : DATE
UWI  .                        : UNIQUE WELL ID
API  .                        : API NUMBER
SLAT .WGS84 3.021649520318796 : SURFACE LATITUDE
SLON .WGS84 8.835648754501989 : SURFACE LONGITUDE
DATUM.F                   nan : DEPTH DATUM ELEV
~Curve Information -----------------------------------------
DEPT   .F     : 1 MEASURED DEPTH
DTSM   .US/F  : DELTA-T SHEAR
HSGRD  .GAPI  : HNGS STANDARD GAMMA RAY FROM DENSITY LOG
TNPH_LS.DEC   : THERMAL NEUTRON POROSITY [LIMESTONE]
PEFZ   .B/E   : HRDD STANDARD RESOLUTION FORMATION PHOTOELECTRIC FACTOR
DPHZ_LS.DEC   : HGRD STANDARD RESOLUTION DENSITY POROSITY
HCALD  .IN    : HRCC CALIPER CALIBRATED FROM DENSITY LOG
HDRA   .G/C3  : HRDD SPINE AND RIBS DENSITY CORRECTION
RHOZ   .G/C3  : HRDD STANDARD RESOLUTION FORMATION DENSITY
RLA3   .OHMM  : APPARENT RESISTIVITY FROM COMPUTED FOCUSING MODE 3
RLA5   .OHMM  : APPARENT RESISTIVITY FROM COMPUTED FOCUSING MODE 5
RXOZ   .OHMM  : INVADED FORMATION RESISTIVITY FILTERED AT 18 INCHES
~Params ----------------------------------------------------
~Other -----------------------------------------------------
~ASCII -----------------------------------------------------
# ...
 5118.50000   -9999.25   28.37400    0.04580    3.20350   -0.06420    8.18000   -0.00290    2.80880  407.99810  380.65480  472.80850
 5119.00000   -9999.25   28.07870    0.04440    3.23940   -0.06180    8.18780   -0.00350    2.81360  481.12790  438.48760  521.78590
 5119.50000   -9999.25   28.80490    0.04280    3.19410   -0.06760    8.19660   -0.00420    2.82060  484.41500  451.97330  454.31810
 5120.00000   -9999.25   31.48520    0.04130    3.15790   -0.07260    8.20510   -0.00470    2.82790  484.85140  438.91270  403.20130
 5120.50000   -9999.25   34.20060    0.03820    3.15130   -0.07910    8.21310   -0.00520    2.83870  507.83020  446.67090  588.19290
 5121.00000   -9999.25   36.42590    0.03510    3.18560   -0.07690    8.21700   -0.00580    2.83980  344.91540  216.66930  475.66760
 5121.50000   -9999.25   39.01900    0.03200    3.23750   -0.08050    8.23180   -0.00630    2.83420  157.95020   92.22150  184.20590
 5122.00000   -9999.25   41.11330    0.03130    3.23920   -0.07630    8.23680   -0.00660    2.83400   94.74680   67.15570  113.28680
 5122.50000   -9999.25   42.58730    0.03430    3.21480   -0.07750    8.24100   -0.00600    2.83380  102.89510   76.71940   95.03030
 5123.00000   -9999.25   42.28730    0.03660    3.19040   -0.07460    8.24720   -0.00570    2.83490  162.66560  122.21780   97.01090
 5123.50000   -9999.25   40.21960    0.03810    3.19850   -0.08000    8.25250   -0.00530    2.84620  272.67850  225.73980  104.81450
 5124.00000   -9999.25   39.11820    0.03770    3.26320   -0.09150    8.25370   -0.00490    2.85760  474.08150  405.23060  114.43130
 5124.50000   -9999.25   38.85870    0.03390    3.39160   -0.09890    8.25440   -0.00460    2.86970  255.51370  193.01600  154.60950
 5125.00000   -9999.25   40.93700    0.03060    3.43760   -0.10280    8.25860   -0.00390    2.87550  489.05880  467.07450  350.12800
 5125.50000   -9999.25   42.42320    0.03050    3.43390   -0.10260    8.26270   -0.00290    2.87470  851.75940  909.89650  642.37780
 5126.00000   -9999.25   42.15890    0.03040    3.41180   -0.09920    8.26470   -0.00210    2.86810  639.85180  601.95550  520.36330
 5126.50000   -9999.25   41.81830    0.03020    3.40820   -0.09040    8.26470   -0.00270    2.85860  562.33610  637.94310  517.46360
 5127.00000   -9999.25   44.01940    0.03110    3.35330   -0.08670    8.26470   -0.00330    2.85010  555.01760  671.38740  358.47260
 5127.50000   -9999.25   42.68740    0.03160    3.35100   -0.08490    8.26480   -0.00390    2.84490  332.92640  398.78690  316.63020
 5128.00000   -9999.25   44.00630    0.03190    3.32440   -0.08400    8.26480   -0.00450    2.84200  291.92500  288.40270  252.24570
 5128.50000   -9999.25   47.32860    0.03320    3.23980   -0.08150    8.26540   -0.00450    2.83360  259.05780  232.75310  182.02440
 5129.00000   -9999.25   48.38060    0.03460    3.18190   -0.07850    8.26680   -0.00450    2.83470  307.42170  401.64290  189.72250
 5129.50000   -9999.25   47.23880    0.03480    3.21570   -0.07490    8.26820   -0.00450    2.83840  415.67590  398.18880  261.60540
 5130.00000   -9999.25   44.32700    0.03360    3.29190   -0.07880    8.26430   -0.00450    2.85830  726.23680  683.97250  455.48590
 5130.50000   -9999.25   41.24670    0.03040    3.41130   -0.08980    8.26480   -0.00470    2.86960 1139.36110 1441.41460  500.28150
 5131.00000   -9999.25   35.56220    0.02730    3.53400   -0.09820    8.26480   -0.00480    2.87130  951.77380 1132.79550  747.59070
 5131.50000   -9999.25   30.68690    0.02460    3.57410   -0.09850    8.26480   -0.00490    2.87130  811.05840  846.36870  824.08140
 5132.00000   -9999.25   27.07030    0.02360    3.57710   -0.09290    8.26480   -0.00510    2.85180  820.54850  865.52190 1015.35470
 5132.50000   -9999.25   24.27860    0.02410    3.54850   -0.08310    8.26390   -0.00520    2.84180 1068.11000  900.40120 1020.91890
 5133.00000   -9999.25   23.13170    0.02430    3.55040   -0.07610    8.26310   -0.00540    2.83430 1276.92990 1077.28360  978.35590
 5133.50000   -9999.25   21.64540    0.02290    3.55690   -0.07590    8.26220   -0.00630    2.83610 1225.96970 1500.76500 1038.35410
 5134.00000   -9999.25   19.67040    0.02100    3.57510   -0.08590    8.26140   -0.00710    2.85090 1718.38900 2368.44900  636.40810
 5134.50000   -9999.25   17.36310    0.01900    3.66170   -0.09460    8.26060   -0.00730    2.86440 1725.23910 2653.53050  493.35690
 5135.00000   -9999.25   17.25100    0.01710    3.77910   -0.10320    8.25970   -0.00760    2.88030 1052.06430 1160.05900  476.45000
 5135.50000   -9999.25   21.44450    0.01540    3.79460   -0.11590    8.25890   -0.00780    2.89390  608.11820  666.73890  497.00480
 5136.00000   -9999.25   28.94900    0.01690    3.61410   -0.11950    8.25800   -0.00790    2.90270  488.32590  628.64590  562.34040
 5136.50000   -9999.25   35.66080    0.02040    3.39020   -0.11650    8.25720   -0.00790    2.89940  484.33850  740.70230  547.36580
 5137.00000   -9999.25   38.62540    0.02550    3.19040   -0.10160    8.25760   -0.00790    2.88720  456.79780  446.38900  521.82800
 5137.50000   -9999.25   36.74890    0.03240    3.15220   -0.09670    8.26000   -0.00790    2.87100  273.88600  301.81200  466.04920
 5138.00000   -9999.25   33.66850    0.03980    3.15360   -0.08770    8.25650   -0.00790    2.85630  184.98920  237.99920  354.86730
 5138.50000   -9999.25   30.49650    0.05260    3.15550   -0.07440    8.25590   -0.00790    2.84410  204.85260  295.21380  347.69370
 5139.00000   -9999.25   28.93540    0.06040    3.16170   -0.06270    8.25580   -0.00790    2.82880  191.44410  213.18390  416.84020
 5139.50000   -9999.25   26.46600    0.06710    3.12270   -0.06030    8.25570   -0.00800    2.81420  124.68560  136.18370  176.44670
 5140.00000   -9999.25   23.66190    0.07120    3.09180   -0.05690    8.25560   -0.00800    2.80710   81.20640   86.97900   73.62320
 5140.50000   -9999.25   21.26460    0.07420    3.10370   -0.05060    8.25550   -0.00790    2.80280   71.61670   63.66930   54.45860
 5141.00000   -9999.25   20.84330    0.07640    3.14940   -0.04320    8.25540   -0.00780    2.79740   92.74300   80.46540   53.46000
 5141.50000   -9999.25   22.23080    0.07550    3.13160   -0.04390    8.25520   -0.00760    2.77930   78.81810   65.34460   49.12180
 5142.00000   -9999.25   23.41410    0.07340    3.11530   -0.05010    8.25510   -0.00750    2.78020   66.63470   56.91680   45.33300
 5142.50000   -9999.25   23.72570    0.07130    3.09900   -0.05780    8.25500   -0.00730    2.78960   75.32760   66.28170   47.99950
 5143.00000   -9999.25   22.85590    0.06920    3.08270   -0.06670    8.25490   -0.00640    2.79970   90.21130   78.91130   57.51720
 5143.50000   -9999.25   22.23680    0.06810    3.06650   -0.06830    8.25480   -0.00330    2.80820  101.95400   82.61940   81.42070
 5144.00000   -9999.25   21.29010    0.06990    3.05020   -0.06770    8.25470   -0.00040    2.81840  116.64420  101.88830  102.64380
 5144.50000   -9999.25   20.20020    0.07190    3.05980   -0.06830    8.25460    0.00210    2.82040  141.05410  125.65110   99.29000
 5145.00000   -9999.25   19.48860    0.06860    3.07320   -0.07350    8.25450    0.00270    2.82090  152.71660  136.34560   90.98390
 5145.50000   -9999.25   19.92940    0.06440    3.08670   -0.07540    8.25450    0.00260    2.82230  126.43860  121.13270   95.34430
 5146.00000   -9999.25   21.72770    0.05920    3.10050   -0.07000    8.25440    0.00170    2.83050  139.70030  105.62160   93.43450
 5146.50000   -9999.25   24.36240    0.05910    3.12950   -0.06100    8.25440    0.00050    2.83210  128.35880  100.81850   88.03250
 5147.00000   -9999.25   26.56090    0.05910    3.14870   -0.05380    8.25430   -0.00060    2.82130  127.31970  126.27020   98.09260
 5147.50000   -9999.25   27.23210    0.05910    3.15180   -0.04920    8.25430   -0.00180    2.81010  142.06650  182.91640  119.60330
 5148.00000   -9999.25   28.15850    0.05940    3.15120   -0.05040    8.25420   -0.00200    2.79490  165.48870  157.34340  209.85310
 5148.50000   -9999.25   33.78730    0.06020    3.15930   -0.04990    8.25420   -0.00200    2.79030  195.41240  118.09360  213.21960
