~Version ---------------------------------------------------
VERS.   2.0 : CWLS log ASCII Standard -VERSION 2.0
WRAP.    NO : One line per depth step
DLM . SPACE : Column Data Section Delimiter
~Well ------------------------------------------------------
STRT .F                  86.0 : START DEPTH
STOP .F                6307.0 : STOP DEPTH
STEP .F                   0.5 : STEP
NULL .               -9999.25 : NULL VALUE
COMP .                        : COMPANY
WELL .                        : WELL
FLD  .                        : FIELD
LOC  .                        : LOCATION
PROV .                        : PROVINCE
CNTY .                        : COUNTY
STAT .                        : STATE
CTRY .                        : COUNTRY
SRVC .                        : SERVICE COMPANY
DATE .                        : DATE
UWI  .                        : UNIQUE WELL ID
API  .                        : API NUMBER
SLAT .WGS84 3.021649520318796 : SURFACE LATITUDE
SLON .WGS84 8.835648754501989 : SURFACE LONGITUDE
DATUM.F                   nan : DEPTH DATUM ELEV
~Curve Information -----------------------------------------
DEPT   .F     : 1 MEASURED DEPTH
DTSM   .US/F  : DELTA-T SHEAR
HSGRD  .GAPI  : HNGS STANDARD GAMMA RAY FROM DENSITY LOG
TNPH_LS.DEC   : THERMAL NEUTRON POROSITY [LIMESTONE]
PEFZ   .B/E   : HRDD STANDARD RESOLUTION FORMATION PHOTOELECTRIC FACTOR
DPHZ_LS.DEC   : HGRD STANDARD RESOLUTION DENSITY POROSITY
HCALD  .IN    : HRCC CALIPER CALIBRATED FROM DENSITY LOG
HDRA   .G/C3  : HRDD SPINE AND RIBS DENSITY CORRECTION
RHOZ   .G/C3  : HRDD STANDARD RESOLUTION FORMATION DENSITY
RLA3   .OHMM  : APPARENT RESISTIVITY FROM COMPUTED FOCUSING MODE 3
RLA5   .OHMM  : APPARENT RESISTIVITY FROM COMPUTED FOCUSING MODE 5
RXOZ   .OHMM  : INVADED FORMATION RESISTIVITY FILTERED AT 18 INCHES
~Params ----------------------------------------------------
~Other -----------------------------------------------------
~ASCII -----------------------------------------------------
# ...
 5881.00000   86.51230   18.22840    0.12920    3.08150    0.01560    8.28100    0.00330    2.74410   90.41730  168.67150   23.96450
 5881.50000   88.57290   19.26390    0.11800    3.09990   -0.00150    8.29070    0.00540    2.72480  180.37990  308.65260   36.38260
 5882.00000   89.92020   19.31230    0.10930    3.08100   -0.01600    8.29450    0.00740    2.72350  192.71370  374.06390   37.33160
 5882.50000   88.83150   19.84030    0.10320    3.05770   -0.02100    8.29640    0.00880    2.73630  138.12730  206.68010   36.17370
 5883.00000   87.17580   20.87610    0.09910    3.06450   -0.00960    8.30010    0.01020    2.76270  131.79660  212.90020   35.35920
 5883.50000   86.39090   23.23670    0.08710    3.09130   -0.00730    8.30370    0.00890    2.76370  225.75080  344.90270   36.12230
 5884.00000   86.76800   29.46680    0.07250    3.10640   -0.01160    8.30740    0.00360    2.74740  182.47020  300.88230   33.89780
 5884.50000   87.14520   30.68720    0.06480    3.11640   -0.02550    8.30560    0.00080    2.72200  188.51270  327.42270   31.51560
 5885.00000   87.90480   30.86550    0.06220    3.12290   -0.02130    8.30270    0.00030    2.70100  250.62860  485.64970   49.57550
 5885.50000   87.91010   30.82330    0.05960    3.13220   -0.02860    8.29980   -0.00020    2.69410  208.02170  372.53390   84.13100
 5886.00000   87.78910   28.54400    0.05880    3.16420   -0.03390    8.29690   -0.00060    2.69860  167.84730  253.45710   84.16030
 5886.50000   87.49990   25.77990    0.06130    3.28020   -0.02970    8.29400   -0.00060    2.71160  156.76880  232.85980   55.62950
 5887.00000   87.06300   21.30370    0.06630    3.36800   -0.01130    8.29100   -0.00060    2.73550  109.20740  151.51000   39.10630
 5887.50000   86.46870   19.87870    0.07340    3.39930    0.00310    8.28810   -0.00060    2.76480  158.07230  217.78760   38.14510
 5888.00000   85.97520   19.31910    0.08660    3.31890    0.00860    8.28520   -0.00060    2.78400  193.12290  269.97220   51.36650
 5888.50000   85.74060   19.30330    0.09810    3.23860    0.00800    8.28230   -0.00060    2.78800  195.68450  244.77590   73.25360
 5889.00000   85.98140   19.23450    0.10000    3.18560   -0.00410    8.27940   -0.00050    2.79120  177.71690  196.09900   77.79660
 5889.50000   86.55740   19.94380    0.08780    3.17150   -0.01400    8.27740   -0.00030    2.79810  388.63690  640.03090  101.60890
 5890.00000   86.55860   21.04640    0.07510    3.19760   -0.03130    8.27740   -0.00010    2.82300  545.65150  808.75970  177.13810
 5890.50000   86.48860   21.81110    0.06520    3.23420   -0.04260    8.27380    0.00010    2.83380  399.91840  591.67740  227.53850
 5891.00000   86.15910   21.81390    0.05760    3.25860   -0.04980    8.27730    0.00030    2.82510  163.10520  239.35660  280.99000
 5891.50000   85.59750   21.26250    0.05000    3.25550   -0.04960    8.28810    0.00050    2.79180  146.09410  200.21780  255.58030
 5892.00000   84.95970   20.71030    0.04410    3.20290   -0.05370    8.29890    0.00080    2.79050  144.14610  192.02370  232.37660
 5892.50000   84.33220   19.47630    0.03960    3.14940   -0.07060    8.30980    0.00110    2.79940  526.92970  587.82500  253.63400
 5893.00000   84.32410   17.77400    0.03660    3.11950   -0.07670    8.25630    0.00350    2.81000  590.82310 1005.20850  273.16310
 5893.50000   84.11500   15.98330    0.03480    3.14460   -0.06970    8.25110    0.00690    2.79350  558.43490  804.88230  241.35500
 5894.00000   83.90580   14.74720    0.03450    3.16970   -0.04980    8.25080    0.01190    2.77280  341.37200  460.85770  178.61380
 5894.50000   83.69670   13.81000    0.03410    3.19480   -0.05060    8.25060    0.01690    2.75100  364.70730  454.92110  220.22600
 5895.00000   83.66400   13.09920    0.03380    3.20940   -0.05810    8.25060    0.01770    2.73130  463.30460  656.47880  295.68350
 5895.50000   84.24400   12.16350    0.03380    3.22050   -0.06240    8.25070    0.01850    2.73030  414.82290  542.38990  373.65450
 5896.00000   85.43810   10.57710    0.04140    3.22150   -0.05510    8.25080    0.01930    2.74950  270.39270  288.86900  244.05380
 5896.50000   85.67220    8.66330    0.05160    3.20810   -0.03140    8.25090    0.02010    2.75790  209.53470  250.39850  173.60450
 5897.00000   88.95420    7.35270    0.06220    3.14620   -0.01970    8.25240    0.01650    2.75030  293.16870  295.04400  118.74300
 5897.50000   92.59210    6.23510    0.07070    3.12470   -0.00860    8.25380    0.00950    2.72570  230.83890  225.78860   76.43640
 5898.00000   88.96680    5.83960    0.07230    3.12140   -0.01480    8.25310    0.00560    2.72640  131.78680  131.58780   57.30620
 5898.50000   84.17010    5.89740    0.06750    3.15860   -0.02270    8.25150    0.00340    2.74760  144.22260  169.20380   50.09960
 5899.00000   83.62540    7.04390    0.06180    3.19370   -0.03230    8.25230    0.00240    2.76290  215.02360  186.73440   64.09390
 5899.50000   84.37800    9.50330    0.05390    3.22880   -0.02910    8.25730    0.00260    2.75720  308.52900  351.40010  100.47670
 5900.00000   85.92690   10.68280    0.04680    3.18150   -0.02680    8.27470    0.00390    2.74450  318.47400  453.72540  142.40960
 5900.50000   86.25410   12.89860    0.04230    3.12250   -0.01930    8.29190    0.00640    2.73740  279.97810  343.66570   68.89980
 5901.00000   86.23040   13.25380    0.04110    3.10370   -0.01880    8.30450    0.01110    2.73810  192.91570  193.61060   38.07730
 5901.50000   86.73420   12.58480    0.04590    3.10550   -0.03060    8.30200    0.01930    2.75880  156.14590  187.55030   24.42680
 5902.00000   86.88220   11.57720    0.05390    3.09120   -0.04930    8.27330    0.02660    2.78110  151.84120  196.15250   24.57670
 5902.50000   86.22410   10.19190    0.05690    3.05840   -0.06250    8.25240    0.02270    2.80580  150.01520  195.36820   31.49730
 5903.00000   86.45340    8.79240    0.05460    3.05790   -0.06040    8.24940    0.01650    2.80730  157.20440  194.91580   28.33180
 5903.50000   87.90810    7.63720    0.05140    3.06000   -0.06130    8.24650    0.01040    2.80890  196.60620  206.68050   53.52040
 5904.00000   89.24830    6.61660    0.05080    3.06240   -0.06200    8.24360    0.01590    2.80920  313.65940  295.33990   95.03790
 5904.50000   89.60250    6.55900    0.06220    3.06470   -0.06170    8.24070    0.02270    2.79840  307.39540  305.36090  158.92530
 5905.00000   90.07940    6.24270    0.05690    3.06710   -0.06140    8.23780    0.01910    2.76820  199.76710  207.76600   93.76520
 5905.50000   90.17960    5.81620    0.06900    3.06950   -0.05110    8.23490    0.01140    2.72040  178.49930  169.21560   62.59830
 5906.00000   90.27980    5.81540    0.08250    3.07190   -0.02750    8.23200    0.00450    2.69450  124.36060  129.47510   48.50330
 5906.50000   90.37080    5.86630    0.09590    3.07430   -0.00260    8.23350   -0.00770    2.67620   77.73900  103.31430   39.01420
 5907.00000   90.25930    6.23530    0.10460    3.07670    0.01690    8.23840   -0.00810    2.66950  103.59850  120.19430   41.80070
 5907.50000   89.97810    7.10790    0.10440    3.07910    0.02330    8.24380   -0.00570    2.67620  151.27080  219.44400   65.79000
 5908.00000   89.58810    8.15010    0.09600    3.08780    0.02630    8.24920   -0.00330    2.69870  167.20240  224.81320   79.37390
 5908.50000   89.10240    9.21680    0.08530    3.09880    0.01880    8.24010   -0.00100    2.73910  193.15370  309.26000   76.91500
 5909.00000   88.97830    9.87080    0.07380    3.10540   -0.00270    8.24170   -0.00020    2.75710  298.35170  475.81540  101.81830
 5909.50000   88.85420    9.72990    0.06550    3.09750   -0.02110    8.25220   -0.00050    2.77300  379.01670  532.15250  133.06990
 5910.00000   88.95690    9.48170    0.06040    3.07220   -0.03720    8.25240   -0.00090    2.77280  415.27400  573.63700   94.35740
 5910.50000   89.31530    8.42730    0.06120    3.03790   -0.03980    8.24580   -0.00120    2.75240  169.37880  250.80430   48.19220
 5911.00000   89.64940    7.53370    0.07050    3.03590   -0.02710    8.23850   -0.00220    2.73860  161.08880  236.30110   40.62280
