~Version ---------------------------------------------------
VERS.   2.0 : CWLS log ASCII Standard -VERSION 2.0
WRAP.    NO : One line per depth step
DLM . SPACE : Column Data Section Delimiter
~Well ------------------------------------------------------
STRT .F                  148.0 : START DEPTH
STOP .F                 9028.0 : STOP DEPTH
STEP .F                    0.5 : STEP
NULL .                -9999.25 : NULL VALUE
COMP .                         : COMPANY
WELL .                         : WELL
FLD  .                         : FIELD
LOC  .                         : LOCATION
PROV .                         : PROVINCE
CNTY .                         : COUNTY
STAT .                         : STATE
CTRY .                         : COUNTRY
SRVC .                         : SERVICE COMPANY
DATE .                         : DATE
UWI  .                         : UNIQUE WELL ID
API  .                         : API NUMBER
SLAT .WGS84 2.8148881094058993 : SURFACE LATITUDE
SLON .WGS84  6.662970019962003 : SURFACE LONGITUDE
DATUM.F                2959.87 : DEPTH DATUM ELEV
~Curve Information -----------------------------------------
DEPT   .F     : 
GRS    .GAPI  : GAMMA RAY FROM SONIC LOG
DTCO   .US/F  : DELTA-T COMPRESSIONAL
DTST   .US/F  : DELTA-T STONELEY - MONOPOLE STONELEY
DTSM   .US/F  : DELTA-T SHEAR
GRD    .GAPI  : GAMMA RAY FROM DENSITY LOG
NPHI_LS.DEC   : NEUTRON POROSITY LIMESTONE
DPHI_LS.DEC   : DENSITY POROSITY LIMESTONE
PEF    .B/E   : PHOTOELECTRIC FACTOR
DRHO   .G/C3  : BULK DENSITY CORRECTION
CALD   .IN    : CALIPER FROM DENSITY LOG
TEND   .LB    : TENSION FROM DENSITY LOG
RHOB   .G/C3  : BULK DENSITY
GRR    .GAPI  : GAMMA RAY FROM RESISTIVITY LOG
SPR    .MV    : SPONTANEOUS POTENTIAL FROM RESISTIVITY LOG
ILD    .OHMM  : INDUCTION DEEP RESISTIVITY
ILM    .OHMM  : INDUCTION MEDIUM RESISTIVITY
SFLU   .OHMM  : SHALLOW FOCUSED RESISTIVITY (UNAVERAGED)
TENR   .LB    : TENSION FROM RESISTIVITY LOG
~Params ----------------------------------------------------
~Other -----------------------------------------------------
~ASCII -----------------------------------------------------
# ...
 8962.00000   -9999.25   69.39590  196.18060  114.17900   91.24430    0.19750    0.08280    2.88770    0.00850    7.88920 3596.00810    2.56850   -9999.25   -6.45310   33.21600   48.55510   65.78030 2724.66500
 8962.50000   -9999.25   69.43600  196.16920  113.73150   -9999.25    0.18570    0.08670    2.80880    0.00700    7.88570 3604.45800    2.56240   -9999.25   -6.47970   31.98770   42.03770   55.03580 2725.36280
 8963.00000   -9999.25   68.64830  196.15780  113.24620   -9999.25    0.18300    0.09250    2.77910    0.00720    7.88080 3592.35720    2.55710   -9999.25   -6.50620   29.93360   36.69210   43.30100 2726.06050
 8963.50000   -9999.25   67.86060  196.14640  112.59750   -9999.25    0.17820    0.09330    2.71500    0.00810    7.87580 3578.70210    2.55180   -9999.25   -6.49100   27.06370   31.68610   33.47360 2726.75830
 8964.00000   -9999.25   67.53950  196.13500  112.00280   -9999.25    0.17190    0.09030    2.63040    0.01020    7.87090 3565.04710    2.55410   -9999.25   -6.52540   25.11340   27.18690   30.68470 2727.45630
 8964.50000   -9999.25   67.70340  196.12370  111.77940   -9999.25    0.16500    0.08140    2.56710    0.01240    7.86600 3551.39180    2.56360   -9999.25   -6.71080   23.31790   24.20980   28.12820 2728.15410
 8965.00000   -9999.25   67.86760  195.93910  111.55610   -9999.25    0.15130    0.07730    2.57850    0.01470    7.86370 3537.73680    2.57310   -9999.25   -6.84950   21.69950   23.29880   25.87790 2728.85180
 8965.50000   -9999.25   67.76750  195.95790  111.43610   -9999.25    0.13740    0.08190    2.60530    0.01720    7.86270 3553.92210    2.57730   -9999.25   -7.41180   20.19350   22.42200   24.63740 2729.54960
 8966.00000   -9999.25   67.53880  196.20270  111.42620   -9999.25    0.13500    0.09340    2.63350    0.01980    7.87150 3563.21440    2.56610   -9999.25   -7.82650   19.44740   21.57830   25.12710 2730.24760
 8966.50000   -9999.25   67.52890  196.28510  111.59620   -9999.25    0.14840    0.09700    2.55600    0.02310    7.87180 3549.34030    2.54310   -9999.25   -7.97270   18.91380   20.85410   28.56370 2730.94530
 8967.00000   -9999.25   67.51900  196.20920  112.03340   -9999.25    0.17000    0.09060    2.40670    0.02920    7.86200 3550.76390    2.55100   -9999.25   -7.43120   18.39490   20.33060   34.43170 2731.64310
 8967.50000   -9999.25   67.60880  196.24430  112.63660   -9999.25    0.17950    0.07980    2.29050    0.03260    7.86830 3563.24370    2.57050   -9999.25   -6.62370   18.15940   19.82030   38.48260 2732.34110
 8968.00000   -9999.25   67.72950  196.18380  113.60480   -9999.25    0.16720    0.07240    2.29980    0.03130    7.86950 3573.60080    2.58150   -9999.25   -6.55390   18.33270   19.41360   36.20000 2733.03880
 8968.50000   -9999.25   67.85010  195.93910  113.79200   -9999.25    0.14250    0.07160    2.36000    0.02940    7.86080 3574.20210    2.58930   -9999.25   -6.80990   19.56790   20.75700   31.95070 2733.73660
 8969.00000   -9999.25   67.84910  195.69440  112.83630   -9999.25    0.13100    0.08230    2.45010    0.02410    7.86590 3579.75590    2.57900   -9999.25   -6.94450   21.04660   22.19340   28.14690 2734.43430
 8969.50000   -9999.25   67.83630  195.44970  111.52240   -9999.25    0.13890    0.09740    2.50280    0.01800    7.86990 3604.69070    2.56060   -9999.25   -7.13020   22.86600   23.99060   32.45290 2735.13230
 8970.00000   -9999.25   67.94510  195.20500  114.21120   -9999.25    0.16120    0.11260    2.52830    0.01190    7.86960 3583.30910    2.52780   -9999.25   -7.09020   24.40140   27.29850   43.64760 2735.83010
 8970.50000   -9999.25   69.41490  195.48620  117.92200   -9999.25    0.18560    0.12870    2.55490    0.00820    7.86830 3564.16600    2.49010   -9999.25   -7.05010   25.82440   32.11540   60.10970 2736.52780
 8971.00000   -9999.25   70.88480  195.88880  120.97980   -9999.25    0.20740    0.13710    2.55930    0.00760    7.86880 3570.33470    2.47590   -9999.25   -6.84840   28.31100   38.48330   82.45660 2738.92850
 8971.50000   -9999.25   -9999.25   -9999.25   -9999.25   -9999.25    0.22910    0.13980    2.56190    0.00800    7.86850 3576.36110    2.47110   -9999.25   -6.46390   32.53860   45.76610  118.51470 2741.90800
 8972.00000   -9999.25   -9999.25   -9999.25   -9999.25   -9999.25    0.24700    0.13830    2.56460    0.00850    7.86510 3567.95510    2.47360   -9999.25   -6.31230   36.62880   52.62960  167.64530 2742.12330
 8972.50000   -9999.25   -9999.25   -9999.25   -9999.25   -9999.25   -9999.25    0.13600    2.56730    0.00900    7.86010 3552.11430    2.47730   -9999.25   -6.31050   41.18990   59.11040  222.80600 2742.33890
 8973.00000   -9999.25   -9999.25   -9999.25   -9999.25   -9999.25   -9999.25    0.13590    2.57000    0.01000    7.84990 3496.50460    2.47750   -9999.25   -6.32350   45.85100   64.54510  210.88390 2742.55420
 8973.50000   -9999.25   -9999.25   -9999.25   -9999.25   -9999.25   -9999.25    0.13940    2.54110    0.01090    7.85380 3542.87230    2.47170   -9999.25   -6.33710   49.02530   68.24770  179.55180 2747.11450
 8974.00000   -9999.25   -9999.25   -9999.25   -9999.25   -9999.25   -9999.25    0.14210    2.46260    0.01050    7.85810 3563.51000    2.46700   -9999.25   -6.98240   49.64800   68.39360  157.63370 2740.96830
 8974.50000   -9999.25   -9999.25   -9999.25   -9999.25   -9999.25   -9999.25    0.14070    2.44990    0.01010    7.86250 3544.95410    2.46940   -9999.25   -7.54300   50.27860   65.17150  136.47520 2713.22390
 8975.00000   -9999.25   -9999.25   -9999.25   -9999.25   -9999.25   -9999.25    0.13490    2.50500    0.00820    7.86680 3500.69430    2.47940   -9999.25   -7.78920   50.91710   59.86400  116.34400 2708.15310
 8975.50000   -9999.25   -9999.25   -9999.25   -9999.25   -9999.25   -9999.25    0.12610    2.61380    0.00730    7.87110 3514.96780    2.49440   -9999.25   -7.88020   51.56380   55.30370  103.23700 2719.73660
 8976.00000   -9999.25   -9999.25   -9999.25   -9999.25   -9999.25   -9999.25    0.11250    2.70170    0.00480    7.87540 3534.00830    2.51580   -9999.25   -7.86610   52.12380   57.69500   94.57170 2734.17190
 8976.50000   -9999.25   -9999.25   -9999.25   -9999.25   -9999.25   -9999.25    0.09700    2.79990    0.00230    7.87830 3547.80740    2.54310   -9999.25   -7.81540   52.39200   62.72610   99.56680 2745.68360
 8977.00000   -9999.25   -9999.25   -9999.25   -9999.25   -9999.25   -9999.25    0.08800    2.79440   -0.00140    7.87570 3508.70850    2.55950   -9999.25   -7.69600   51.36790   67.59900  121.67420 2729.56740
 8977.50000   -9999.25   -9999.25   -9999.25   -9999.25   -9999.25   -9999.25    0.09250    2.61860   -0.00150    7.89770 3510.87500    2.55180   -9999.25   -7.57660   49.95910   64.28430  150.56880 2713.45140
 8978.00000   -9999.25   -9999.25   -9999.25   -9999.25   -9999.25   -9999.25    0.10790    2.49830    0.00320    7.88220 3544.20190    2.52510   -9999.25   -7.45720   47.76820   58.03260  172.70680 2716.97900
 8978.50000   -9999.25   -9999.25   -9999.25   -9999.25   -9999.25   -9999.25    0.12180    2.49350    0.00680    7.86310 3553.85860    2.50200   -9999.25   -7.33780   46.47640   52.47950  148.10030 2730.09990
 8979.00000   -9999.25   -9999.25   -9999.25   -9999.25   -9999.25   -9999.25    0.12740    2.55180    0.00670    7.85850 3517.01950    2.49230   -9999.25   -7.21840   45.28530   50.71570  110.75360 2743.22070
 8979.50000   -9999.25   -9999.25   -9999.25   -9999.25   -9999.25   -9999.25    0.12540    2.53100    0.00570    7.85830 3528.08010    2.49560   -9999.25   -6.86480   43.49770   47.85370   87.77630 2749.73900
 8980.00000   -9999.25   -9999.25   -9999.25   -9999.25   -9999.25   -9999.25    0.12490    2.50140    0.00860    7.85800 3531.25900    2.49650   -9999.25   -6.39180   41.33730   44.71670   76.21530 2741.63820
 8980.50000   -9999.25   -9999.25   -9999.25   -9999.25   -9999.25   -9999.25    0.12910    2.47210    0.01280    7.85350 3532.00980    2.48930   -9999.25   -6.07450   39.28420   41.78540   64.87550 2710.95430
 8981.00000   -9999.25   -9999.25   -9999.25   -9999.25   -9999.25   -9999.25    0.13400    2.53270    0.03030    7.83340 3521.49440    2.48100   -9999.25   -5.78570   36.31680   39.40670   60.50050 2710.49100
