~Version ---------------------------------------------------
VERS.   2.0 : CWLS log ASCII Standard -VERSION 2.0
WRAP.    NO : One line per depth step
DLM . SPACE : Column Data Section Delimiter
~Well ------------------------------------------------------
STRT .F                  148.0 : START DEPTH
STOP .F                 9028.0 : STOP DEPTH
STEP .F                    0.5 : STEP
NULL .                -9999.25 : NULL VALUE
COMP .                         : COMPANY
WELL .                         : WELL
FLD  .                         : FIELD
LOC  .                         : LOCATION
PROV .                         : PROVINCE
CNTY .                         : COUNTY
STAT .                         : STATE
CTRY .                         : COUNTRY
SRVC .                         : SERVICE COMPANY
DATE .                         : DATE
UWI  .                         : UNIQUE WELL ID
API  .                         : API NUMBER
SLAT .WGS84 2.8148881094058993 : SURFACE LATITUDE
SLON .WGS84  6.662970019962003 : SURFACE LONGITUDE
DATUM.F                2959.87 : DEPTH DATUM ELEV
~Curve Information -----------------------------------------
DEPT   .F     : 
GRS    .GAPI  : GAMMA RAY FROM SONIC LOG
DTCO   .US/F  : DELTA-T COMPRESSIONAL
DTST   .US/F  : DELTA-T STONELEY - MONOPOLE STONELEY
DTSM   .US/F  : DELTA-T SHEAR
GRD    .GAPI  : GAMMA RAY FROM DENSITY LOG
NPHI_LS.DEC   : NEUTRON POROSITY LIMESTONE
DPHI_LS.DEC   : DENSITY POROSITY LIMESTONE
PEF    .B/E   : PHOTOELECTRIC FACTOR
DRHO   .G/C3  : BULK DENSITY CORRECTION
CALD   .IN    : CALIPER FROM DENSITY LOG
TEND   .LB    : TENSION FROM DENSITY LOG
RHOB   .G/C3  : BULK DENSITY
GRR    .GAPI  : GAMMA RAY FROM RESISTIVITY LOG
SPR    .MV    : SPONTANEOUS POTENTIAL FROM RESISTIVITY LOG
ILD    .OHMM  : INDUCTION DEEP RESISTIVITY
ILM    .OHMM  : INDUCTION MEDIUM RESISTIVITY
SFLU   .OHMM  : SHALLOW FOCUSED RESISTIVITY (UNAVERAGED)
TENR   .LB    : TENSION FROM RESISTIVITY LOG
~Params ----------------------------------------------------
~Other -----------------------------------------------------
~ASCII -----------------------------------------------------
# ...
 6817.00000   41.69000   62.73680  199.73450  107.40730   21.86620    0.12830    0.06480    3.19620    0.04040    8.60390 2957.27390    2.59910   32.10780  -91.94660   54.41590   40.17220   33.51200 2095.61990
 6817.50000   36.02820   63.42400  197.96230  104.90560   21.68160    0.11640    0.07220    3.12860    0.03040    8.63660 2952.54050    2.56660   27.16080  -89.63580   53.69950   47.11210   52.10890 2098.18820
 6818.00000   30.33630   63.32210  199.45450  106.09680   27.39050    0.11930    0.08960    2.87110    0.02860    8.65780 2944.26150    2.54120   22.40050  -87.70590   50.18010   53.88270  124.57670 2100.75630
 6818.50000   25.72430   62.46960  199.71640  104.84490   35.17870    0.13070    0.10170    2.73770    0.02800    8.67330 2935.98240    2.53030   22.82890  -85.85850   46.78750   50.43530  241.78260 2103.32470
 6819.00000   28.71450   61.61700  198.35580  100.93510   39.69720    0.14530    0.10550    2.73290    0.02900    8.68870 2927.70340    2.52860   27.61940  -83.15620   43.48330   40.87300  195.03470 2105.89280
 6819.50000   36.50790   60.97570  201.98250  101.09920   40.71950    0.15500    0.10200    2.84090    0.02770    8.70420 2919.42460    2.53650   36.10370  -80.52190   41.69430   33.12380  115.43780 2108.46120
 6820.00000   44.47750   60.87240  203.91270  104.52010   37.09470    0.15180    0.09560    2.96120    0.02590    8.70790 2911.14550    2.54470   41.12730  -79.88600   40.86460   31.37790   59.38670 2111.02930
 6820.50000   43.41660   61.30140  203.34270  106.58650   35.23540    0.14800    0.09540    2.95740    0.02370    8.66580 2902.86650    2.54000   39.78350  -79.43330   40.01690   31.85080   37.06880 2113.59740
 6821.00000   39.23570   62.40140  202.36160  106.87230   36.31050    0.15040    0.10230    2.82570    0.02050    8.62360 2894.58740    2.53250   36.84750  -79.43330   38.78450   32.48300   35.55340 2116.16580
 6821.50000   35.10000   63.48250  201.22390  107.07050   37.52510    0.15410    0.10780    2.76980    0.01750    8.57920 2886.30830    2.52660   35.38950  -80.22760   37.53700   33.18730   51.71210 2118.73390
 6822.00000   34.74910   64.56370  200.85730  107.54310   38.73980    0.15300    0.10710    2.94710    0.01380    8.50650 2878.02950    2.52610   37.51370  -81.58690   36.46330   34.42790   65.36370 2121.30220
 6822.50000   35.54910   65.01570  201.74100  108.17700   38.96920    0.15060    0.10090    3.19130    0.01210    8.43380 2881.31520    2.53880   38.67710  -83.44480   40.08270   36.62140   75.95810 2123.87040
 6823.00000   36.15640   64.64030  202.62480  108.81090   34.75070    0.15160    0.09390    3.27130    0.01090    8.36110 2886.88670    2.55490   37.10440  -85.24330   46.88750   38.95460   85.49720 2117.01290
 6823.50000   35.52560   63.90520  203.50860  109.44470   30.60810    0.15110    0.08430    3.19140    0.00930    8.31290 2892.45850    2.57110   38.15870  -86.80130   53.43940   42.54650   88.80210 2108.68700
 6824.00000   33.32210   63.72080  202.33520  110.03110   25.92830    0.13940    0.07450    3.29110    0.01010    8.29420 2898.03000    2.58730   37.05050  -86.90110   62.17070   47.23160   71.62870 2100.36130
 6824.50000   31.19040   63.46860  198.42470  110.22710   24.83070    0.12650    0.06760    3.46070    0.01220    8.28310 2903.60160    2.59700   34.82730  -86.57540   72.32860   48.61220   58.12080 2092.03560
 6825.00000   28.86400   63.03890  197.50650  109.42320   24.94880    0.12520    0.06660    3.69840    0.01400    8.27650 2909.17310    2.59410   31.13080  -86.06500   85.09930   50.57420   57.96380 2083.71000
 6825.50000   27.34550   62.35690  196.72650  105.45300   24.94810    0.12240    0.07040    3.67220    0.01540    8.28760 2914.74490    2.58630   28.08650  -85.72330   97.25620   52.61540   91.42400 2075.38400
 6826.00000   26.48530   61.64240  196.35970  103.53400   25.35340    0.11210    0.07750    3.43170    0.01670    8.32330 2920.31640    2.57560   29.96170  -85.46870  104.23600   56.85550  141.85970 2096.58620
 6826.50000   25.93000   61.30810  196.39760  102.49460   28.85890    0.10920    0.08510    3.15270    0.01850    8.35900 2925.88790    2.56480   30.27550  -84.86340  101.57070   61.34180  197.02440 2130.90700
 6827.00000   26.23390   61.22030  196.74040  101.50180   32.81670    0.11950    0.09280    2.98380    0.02380    8.39470 2931.45970    2.55400   30.32480  -84.35490   94.27530   66.18210  168.63000 2133.72270
 6827.50000   30.13540   61.22710  199.60730  101.28240   35.80660    0.13460    0.09970    2.95240    0.02590    8.43040 2937.03130    2.54470   32.38650  -83.86970   87.34760   67.92100  125.97710 2110.45120
 6828.00000   36.48740   61.63590  203.11380  101.42510   35.88120    0.13820    0.09970    3.02920    0.03220    8.46600 2942.60280    2.54650   37.42870  -80.79500   80.74020   66.02680   78.86550 2100.71780
 6828.50000   39.81350   64.04020  199.72850  101.84050   34.88000    0.13480    0.09420    3.09120    0.04160    8.50170 2939.05100    2.55280   41.88960  -79.37460   73.03990   57.93760   62.03000 2091.74190
 6829.00000   38.82950   64.93490  196.56440  102.25610   33.87870    0.12730    0.08850    3.04610    0.05580    8.53750 2927.19290    2.55900   40.44080  -81.09400   66.07400   51.32700   57.79460 2084.15770
 6829.50000   37.57690   65.53760  198.25290  103.54260   33.13910    0.12180    0.08290    2.73810    0.06680    8.57320 2915.33450    2.56520   37.29330  -82.89990   59.77240   52.01390   63.62440 2098.01270
 6830.00000   36.57850   65.34210  201.41340  103.83490   32.47100    0.12820    0.08210    2.49800    0.07230    8.60890 2903.47630    2.57000   33.83230  -84.91600   54.58200   54.47670   73.27820 2121.04760
 6830.50000   36.12980   64.57320  202.15890  104.08370   31.80290    0.13960    0.08420    2.50710    0.07020    8.61870 2903.06860    2.56560   35.12450  -86.44050   51.65690   53.69220   71.48820 2144.08230
 6831.00000   35.99580   63.21300  202.80320  104.32320   31.13490    0.15100    0.08650    2.59800    0.06360    8.61430 2905.52730    2.55600   37.26210  -86.91420   48.88850   51.84980   68.02970 2143.01860
 6831.50000   36.05490   62.73140  201.44630  104.60850   30.88250    0.15130    0.09110    2.68890    0.05700    8.56320 2907.98580    2.54820   40.16560  -85.95400   48.01510   55.01110   68.47050 2131.39480
 6832.00000   35.76390   62.53480  199.28130  104.84270   32.12820    0.14470    0.09670    2.77970    0.04590    8.45760 2910.44430    2.54080   40.01580  -82.61180   49.31330   57.66960   78.49090 2122.66820
 6832.50000   35.47300   62.52540  197.36360  104.95380   33.62200    0.13660    0.10140    2.82190    0.03090    8.41020 2912.90310    2.53410   38.57350  -79.41650   52.18210   61.64450  100.87700 2118.21020
 6833.00000   35.12050   62.52540  199.01120  104.56980   33.80210    0.13610    0.10310    2.84080    0.01560    8.36660 2915.36160    2.53950   37.73210  -80.57400   55.21780   82.81670  128.26990 2120.66750
 6833.50000   34.93190   62.52540  201.21110  104.56700   31.70180    0.13840    0.09900    2.85660    0.01310    8.35010 2917.82010    2.55720   36.29610  -85.41220   55.37080  124.33320  110.21030 2140.13260
 6834.00000   34.65130   62.52540  199.31220  105.21130   29.60160    0.13900    0.09030    2.88790    0.02040    8.33770 2920.27880    2.57480   33.69880  -91.04710   54.04250  133.55690   88.29540 2145.18360
 6834.50000   32.33560   62.44510  198.91880  106.40810   29.03250    0.13150    0.08200    2.91940    0.03440    8.33870 2925.08910    2.57500   30.85600  -96.68730   51.95010  124.78660   71.38160 2131.62890
 6835.00000   29.70660   62.32920  201.68690  105.73450   33.51060    0.12230    0.08140    2.93450    0.04310    8.35620 2930.43850    2.56400   29.01780  -96.51790   49.93880   79.23030   62.60480 2091.30620
 6835.50000   28.45010   62.20660  202.59990  104.84410   40.99330    0.12790    0.09210    2.93130    0.04570    8.38120 2935.78810    2.55250   29.36140  -94.54230   48.80320   60.06870   54.21870 2050.74610
 6836.00000   29.48640   62.21230  202.02150  105.18880   46.39700    0.14120    0.09980    2.92810    0.04040    8.40220 2941.13770    2.53930   32.46970  -90.57660   49.37560   47.68650   44.07480 2063.29790
