~Version ---------------------------------------------------
VERS.   2.0 : CWLS log ASCII Standard -VERSION 2.0
WRAP.    NO : One line per depth step
DLM . SPACE : Column Data Section Delimiter
~Well ------------------------------------------------------
STRT .F                  148.0 : START DEPTH
STOP .F                 9028.0 : STOP DEPTH
STEP .F                    0.5 : STEP
NULL .                -9999.25 : NULL VALUE
COMP .                         : COMPANY
WELL .                         : WELL
FLD  .                         : FIELD
LOC  .                         : LOCATION
PROV .                         : PROVINCE
CNTY .                         : COUNTY
STAT .                         : STATE
CTRY .                         : COUNTRY
SRVC .                         : SERVICE COMPANY
DATE .                         : DATE
UWI  .                         : UNIQUE WELL ID
API  .                         : API NUMBER
SLAT .WGS84 2.8148881094058993 : SURFACE LATITUDE
SLON .WGS84  6.662970019962003 : SURFACE LONGITUDE
DATUM.F                2959.87 : DEPTH DATUM ELEV
~Curve Information -----------------------------------------
DEPT   .F     : 
GRS    .GAPI  : GAMMA RAY FROM SONIC LOG
DTCO   .US/F  : DELTA-T COMPRESSIONAL
DTST   .US/F  : DELTA-T STONELEY - MONOPOLE STONELEY
DTSM   .US/F  : DELTA-T SHEAR
GRD    .GAPI  : GAMMA RAY FROM DENSITY LOG
NPHI_LS.DEC   : NEUTRON POROSITY LIMESTONE
DPHI_LS.DEC   : DENSITY POROSITY LIMESTONE
PEF    .B/E   : PHOTOELECTRIC FACTOR
DRHO   .G/C3  : BULK DENSITY CORRECTION
CALD   .IN    : CALIPER FROM DENSITY LOG
TEND   .LB    : TENSION FROM DENSITY LOG
RHOB   .G/C3  : BULK DENSITY
GRR    .GAPI  : GAMMA RAY FROM RESISTIVITY LOG
SPR    .MV    : SPONTANEOUS POTENTIAL FROM RESISTIVITY LOG
ILD    .OHMM  : INDUCTION DEEP RESISTIVITY
ILM    .OHMM  : INDUCTION MEDIUM RESISTIVITY
SFLU   .OHMM  : SHALLOW FOCUSED RESISTIVITY (UNAVERAGED)
TENR   .LB    : TENSION FROM RESISTIVITY LOG
~Params ----------------------------------------------------
~Other -----------------------------------------------------
~ASCII -----------------------------------------------------
# ...
 4691.50000   13.33960   47.57240  197.32010   88.23420   15.09090    0.05780   -0.04620    3.13430    0.00910    9.15980 2260.73320    2.78900   16.41680  -77.21140   34.68620   27.93180   62.84990 1511.98940
 4692.00000   16.12620   48.31950  196.37210   89.37430   19.21920    0.08350   -0.02810    3.11860    0.00900    9.15990 2259.52150    2.75880   19.75450  -77.84560   29.42860   23.25730   31.80050 1512.39820
 4692.50000   20.20370   49.88210  196.06610   92.41260   21.66420    0.09620   -0.01570    3.05310    0.00780    9.16000 2266.49410    2.74000   23.31990  -78.62020   26.26590   19.41150   24.13740 1512.80690
 4693.00000   23.61050   51.73700  196.05660   95.70280   23.75420    0.10980   -0.00930    2.91180    0.00800    9.16010 2273.72360    2.72730   24.88330  -79.39480   24.69580   19.79460   20.57300 1512.82730
 4693.50000   27.19630   53.59200  197.84480   98.99430   24.25180    0.11600   -0.01330    2.79790    0.00960    9.16030 2273.42720    2.72710   23.59570  -79.43720   24.48500   21.23780   19.47000 1512.26880
 4694.00000   24.75400   55.44690  198.26360  100.45480   20.99230    0.10510   -0.02610    2.91400    0.01010    9.16040 2265.28170    2.72910   20.08100  -81.73130   24.54350   22.78630   29.56690 1512.26880
 4694.50000   20.87110   55.18630  198.42960   99.93870   16.20390    0.08670   -0.04440    3.04940    0.01070    9.15930 2257.13620    2.76760   15.67400  -87.76070   25.43090   24.39260   45.58950 1513.35030
 4695.00000   14.96600   54.19100  198.65510   97.81280   12.28210    0.06140   -0.06140    3.16690    0.01070    9.15890 2245.63550    2.80260   11.91100  -91.25830   26.97190   25.64690   72.44250 1511.36020
 4695.50000   10.55510   53.19570  198.66400   95.61260   11.29680    0.04820   -0.06990    3.17320    0.01010    9.16040 2241.83060    2.82710   12.13020  -92.42610   28.75850   26.95150   92.86100 1511.66780
 4696.00000    9.99290   52.20040  198.49650   93.33050   12.03410    0.04490   -0.06470    3.12550    0.00880    9.16360 2240.92330    2.82710   15.33150  -93.77880   30.34920   28.21720   86.48410 1511.97530
 4696.50000   10.46810   51.20510  198.57630   91.64300   14.10570    0.05280   -0.05300    3.06240    0.00740    9.16780 2247.06050    2.80620   18.11110  -97.18690   32.02800   28.51830   61.19190 1512.26880
 4697.00000   12.72160   50.20980  199.88880   91.25170   16.62240    0.06640   -0.04160    3.01220    0.00680    9.17270 2258.68410    2.78300   18.29750  -98.99420   33.21000   26.99440   45.82330 1512.26880
 4697.50000   13.58820   49.49720  200.10340   91.43440   17.44860    0.08160   -0.03250    3.11140    0.00640    9.19170 2255.24850    2.76550   17.54690 -100.45550   32.12720   25.31270   34.67330 1512.26880
 4698.00000   13.66060   49.97970  200.00570   93.28140   16.81970    0.09420   -0.02470    3.23370    0.00630    9.20620 2249.39310    2.75230   15.94280 -101.91680   30.21710   24.07770   29.09620 1512.36540
 4698.50000   13.69300   50.87980  199.85680   94.04300   15.08960    0.10110   -0.02680    3.35550    0.00630    9.22070 2239.76270    2.75590   14.27910 -103.37810   28.12130   23.32640   27.04370 1512.50880
 4699.00000   13.72550   51.74770  199.73430   94.34730   12.78670    0.09560   -0.03040    3.41370    0.00540    9.23600 2252.07790    2.76210   13.91930 -105.04250   24.51370   22.09640   28.22670 1512.65220
 4699.50000   14.38240   52.56290  199.70360   94.94920   12.62140    0.08770   -0.03060    3.33630    0.00460    9.25220 2261.89970    2.76230   14.19290 -105.89740   21.52900   20.16200   28.92930 1512.91310
 4700.00000   15.17520   52.50370  199.83840   94.94020   16.44720    0.08510   -0.02350    3.14110    0.00220    9.24720 2261.36450    2.75010   16.80080 -102.97500   20.01960   18.39690   22.21080 1513.43800
 4700.50000   15.96810   52.34350  199.96380   94.93550   20.37080    0.09840   -0.01230    2.87770   -0.00120    9.25460 2261.55980    2.73070   19.90330  -93.81260   18.61600   16.48310   17.00310 1513.96290
 4701.00000   18.10250   52.24860  199.48460   95.24770   23.93940    0.10930   -0.00650    2.81170   -0.00140    9.29020 2276.89010    2.72110   23.85090  -87.60240   17.31080   14.72690   15.16730 1513.56540
 4701.50000   22.32370   52.32210  198.78150   96.12040   27.53080    0.11620    0.00330    2.70720    0.00040    9.31220 2265.33620    2.70420   27.99140  -81.25070   16.30600   13.82090   14.13680 1513.48720
 4702.00000   27.96320   52.77990  198.25250   96.99310   31.92980    0.11400    0.02560    2.68970    0.00510    9.35540 2262.49610    2.66780   33.43820  -74.89900   15.36940   13.05840   13.83820 1513.68380
 4702.50000   35.32470   53.29720  198.62990   98.23240   38.97290    0.11100    0.05190    2.72930    0.01130    9.39830 2276.39280    2.63540   41.81450  -69.96370   14.48660   12.41570   13.54590 1513.88050
 4703.00000   41.40740   54.56490  198.96890   99.65230   43.82780    0.10780    0.06560    2.79620    0.01000    9.43930 2276.56540    2.60610   44.70250  -67.52970   13.65460   12.06360   14.11570 1513.82900
 4703.50000   43.57950   55.89980  199.21200  102.54210   45.32990    0.10540    0.06610    2.79370    0.00580    9.44960 2276.73830    2.59450   47.98450  -65.87630   12.78800   11.83290   15.91040 1513.74510
 4704.00000   44.85280   57.22670  199.45510  104.72640   45.86650    0.10390    0.06240    2.69200    0.00510    9.43640 2275.01590    2.59430   52.54510  -63.93450   12.06650   11.38860   18.27150 1514.31530
 4704.50000   45.68380   58.55360  199.69810  106.41220   46.49910    0.10900    0.05400    2.65410    0.00470    9.41770 2270.94430    2.60830   56.72760  -61.92790   11.89260   10.88670   19.54870 1515.10110
 4705.00000   45.56650   59.88050  199.92320  108.09810   46.65540    0.12610    0.04490    2.68330    0.00440    9.39580 2267.03560    2.63330   55.54120  -59.92140   12.23520   11.10440   19.85710 1515.88700
 4705.50000   44.51190   61.20730  199.99520  109.78400   43.23950    0.14530    0.03170    2.77490    0.00320    9.35550 2270.33080    2.65610   44.85490  -59.06700   13.26780   11.97900   24.80620 1515.30650
 4706.00000   39.22530   61.52490  199.58970  110.67540   35.00600    0.15170    0.01550    2.87170    0.00060    9.31230 2283.03150    2.68380   34.77060  -62.78570   14.54890   13.67760   47.07800 1514.56840
 4706.50000   32.92870   61.11040  199.08370  109.90170   27.19610    0.14080   -0.00460    2.93280   -0.00140    9.25360 2285.71830    2.71770   25.20690  -67.26850   16.65000   15.61720  140.72470 1515.90780
 4707.00000   25.62280   59.44180  198.57770  107.42980   20.61650    0.11840   -0.02510    3.04810   -0.00080    9.19190 2260.29320    2.75280   17.46620  -70.61630   19.23250   18.29660  469.02160 1516.07520
 4707.50000   20.57030   57.60900  198.08700  104.77850   15.86130    0.09870   -0.04330    3.07780    0.00330    9.15810 2250.43510    2.78360   13.77320  -72.88490   22.47660   21.69030 1289.45140 1515.11840
 4708.00000   16.69200   55.32910  197.59660  100.34070   14.26220    0.08100   -0.05300    3.06340    0.00690    9.15970 2243.38790    2.80070   11.61120  -73.70590   27.49270   25.71340 1787.65440 1514.01390
 4708.50000   13.95640   51.78840  197.10630   96.12270   14.10760    0.06590   -0.05660    3.01240    0.01100    9.15780 2234.97360    2.80690   10.44710  -73.81850   33.95510   30.48280 1479.65930 1515.47630
 4709.00000   13.93700   50.24540  197.33840   94.60970   15.37490    0.06250   -0.05520    3.00510    0.00950    9.14610 2229.17140    2.80450   10.91210  -73.60950   41.93660   34.92250  544.93540 1516.72740
 4709.50000   14.39390   49.55310  200.88460   93.65470   15.08160    0.06110   -0.05590    3.06450    0.00760    9.15020 2229.99100    2.80570   11.29760  -73.70480   51.41730   41.68290   94.27190 1516.10270
 4710.00000   13.87990   49.34850  200.46100   93.34060   12.58410    0.05810   -0.06010    3.17200    0.00600    9.15430 2232.91020    2.81290   10.70160  -73.86760   56.13710   50.42990  128.67170 1515.47780
 4710.50000   11.26280   49.50160  197.88820   92.78760    9.20340    0.05300   -0.06700    3.25550    0.00440    9.15800 2237.13230    2.82460   11.12910  -73.93180   54.82270   61.08240  272.56710 1514.87850
