~Version ---------------------------------------------------
VERS.   2.0 : CWLS log ASCII Standard -VERSION 2.0
WRAP.    NO : One line per depth step
DLM . SPACE : Column Data Section Delimiter
~Well ------------------------------------------------------
STRT .F                  148.0 : START DEPTH
STOP .F                 9028.0 : STOP DEPTH
STEP .F                    0.5 : STEP
NULL .                -9999.25 : NULL VALUE
COMP .                         : COMPANY
WELL .                         : WELL
FLD  .                         : FIELD
LOC  .                         : LOCATION
PROV .                         : PROVINCE
CNTY .                         : COUNTY
STAT .                         : STATE
CTRY .                         : COUNTRY
SRVC .                         : SERVICE COMPANY
DATE .                         : DATE
UWI  .                         : UNIQUE WELL ID
API  .                         : API NUMBER
SLAT .WGS84 2.8148881094058993 : SURFACE LATITUDE
SLON .WGS84  6.662970019962003 : SURFACE LONGITUDE
DATUM.F                2959.87 : DEPTH DATUM ELEV
~Curve Information -----------------------------------------
DEPT   .F     : 
GRS    .GAPI  : GAMMA RAY FROM SONIC LOG
DTCO   .US/F  : DELTA-T COMPRESSIONAL
DTST   .US/F  : DELTA-T STONELEY - MONOPOLE STONELEY
DTSM   .US/F  : DELTA-T SHEAR
GRD    .GAPI  : GAMMA RAY FROM DENSITY LOG
NPHI_LS.DEC   : NEUTRON POROSITY LIMESTONE
DPHI_LS.DEC   : DENSITY POROSITY LIMESTONE
PEF    .B/E   : PHOTOELECTRIC FACTOR
DRHO   .G/C3  : BULK DENSITY CORRECTION
CALD   .IN    : CALIPER FROM DENSITY LOG
TEND   .LB    : TENSION FROM DENSITY LOG
RHOB   .G/C3  : BULK DENSITY
GRR    .GAPI  : GAMMA RAY FROM RESISTIVITY LOG
SPR    .MV    : SPONTANEOUS POTENTIAL FROM RESISTIVITY LOG
ILD    .OHMM  : INDUCTION DEEP RESISTIVITY
ILM    .OHMM  : INDUCTION MEDIUM RESISTIVITY
SFLU   .OHMM  : SHALLOW FOCUSED RESISTIVITY (UNAVERAGED)
TENR   .LB    : TENSION FROM RESISTIVITY LOG
~Params ----------------------------------------------------
~Other -----------------------------------------------------
~ASCII -----------------------------------------------------
# ...
 5900.50000   41.95160   62.65550  198.19900  114.76180   42.43520    0.10510    0.03570    4.26800    0.00070    9.05800 2387.78490    2.64900   44.02980  -94.80380   20.73790   18.81630   43.40980 1875.80430
 5901.00000   40.85410   62.96280  198.05720  113.94750   40.66020    0.09900    0.03580    4.42490    0.00000    9.05800 2392.52050    2.64870   44.39080  -93.60300   20.76150   18.98390   56.12480 1874.24940
 5901.50000   40.75850   62.30710  197.71410  113.13310   40.37680    0.09510    0.03520    4.47680    0.00550    9.05800 2401.73290    2.64990   46.33830  -91.78050   20.78520   18.88020   62.00010 1872.69450
 5902.00000   41.39540   61.30730  197.36910  112.40720   40.77090    0.09640    0.03340    4.43550    0.01430    9.05340 2380.16210    2.65280   46.54000  -90.78750   21.28350   18.30570   51.04380 1869.29550
 5902.50000   41.76200   60.40470  197.21740  112.48980   41.27180    0.09890    0.03260    4.31270    0.02220    9.04370 2364.51930    2.65420   45.65170  -90.08020   22.06130   18.39550   33.83430 1873.81850
 5903.00000   40.74170   60.49930  197.16610  112.57230   40.97000    0.10150    0.03620    4.25030    0.01540    9.03390 2368.31930    2.64830   45.42750  -91.07690   22.79740   18.76870   28.64310 1879.38480
 5903.50000   39.21760   60.75450  197.20210  112.65480   39.92860    0.10410    0.04160    4.21410    0.00390    9.02410 2390.64940    2.63890   46.02400  -92.12650   23.55800   19.16660   32.38830 1878.50600
 5904.00000   38.45650   60.59710  197.23820  112.41080   38.90340    0.10450    0.04390    4.14340    0.00120    9.01430 2390.69820    2.63500   47.09950  -92.44190   23.66400   20.06360   38.60400 1878.50600
 5904.50000   38.09150   60.12160  197.27420  111.94780   38.17700    0.10140    0.04140    4.02810    0.00010    9.00450 2361.36350    2.63920   47.44410  -91.42010   23.65060   21.00260   46.69030 1877.35720
 5905.00000   37.72550   60.31760  197.30890  111.55770   38.59520    0.09820    0.03620    4.05990    0.00200    8.99480 2388.41530    2.64800   46.24350  -90.30020   24.54500   21.82770   56.83730 1879.02710
 5905.50000   36.87940   60.57300  197.31480  111.46760   39.42950    0.09190    0.03120    4.22300    0.00460    8.98500 2406.64650    2.65670   44.76110  -90.02940   25.55920   22.67660   71.63640 1878.85030
 5906.00000   36.51870   60.74560  197.32070  111.81650   38.10950    0.08950    0.02620    4.41580    0.00490    8.97520 2381.73490    2.66390   43.01100  -90.60440   27.12050   23.94730   79.45080 1877.98790
 5906.50000   36.13630   60.78150  197.27950  111.74190   34.80390    0.08710    0.02150    4.41470    0.00470    8.96540 2366.83640    2.67070   41.07850  -92.74390   28.93810   25.93810   90.92600 1876.09310
 5907.00000   35.25290   60.20290  197.18010  110.85340   32.88350    0.08090    0.01550    4.35850    0.00480    8.95980 2399.04570    2.67760   37.85420  -94.03190   30.73240   28.28730  112.63740 1877.60560
 5907.50000   34.51770   59.60530  197.03450  108.70580   34.08170    0.07000    0.01050    4.32610    0.00560    8.95800 2387.33540    2.68440   36.12570  -94.59580   31.37560   30.73710  138.17900 1879.17910
 5908.00000   35.03970   58.53930  197.01930  107.34760   37.92060    0.06380    0.00860    4.32640    0.00650    8.95630 2373.74020    2.69130   36.96380  -94.42620   32.47320   31.02650  159.67210 1881.65700
 5908.50000   37.31520   57.31790  197.22230  106.00380   41.98400    0.06800    0.01090    4.33930    0.00620    8.95460 2386.50390    2.69190   41.44040  -94.25650   33.66290   28.28160  123.45460 1882.33470
 5909.00000   40.69120   57.53150  197.45520  106.34470   44.67690    0.08670    0.01410    4.44770    0.00560    8.95290 2413.62180    2.68890   46.05710  -93.94250   35.20650   26.96550   87.13050 1879.66280
 5909.50000   43.00320   58.09040  197.58750  107.62610   42.63540    0.10510    0.01470    4.64550    0.00510    8.95120 2374.98190    2.68600   47.08560  -93.61940   37.55120   28.23440   58.84230 1875.34220
 5910.00000   41.87010   58.64930  197.43890  108.56350   39.82770    0.10680    0.01440    4.77120    0.00450    8.94950 2383.77710    2.68540   43.78030  -95.32410   38.40500   30.25630   64.43550 1876.90630
 5910.50000   39.87000   58.76150  197.26000  108.13530   37.20110    0.09470    0.01450    4.60950    0.00400    8.94780 2402.16090    2.68520   38.16430  -97.17990   36.80390   31.69400   83.72700 1878.83630
 5911.00000   40.43710   58.59680  197.05100  107.39350   35.79610    0.07420    0.01640    4.42430    0.00340    8.94610 2393.31300    2.68190   34.96550  -96.24950   35.25320   32.86570  120.12060 1878.98930
 5911.50000   41.56930   57.46970  196.85420  106.65180   35.72750    0.06410    0.01840    4.31710    0.00390    8.94430 2366.94480    2.67850   33.15800  -94.63540   34.27350   33.21860  120.02920 1878.61560
 5912.00000   42.82540   56.18100  197.24230  106.01200   37.88890    0.06180    0.01850    4.27360    0.00450    8.94260 2416.70950    2.67830   35.07230  -94.60350   34.74050   32.49130   85.35490 1878.61560
 5912.50000   44.21590   56.57430  197.41740  105.91480   41.95280    0.07070    0.01870    4.29750    0.00590    8.94090 2419.64310    2.67790   37.92530  -94.62190   35.11160   29.40990   52.16010 1880.42650
 5913.00000   45.42520   57.11800  197.50960  106.50410   45.85790    0.08290    0.02110    4.48060    0.00830    8.93920 2402.26640    2.67660   41.00360  -94.28050   34.81370   27.29010   41.21800 1877.89730
 5913.50000   46.18110   57.66170  197.62780  107.28570   44.91280    0.09140    0.02420    4.67970    0.01100    8.93750 2372.86840    2.67410   42.67220  -92.23510   34.51840   27.10490   33.84200 1878.38430
 5914.00000   43.86030   58.20530  197.74590  108.06720   39.60460    0.08900    0.02770    4.87980    0.00770    8.92810 2389.80910    2.66790   40.16590  -90.18980   34.00520   28.60850   34.51250 1878.87120
 5914.50000   39.12120   58.74900  197.86410  108.81110   34.69680    0.08150    0.03040    4.96130    0.00400    8.91100 2409.50100    2.66270   37.74660  -90.08700   33.38980   28.95880   43.65250 1879.35820
 5915.00000   36.57320   58.90830  197.90130  109.28420   31.64920    0.07210    0.03320    4.72790    0.00040    8.89390 2404.12620    2.65740   35.55610  -89.99080   32.87230   27.13170   56.05840 1879.84510
 5915.50000   36.77890   58.90170  197.75190  109.19890   32.05370    0.07180    0.03680    4.63590   -0.00030    8.87680 2406.58200    2.65220   35.76670  -90.98920   32.79490   26.03540   68.04140 1879.13390
 5916.00000   37.31820   58.79200  197.18810  108.41540   33.36970    0.07410    0.03930    4.82030   -0.00110    8.85900 2411.32200    2.64630   37.20820  -91.30960   33.83080   26.89220   66.33030 1877.37400
 5916.50000   37.31390   58.68240  196.92930  107.63200   34.67800    0.06980    0.04150    5.00780   -0.00220    8.84810 2403.96900    2.64180   37.11700  -90.50530   34.76340   28.72860   68.24750 1879.03750
 5917.00000   36.52460   58.30510  197.76540  107.43180   36.47970    0.06280    0.04420    5.02700   -0.00330    8.84160 2373.86180    2.63750   36.27810  -90.08550   35.58680   30.69040   81.21910 1878.93330
 5917.50000   36.34570   57.90060  197.52210  107.70470   38.12410    0.06050    0.04900    4.82060   -0.00330    8.84060 2369.91280    2.63320   36.14080  -89.98200   36.95890   30.06710   94.85670 1878.72660
 5918.00000   36.33980   57.49600  197.87370  107.56850   37.46770    0.06400    0.05080    4.38530   -0.00240    8.84050 2374.69380    2.62600   36.54910  -89.98380   38.88810   29.33590   82.49330 1878.89330
 5918.50000   36.27460   57.16430  197.76920  106.73140   36.08440    0.06720    0.04780    4.10270   -0.00150    8.84070 2375.86690    2.61990   38.99040  -90.00320   40.91790   31.16970   74.61080 1880.58640
 5919.00000   34.73610   57.44550  197.62130  106.83560   34.29910    0.06830    0.04080    4.08440   -0.00020    8.83970 2382.33720    2.62260   39.59060  -90.09400   42.68200   34.90910   80.31190 1878.47280
 5919.50000   31.69990   58.16550  197.54560  107.16300   32.07360    0.06350    0.03570    4.22670    0.00120    8.83510 2408.76120    2.63340   37.36410  -90.80530   44.44310   37.51390  105.73630 1878.93730
