~Version ---------------------------------------------------
VERS.   2.0 : CWLS log ASCII Standard -VERSION 2.0
WRAP.    NO : One line per depth step
DLM . SPACE : Column Data Section Delimiter
~Well ------------------------------------------------------
STRT .F                  148.0 : START DEPTH
STOP .F                 9028.0 : STOP DEPTH
STEP .F                    0.5 : STEP
NULL .                -9999.25 : NULL VALUE
COMP .                         : COMPANY
WELL .                         : WELL
FLD  .                         : FIELD
LOC  .                         : LOCATION
PROV .                         : PROVINCE
CNTY .                         : COUNTY
STAT .                         : STATE
CTRY .                         : COUNTRY
SRVC .                         : SERVICE COMPANY
DATE .                         : DATE
UWI  .                         : UNIQUE WELL ID
API  .                         : API NUMBER
SLAT .WGS84 2.8148881094058993 : SURFACE LATITUDE
SLON .WGS84  6.662970019962003 : SURFACE LONGITUDE
DATUM.F                2959.87 : DEPTH DATUM ELEV
~Curve Information -----------------------------------------
DEPT   .F     : 
GRS    .GAPI  : GAMMA RAY FROM SONIC LOG
DTCO   .US/F  : DELTA-T COMPRESSIONAL
DTST   .US/F  : DELTA-T STONELEY - MONOPOLE STONELEY
DTSM   .US/F  : DELTA-T SHEAR
GRD    .GAPI  : GAMMA RAY FROM DENSITY LOG
NPHI_LS.DEC   : NEUTRON POROSITY LIMESTONE
DPHI_LS.DEC   : DENSITY POROSITY LIMESTONE
PEF    .B/E   : PHOTOELECTRIC FACTOR
DRHO   .G/C3  : BULK DENSITY CORRECTION
CALD   .IN    : CALIPER FROM DENSITY LOG
TEND   .LB    : TENSION FROM DENSITY LOG
RHOB   .G/C3  : BULK DENSITY
GRR    .GAPI  : GAMMA RAY FROM RESISTIVITY LOG
SPR    .MV    : SPONTANEOUS POTENTIAL FROM RESISTIVITY LOG
ILD    .OHMM  : INDUCTION DEEP RESISTIVITY
ILM    .OHMM  : INDUCTION MEDIUM RESISTIVITY
SFLU   .OHMM  : SHALLOW FOCUSED RESISTIVITY (UNAVERAGED)
TENR   .LB    : TENSION FROM RESISTIVITY LOG
~Params ----------------------------------------------------
~Other -----------------------------------------------------
~ASCII -----------------------------------------------------
# ...
 6524.50000   27.62330   53.04320  196.69370   97.24340   28.34670    0.03760    0.05820    4.17940   -0.00400    8.63610 2723.59060    2.61040   29.50800  -96.60450  194.94480  116.44720 1429.33630 2004.92720
 6525.00000   32.85070   54.88130  197.02380   98.22200   35.86690    0.05420    0.06220    4.12780    0.00190    8.64250 2723.74660    2.60360   33.22430  -95.94690  176.86450   99.57570  561.11980 2004.57370
 6525.50000   36.68490   56.25830  197.30850  100.54600   40.88970    0.07770    0.06220    3.97990    0.00780    8.65380 2712.14870    2.60360   35.73140  -95.23790  160.46110   88.37850  182.19520 2004.22010
 6526.00000   37.10070   57.88080  197.33820  103.43840   41.79420    0.09380    0.06080    3.91320    0.00820    8.66790 2724.80690    2.60600   36.87310  -94.45120  145.57900   91.02170  153.57970 2003.86660
 6526.50000   37.19450   59.29490  197.35400  106.14050   39.44740    0.10440    0.06020    4.10970    0.00830    8.68500 2749.94970    2.60690   37.80860  -93.66450  132.07720   95.71020  170.23540 2003.51290
 6527.00000   37.13330   59.80080  197.20210  107.12480   36.83610    0.10560    0.06340    4.38320    0.00300    8.70200 2737.12080    2.60140   38.71190  -92.84650  119.82760   94.20500  209.11550 2003.15940
 6527.50000   38.20800   60.34200  197.03530  107.61820   37.26700    0.10300    0.07370    4.62090   -0.00370    8.70660 2694.59400    2.58380   39.88600  -92.17740  107.94500   86.13550  245.58500 2003.54860
 6528.00000   42.45240   60.95190  197.02510  108.31200   42.55000    0.10820    0.08540    4.39880   -0.00820    8.70540 2716.29390    2.56420   44.38980  -91.50830   97.73340   78.13220  231.50380 2004.72230
 6528.50000   49.00770   61.91740  197.27140  110.35290   53.29370    0.11900    0.09410    4.00850   -0.00710    8.70430 2742.26730    2.54910   50.47390  -90.83910   89.98840   70.16500  200.06680 2005.89600
 6529.00000   58.67040   64.05740  197.40970  113.56450   64.70400    0.14240    0.09950    3.76860   -0.00380    8.70730 2713.07980    2.53990   59.61660  -90.16660   86.13740   62.00750  162.85280 2007.06970
 6529.50000   63.99410   65.44360  197.41760  116.19580   72.55680    0.17150    0.09970    3.75030   -0.00030    8.70410 2686.77930    2.53960   65.64330  -89.10540   83.84420   59.57330  135.07670 2008.24350
 6530.00000   66.14640   66.82980  197.27540  118.05310   68.41560    0.19410    0.08820    3.88940    0.00280    8.70310 2708.56180    2.55920   69.58990  -88.04430   81.61200   59.95200  122.22000 2009.41720
 6530.50000   60.07700   68.25330  197.05170  118.80290   59.42180    0.18630    0.06920    4.04630    0.00280    8.69950 2730.34400    2.60410   60.19700  -86.98320   80.92810   63.63000  126.90790 2010.59090
 6531.00000   47.96570   68.59020  196.75700  117.82260   46.02090    0.16540    0.05200    4.20280    0.00280    8.68570 2688.10400    2.62320   47.58200  -86.95940   81.80580   68.65450  169.87010 2011.76460
 6531.50000   37.74110   67.63220  196.46230  114.01950   33.34390    0.13040    0.04100    4.31100    0.00280    8.67190 2647.50270    2.63990   38.64670  -88.24800   83.00350   73.89720  279.44460 2012.93840
 6532.00000   28.24680   63.45210  196.16770  109.22590   28.04030    0.10150    0.03340    4.35610    0.00340    8.65810 2707.27470    2.65280   30.81970  -90.46950   87.60260   78.84730  545.07930 2014.11210
 6532.50000   22.23710   60.29850  195.87120  105.21360   23.87390    0.07750    0.02810    4.31500    0.00560    8.64430 2732.44460    2.66180   25.15020  -91.71040   92.75310   84.10260 1037.29900 2015.28580
 6533.00000   20.27370   57.19950  196.05340  103.43720   21.52580    0.06380    0.02380    4.27070    0.00720    8.63650 2670.34960    2.66920   23.03560  -91.85590  104.67520   89.71760 1639.72680 2016.45950
 6533.50000   20.11240   56.34770  196.22620  101.67730   21.42290    0.05800    0.02580    4.29080    0.00610    8.62840 2660.64790    2.66580   25.40580  -91.49890  119.30310   95.70750 2013.24400 2017.63320
 6534.00000   20.03090   55.57630  196.24170  100.80080   23.40610    0.05870    0.03110    4.29180    0.00280    8.62880 2697.69510    2.65680   29.15560  -91.29530  148.24340  102.09730 2009.53610 2018.80700
 6534.50000   22.81870   55.29560  196.05060  101.04210   25.45870    0.06240    0.04030    4.24150   -0.00080    8.62920 2703.19800    2.64110   31.62750  -92.02700  170.69920  113.32190 1972.93100 2019.98070
 6535.00000   24.79380   55.35640  195.74300  101.65990   25.66020    0.06640    0.04540    4.19080   -0.00420    8.62950 2668.74050    2.63240   30.37130  -92.58270  194.80600  132.57710 1944.70350 2021.15440
 6535.50000   24.48690   55.04020  195.88190  102.08990   23.26730    0.06390    0.04230    4.31640   -0.00770    8.62990 2670.57010    2.63770   26.67150  -92.77740  208.73470  165.31250 1965.99190 2022.32810
 6536.00000   21.76920   54.72410  196.02090  101.53810   20.40290    0.05330    0.03610    4.46080   -0.01050    8.63030 2699.12570    2.64830   22.40550  -92.64750  198.53120  205.54720 1991.59830 2023.50180
 6536.50000   18.57310   54.40790  196.15990  100.70800   19.62060    0.04110    0.03200    4.43500   -0.01050    8.62970 2718.89770    2.65530   20.82720  -92.42000  181.98050  196.92440 2000.98580 2024.67550
 6537.00000   20.80980   53.93510  196.29890   99.62210   24.71440    0.04100    0.03860    4.27570   -0.00520    8.62720 2684.27710    2.64410   22.81910  -91.91660  168.55890  163.81050 1952.79570 2025.84920
 6537.50000   29.48090   53.80040  196.40760   98.93450   34.34370    0.06130    0.04700    4.23880    0.00030    8.62460 2685.57930    2.62960   30.38020  -91.41040  157.05620  123.72880 1511.63660 2027.02290
 6538.00000   39.35620   55.06390  196.51410  102.14600   39.83770    0.09590    0.05480    4.43790    0.00580    8.62200 2699.00510    2.61620   42.18290  -91.50350  156.19560   99.31820 1116.62870 2028.19670
 6538.50000   47.23950   56.68080  196.82380  105.26910   42.48470    0.12980    0.06250    4.70220    0.00410    8.61950 2709.02690    2.60310   48.04040  -92.19090  160.22010  102.92190  264.79370 2029.37040
 6539.00000   44.94160   57.67560  197.27660  106.98540   37.29780    0.14860    0.06580    4.69700    0.00110    8.61690 2692.92460    2.59750   46.10800  -92.47060  154.93290  115.88370  219.85130 2030.54420
 6539.50000   40.29140   58.84010  197.41100  107.78290   33.93650    0.13600    0.06960    4.48830   -0.00180    8.61440 2674.76000    2.59090   39.48480  -92.65580  143.72240  125.47700  405.94980 2031.71790
 6540.00000   39.34670   60.43600  197.43100  108.58050   38.11930    0.12030    0.08110    4.28130   -0.00380    8.61180 2704.04030    2.56750   44.02950  -92.84090  134.73790  120.56310  885.02040 2032.89160
 6540.50000   48.86590   61.85710  197.40410  109.69920   47.62730    0.11600    0.09120    4.19150   -0.00390    8.60920 2732.68190    2.54680   54.06550  -93.02600  128.37660  116.83550 1767.29960 2034.06530
 6541.00000   56.59520   62.30500  197.33990  111.37840   54.95550    0.14110    0.09770    4.15840   -0.00300    8.60670 2712.31010    2.54710   62.02070  -93.21120  136.07680  119.09200 2024.88590 2035.23900
 6541.50000   56.50320   62.75290  197.37310  112.75020   56.38500    0.15490    0.09350    4.13060   -0.00280    8.58840 2694.43330    2.55380   59.92150  -93.39630  147.85930  125.51280 2064.80910 2036.41270
 6542.00000   47.65890   63.20090  197.20400  112.75780   50.37110    0.14940    0.08480    4.03530   -0.00390    8.58370 2707.67850    2.57160   48.14770  -93.58140  159.68810  132.27970 2048.21880 2037.58640
 6542.50000   38.98020   63.64880  197.00940  112.31300   41.30890    0.12730    0.06990    3.99360   -0.00500    8.57900 2708.94480    2.58940   40.22420  -93.76660  172.46310  136.15650 1924.10730 2038.76010
 6543.00000   32.90640   64.09670  196.81480  111.41120   33.91460    0.10720    0.05870    4.15220   -0.00190    8.57430 2672.11400    2.60950   36.15340  -93.95170  177.26830  136.92480 1760.36160 2039.93380
 6543.50000   30.14970   62.91120  196.58380  109.19540   29.64990    0.09580    0.05140    4.40320   -0.00020    8.56960 2687.21610    2.62210   35.07060  -94.24220  177.83300  137.69730 1745.49100 2041.10770
