~Version ---------------------------------------------------
VERS.   2.0 : CWLS log ASCII Standard -VERSION 2.0
WRAP.    NO : One line per depth step
DLM . SPACE : Column Data Section Delimiter
~Well ------------------------------------------------------
STRT .F                  148.0 : START DEPTH
STOP .F                 9028.0 : STOP DEPTH
STEP .F                    0.5 : STEP
NULL .                -9999.25 : NULL VALUE
COMP .                         : COMPANY
WELL .                         : WELL
FLD  .                         : FIELD
LOC  .                         : LOCATION
PROV .                         : PROVINCE
CNTY .                         : COUNTY
STAT .                         : STATE
CTRY .                         : COUNTRY
SRVC .                         : SERVICE COMPANY
DATE .                         : DATE
UWI  .                         : UNIQUE WELL ID
API  .                         : API NUMBER
SLAT .WGS84 2.8148881094058993 : SURFACE LATITUDE
SLON .WGS84  6.662970019962003 : SURFACE LONGITUDE
DATUM.F                2959.87 : DEPTH DATUM ELEV
~Curve Information -----------------------------------------
DEPT   .F     : 
GRS    .GAPI  : GAMMA RAY FROM SONIC LOG
DTCO   .US/F  : DELTA-T COMPRESSIONAL
DTST   .US/F  : DELTA-T STONELEY - MONOPOLE STONELEY
DTSM   .US/F  : DELTA-T SHEAR
GRD    .GAPI  : GAMMA RAY FROM DENSITY LOG
NPHI_LS.DEC   : NEUTRON POROSITY LIMESTONE
DPHI_LS.DEC   : DENSITY POROSITY LIMESTONE
PEF    .B/E   : PHOTOELECTRIC FACTOR
DRHO   .G/C3  : BULK DENSITY CORRECTION
CALD   .IN    : CALIPER FROM DENSITY LOG
TEND   .LB    : TENSION FROM DENSITY LOG
RHOB   .G/C3  : BULK DENSITY
GRR    .GAPI  : GAMMA RAY FROM RESISTIVITY LOG
SPR    .MV    : SPONTANEOUS POTENTIAL FROM RESISTIVITY LOG
ILD    .OHMM  : INDUCTION DEEP RESISTIVITY
ILM    .OHMM  : INDUCTION MEDIUM RESISTIVITY
SFLU   .OHMM  : SHALLOW FOCUSED RESISTIVITY (UNAVERAGED)
TENR   .LB    : TENSION FROM RESISTIVITY LOG
~Params ----------------------------------------------------
~Other -----------------------------------------------------
~ASCII -----------------------------------------------------
# ...
 7129.00000   33.44470   63.33950  203.44280  107.30690   34.80730    0.15930    0.13890    2.44490    0.01440    8.39980 3166.78030    2.46730   33.66880  -77.99520   42.52230   15.39660   71.48950 2200.19210
 7129.50000   33.49240   63.53140  202.63320  107.43600   38.57590    0.17200    0.14310    2.40400    0.01350    8.38080 3211.81100    2.46740   36.65080  -76.92640   42.53260   14.39020   63.68550 2195.34620
 7130.00000   35.24110   64.89200  201.88560  107.58910   41.71960    0.17870    0.14150    2.43480    0.01310    8.32950 3240.11990    2.47330   42.15760  -75.85760   40.79890   13.55770   67.98480 2186.85230
 7130.50000   38.90720   64.73410  202.92210  108.04540   45.02130    0.18720    0.13650    2.47850    0.01280    8.27560 3207.37110    2.47970   46.64460  -74.78870   39.22920   13.08870   70.33670 2178.35860
 7131.00000   42.21890   65.05130  205.27860  109.46190   47.20640    0.20300    0.13160    2.63820    0.01620    8.22170 3150.07100    2.49230   51.14880  -75.20720   37.17970   14.24000   61.87830 2179.27540
 7131.50000   45.34370   66.59260  205.64730  111.89930   46.06430    0.21360    0.12040    2.84350    0.02560    8.20210 3131.61990    2.51440   52.91950  -77.26960   36.08540   17.22990   57.73200 2180.25680
 7132.00000   45.75570   69.10370  204.59410  113.75100   40.20050    0.20170    0.10480    3.10420    0.04360    8.22690 3185.70040    2.53180   49.50620  -80.16900   35.02340   20.57640   54.40480 2179.63940
 7132.50000   41.74350   69.71450  203.23300  113.83820   32.22730    0.17980    0.10090    3.22670    0.06310    8.33220 3216.20120    2.53640   43.38490  -81.38980   35.23390   24.33250   52.79390 2177.89180
 7133.00000   36.48390   69.71450  201.87190  113.29810   27.12720    0.15050    0.09900    3.14270    0.10620    8.44430 3188.36040    2.54080   31.58970  -80.75480   35.91890   28.30200   52.79460 2176.89750
 7133.50000   31.09580   68.36280  200.37070  112.31970   27.69090    0.13230    0.08550    3.01970    0.17390    8.54610 3171.05690    2.57870   28.00200  -79.71770   37.94990   35.88760   65.09090 2175.90310
 7134.00000   27.08040   66.27510  198.75540  111.23340   32.40270    0.14220    0.05360    2.89810    0.25970    8.57270 3185.81450    2.63330   31.64860  -78.68060   40.18350   45.94350   89.41510 2197.79170
 7134.50000   30.11030   64.72310  197.84870  110.07070   37.50720    0.16620    0.02500    2.87310    0.29100    8.51970 3197.15430    2.66720   36.53820  -77.74610   42.81670   52.17020   98.73180 2196.98140
 7135.00000   36.46310   64.75490  198.05400  110.37800   40.51420    0.17950    0.03690    2.83970    0.22030    8.46290 3180.55690    2.64680   41.50760  -77.46140   45.62590   56.37990   78.18990 2185.61720
 7135.50000   42.33690   65.14150  199.03200  113.02280   42.43140    0.17220    0.07410    2.79560    0.13180    8.43450 3154.06490    2.58050   43.70330  -78.94030   46.28400   59.59010   62.20480 2180.75630
 7136.00000   41.31770   66.90140  199.37390  113.68700   45.10800    0.15990    0.10280    2.63640    0.06210    8.47700 3178.57400    2.53400   42.49790  -78.78360   44.11610   60.05720   55.75060 2180.75630
 7136.50000   38.63240   68.64340  199.13630  113.96970   48.98320    0.15790    0.11830    2.52980    0.00840    8.58040 3218.80420    2.50780   41.77750  -77.23350   42.04990   54.75820   57.50530 2180.75630
 7137.00000   41.34620   70.16270  198.49670  114.15040   50.31380    0.17290    0.11840    2.54470    0.00220    8.68570 3256.90800    2.50750   44.96290  -75.63210   39.95670   46.89500   51.63560 2180.73190
 7137.50000   45.88640   70.60790  198.25380  114.36070   49.86880    0.18970    0.11440    2.66970    0.00040    8.82360 3219.05100    2.51440   46.81530  -75.01260   39.10180   40.60840   41.99290 2180.67530
 7138.00000   49.57040   69.75040  198.19880  114.57110   45.93070    0.19470    0.10990    2.90290   -0.00080    9.03490 3167.63790    2.52200   46.89930  -74.39300   39.26050   35.45470   32.39200 2180.61890
 7138.50000   49.05610   69.11690  198.28950  114.67460   39.83770    0.19420    0.10530    3.10800   -0.00290    8.93110 3199.50200    2.52990   44.62820  -74.30680   39.45560   33.23020   27.97970 2180.99490
 7139.00000   45.85710   69.57170  198.29910  114.49690   33.74460    0.17970    0.10170    3.27060   -0.00280    8.63810 3256.04370    2.53610   42.18410  -74.27010   39.77820   38.09940   31.55520 2185.41260
 7139.50000   40.97260   69.69340  198.17310  114.02340   32.09980    0.15800    0.09890    3.33410   -0.00180    8.50320 3250.79810    2.54090   37.27780  -74.23340   40.10340   46.81140   44.42020 2189.83010
 7140.00000   35.01960   68.53410  198.07720  113.48940   39.05350    0.14100    0.10340    3.33380   -0.00010    8.50480 3243.70510    2.53310   33.36370  -73.43370   39.47900   50.16670   82.44600 2194.24760
 7140.50000   35.10270   67.59070  197.98520  113.11230   48.58690    0.15140    0.11110    3.32990    0.00120    8.51220 3250.35230    2.51990   33.64940  -72.38360   39.03720   47.70390  120.15850 2198.66500
 7141.00000   40.82790   67.68990  197.78730  112.98760   55.75470    0.18440    0.11600    3.33490   -0.00080    8.51950 3273.33760    2.51160   37.36800  -71.78160   39.22280   43.82910   97.92330 2203.08250
 7141.50000   48.03880   68.24490  197.57120  113.47070   56.58530    0.21010    0.11950    3.31010   -0.00350    8.52690 3244.23560    2.50570   45.69910  -71.74240   41.39780   41.07470   69.97460 2207.23630
 7142.00000   55.14490   68.81430  197.38330  115.71910   55.26420    0.21260    0.11810    3.28540   -0.00690    8.53430 3207.96830    2.50810   52.90490  -71.99700   43.64690   42.04530   60.88780 2205.00120
 7142.50000   54.71510   69.61100  197.23890  117.96740   53.00580    0.20290    0.11410    3.26060   -0.00650    8.54160 3192.19260    2.51490   56.12130  -72.46980   45.84160   44.49030   60.38990 2202.37480
 7143.00000   52.28800   70.34800  197.38280  120.21570   49.31310    0.18730    0.11140    3.24250   -0.00470    8.54220 3207.83280    2.51950   55.14450  -72.94270   47.86850   47.07740   66.73310 2200.91890
 7143.50000   49.42750   70.91950  197.50270  121.14260   45.02390    0.17480    0.11040    3.25350   -0.00210    8.53860 3198.58060    2.52110   52.41610  -74.23540   48.70130   49.81500   81.19400 2198.70920
 7144.00000   46.55590   70.28020  197.35590  121.37670   44.13280    0.16430    0.10900    3.30060    0.00080    8.53900 3182.12890    2.52360   50.58590  -75.40520   49.53070   52.50300  111.11210 2189.47270
 7144.50000   44.48840   69.10570  197.15660  121.15830   44.82360    0.16170    0.10120    3.38750    0.00380    8.54810 3175.53710    2.53690   49.24980  -76.52370   50.49230   55.30610  143.45270 2180.96260
 7145.00000   44.43910   69.09080  197.27110  120.52330   45.33770    0.15890    0.09250    3.52970    0.00680    8.55410 3245.01100    2.55180   48.85370  -77.79740   52.87660   59.74260  154.25910 2183.34790
 7145.50000   44.25870   69.34890  197.48660  119.33300   44.58960    0.15030    0.08680    3.65860    0.00900    8.54940 3214.16890    2.56150   48.22400  -79.03230   55.41980   72.88370  146.92240 2185.73340
 7146.00000   42.75030   69.72390  197.37220  118.36950   44.13940    0.13800    0.08730    3.66290    0.00740    8.55130 3180.37330    2.56080   44.98900  -81.56190   57.32330   79.84560  135.91560 2188.11870
 7146.50000   42.39350   69.91930  197.13780  118.01750   44.66090    0.13270    0.08950    3.65510    0.00580    8.54460 3168.34010    2.55680   43.46380  -81.61870   58.90120   79.40890  124.68450 2190.50420
 7147.00000   42.81820   69.70030  196.93990  117.65100   44.23280    0.13770    0.08880    3.65390    0.00420    8.53640 3213.14940    2.55820   45.59670  -80.20360   60.25220   66.48750  114.38140 2192.88940
 7147.50000   43.66300   69.24020  196.74330  117.10590   42.41210    0.14150    0.08670    3.66780    0.00260    8.53490 3237.47710    2.56170   47.71430  -78.68630   60.69420   65.39020  103.32340 2196.50880
 7148.00000   42.94510   68.53590  196.67970  116.43410   40.46850    0.13770    0.08510    3.63680    0.00220    8.53640 3210.33130    2.56450   49.41670  -78.41700   59.87720   64.31090   96.16050 2199.17550
