~Version ---------------------------------------------------
VERS.   2.0 : CWLS log ASCII Standard -VERSION 2.0
WRAP.    NO : One line per depth step
DLM . SPACE : Column Data Section Delimiter
~Well ------------------------------------------------------
STRT .F                  148.0 : START DEPTH
STOP .F                 9028.0 : STOP DEPTH
STEP .F                    0.5 : STEP
NULL .                -9999.25 : NULL VALUE
COMP .                         : COMPANY
WELL .                         : WELL
FLD  .                         : FIELD
LOC  .                         : LOCATION
PROV .                         : PROVINCE
CNTY .                         : COUNTY
STAT .                         : STATE
CTRY .                         : COUNTRY
SRVC .                         : SERVICE COMPANY
DATE .                         : DATE
UWI  .                         : UNIQUE WELL ID
API  .                         : API NUMBER
SLAT .WGS84 2.8148881094058993 : SURFACE LATITUDE
SLON .WGS84  6.662970019962003 : SURFACE LONGITUDE
DATUM.F                2959.87 : DEPTH DATUM ELEV
~Curve Information -----------------------------------------
DEPT   .F     : 
GRS    .GAPI  : GAMMA RAY FROM SONIC LOG
DTCO   .US/F  : DELTA-T COMPRESSIONAL
DTST   .US/F  : DELTA-T STONELEY - MONOPOLE STONELEY
DTSM   .US/F  : DELTA-T SHEAR
GRD    .GAPI  : GAMMA RAY FROM DENSITY LOG
NPHI_LS.DEC   : NEUTRON POROSITY LIMESTONE
DPHI_LS.DEC   : DENSITY POROSITY LIMESTONE
PEF    .B/E   : PHOTOELECTRIC FACTOR
DRHO   .G/C3  : BULK DENSITY CORRECTION
CALD   .IN    : CALIPER FROM DENSITY LOG
TEND   .LB    : TENSION FROM DENSITY LOG
RHOB   .G/C3  : BULK DENSITY
GRR    .GAPI  : GAMMA RAY FROM RESISTIVITY LOG
SPR    .MV    : SPONTANEOUS POTENTIAL FROM RESISTIVITY LOG
ILD    .OHMM  : INDUCTION DEEP RESISTIVITY
ILM    .OHMM  : INDUCTION MEDIUM RESISTIVITY
SFLU   .OHMM  : SHALLOW FOCUSED RESISTIVITY (UNAVERAGED)
TENR   .LB    : TENSION FROM RESISTIVITY LOG
~Params ----------------------------------------------------
~Other -----------------------------------------------------
~ASCII -----------------------------------------------------
# ...
 8357.50000  116.10290   77.21840  197.36810  127.36840  116.76570    0.25400    0.14470    3.12340   -0.00120    8.46280 3234.55420    2.46350  126.73970  -16.76800   66.14370   72.76380 1844.30160 2581.69650
 8358.00000  114.43370   79.76650  197.41050  131.13580  118.43840    0.26870    0.14180    3.21000    0.00110    8.46340 3236.98750    2.46230  122.83500  -16.52500   83.11290   88.70840 1996.67900 2580.56400
 8358.50000  107.68160   80.99480  197.45290  130.91760  116.13680    0.27610    0.13300    3.37480    0.00430    8.46400 3237.89060    2.46930  115.62680  -16.24550   99.83720  106.71530 2007.02360 2579.43160
 8359.00000   99.88240   79.63470  197.41880  127.77870  107.72420    0.25720    0.12080    3.56400    0.00340    8.46450 3235.66040    2.49600  101.56860  -16.13910  118.39000  125.26260 2009.31210 2578.29930
 8359.50000   87.30700   76.19620  197.08090  124.63980   94.56720    0.21270    0.10620    3.66870    0.00120    8.46850 3233.43020    2.52480   91.57530  -16.33010  137.24580  142.87450 2011.60350 2577.16670
 8360.00000   78.18280   74.07790  196.74300  121.99180   86.65920    0.17870    0.09960    3.66210   -0.00020    8.45680 3231.19970    2.53970   85.72790  -16.28820  144.68440  162.49720 2013.89730 2576.03440
 8360.50000   79.40410   70.98700  196.40520  119.47330   84.22920    0.17140    0.10170    3.54390   -0.00070    8.45370 3228.96950    2.53610   82.71390  -16.32060  149.53160  166.03470 2010.22020 2574.90190
 8361.00000   87.91710   70.92360  196.06730  118.87990   89.37670    0.18490    0.10590    3.41680   -0.00090    8.46640 3226.73930    2.52900   85.16270  -16.40770  150.83060  157.28080 1990.70730 2573.76950
 8361.50000   92.50680   71.70410  195.78450  119.28650   93.97460    0.20510    0.10690    3.37450   -0.00060    8.46790 3224.50880    2.52720   89.63780  -16.65100  149.83220  145.40320 1760.11430 2572.63720
 8362.00000   92.72760   72.72800  196.61860  120.45950   96.27110    0.21370    0.10490    3.40420   -0.00050    8.46040 3222.27860    2.53060   90.51130  -16.64590  145.70620  134.42260 1473.24460 2571.50460
 8362.50000   93.47170   73.50900  197.36130  121.63550   99.00790    0.21830    0.10460    3.44070   -0.00090    8.45500 3220.04830    2.53110   90.44400  -16.78830  140.61050  132.99810  685.99220 2570.37230
 8363.00000   96.99330   73.99390  197.48730  122.43580  104.68150    0.22050    0.11250    3.31960   -0.00130    8.46520 3217.81790    2.51750   96.36990  -16.95640  130.35070  135.75580  535.84200 2569.23970
 8363.50000  104.98990   74.08640  197.47430  123.49540  114.02830    0.22840    0.12580    3.12160   -0.00160    8.45360 3215.58760    2.49510  107.65680  -16.61280  120.51640  137.76200  884.51290 2568.10740
 8364.00000  109.07510   74.65350  197.53000  124.39180  120.76720    0.23420    0.13690    2.90640   -0.00150    8.46110 3216.34740    2.47630  117.76410  -16.26910  110.07710  133.07920 1554.48140 2566.97490
 8364.50000  108.66730   74.68140  197.91820  126.30300  117.97670    0.23940    0.13670    2.81460   -0.00110    8.46660 3220.68750    2.47620  119.53240  -16.09770  108.13960  108.23110 1602.12600 2565.84250
 8365.00000  105.48330   73.41980  197.84450  125.57970  110.54600    0.23910    0.12750    2.84790   -0.00080    8.46360 3225.02780    2.49200  114.73840  -16.06350  107.90670  101.36690  824.51620 2564.63040
 8365.50000  101.31830   71.54440  197.02810  122.56880   99.34770    0.23300    0.11430    2.96930   -0.00040    8.46220 3229.36790    2.51440  112.43250  -16.02930  107.91260   94.67390  379.81700 2557.73730
 8366.00000   96.83460   70.48680  196.59290  119.55790   89.32410    0.22220    0.10200    3.10520    0.00040    8.46080 3233.70830    2.53560  110.49790  -15.99510  109.89680   95.62840  351.81360 2561.00240
 8366.50000   95.02270   70.36700  196.33370  116.54700   90.90320    0.21090    0.09550    3.22310    0.00080    8.46190 3238.06150    2.54400  108.61370  -15.98900  112.50780  101.85320  666.87950 2561.29320
 8367.00000   95.73580   70.44220  196.27600  115.12000   93.39800    0.20030    0.10230    3.12930   -0.00170    8.46240 3242.67140    2.53430  106.20220  -15.98330  112.95010  109.71020 1236.13130 2561.58400
 8367.50000   98.21080   70.49700  196.21830  116.73820   97.51060    0.20060    0.11260    3.08460   -0.00400    8.46040 3247.28130    2.51730  105.01350  -15.95650  113.63760  117.79150 1426.39290 2561.87480
 8368.00000   99.64240   70.75140  196.82220  118.79170  101.72080    0.21390    0.12000    3.09490   -0.00400    8.45640 3251.89090    2.50410  104.16910  -15.93090  119.62050  126.47680 1017.37120 2562.16580
 8368.50000   97.21580   72.05380  196.92970  120.74760  100.86370    0.22860    0.11950    3.14880   -0.00400    8.45300 3256.50070    2.50500  100.42880  -15.91570  129.75480  134.50840  654.12710 2562.45650
 8369.00000   92.54720   72.67440  196.64270  122.48840   97.68400    0.23100    0.11770    3.17360   -0.00400    8.45320 3261.11060    2.50950   95.23660  -15.70010  137.55550  141.04600  893.87700 2562.74730
 8369.50000   91.50450   72.79860  196.42300  123.05940   96.75950    0.21910    0.11540    3.16960   -0.00240    8.45350 3265.70340    2.51360   88.80560  -15.48450  141.59570  147.90140 1415.63290 2563.03810
 8370.00000   91.37450   72.80080  196.15410  122.66120   97.58870    0.20450    0.11080    3.10340   -0.00070    8.45370 3270.29370    2.52050   83.42610  -15.42310  145.12220  153.33430 1901.33940 2563.32890
 8370.50000   90.99620   72.82410  196.11980  121.62640   99.16260    0.18740    0.10670    3.06480    0.00090    8.45390 3270.86400    2.52740   85.07280  -15.42510  148.69130  155.74630 1772.37130 2563.61960
 8371.00000   89.97540   72.89610  196.11650  120.53470   97.08260    0.18260    0.10690    3.04330    0.00250    8.45660 3270.34720    2.52720   87.60220  -15.42700  149.21290  154.57500 1438.31760 2563.91040
 8371.50000   89.02710   73.01140  196.11310  119.44310   93.88930    0.18240    0.10950    3.02180    0.00280    8.45950 3269.83030    2.52270   87.27410  -15.42890  146.68550  151.08350 1167.22580 2564.20120
 8372.00000   87.69810   73.43370  196.11530  118.69040   90.23400    0.18760    0.11000    2.95680    0.00240    8.45920 3269.31320    2.52190   83.21860  -15.43080  130.92310  137.47090  920.70730 2564.49190
 8372.50000   86.83090   72.68390  196.13110  119.04200   88.80760    0.19170    0.10740    2.89160    0.00240    8.45880 3268.79640    2.52630   84.10690  -15.43270  112.75430  117.89450  720.69670 2564.78270
 8373.00000   88.75930   71.21850  195.95810  119.92000   92.38460    0.19290    0.10370    2.79060    0.00220    8.46260 3268.27950    2.53260   89.91370  -15.43460   95.63980   99.20830  595.73390 2565.07350
 8373.50000   91.87160   70.62680  195.83420  120.43790   98.44170    0.19780    0.10240    2.73650    0.00140    8.46690 3267.76250    2.53490   94.72050  -15.43650   81.43560   81.49040  346.21550 2565.36430
 8374.00000   94.52310   71.97300  195.96120  120.43790  100.77060    0.20280    0.10070    2.76530    0.00060    8.47080 3267.24560    2.53790   96.86210  -15.43840   77.56980   67.99970  143.98340 2565.65500
 8374.50000   93.89140   72.95890  196.08820  120.33040   92.77540    0.20480    0.09380    2.90590   -0.00020    8.45880 3266.72880    2.54960   88.69540  -15.44040   74.07940   61.02700  101.16590 2565.94600
 8375.00000   85.85640   72.15220  196.21530  119.20360   82.41380    0.19860    0.08340    3.11390   -0.00100    8.46000 3266.21170    2.56740   78.30690  -15.44230   70.87490   59.35210  104.42170 2566.23680
 8375.50000   77.34740   71.23430  196.34230  117.60650   74.58680    0.18810    0.07340    3.34550   -0.00010    8.46120 3267.52470    2.58440   71.38350  -15.16530   68.21730   60.55860  137.70010 2566.52760
 8376.00000   73.06850   70.34680  196.46930  115.84740   69.93570    0.17880    0.06760    3.51950    0.00080    8.45630 3269.82960    2.59440   66.89620  -14.88230   68.21730   65.85810  222.35240 2566.81840
 8376.50000   71.97440   69.50390  196.46240  113.75530   68.46440    0.16860    0.06820    3.54810   -0.00070    8.45540 3272.13430    2.59320   66.74280  -14.59920   69.72670   71.62140  548.91460 2567.10910
