~Version ---------------------------------------------------
VERS.   2.0 : CWLS log ASCII Standard -VERSION 2.0
WRAP.    NO : One line per depth step
DLM . SPACE : Column Data Section Delimiter
~Well ------------------------------------------------------
STRT .F                  148.0 : START DEPTH
STOP .F                 9028.0 : STOP DEPTH
STEP .F                    0.5 : STEP
NULL .                -9999.25 : NULL VALUE
COMP .                         : COMPANY
WELL .                         : WELL
FLD  .                         : FIELD
LOC  .                         : LOCATION
PROV .                         : PROVINCE
CNTY .                         : COUNTY
STAT .                         : STATE
CTRY .                         : COUNTRY
SRVC .                         : SERVICE COMPANY
DATE .                         : DATE
UWI  .                         : UNIQUE WELL ID
API  .                         : API NUMBER
SLAT .WGS84 2.8148881094058993 : SURFACE LATITUDE
SLON .WGS84  6.662970019962003 : SURFACE LONGITUDE
DATUM.F                2959.87 : DEPTH DATUM ELEV
~Curve Information -----------------------------------------
DEPT   .F     : 
GRS    .GAPI  : GAMMA RAY FROM SONIC LOG
DTCO   .US/F  : DELTA-T COMPRESSIONAL
DTST   .US/F  : DELTA-T STONELEY - MONOPOLE STONELEY
DTSM   .US/F  : DELTA-T SHEAR
GRD    .GAPI  : GAMMA RAY FROM DENSITY LOG
NPHI_LS.DEC   : NEUTRON POROSITY LIMESTONE
DPHI_LS.DEC   : DENSITY POROSITY LIMESTONE
PEF    .B/E   : PHOTOELECTRIC FACTOR
DRHO   .G/C3  : BULK DENSITY CORRECTION
CALD   .IN    : CALIPER FROM DENSITY LOG
TEND   .LB    : TENSION FROM DENSITY LOG
RHOB   .G/C3  : BULK DENSITY
GRR    .GAPI  : GAMMA RAY FROM RESISTIVITY LOG
SPR    .MV    : SPONTANEOUS POTENTIAL FROM RESISTIVITY LOG
ILD    .OHMM  : INDUCTION DEEP RESISTIVITY
ILM    .OHMM  : INDUCTION MEDIUM RESISTIVITY
SFLU   .OHMM  : SHALLOW FOCUSED RESISTIVITY (UNAVERAGED)
TENR   .LB    : TENSION FROM RESISTIVITY LOG
~Params ----------------------------------------------------
~Other -----------------------------------------------------
~ASCII -----------------------------------------------------
# ...
 7733.50000  112.72810   86.17670  201.20930  143.82470  115.92710    0.28980    0.16800    2.66180   -0.00490    8.94030 3117.85280    2.42710  119.59870  -67.80240   38.74600   36.93240   77.21560 2384.71220
 7734.00000  109.12740   86.61160  201.23930  143.89390  114.18270    0.28900    0.17050    2.57960   -0.00350    8.93040 3112.84470    2.42250  116.63230  -65.61130   37.11430   36.24200   73.11630 2379.73630
 7734.50000  108.07830   86.23650  200.50230  143.82660  112.81380    0.29430    0.16920    2.61960   -0.00140    8.92050 3108.51810    2.41780  113.60550  -64.72270   35.30450   34.76800   72.48170 2379.44290
 7735.00000  107.81100   85.27730  199.60210  141.67730  110.93960    0.29360    0.16040    2.67570   -0.00050    8.91070 3107.85990    2.41790  109.48100  -64.62830   33.58300   32.72710   69.90140 2398.08620
 7735.50000  108.50140   84.11300  201.01950  139.02470  109.18810    0.27920    0.14530    2.73660    0.00040    8.90080 3107.20140    2.44740  110.59540  -64.62700   31.61530   30.05130   62.62620 2402.67600
 7736.00000  109.70580   82.05110  200.17960  138.62530  108.08200    0.26310    0.13420    2.80000    0.00140    8.89090 3106.54320    2.47140  114.48160  -65.87570   31.02700   27.72080   48.15130 2402.50810
 7736.50000  111.59450   79.82090  199.26150  139.14240  109.99780    0.24520    0.12910    2.86340    0.00230    8.88100 3105.88500    2.48840  119.37780  -66.29540   30.51970   27.11250   37.54390 2403.50850
 7737.00000  112.30600   79.54090  199.26150  139.32110  114.06430    0.25410    0.14180    2.95100    0.00330    8.87120 3105.22660    2.47840  122.76140  -66.87190   30.37640   27.53760   35.34780 2407.13230
 7737.50000  110.95310   81.18660  199.37130  138.94490  114.25470    0.28400    0.15280    3.08020    0.00420    8.86130 3105.37820    2.45790  122.02370  -67.55140   30.39690   28.05160   40.98860 2402.78340
 7738.00000  102.59440   81.38720  199.50420  138.32310  100.02640    0.31860    0.14730    3.31360    0.00490    8.85410 3108.38920    2.45030  115.47290  -67.77600   30.74770   30.57370   49.57740 2398.43460
 7738.50000   88.17330   78.36440  199.57950  136.00190   83.44260    0.29270    0.12970    3.67370    0.00420    8.84790 3111.39990    2.47930   96.20850  -67.79880   32.18990   33.48480   64.97080 2394.08540
 7739.00000   73.32100   75.25160  199.22160  129.73160   70.28180    0.25190    0.10730    3.92680    0.00340    8.84170 3114.41090    2.51080   77.90820  -67.76070   33.69490   36.67310   92.94940 2389.73660
 7739.50000   64.90060   73.79690  198.86380  126.98260   70.07750    0.19820    0.10200    3.72900    0.00270    8.83950 3117.42190    2.53330   65.92620  -67.41730   35.16370   42.79180  155.32020 2385.38770
 7740.00000   73.10780   72.34220  198.58060  124.95290   80.65350    0.18770    0.11940    3.20960    0.00250    8.82110 3117.36650    2.50570   74.43410  -67.07380   35.33090   45.28700  183.71970 2385.12210
 7740.50000   93.06870   72.14020  198.34660  125.36210   94.46550    0.20720    0.14180    2.75520    0.00240    8.80260 3116.44260    2.46760   87.37930  -66.73040   35.25940   45.20550  125.55400 2385.49760
 7741.00000  104.53500   74.01970  198.20800  128.61080  103.78980    0.23610    0.14910    2.62350    0.00220    8.77870 3115.51860    2.45510   98.84360  -66.38690   35.18810   43.59110   80.07210 2385.87330
 7741.50000  107.78660   77.39030  198.39340  131.89400  107.88350    0.25170    0.14700    2.63220    0.00200    8.75480 3114.59470    2.45860  105.05680  -66.27190   34.99130   40.62150   57.39190 2386.24880
 7742.00000  108.66510   80.35640  198.65040  135.41330  110.92740    0.26010    0.14840    2.69530    0.00200    8.74340 3112.48560    2.45630  107.93700  -66.28620   34.75200   37.68240   54.50470 2386.62450
 7742.50000  109.70520   82.38020  199.02240  138.36360  116.93220    0.26750    0.15580    2.77520    0.00190    8.72640 3107.82670    2.44360  113.58150  -66.27860   34.51330   36.60120   61.78680 2387.00000
 7743.00000  112.33030   84.08060  199.39440  140.78170  121.99410    0.27640    0.16490    2.82940    0.00180    8.70870 3103.16800    2.42800  119.55220  -67.10490   35.70920   36.92200   78.28820 2387.37570
 7743.50000  114.02630   85.78100  199.83590  142.93950  124.74730    0.28950    0.16690    2.86240    0.00170    8.67800 3098.50900    2.42460  123.91120  -68.19340   37.25970   38.52520   91.49690 2387.75150
 7744.00000  113.95590   86.67490  200.27870  144.05110  122.52320    0.29540    0.16660    2.86810    0.00170    8.64090 3093.85030    2.42510  121.88530  -69.31050   38.87750   40.10930  106.93400 2388.12700
 7744.50000  112.43340   86.92300  200.76350  145.10620  118.89250    0.30600    0.16580    2.95500    0.00160    8.60760 3089.19140    2.42640  115.11350  -70.42750   40.30640   41.60930  112.76410 2388.11890
 7745.00000  105.56550   86.39910  201.04700  145.23350  113.55020    0.29990    0.16110    3.07290    0.00150    8.59110 3084.53270    2.43460  107.98220  -71.11230   41.60780   42.68580  109.18700 2387.89180
 7745.50000   97.97300   84.59580  201.11420  142.93700  107.48580    0.29080    0.14720    3.19090    0.00240    8.57460 3079.87380    2.45770  100.25990  -71.22680   42.08270   42.99180  101.92220 2387.66460
 7746.00000   89.32250   82.55760  200.48550  139.50330  101.08000    0.25750    0.12440    3.19240    0.00430    8.55820 3075.21510    2.49730   91.59320  -70.84860   42.44560   43.25100   84.10530 2387.43750
 7746.50000   86.84440   80.78930  199.62870  136.61310   98.09060    0.22440    0.11020    3.01950    0.00690    8.54330 3070.55640    2.52110   88.67970  -70.49520   42.80570   43.51180   70.64020 2387.21040
 7747.00000   88.16660   79.82210  198.77200  131.32000   98.41840    0.21760    0.11100    2.84600    0.00860    8.53550 3065.89750    2.52020   91.44810  -70.80740   43.16490   43.77180   61.86620 2386.98340
 7747.50000   92.22550   78.89330  198.67030  130.89060  100.07940    0.23590    0.12050    2.67240    0.00800    8.51170 3061.23880    2.50420   95.10170  -70.85540   43.52720   43.87290   62.53000 2386.75630
 7748.00000   96.59720   79.25800  198.48250  132.49300  101.29460    0.26250    0.13050    2.61960    0.00690    8.49190 3056.57980    2.48680   99.10390  -69.88000   43.23880   43.97430   70.71520 2386.52930
 7748.50000   97.61220   79.93790  198.34290  134.09550  100.91360    0.27920    0.14050    2.66150    0.00580    8.47200 3061.52950    2.46970   98.22530  -67.32570   42.87570   43.98490   80.57610 2386.30220
 7749.00000   94.11930   80.44670  198.50520  134.58530   98.02420    0.28430    0.13890    2.75180    0.00470    8.46880 3067.04570    2.47250   96.42830  -65.30040   42.45050   42.60840   86.10120 2386.07500
 7749.50000   89.67930   80.53290  198.65280  134.39570   93.22220    0.26990    0.13320    2.84220    0.00370    8.46800 3072.56150    2.48240   97.43730  -64.28940   41.98040   39.68650   82.94300 2385.84790
 7750.00000   88.59580   80.19950  198.80050  134.08400   90.65620    0.25280    0.12540    2.93260    0.00280    8.46190 3078.07760    2.49570   99.15990  -63.40300   41.51560   36.03950   68.84700 2385.62080
 7750.50000   90.80850   79.82960  198.57820  133.77230   92.32130    0.23780    0.12270    3.02300    0.00080    8.45570 3083.58790    2.50030   97.40470  -62.98840   41.17840   33.97600   58.31790 2385.39380
 7751.00000   92.86480   80.20130  198.15020  133.50720   95.47370    0.23860    0.12780    3.07930   -0.00200    8.44950 3089.08760    2.49140   94.19180  -63.10660   41.06340   35.31110   52.69020 2385.16670
 7751.50000   94.92110   80.60110  197.63160  133.26660   99.42910    0.24550    0.13600    2.98940   -0.00380    8.43810 3094.58760    2.47750   95.03350  -64.04190   40.85090   36.04660   55.60000 2384.93970
 7752.00000   95.61860   80.99230  197.67030  133.02590  100.57320    0.25320    0.14300    2.88240   -0.00160    8.43560 3099.82300    2.46540   97.52400  -65.14310   41.10130   35.97820   63.18210 2384.71260
 7752.50000   95.52750   81.07170  197.86990  132.98560   97.05820    0.25860    0.14480    2.83040    0.00760    8.43720 3099.30660    2.46240  100.12730  -66.43700   41.76910   36.46190   71.03450 2384.48540
