~Version ---------------------------------------------------
VERS.   2.0 : CWLS log ASCII Standard -VERSION 2.0
WRAP.    NO : One line per depth step
DLM . SPACE : Column Data Section Delimiter
~Well ------------------------------------------------------
STRT .F                  148.0 : START DEPTH
STOP .F                 9028.0 : STOP DEPTH
STEP .F                    0.5 : STEP
NULL .                -9999.25 : NULL VALUE
COMP .                         : COMPANY
WELL .                         : WELL
FLD  .                         : FIELD
LOC  .                         : LOCATION
PROV .                         : PROVINCE
CNTY .                         : COUNTY
STAT .                         : STATE
CTRY .                         : COUNTRY
SRVC .                         : SERVICE COMPANY
DATE .                         : DATE
UWI  .                         : UNIQUE WELL ID
API  .                         : API NUMBER
SLAT .WGS84 2.8148881094058993 : SURFACE LATITUDE
SLON .WGS84  6.662970019962003 : SURFACE LONGITUDE
DATUM.F                2959.87 : DEPTH DATUM ELEV
~Curve Information -----------------------------------------
DEPT   .F     : 
GRS    .GAPI  : GAMMA RAY FROM SONIC LOG
DTCO   .US/F  : DELTA-T COMPRESSIONAL
DTST   .US/F  : DELTA-T STONELEY - MONOPOLE STONELEY
DTSM   .US/F  : DELTA-T SHEAR
GRD    .GAPI  : GAMMA RAY FROM DENSITY LOG
NPHI_LS.DEC   : NEUTRON POROSITY LIMESTONE
DPHI_LS.DEC   : DENSITY POROSITY LIMESTONE
PEF    .B/E   : PHOTOELECTRIC FACTOR
DRHO   .G/C3  : BULK DENSITY CORRECTION
CALD   .IN    : CALIPER FROM DENSITY LOG
TEND   .LB    : TENSION FROM DENSITY LOG
RHOB   .G/C3  : BULK DENSITY
GRR    .GAPI  : GAMMA RAY FROM RESISTIVITY LOG
SPR    .MV    : SPONTANEOUS POTENTIAL FROM RESISTIVITY LOG
ILD    .OHMM  : INDUCTION DEEP RESISTIVITY
ILM    .OHMM  : INDUCTION MEDIUM RESISTIVITY
SFLU   .OHMM  : SHALLOW FOCUSED RESISTIVITY (UNAVERAGED)
TENR   .LB    : TENSION FROM RESISTIVITY LOG
~Params ----------------------------------------------------
~Other -----------------------------------------------------
~ASCII -----------------------------------------------------
# ...
 4984.00000   11.74110   60.45880  203.77020  115.40610   10.03110    0.24960    0.09100    2.84980    0.01270    9.99040 2264.48930    2.55450   12.20640  -91.70780    8.13670    7.65710   22.14490 1622.34640
 4984.50000   11.82550   58.85300  199.72020  112.38930   11.18490    0.24360    0.07700    2.92730    0.01270    9.93770 2281.52880    2.57840   11.66670 -102.93350    9.27720    8.73530   24.36850 1631.54590
 4985.00000   12.30740   57.15360  199.75140  109.55100   12.43580    0.22890    0.06710    3.01260    0.01420    9.88490 2286.28880    2.59530   12.06120 -119.83150   10.80260   10.12800   22.93630 1634.81790
 4985.50000   12.94540   56.46820  200.07630  107.29990   13.81310    0.20870    0.05940    3.20620    0.01570    9.84900 2288.54490    2.60840   13.02000 -137.90890   12.57880   11.74280   22.38920 1620.18810
 4986.00000   13.48430   56.25430  199.80090  104.82060   14.87570    0.19330    0.05270    3.28450    0.01260    9.84900 2286.31300    2.61980   15.10930 -162.46570   14.64710   13.53060   27.57800 1620.43330
 4986.50000   14.00580   56.17580  199.04670  102.34320   15.74760    0.17910    0.04540    3.06890    0.00720    9.84960 2288.04270    2.63240   18.33220 -174.22380   16.65470   15.43440   36.15400 1620.67860
 4987.00000   15.62340   55.22940  199.13330  102.16220   17.30410    0.16180    0.04620    2.76500    0.00520    9.84920 2290.39010    2.63080   25.20960 -183.78360   17.53710   17.33280   42.64630 1620.92380
 4987.50000   20.97680   54.52180  199.87760  100.84560   24.31250    0.14050    0.05560    2.57140    0.00670    9.85590 2292.73730    2.61480   33.06060 -191.46430   18.46620   18.59010   38.81390 1621.16910
 4988.00000   28.53000   54.50880  200.02690  100.24580   32.37060    0.12470    0.06650    2.47330    0.00870    9.85490 2295.08450    2.59630   40.54520 -199.46270   20.27160   19.22590   28.10880 1621.41430
 4988.50000   36.85380   54.68010  198.65580  100.61700   41.06890    0.11180    0.07070    2.46810    0.00890    9.85580 2297.43190    2.58910   47.27310 -200.39370   20.42550   18.85160   20.14310 1621.65940
 4989.00000   41.73290   54.97030  198.24710  101.74610   46.91220    0.10170    0.07120    2.45300    0.00540    9.85730 2302.55180    2.58830   51.15360 -199.13870   18.09760   18.22110   18.62230 1621.90470
 4989.50000   45.08030   55.58140  198.38970  102.36800   52.64980    0.09490    0.07340    2.39730    0.00440    9.88210 2309.73170    2.58450   54.21490 -195.81260   15.82950   16.29180   17.71900 1622.14990
 4990.00000   48.97040   56.33730  199.59210  100.39540   57.19020    0.08860    0.08980    2.27980    0.00580    9.92890 2307.10400    2.55640   58.32200 -192.71910   12.37160   14.23920   16.18230 1622.24000
 4990.50000   54.32520   57.57400  198.90610  101.09140   60.67530    0.09130    0.11500    2.07270    0.00790    9.93690 2308.38160    2.51340   62.75820 -190.35080    9.65080   11.24120   12.27530 1621.19260
 4991.00000   58.37120   59.02420  198.76170  105.47600   61.44090    0.10880    0.14460    1.94200    0.00890    9.94480 2340.83690    2.46260   65.92220 -187.97870    7.61550    8.87440    8.76350 1620.14540
 4991.50000   60.66950   60.32600  202.52820  106.90930   62.41530    0.13220    0.17070    1.85380    0.01060    9.95280 2357.58300    2.41810   63.74310 -183.80040    6.10620    7.00590    6.83800 1619.09810
 4992.00000   62.74870   62.88250  203.75620  110.18130   63.37090    0.15480    0.18340    1.84750    0.01360    9.96070 2358.39260    2.39640   59.73790 -176.98990    4.89600    5.78500    5.33540 1618.05090
 4992.50000   62.93190   67.24760  204.24470  117.09200   63.71090    0.17470    0.19500    1.84250    0.01590    9.96450 2357.34470    2.37660   55.96010 -162.22520    4.39650    4.87010    4.46570 1617.00370
 4993.00000   61.82930   69.80230  205.93170  124.00280   63.32670    0.18340    0.20150    1.81090    0.01540    9.96210 2355.12080    2.36540   55.78260 -146.09000    4.06660    4.29710    4.24450 1615.95640
 4993.50000   60.13660   72.19830  208.11960  129.05120   62.80660    0.18370    0.21000    1.79010    0.01130    9.95970 2353.72340    2.35090   56.61090 -125.44020    3.78150    3.91990    4.33610 1614.90920
 4994.00000   58.44390   74.59430  209.96480  131.11560   62.87240    0.19070    0.21660    1.79770    0.00750    9.95730 2350.30350    2.33960   57.69220 -103.09740    3.59750    3.59830    4.46460 1613.86190
 4994.50000   58.29500   75.59470  211.30500  133.17990   63.65400    0.20100    0.21600    1.86510    0.00720    9.95490 2339.77950    2.34060   60.57610  -87.67250    3.64400    3.44470    4.69230 1612.81460
 4995.00000   58.93700   75.69210  211.58320  133.21810   64.73940    0.21110    0.20960    1.91570    0.00830    9.95250 2326.73050    2.35160   63.74800  -75.72810    3.72750    3.57950    5.66940 1611.76730
 4995.50000   59.57900   75.54480  211.43240  132.15260   65.38160    0.21330    0.20430    1.96620    0.00860    9.95010 2330.04270    2.36070   66.14300  -69.95450    3.81290    3.52450    6.89710 1610.72010
 4996.00000   59.84360   75.31550  210.91890  131.36380   64.47700    0.20670    0.19940    1.99830    0.00580    9.94860 2317.59400    2.36910   66.43250  -66.12940    3.81900    3.47160    7.93310 1609.67290
 4996.50000   59.84360   75.07910  209.92950  131.19200   62.17950    0.19670    0.19870    1.99120    0.00210    9.94930 2297.38180    2.36970   65.38690  -65.76230    3.82860    3.64400    9.20850 1608.62560
 4997.00000   60.06830   75.03270  208.78280  131.02310   59.88200    0.19070    0.19700    1.98400    0.00230    9.95000 2285.10250    2.37040   63.65640  -67.24120    3.90840    3.82480   11.67190 1607.57840
 4997.50000   61.12540   75.02290  207.60770  130.93490   58.20660    0.19260    0.19170    1.97680    0.00330    9.94670 2281.13160    2.37370   61.68650  -72.34190    4.30750    4.01470   14.99680 1606.53110
 4998.00000   60.99680   74.67820  206.43270  130.41700   58.84490    0.19530    0.17420    2.03400    0.00720    9.93620 2279.76340    2.41240   59.15630  -78.10760    4.84910    4.54530   21.00800 1605.48390
 4998.50000   58.31270   74.26930  205.44210  128.70720   59.25580    0.18690    0.14570    2.26470    0.00780    9.92570 2283.52290    2.46080   56.17940  -83.63710    5.84360    5.32920   28.15510 1604.43650
 4999.00000   55.66270   72.96000  204.90550  126.12790   57.16500    0.16340    0.09210    2.62010    0.00730    9.91530 2295.65280    2.55260   53.11440  -89.05490    7.04200    6.60600   37.69770 1603.38930
 4999.50000   53.55590   71.27420  203.92930  122.73550   51.26190    0.13470    0.05210    2.91590    0.00780    9.90480 2292.93330    2.62090   50.04930  -94.47270    8.48610    8.41370   51.04540 1602.34200
 5000.00000   50.68940   68.89990  202.77240  117.11690   47.49650    0.11380    0.02310    3.03910    0.00840    9.91810 2294.24630    2.67000   46.98420  -99.89050   10.80220   10.71610   85.79290 1601.29480
 5000.50000   46.31530   62.16390  201.55530  109.70780   43.43660    0.10220    0.00590    3.13860    0.00890    9.93180 2296.07400    2.69970   42.78210 -105.24230   14.03100   13.64860   94.41020 1600.24760
 5001.00000   43.02310   58.90500  200.40520  105.16010   39.25140    0.10680    0.00450    3.23800    0.00960    9.94550 2292.41550    2.70240   38.09760 -108.05880   18.38830   17.38360   88.20170 1599.20030
 5001.50000   36.99080   55.80480  199.35700   99.58100   32.86270    0.11810    0.00770    3.28600    0.00940    9.95890 2289.65550    2.69700   29.76170 -109.70350   25.34800   22.14060   81.54100 1598.15310
 5002.00000   29.56910   53.86260  198.48840   95.99230   25.66330    0.12630    0.01420    3.24440    0.00830    9.96310 2312.39110    2.68580   22.87340 -109.19610   33.94470   25.35480   94.85230 1597.10580
 5002.50000   22.17050   52.28870  197.68070   95.87940   18.15320    0.12990    0.02000    3.17940    0.00690    9.96810 2339.14360    2.67590   17.55820 -109.77300   36.49630   26.82490  115.66170 1596.05860
 5003.00000   18.40810   51.12550  198.07990   95.38730   15.96810    0.13440    0.02390    3.11440    0.01360   10.00580 2339.65500    2.66920   19.32970 -117.54730   36.77770   26.04340  129.71670 1595.01120
