~Version ---------------------------------------------------
VERS.   2.0 : CWLS log ASCII Standard -VERSION 2.0
WRAP.    NO : One line per depth step
DLM . SPACE : Column Data Section Delimiter
~Well ------------------------------------------------------
STRT .F                  148.0 : START DEPTH
STOP .F                 9028.0 : STOP DEPTH
STEP .F                    0.5 : STEP
NULL .                -9999.25 : NULL VALUE
COMP .                         : COMPANY
WELL .                         : WELL
FLD  .                         : FIELD
LOC  .                         : LOCATION
PROV .                         : PROVINCE
CNTY .                         : COUNTY
STAT .                         : STATE
CTRY .                         : COUNTRY
SRVC .                         : SERVICE COMPANY
DATE .                         : DATE
UWI  .                         : UNIQUE WELL ID
API  .                         : API NUMBER
SLAT .WGS84 2.8148881094058993 : SURFACE LATITUDE
SLON .WGS84  6.662970019962003 : SURFACE LONGITUDE
DATUM.F                2959.87 : DEPTH DATUM ELEV
~Curve Information -----------------------------------------
DEPT   .F     : 
GRS    .GAPI  : GAMMA RAY FROM SONIC LOG
DTCO   .US/F  : DELTA-T COMPRESSIONAL
DTST   .US/F  : DELTA-T STONELEY - MONOPOLE STONELEY
DTSM   .US/F  : DELTA-T SHEAR
GRD    .GAPI  : GAMMA RAY FROM DENSITY LOG
NPHI_LS.DEC   : NEUTRON POROSITY LIMESTONE
DPHI_LS.DEC   : DENSITY POROSITY LIMESTONE
PEF    .B/E   : PHOTOELECTRIC FACTOR
DRHO   .G/C3  : BULK DENSITY CORRECTION
CALD   .IN    : CALIPER FROM DENSITY LOG
TEND   .LB    : TENSION FROM DENSITY LOG
RHOB   .G/C3  : BULK DENSITY
GRR    .GAPI  : GAMMA RAY FROM RESISTIVITY LOG
SPR    .MV    : SPONTANEOUS POTENTIAL FROM RESISTIVITY LOG
ILD    .OHMM  : INDUCTION DEEP RESISTIVITY
ILM    .OHMM  : INDUCTION MEDIUM RESISTIVITY
SFLU   .OHMM  : SHALLOW FOCUSED RESISTIVITY (UNAVERAGED)
TENR   .LB    : TENSION FROM RESISTIVITY LOG
~Params ----------------------------------------------------
~Other -----------------------------------------------------
~ASCII -----------------------------------------------------
# ...
 5296.00000   27.25920   56.09810  199.59470  102.31420   28.02050    0.11320    0.06530    3.29810    0.00070    8.89440 2351.40920    2.59830   30.51130  -95.38400   18.76850   18.23050   22.19770 1716.50930
 5296.50000   27.22130   56.60970  199.76590  102.81950   27.41920    0.11360    0.06640    3.33750    0.00100    8.91430 2340.88670    2.59650   30.53350  -95.32090   18.42260   17.83740   22.29510 1720.91920
 5297.00000   26.40530   57.12130  199.60160  103.30740   26.47840    0.11220    0.06620    3.48590    0.00120    8.93420 2349.62060    2.59680   29.32110  -95.53400   18.27410   17.45280   22.18850 1722.43330
 5297.50000   24.33850   57.70680  199.44010  103.79540   25.51140    0.11260    0.06640    3.66750    0.00040    8.97420 2339.48190    2.59640   27.97670  -96.33260   18.13820   17.21820   21.62970 1721.33310
 5298.00000   22.86130   58.26810  199.32050  104.49690   24.60590    0.11330    0.06950    3.61030    0.00020    8.96980 2349.14550    2.59120   26.97940  -98.49010   18.34920   17.67080   21.38550 1720.07510
 5298.50000   23.07440   58.39700  199.20090  105.77730   24.01430    0.11310    0.07400    3.50270    0.00030    8.95970 2366.76680    2.58350   26.25120 -100.64750   18.96270   18.34190   21.26820 1719.13150
 5299.00000   23.73430   58.38520  198.86590  107.05770   24.42220    0.10910    0.07570    3.40850    0.00030    8.97470 2382.54830    2.58060   26.35160 -102.60200   19.71600   19.03850   22.60170 1715.54350
 5299.50000   24.31940   58.37330  197.93140  108.20950   25.21360    0.10210    0.07370    3.37160    0.00700    8.99700 2383.22530    2.58390   26.89380 -106.29900   20.56580   19.78380   25.21100 1705.06710
 5300.00000   24.15230   58.06290  198.11380  108.05370   24.97290    0.09500    0.06390    3.60710    0.02570    9.00190 2379.02640    2.60070   25.98020 -109.99590   21.46730   20.73650   29.59390 1694.59080
 5300.50000   23.87190   57.52590  198.22720  107.65670   23.62850    0.09070    0.05470    3.71670    0.04550    9.03800 2374.82740    2.61660   23.99650 -113.69280   21.47280   21.16040   29.34840 1686.96580
 5301.00000   22.93090   57.02360  198.30040  107.25960   21.59060    0.09000    0.05090    3.66340    0.04400    9.07420 2370.62840    2.62280   22.61110 -117.16170   21.47840   21.37280   27.98720 1692.62080
 5301.50000   21.46940   56.53380  198.46560  106.94770   20.95010    0.09130    0.05520    3.54160    0.02460    9.12810 2365.79710    2.61810   22.23490 -119.41900   21.48390   21.33730   25.70020 1698.27590
 5302.00000   20.73000   56.35830  198.62110  106.93980   21.23660    0.09310    0.05970    3.55590    0.01010    9.17790 2358.58640    2.60900   21.73050 -120.96090   21.09540   20.56400   24.02680 1701.47950
 5302.50000   20.25990   56.71460  198.50560  106.93190   21.51350    0.09550    0.06450    3.61800    0.00580    9.22640 2350.73410    2.59950   21.37480 -123.09260   20.69550   19.81870   23.12950 1702.36430
 5303.00000   20.34500   57.58680  198.30110  107.50180   20.86740    0.10250    0.07140    3.58210    0.00250    9.27170 2346.02950    2.58780   22.18750 -125.22440   19.90120   19.10050   21.72800 1703.24900
 5303.50000   20.65850   57.57890  198.21440  108.24970   20.71310    0.11000    0.07590    3.53090   -0.00020    9.31670 2356.44800    2.58020   23.61910 -127.23020   18.47420   17.86810   19.82010 1702.07030
 5304.00000   21.85010   57.57100  198.82310  108.99760   22.24580    0.11510    0.07730    3.52080   -0.00120    9.35950 2362.50390    2.57770   25.05070 -128.89870   17.14240   16.38090   18.43660 1700.84470
 5304.50000   22.99470   57.61350  199.59730  109.74540   25.26260    0.12000    0.07830    3.50080   -0.00140    9.39720 2365.56980    2.57600   25.48360 -128.57980   15.49160   15.01740   17.25810 1699.87440
 5305.00000   24.01080   57.70820  199.70560  110.49330   26.76260    0.12240    0.08350    3.33410    0.00010    9.40960 2366.53930    2.56720   25.02120 -127.80280   13.99980   13.80240   16.36440 1700.14870
 5305.50000   23.48060   58.66900  198.91290  111.31070   25.64930    0.12990    0.09170    3.12630    0.00520    9.43260 2373.91060    2.55300   24.03170 -128.49860   12.65160   12.87300   14.91900 1697.52440
 5306.00000   21.69170   59.56810  198.07840  112.34790   22.47250    0.13890    0.10050    2.99770    0.00890    9.46010 2374.07570    2.53800   23.04220 -131.58730   11.43330   12.00620   13.42740 1697.50920
 5306.50000   20.39370   60.42040  199.17940  113.38520   19.16560    0.14780    0.10880    3.44750    0.00650    9.49140 2374.58790    2.52390   22.05280 -136.57060   10.72710   11.19780   11.31530 1696.52280
 5307.00000   20.65850   61.17840  200.32610  114.42240   17.91650    0.15390    0.11290    3.66550    0.00350    9.52260 2381.73710    2.51700   21.05520 -140.14690   10.22220   10.59360   10.20620 1696.60940
 5307.50000   21.05630   61.87950  200.46340  115.45970   18.04060    0.15400    0.11160    3.69630    0.00060    9.56060 2377.63060    2.51930   20.39890 -143.09140    9.74100   10.09510   10.26780 1697.68240
 5308.00000   21.04530   61.87160  200.08470  116.49690   18.54760    0.15390    0.10650    3.66060    0.00010    9.60070 2378.62430    2.52790   19.78240 -144.15070    9.28250    9.62010   10.50610 1698.75540
 5308.50000   20.48980   61.89560  199.97470  117.53420   19.18250    0.15540    0.10400    3.64050    0.00150    9.63720 2378.66970    2.53200   19.09390 -144.40990    8.91530    9.21240   10.56230 1699.82840
 5309.00000   18.95000   61.95020  200.33020  118.31910   18.65350    0.16060    0.11190    3.70070    0.00350    9.66870 2372.50730    2.51850   18.46990 -144.22340    8.56270    8.84600   10.38920 1700.90120
 5309.50000   17.08420   62.32330  200.85430  118.92120   17.59520    0.16670    0.12380    3.88020    0.00550    9.69240 2375.09160    2.49820   17.84600 -143.54380    8.22410    8.48800    9.78540 1701.97420
 5310.00000   15.03510   62.76620  200.97840  119.52340   16.07940    0.16980    0.13370    4.03700    0.00550    9.70730 2379.53340    2.48130   17.33940 -143.19940    7.90090    8.14450    9.70980 1703.14830
 5310.50000   14.05550   63.10640  200.90160  120.12560   15.00730    0.17070    0.14050    3.82920    0.00380    9.72210 2374.61770    2.46980   17.20620 -142.44930    7.59710    7.81490    9.86550 1704.33180
 5311.00000   14.24490   63.35980  200.17320  120.38360   14.56890    0.17320    0.14350    3.63190    0.00220    9.73480 2370.46020    2.46460   16.96520 -139.84630    7.30500    7.49860    9.71710 1705.51530
 5311.50000   14.70600   63.35980  200.23210  120.50700   14.47590    0.18070    0.14410    3.52810    0.00080    9.73610 2368.68410    2.46360   17.14800 -134.24120    7.01640    7.21460    9.39690 1704.25810
 5312.00000   15.42810   63.32250  200.58050  117.24440   14.62360    0.19010    0.14220    3.41420    0.00010    9.73640 2369.70850    2.46680   17.28380 -129.36660    6.73410    6.94180    8.23780 1703.95180
 5312.50000   15.37960   63.18510  200.49370  117.73660   15.31610    0.19980    0.14010    3.34950   -0.00050    9.73670 2370.73320    2.47040   17.59700 -127.48170    6.46310    6.67930    7.26070 1703.70140
 5313.00000   15.03030   63.40520  200.32010  118.66660   15.43460    0.19390    0.13800    3.26040    0.00110    9.72660 2371.41360    2.47410   18.05670 -125.60650    6.20310    6.41040    6.80760 1702.53450
 5313.50000   14.86440   63.73400  200.09940  119.59670   15.80090    0.18320    0.13390    3.23240    0.00320    9.71690 2371.28370    2.48110   18.22560 -122.34450    5.95350    6.15180    6.76050 1701.16600
 5314.00000   14.91560   64.06290  200.08780  120.52670   16.26810    0.17750    0.12430    3.21620    0.00540    9.71720 2368.19650    2.49750   17.49630 -114.39770    5.87720    6.02360    7.01080 1699.72840
 5314.50000   14.89620   64.39180  200.05230  121.26880   16.01750    0.17690    0.11700    3.26320    0.00790    9.71740 2362.76390    2.50990   16.05590 -104.94680    5.89330    6.04360    8.00700 1698.29080
 5315.00000   15.08810   64.61100  199.94760  119.18180   16.59590    0.17530    0.11460    3.37910    0.00890    9.71750 2341.40140    2.51400   16.29340  -96.66120    5.96420    6.11630    9.70340 1698.14320
