~Version ---------------------------------------------------
VERS.   2.0 : CWLS log ASCII Standard -VERSION 2.0
WRAP.    NO : One line per depth step
DLM . SPACE : Column Data Section Delimiter
~Well ------------------------------------------------------
STRT .F                  148.0 : START DEPTH
STOP .F                 9028.0 : STOP DEPTH
STEP .F                    0.5 : STEP
NULL .                -9999.25 : NULL VALUE
COMP .                         : COMPANY
WELL .                         : WELL
FLD  .                         : FIELD
LOC  .                         : LOCATION
PROV .                         : PROVINCE
CNTY .                         : COUNTY
STAT .                         : STATE
CTRY .                         : COUNTRY
SRVC .                         : SERVICE COMPANY
DATE .                         : DATE
UWI  .                         : UNIQUE WELL ID
API  .                         : API NUMBER
SLAT .WGS84 2.8148881094058993 : SURFACE LATITUDE
SLON .WGS84  6.662970019962003 : SURFACE LONGITUDE
DATUM.F                2959.87 : DEPTH DATUM ELEV
~Curve Information -----------------------------------------
DEPT   .F     : 
GRS    .GAPI  : GAMMA RAY FROM SONIC LOG
DTCO   .US/F  : DELTA-T COMPRESSIONAL
DTST   .US/F  : DELTA-T STONELEY - MONOPOLE STONELEY
DTSM   .US/F  : DELTA-T SHEAR
GRD    .GAPI  : GAMMA RAY FROM DENSITY LOG
NPHI_LS.DEC   : NEUTRON POROSITY LIMESTONE
DPHI_LS.DEC   : DENSITY POROSITY LIMESTONE
PEF    .B/E   : PHOTOELECTRIC FACTOR
DRHO   .G/C3  : BULK DENSITY CORRECTION
CALD   .IN    : CALIPER FROM DENSITY LOG
TEND   .LB    : TENSION FROM DENSITY LOG
RHOB   .G/C3  : BULK DENSITY
GRR    .GAPI  : GAMMA RAY FROM RESISTIVITY LOG
SPR    .MV    : SPONTANEOUS POTENTIAL FROM RESISTIVITY LOG
ILD    .OHMM  : INDUCTION DEEP RESISTIVITY
ILM    .OHMM  : INDUCTION MEDIUM RESISTIVITY
SFLU   .OHMM  : SHALLOW FOCUSED RESISTIVITY (UNAVERAGED)
TENR   .LB    : TENSION FROM RESISTIVITY LOG
~Params ----------------------------------------------------
~Other -----------------------------------------------------
~ASCII -----------------------------------------------------
# ...
 4379.50000   22.76610   -9999.25   -9999.25   -9999.25   24.08340    0.09490   -9999.25   -9999.25   -9999.25   -9999.25   -9999.25   -9999.25   25.47230   -9999.25   -9999.25   -9999.25   -9999.25   -9999.25
 4380.00000   22.93040   -9999.25   -9999.25   -9999.25   24.52760    0.09210   -9999.25   -9999.25   -9999.25   -9999.25   -9999.25   -9999.25   23.68560   -9999.25   -9999.25   -9999.25   -9999.25   -9999.25
 4380.50000   23.29970   -9999.25   -9999.25   -9999.25   25.02210    0.10270   -9999.25   -9999.25   -9999.25   -9999.25   -9999.25   -9999.25   22.50280   -9999.25   -9999.25   -9999.25   -9999.25   -9999.25
 4381.00000   23.89470   -9999.25   -9999.25   -9999.25   25.64710    0.13050   -9999.25   -9999.25   -9999.25   -9999.25   -9999.25   -9999.25   23.59230   -9999.25   -9999.25   -9999.25   -9999.25   -9999.25
 4381.50000   24.20560   -9999.25   -9999.25   -9999.25   25.46230    0.16860   -9999.25   -9999.25   -9999.25   -9999.25   -9999.25   -9999.25   24.66080   -9999.25   -9999.25   -9999.25   -9999.25   -9999.25
 4382.00000   23.00120   -9999.25   -9999.25   -9999.25   21.99960    0.17480   -9999.25   -9999.25   -9999.25   -9999.25   -9999.25   -9999.25   23.42380   -9999.25   -9999.25   -9999.25   -9999.25   -9999.25
 4382.50000   20.13190   -9999.25   -9999.25   -9999.25   16.62300    0.16750   -9999.25   -9999.25   -9999.25   -9999.25   -9999.25   -9999.25   21.54270   -9999.25   -9999.25   -9999.25   -9999.25   -9999.25
 4383.00000   20.51510   58.06620  208.29930  111.99060   16.29390    0.16890    0.21370    2.02000    0.07530    8.25470 2172.02590    2.62030   21.51440   36.63270 1987.92140 1371.61670 2049.24680 1445.21610
 4383.50000   23.71720   58.05630  206.85060  110.88120   20.77310    0.17870    0.40840    2.00920    0.05350    8.75520 2168.44510    2.04410   21.97970   13.36750 1996.38400 1896.52110 2048.18600 1445.22400
 4384.00000   26.87990   56.76800  205.40190  109.33360   26.39120    0.18170    0.29670    2.64990    0.06240    9.48990 2177.33150    2.00940   23.73240   37.69610 1996.18900 2014.15610 1470.99630 1445.23180
 4384.50000   27.32680   54.16950  203.95360  108.14800   30.03810    0.16550    0.19710    3.48500    0.07200   10.42160 2183.10910    2.13660   24.20730   40.48720 1986.45410 2020.10490  659.78210 1445.23970
 4385.00000   25.29410   51.89060  202.96750  107.14070   29.56620    0.14040    0.06640    3.85630    0.05910   10.88170 2167.17770    2.29160   22.03300   35.98060 1978.45280 2026.07120  483.28590 1445.24760
 4385.50000   23.11820   50.02190  201.48550  104.05580   26.92530    0.12050    0.03970    3.16190    0.05030   11.01670 2158.30980    2.61110   19.76940   19.54220 1453.47360 2032.05510 1327.59530 1445.25540
 4386.00000   22.12380   50.45670  199.72490  101.44160   22.94030    0.13650    0.14560    2.54100    0.06090   10.84830 2149.44190    2.64290   17.88080    6.16740  766.09030 1358.67040 1928.65370 1445.26330
 4386.50000   21.13360   50.48550  198.95370   99.20870   20.56760    0.15840    0.14790    2.88870    0.08210   10.55510 2140.57400    2.47350   17.69510   -6.42780    2.58900  160.97450 1961.87010 1445.27110
 4387.00000   19.97290   50.27400  198.93320   97.67490   19.32110    0.16210    0.08590    3.31690    0.09890   10.28020 2186.67040    2.46180   17.72280  -18.13260    3.17120    5.49830 1965.76950 1445.27910
 4387.50000   18.75710   51.84640  200.11980   97.67220   18.39270    0.13960    0.00040    3.89820    0.09650   10.00410 2246.87770    2.57340   17.37500  -28.86680    6.37280    9.35020 1969.67580 1445.28690
 4388.00000   17.83800   53.24520  200.26760   98.33420   16.62580    0.09390   -0.05130    3.83390    0.04460    9.72210 2219.87450    2.73650   16.38660  -32.98500   12.63280  460.78460 1977.16930 1445.29470
 4388.50000   17.34350   54.52440  199.05580   98.78820   16.12710    0.05850   -0.07590    3.70490    0.00500    9.54660 2167.16670    2.81980   17.54930  -37.04510 1031.61830 1368.83510 1988.24770 1445.30260
 4389.00000   17.73500   54.99960  197.80500   98.34020   17.47300    0.04300   -0.07570    3.59910   -0.00080    9.39260 2135.32450    2.83950   19.83460  -40.84890 1930.24350 1528.81030 1999.38820 1445.31040
 4389.50000   18.81880   54.63950  197.47940   96.93720   19.25740    0.04820   -0.07290    3.46960    0.00010    9.23850 2124.03300    2.83700   21.63550  -45.05650 1964.77480 1266.01450 2010.59110 1445.31840
 4390.00000   18.51790   53.57090  198.65420   95.53420   20.24710    0.05430   -0.07180    3.33780    0.00260    9.15640 2130.49240    2.83280   20.20780  -46.38730 1515.35070  775.11880 1799.96890 1445.32620
 4390.50000   18.07380   52.32780  199.44460   94.42900   19.87990    0.05360   -0.07070    3.20870    0.00510    9.09640 2135.50020    2.82860   18.86350  -47.25920  873.30830  129.35360  974.35470 1445.33400
 4391.00000   16.90700   50.77070  199.99050   94.48640   18.34300    0.04810   -0.07050    3.29990    0.00560    9.08490 2135.76730    2.82780   18.89820  -48.13120  368.30660  327.14320  784.61380 1445.34190
 4391.50000   16.27990   49.21360  200.05680   94.20980   16.04430    0.03990   -0.07500    3.51990    0.00550    9.09150 2136.11280    2.83840   19.85130  -49.30980  155.46920 1211.12110  984.41640 1445.34970
 4392.00000   16.68700   49.09650  199.27650   91.35530   14.02890    0.03180   -0.08150    3.72100    0.00490    9.14400 2139.15840    2.85040   19.77480  -50.44060  395.29060 1769.08360  739.18840 1445.35770
 4392.50000   17.65630   49.59880  198.05020   92.78150   13.72290    0.02720   -0.08210    3.56770    0.00320    9.19810 2142.16970    2.85060   19.28000  -51.56510 1156.71200 1667.17360  378.36850 1447.25900
 4393.00000   20.12060   50.12850  197.25120   93.00390   15.69450    0.03380   -0.07040    3.30240    0.00080    9.19920 2144.29520    2.83170   19.72620  -52.68950 1579.42920 1194.34780  222.96970 1449.06820
 4393.50000   24.12160   49.91690  197.14140   91.50460   19.40440    0.04770   -0.05820    3.08600    0.00010    9.25580 2150.33740    2.80940   22.14210  -53.40660  965.24380  296.67470  151.14200 1449.27190
 4394.00000   29.75310   49.75180  198.12880   92.26670   24.61990    0.06250   -0.05250    2.98370    0.00270    9.32260 2156.66700    2.79980   26.08010  -57.75670  269.15410  131.16450   99.92220 1449.47550
 4394.50000   35.25000   49.67340  199.27140   92.93960   30.53930    0.07330   -0.05110    2.92060    0.00820    9.38150 2162.99680    2.79740   30.52640  -68.06850   89.03350   79.57280   61.64030 1449.67910
 4395.00000   38.76730   49.83550  200.48160   93.97360   35.52780    0.08420   -0.04810    2.90850    0.01000    9.44540 2169.32640    2.79230   35.40870  -90.15260   49.71090   52.53520   47.43010 1449.88270
 4395.50000   39.25740   50.38310  200.36810   94.60150   38.63020    0.09100   -0.04390    2.93570    0.00540    9.52630 2175.65600    2.78510   40.11350 -144.83250   42.62630   39.05250   37.60620 1449.40670
 4396.00000   36.46840   51.68040  199.86440   94.50750   40.48630    0.08800   -0.04370    2.99980    0.00200    9.60480 2181.98580    2.78470   43.66780 -167.00090   39.75980   38.01610   43.77510 1449.68230
 4396.50000   33.05520   52.97780  199.36080   93.76340   38.63390    0.07750   -0.04830    3.12610    0.00160    9.66940 2188.31540    2.79270   40.95410 -157.82950   44.64100   40.53940   55.27310 1450.40920
 4397.00000   30.34920   53.04980  198.85720   92.57240   35.21060    0.06340   -0.05300    3.16280    0.00290    9.74960 2193.96440    2.80070   33.90070 -148.65810   51.32510   42.38090   71.78270 1449.01420
 4397.50000   29.39560   51.45440  198.35350   91.37710   29.77600    0.05200   -0.05440    3.04920    0.00520    9.86060 2201.01370    2.80300   29.10430 -132.21030   62.66290   37.60380   88.64600 1452.04750
 4398.00000   29.49400   49.85900  198.02400   90.18180   26.73530    0.05570   -0.04990    2.95250    0.00740    9.95890 2206.86210    2.79470   28.32380 -131.30380   84.56420   34.11800   88.16220 1453.87220
 4398.50000   29.59040   48.26370  197.96050   89.07770   26.78950    0.07070   -0.04310    2.96060    0.01050   10.05160 2212.66580    2.78380   29.44170 -139.87000  102.69830   35.23340   63.73940 1447.45180
