~Version ---------------------------------------------------
VERS.   2.0 : CWLS log ASCII Standard -VERSION 2.0
WRAP.    NO : One line per depth step
DLM . SPACE : Column Data Section Delimiter
~Well ------------------------------------------------------
STRT .F                  148.0 : START DEPTH
STOP .F                 9028.0 : STOP DEPTH
STEP .F                    0.5 : STEP
NULL .                -9999.25 : NULL VALUE
COMP .                         : COMPANY
WELL .                         : WELL
FLD  .                         : FIELD
LOC  .                         : LOCATION
PROV .                         : PROVINCE
CNTY .                         : COUNTY
STAT .                         : STATE
CTRY .                         : COUNTRY
SRVC .                         : SERVICE COMPANY
DATE .                         : DATE
UWI  .                         : UNIQUE WELL ID
API  .                         : API NUMBER
SLAT .WGS84 2.8148881094058993 : SURFACE LATITUDE
SLON .WGS84  6.662970019962003 : SURFACE LONGITUDE
DATUM.F                2959.87 : DEPTH DATUM ELEV
~Curve Information -----------------------------------------
DEPT   .F     : 
GRS    .GAPI  : GAMMA RAY FROM SONIC LOG
DTCO   .US/F  : DELTA-T COMPRESSIONAL
DTST   .US/F  : DELTA-T STONELEY - MONOPOLE STONELEY
DTSM   .US/F  : DELTA-T SHEAR
GRD    .GAPI  : GAMMA RAY FROM DENSITY LOG
NPHI_LS.DEC   : NEUTRON POROSITY LIMESTONE
DPHI_LS.DEC   : DENSITY POROSITY LIMESTONE
PEF    .B/E   : PHOTOELECTRIC FACTOR
DRHO   .G/C3  : BULK DENSITY CORRECTION
CALD   .IN    : CALIPER FROM DENSITY LOG
TEND   .LB    : TENSION FROM DENSITY LOG
RHOB   .G/C3  : BULK DENSITY
GRR    .GAPI  : GAMMA RAY FROM RESISTIVITY LOG
SPR    .MV    : SPONTANEOUS POTENTIAL FROM RESISTIVITY LOG
ILD    .OHMM  : INDUCTION DEEP RESISTIVITY
ILM    .OHMM  : INDUCTION MEDIUM RESISTIVITY
SFLU   .OHMM  : SHALLOW FOCUSED RESISTIVITY (UNAVERAGED)
TENR   .LB    : TENSION FROM RESISTIVITY LOG
~Params ----------------------------------------------------
~Other -----------------------------------------------------
~ASCII -----------------------------------------------------
# ...
 7441.00000   63.17240   72.40800  197.06350  123.56030   61.90940    0.21650    0.11100    3.17250   -0.00340    8.31170 3148.57010    2.52040   68.39410  -72.95470   68.72290   70.68690  264.46100 2296.03980
 7441.50000   65.56870   73.01470  197.37000  124.06330   61.14300    0.21850    0.10820    3.27330   -0.00310    8.30940 3112.34060    2.52500   63.99570  -72.60450   72.54630   75.76480  294.17560 2295.00200
 7442.00000   66.64600   73.62140  197.43080  124.13860   62.45920    0.21930    0.10660    3.21950   -0.00460    8.31140 3118.68850    2.52780   59.59730  -72.45510   72.90840   74.80640  252.84660 2293.96390
 7442.50000   67.28950   74.13430  197.40950  124.28090   65.23590    0.21720    0.10830    3.15570   -0.00630    8.31530 3138.64160    2.52480   59.98600  -72.45510   68.59980   70.99850  182.74550 2292.92600
 7443.00000   68.15070   74.20980  197.33500  124.66150   68.37270    0.22200    0.11210    3.09200   -0.00790    8.30760 3129.02490    2.51820   63.86350  -73.44660   64.54580   67.23770  142.77740 2291.88820
 7443.50000   70.76330   74.40870  196.88620  126.42000   72.54080    0.23700    0.11630    3.03620   -0.00530    8.30480 3119.74610    2.51120   68.77690  -74.50210   60.36530   63.26060  119.88360 2291.64600
 7444.00000   74.80650   75.79120  197.06980  128.16370   73.69470    0.25550    0.11830    3.01130   -0.00000    8.30080 3133.78740    2.50780   74.19080  -75.10000   55.94840   55.74700  104.80760 2291.64600
 7444.50000   77.17240   77.33410  197.58380  129.82610   73.86040    0.27440    0.11920    3.03780    0.00470    8.29680 3148.38720    2.50610   79.37650  -74.77170   51.17770   48.87240   88.53650 2291.64600
 7445.00000   78.22020   78.05270  197.98750  131.32070   73.00140    0.28880    0.12100    3.11030    0.00640    8.29330 3149.78910    2.50310   85.28340  -73.14850   47.89220   43.12030   74.02150 2291.50070
 7445.50000   78.20740   78.76170  198.23820  132.81530   74.16530    0.28950    0.12480    3.15980    0.00460    8.28050 3150.35990    2.49670   91.34440  -71.52540   47.05710   43.22470   72.78300 2291.22900
 7446.00000   77.44440   79.45340  197.81780  134.30980   77.23190    0.28110    0.12980    3.10840    0.00110    8.27620 3150.21780    2.48790   88.20750  -69.96750   47.05820   45.09050   84.84390 2290.95730
 7446.50000   76.50290   80.00260  196.87100  134.27410   84.99280    0.24450    0.13600    3.04450   -0.00260    8.27570 3150.07540    2.47740   82.00670  -69.19880   47.28460   47.03670  122.57680 2290.69310
 7447.00000   76.89740   80.21260  196.52010  132.69950   90.35150    0.23800    0.13990    3.02780   -0.00330    8.27510 3149.93310    2.47070   78.17830  -68.91620   47.00830   49.06700  238.70750 2293.05520
 7447.50000   78.90580   80.42270  196.73360  132.44450   94.54490    0.24440    0.14380    3.02780   -0.00270    8.26040 3149.79080    2.46410   79.67330  -68.41360   46.93200   49.92900  460.64470 2295.41750
 7448.00000   85.77550   80.63270  198.44850  133.22830   98.34960    0.25240    0.14390    3.02780   -0.00170    8.26120 3148.21610    2.46400   82.23160  -67.93330   47.04990   49.01140  946.30690 2296.61670
 7448.50000   90.50520   80.84270  199.23600  134.32440  101.94680    0.25720    0.13840    3.02780   -0.00050    8.25740 3144.60620    2.47330   84.57410  -67.78530   47.16810   46.51940 1222.64340 2296.76150
 7449.00000   94.05820   81.05270  198.47900  136.01400   98.34170    0.25880    0.13460    3.02780   -0.00060    8.25770 3140.99660    2.48000   87.96070  -67.92440   47.28670   44.15420  776.48980 2296.90600
 7449.50000   93.45340   81.32700  198.70440  137.49590   86.08850    0.26130    0.13230    3.06180   -0.00130    8.26110 3137.38670    2.48390   91.49440  -67.94890   49.33800   43.20160  334.42550 2296.99370
 7450.00000   86.05050   81.60110  199.42680  136.67400   65.06320    0.26190    0.12470    3.16330   -0.00170    8.26190 3133.77690    2.49680   92.19320  -68.47750   52.23130   49.37630  333.25020 2296.11210
 7450.50000   73.65130   81.39740  199.76440  135.34640   52.22800    0.24860    0.11210    3.31350   -0.00180    8.26270 3130.16700    2.51870   78.89310  -69.11780   56.31670   56.77620  661.70790 2295.23070
 7451.00000   60.76220   79.08740  198.84010  128.33420   40.13610    0.21500    0.08270    3.42940    0.00100    8.25720 3125.51320    2.56800   62.89480  -70.07090   62.08850   65.28510 1581.17640 2294.34910
 7451.50000   41.70860   75.46960  197.86850  122.30060   30.70600    0.17170    0.04900    3.47380    0.00150    8.26170 3120.26320    2.62710   45.11730  -70.69620   68.72830   78.03450 1932.45740 2293.52150
 7452.00000   30.31850   70.23260  196.44260  113.18790   24.00360    0.13200    0.01530    3.46030    0.00130    8.26680 3112.73390    2.68390   32.40100  -71.41170   76.07820   94.55040 1981.89010 2292.72830
 7452.50000   20.62190   64.42930  195.01680  106.23230   21.17380    0.08740    0.00630    3.59100    0.00120    8.26730 3113.06740    2.69920   20.62950  -72.42770   96.00780  114.56190 1990.28000 2298.93990
 7453.00000   16.53910   60.73910  194.99230  101.24890   20.59860    0.07110    0.01760    3.97300    0.00020    8.26390 3127.54930    2.67960   15.10060  -73.28070  123.26440  141.36530   -9999.25 2296.32930
 7453.50000   16.79090   57.30250  195.63980   98.85150   20.81240    0.07060    0.03680    4.28680   -0.00110    8.26130 3125.17940    2.64750   14.33580  -73.92930  158.25910  179.68570   -9999.25 2294.63350
 7454.00000   18.64190   55.73830  196.05400   96.45420   21.26990    0.07190    0.05100    4.36020   -0.00430    8.26600 3108.25270    2.62260   17.93010  -74.26800  187.77970  198.92190   -9999.25 2293.18380
 7454.50000   20.26860   55.37060  195.33920   96.85240   22.07210    0.07330    0.05820    4.26720   -0.00450    8.26720 3095.62650    2.61040   22.40870  -74.57260  217.30290  225.45630   -9999.25 2291.73410
 7455.00000   21.41620   55.54050  194.86620   98.33280   22.60560    0.07240    0.05500    4.26460   -0.00370    8.26710 3125.53030    2.61590   25.80420  -75.17480  224.73140  230.82140   -9999.25 2294.42020
 7455.50000   22.46030   56.12170  195.67160   99.81320   22.76500    0.07020    0.05220    4.42700    0.00250    8.26720 3166.56150    2.62080   25.78020  -75.77700  229.31260  235.52680   -9999.25 2297.69680
 7456.00000   22.96030   57.22940  197.12010  101.22070   21.97850    0.06750    0.05070    4.54160    0.00680    8.26590 3169.40280    2.62330   23.32060  -76.29190  233.98710  240.32810   -9999.25 2297.92850
 7456.50000   22.42010   57.35870  197.69650  101.64970   20.91480    0.06590    0.05170    4.40910    0.00710    8.26400 3158.36400    2.62150   21.92710  -76.55250  244.41460  254.28660   -9999.25 2295.95580
 7457.00000   21.52130   57.48790  196.85860  101.98010   19.42470    0.06460    0.05370    4.18390    0.00620    8.26450 3139.93430    2.61800   22.83400  -76.80150  258.91970  269.38120   -9999.25 2293.98290
 7457.50000   20.95990   57.61710  195.04810  101.90230   18.58710    0.06300    0.05480    4.00330    0.00440    8.26490 3152.11470    2.61630   22.51580  -77.52900  274.28560  285.37160   -9999.25 2286.80690
 7458.00000   20.73420   57.58480  194.57250  101.61100   18.86400    0.06040    0.05090    3.94500    0.00210    8.26530 3158.66650    2.62290   18.93070  -78.05010  295.27290  306.28550   -9999.25 2281.98800
 7458.50000   20.56140   57.54870  194.84670  101.06610   19.17660    0.05770    0.04600    3.91970    0.00010    8.26580 3159.47490    2.63140   15.52340  -78.22360  310.11480  319.46240   -9999.25 2281.13570
 7459.00000   20.06810   57.44160  195.11840  100.30380   18.03550    0.05550    0.04330    3.85640   -0.00140    8.26620 3154.36430    2.63580   13.95750  -78.59060  318.74910  328.11980   -9999.25 2294.54610
 7459.50000   19.35550   57.23420  195.16730   99.45680   16.04420    0.05130    0.04750    3.73250   -0.00310    8.26670 3163.31840    2.62860   13.76850  -79.05180  327.04730  336.26460   -9999.25 2296.23240
 7460.00000   17.61120   57.02680  195.10620   98.60980   14.85010    0.04510    0.05040    3.63560   -0.00040    8.26710 3171.37720    2.62370   14.94260  -79.32630  334.66650  360.80000   -9999.25 2298.35570
