~Version ---------------------------------------------------
VERS.   2.0 : CWLS log ASCII Standard -VERSION 2.0
WRAP.    NO : One line per depth step
DLM . SPACE : Column Data Section Delimiter
~Well ------------------------------------------------------
STRT .F                  148.0 : START DEPTH
STOP .F                 9028.0 : STOP DEPTH
STEP .F                    0.5 : STEP
NULL .                -9999.25 : NULL VALUE
COMP .                         : COMPANY
WELL .                         : WELL
FLD  .                         : FIELD
LOC  .                         : LOCATION
PROV .                         : PROVINCE
CNTY .                         : COUNTY
STAT .                         : STATE
CTRY .                         : COUNTRY
SRVC .                         : SERVICE COMPANY
DATE .                         : DATE
UWI  .                         : UNIQUE WELL ID
API  .                         : API NUMBER
SLAT .WGS84 2.8148881094058993 : SURFACE LATITUDE
SLON .WGS84  6.662970019962003 : SURFACE LONGITUDE
DATUM.F                2959.87 : DEPTH DATUM ELEV
~Curve Information -----------------------------------------
DEPT   .F     : 
GRS    .GAPI  : GAMMA RAY FROM SONIC LOG
DTCO   .US/F  : DELTA-T COMPRESSIONAL
DTST   .US/F  : DELTA-T STONELEY - MONOPOLE STONELEY
DTSM   .US/F  : DELTA-T SHEAR
GRD    .GAPI  : GAMMA RAY FROM DENSITY LOG
NPHI_LS.DEC   : NEUTRON POROSITY LIMESTONE
DPHI_LS.DEC   : DENSITY POROSITY LIMESTONE
PEF    .B/E   : PHOTOELECTRIC FACTOR
DRHO   .G/C3  : BULK DENSITY CORRECTION
CALD   .IN    : CALIPER FROM DENSITY LOG
TEND   .LB    : TENSION FROM DENSITY LOG
RHOB   .G/C3  : BULK DENSITY
GRR    .GAPI  : GAMMA RAY FROM RESISTIVITY LOG
SPR    .MV    : SPONTANEOUS POTENTIAL FROM RESISTIVITY LOG
ILD    .OHMM  : INDUCTION DEEP RESISTIVITY
ILM    .OHMM  : INDUCTION MEDIUM RESISTIVITY
SFLU   .OHMM  : SHALLOW FOCUSED RESISTIVITY (UNAVERAGED)
TENR   .LB    : TENSION FROM RESISTIVITY LOG
~Params ----------------------------------------------------
~Other -----------------------------------------------------
~ASCII -----------------------------------------------------
# ...
 6212.50000   65.34330   74.87090  205.25140  119.99500   65.74360    0.20480    0.14780    2.78870   -0.00600    8.73440 2568.29810    2.44470   57.39940  -91.42040   16.72190   16.22890   25.96230 1931.03490
 6213.00000   65.02980   74.50950  202.97750  117.63670   61.11770    0.18290    0.14080    2.82920   -0.00570    9.07560 2586.41500    2.46330   60.18140  -92.09130   17.44800   16.47570   26.31720 1931.42760
 6213.50000   64.61770   73.09280  204.86120  115.49640   61.38310    0.18180    0.13450    2.97170   -0.00220    9.27820 2576.50830    2.47370   63.37230  -92.58700   18.21520   16.72630   25.72940 1931.82020
 6214.00000   60.46650   71.24440  206.74490  113.60440   57.91200    0.18570    0.11960    3.18870    0.00290    9.52160 2584.96660    2.48330   63.08300  -93.44780   19.01610   16.98060   22.70440 1932.21290
 6214.50000   52.05930   69.33980  208.34630  111.33930   51.41760    0.17850    0.10040    3.17750    0.00370    9.80540 2580.01170    2.50360   53.73670  -96.80250   19.81830   17.91960   21.26910 1932.60560
 6215.00000   43.50400   68.16880  206.49070  111.66530   42.03850    0.16060    0.08560    3.05570    0.00610    9.97150 2536.42500    2.53670   45.44780 -103.40510   20.25670   19.66350   23.64220 1932.99830
 6215.50000   37.92050   67.04430  202.65470  112.67970   36.75580    0.14630    0.08560    2.79100    0.00700    9.97720 2484.76640    2.56020   37.77660 -112.01740   20.70480   21.69930   28.57550 1933.39100
 6216.00000   40.74130   65.91970  199.47790  111.23820   37.12510    0.14040    0.09220    2.57880    0.00720    9.82980 2590.77050    2.56630   42.69580 -121.67000   21.16280   23.94590   37.29510 1933.78370
 6216.50000   46.31430   64.79510  199.78030  109.20700   42.85370    0.14770    0.10250    2.53880    0.00990    9.64050 2656.63750    2.54100   50.17410 -124.76690   21.25950   25.96740   47.32010 1934.17630
 6217.00000   54.24760   64.20590  201.03910  108.42230   51.45340    0.16430    0.10400    2.66610    0.02300    9.40200 2631.38670    2.52780   59.49210 -120.01480   21.31080   26.40420   48.08210 1934.56900
 6217.50000   59.99680   64.14720  202.29790  109.21530   55.90200    0.17760    0.09670    2.91210    0.04420    9.31300 2592.18090    2.54110   58.77660 -114.11400   21.51420   25.86950   40.82020 1934.96170
 6218.00000   56.79350   64.14510  202.92970  110.08220   55.55680    0.17960    0.08640    2.98110    0.05310    9.31090 2584.71000    2.55470   53.25350 -106.92220   21.73190   24.66770   33.50400 1935.35440
 6218.50000   52.31990   64.08460  200.70410  110.51410   51.69180    0.17780    0.08090    2.87780    0.05860    9.38820 2570.39530    2.56820   48.38200  -99.71690   21.76610   23.64040   28.69330 1935.74710
 6219.00000   50.29670   64.02380  199.55190  110.84350   47.05620    0.16930    0.08110    2.73480    0.05040    9.46300 2509.88130    2.57220   47.51780  -95.16270   20.52780   24.16680   30.12340 1936.13980
 6219.50000   48.62170   63.95720  199.34520  109.62710   44.52060    0.16200    0.08310    2.61290    0.04800    9.53590 2462.97140    2.57270   49.31130  -95.05160   18.85500   24.29760   33.31530 1936.53230
 6220.00000   48.34920   63.91160  200.07070  107.19950   47.77550    0.14940    0.09240    2.51190    0.04760    9.45560 2553.44700    2.57270   55.50080  -98.42630   16.98010   21.37390   35.43600 1936.92500
 6220.50000   54.61850   63.94820  201.73510  106.09980   56.38560    0.13650    0.10670    2.43110    0.04790    9.24830 2724.95430    2.53820   64.47740 -102.04960   15.33660   17.41970   29.69740 1937.31770
 6221.00000   64.63500   64.53720  202.14620  109.61110   67.31110    0.14130    0.12330    2.41410    0.03770    9.24810 2742.76710    2.50720   73.88340 -106.80850   14.16190   14.50550   20.68310 1937.71040
 6221.50000   72.36970   66.90740  202.22440  114.28720   75.10100    0.17350    0.13510    2.43300    0.02590    9.28740 2720.02150    2.49070   84.34160 -112.26720   13.07720   12.07880   14.66640 1938.10310
 6222.00000   74.68720   70.13970  202.21510  118.26410   75.76260    0.20330    0.14180    2.42070    0.01670    9.18680 2619.46700    2.48020   85.54820 -116.11760   12.32570   10.58700   10.98290 1938.49580
 6222.50000   72.29530   73.21310  202.37080  120.91410   73.85540    0.22520    0.14380    2.39550    0.01230    8.96960 2621.23070    2.46970   80.57080 -117.47620   12.46250   10.83140    9.83680 1938.88850
 6223.00000   68.78310   75.57910  202.86690  121.58760   69.18070    0.22810    0.13880    2.49720    0.01200    8.79420 2604.12350    2.46590   74.64900 -116.61230   13.24020   12.16930   10.50110 1939.28110
 6223.50000   64.03560   75.97550  201.86230  121.41600   60.59210    0.21940    0.11610    2.99240    0.01330    8.74940 2589.23360    2.47380   62.60350 -116.49250   13.76010   14.17540   14.47450 1939.67380
 6224.00000   55.37460   73.21290  201.33530  118.60750   48.62530    0.20190    0.08550    3.47230    0.01250    8.75430 2601.62720    2.54610   50.16130 -119.08900   14.30040   16.53780   27.58020 1940.06650
 6224.50000   42.44810   67.97750  200.81540  110.85110   36.77650    0.17180    0.03710    3.74880    0.00930    8.78030 2614.02100    2.61250   36.79970 -121.59680   14.86190   19.18030   48.18320 1940.45920
 6225.00000   32.59140   62.02670  199.84960  105.54190   27.38460    0.13760    0.01360    3.69370    0.00150    8.80620 2593.08400    2.67690   26.19670 -124.83440   15.69790   20.44010   61.44030 1940.85190
 6225.50000   28.94810   59.03090  198.54960  100.50520   26.98600    0.10500    0.01710    3.46260   -0.00510    8.94880 2575.84940    2.69270   23.49040 -130.82820   16.02570   18.97060   55.51510 1941.24460
 6226.00000   32.71330   57.32480  197.67850   96.29460   35.68640    0.08990    0.05420    3.13560   -0.00250    9.15660 2577.89870    2.67050   33.20110 -136.68150   15.47490   16.44510   40.30940 1941.63720
 6226.50000   46.58390   57.78960  197.78450   94.94540   48.98740    0.09090    0.07880    2.75890    0.00060    9.36440 2594.87400    2.61840   44.90790 -141.64670   14.06150   14.15580   20.33560 1942.02990
 6227.00000   61.16520   59.32540  197.83860   99.95450   62.97970    0.13070    0.09510    2.52440    0.00460    9.55240 2579.36160    2.57630   56.45130 -144.72910   12.84200   12.18530   13.50440 1942.42260
 6227.50000   67.78890   63.01240  198.60570  104.67170   69.50890    0.18610    0.09270    2.48650    0.00790    9.50210 2559.93900    2.55600   61.51950 -144.22810   11.75590   10.62100    9.34730 1942.81530
 6228.00000   67.38090   66.66560  199.37280  108.22390   66.25050    0.22080    0.08510    2.60460    0.00960    9.44430 2577.69580    2.55400   62.27890 -139.10850   10.76160   10.11920    8.62740 1943.20800
 6228.50000   60.95010   69.36630  200.13980  111.48950   60.68660    0.21640    0.07180    2.85560    0.01120    9.40790 2605.44630    2.57580   55.52380 -130.06590    9.85140   10.02350    9.06750 1943.60070
 6229.00000   54.19060   69.61490  200.48960  112.70070   53.89300    0.18230    0.06450    3.06120    0.01170    9.37430 2585.24410    2.58760   52.22480 -121.76160    9.25770    9.92880   11.62860 1943.99330
 6229.50000   49.76300   69.18100  200.41550  113.77720   47.52650    0.14220    0.06510    3.18430    0.01020    9.34890 2580.81030    2.59800   49.00500 -111.87580    8.94890    9.83500   14.43440 1944.38600
 6230.00000   48.58140   67.87280  200.12410  108.58820   47.79580    0.12820    0.06850    3.15660    0.00680    9.34670 2603.42090    2.59410   48.89100 -105.47900    8.65040    9.74200   15.36890 1944.77870
 6230.50000   50.66680   66.50720  199.74150  108.95350   50.59140    0.12710    0.07390    3.00760    0.00320    9.34450 2594.25780    2.58360   51.41720 -102.27870    8.36180    9.49370   14.14430 1945.17140
 6231.00000   56.55990   65.80750  199.35890  106.62450   55.22270    0.14540    0.07960    2.78890    0.00340    9.34240 2538.14890    2.57400   58.47950 -101.13870    8.08280    8.55750   11.68050 1945.56410
 6231.50000   60.99600   65.91850  199.27440  114.11500   62.43600    0.16990    0.08540    2.64310    0.00270    9.34020 2561.52220    2.56600   63.85090  -99.42090    7.78770    7.51090    9.60740 1945.95680
