~Version ---------------------------------------------------
VERS.   2.0 : CWLS log ASCII Standard -VERSION 2.0
WRAP.    NO : One line per depth step
DLM . SPACE : Column Data Section Delimiter
~Well ------------------------------------------------------
STRT .F                  148.0 : START DEPTH
STOP .F                 9028.0 : STOP DEPTH
STEP .F                    0.5 : STEP
NULL .                -9999.25 : NULL VALUE
COMP .                         : COMPANY
WELL .                         : WELL
FLD  .                         : FIELD
LOC  .                         : LOCATION
PROV .                         : PROVINCE
CNTY .                         : COUNTY
STAT .                         : STATE
CTRY .                         : COUNTRY
SRVC .                         : SERVICE COMPANY
DATE .                         : DATE
UWI  .                         : UNIQUE WELL ID
API  .                         : API NUMBER
SLAT .WGS84 2.8148881094058993 : SURFACE LATITUDE
SLON .WGS84  6.662970019962003 : SURFACE LONGITUDE
DATUM.F                2959.87 : DEPTH DATUM ELEV
~Curve Information -----------------------------------------
DEPT   .F     : 
GRS    .GAPI  : GAMMA RAY FROM SONIC LOG
DTCO   .US/F  : DELTA-T COMPRESSIONAL
DTST   .US/F  : DELTA-T STONELEY - MONOPOLE STONELEY
DTSM   .US/F  : DELTA-T SHEAR
GRD    .GAPI  : GAMMA RAY FROM DENSITY LOG
NPHI_LS.DEC   : NEUTRON POROSITY LIMESTONE
DPHI_LS.DEC   : DENSITY POROSITY LIMESTONE
PEF    .B/E   : PHOTOELECTRIC FACTOR
DRHO   .G/C3  : BULK DENSITY CORRECTION
CALD   .IN    : CALIPER FROM DENSITY LOG
TEND   .LB    : TENSION FROM DENSITY LOG
RHOB   .G/C3  : BULK DENSITY
GRR    .GAPI  : GAMMA RAY FROM RESISTIVITY LOG
SPR    .MV    : SPONTANEOUS POTENTIAL FROM RESISTIVITY LOG
ILD    .OHMM  : INDUCTION DEEP RESISTIVITY
ILM    .OHMM  : INDUCTION MEDIUM RESISTIVITY
SFLU   .OHMM  : SHALLOW FOCUSED RESISTIVITY (UNAVERAGED)
TENR   .LB    : TENSION FROM RESISTIVITY LOG
~Params ----------------------------------------------------
~Other -----------------------------------------------------
~ASCII -----------------------------------------------------
# ...
 5608.00000   60.40090   69.75810  201.12300  128.02080   65.93500    0.16170    0.13810    2.25200    0.03440    9.60740 2278.84230    2.47380   64.22080 -156.93670    4.97240    4.67790    4.53600 1764.89600
 5608.50000   60.32870   70.88660  202.46800  130.32520   68.96510    0.18980    0.14890    2.23720    0.02070    9.66190 2284.60690    2.45520   64.63610 -159.96390    4.80870    4.38360    3.96510 1765.17200
 5609.00000   60.27600   71.91500  203.81300  129.34730   70.19050    0.20220    0.15210    2.24130    0.00910    9.71630 2290.66210    2.44990   64.46970 -160.18680    4.65030    4.20290    3.94150 1764.43480
 5609.50000   60.53430   72.94350  204.58780  128.98890   70.77460    0.20500    0.14910    2.25080    0.00480    9.72740 2298.23950    2.45500   65.83030 -159.80820    4.51070    4.13560    3.99970 1763.93050
 5610.00000   62.11050   73.97200  204.16210  132.02740   69.43270    0.20190    0.14510    2.28780    0.00500    9.73500 2305.11990    2.46180   66.37310 -157.69020    4.41350    4.06680    4.16850 1763.42640
 5610.50000   64.34190   74.52290  203.81680  132.26540   65.86480    0.19640    0.14190    2.32470    0.00540    9.74070 2311.35380    2.46740   64.54180 -155.91200    4.31840    4.05640    4.43620 1763.09840
 5611.00000   64.96470   73.93770  203.73390  129.65940   61.95570    0.19240    0.14400    2.36180    0.00660    9.73100 2309.39110    2.46430   61.54250 -148.23430    4.22540    4.04610    4.73550 1763.82170
 5611.50000   64.57430   73.97530  203.73170  128.75720   60.44490    0.19110    0.14820    2.37720    0.00780    9.73190 2314.74170    2.46030   59.91520 -137.50560    4.14160    4.03570    4.81370 1764.54500
 5612.00000   63.80620   74.50590  203.72960  131.78200   63.24280    0.19120    0.15240    2.37430    0.00690    9.73130 2314.38600    2.45640   62.02250 -124.64300    4.11340    4.07510    4.89320 1765.20310
 5612.50000   63.04910   74.74190  203.75990  131.67380   66.04650    0.19290    0.15530    2.35220    0.00360    9.70830 2292.43900    2.45100   64.76310 -111.66860    4.15970    4.11940    4.97410 1765.86040
 5613.00000   62.34100   74.58660  203.92330  130.32960   65.70010    0.19510    0.15460    2.30000    0.00250    9.67220 2283.79150    2.44160   68.43150  -97.90890    4.22670    4.16420    5.08820 1766.51760
 5613.50000   61.61690   74.28600  203.78290  129.68260   64.18600    0.19960    0.15300    2.28400    0.00130    9.63900 2290.81810    2.44110   71.93340  -85.71770    4.29470    4.20950    5.32490 1766.04980
 5614.00000   60.91230   74.55240  203.44640  130.86470   64.00690    0.20380    0.14960    2.26890    0.00100    9.61450 2289.86250    2.44770   74.09120  -76.68350    4.36380    4.25530    5.44440 1765.20810
 5614.50000   61.32650   75.43950  203.14370  132.84380   64.44440    0.20790    0.14580    2.28070    0.00140    9.59980 2281.20020    2.45680   73.14130  -69.17150    4.47980    4.24610    5.68680 1776.83980
 5615.00000   62.79340   75.67940  203.06380  133.75840   65.11560    0.20810    0.14150    2.32600    0.00300    9.56970 2279.30740    2.46600   71.73890  -64.44440    4.60940    4.22920    6.37480 1782.34990
 5615.50000   64.26020   75.91940  203.06380  133.76070   66.28820    0.20110    0.13670    2.43550    0.00450    9.53890 2279.09130    2.47440   71.19000  -63.39740    4.73630    4.37340    9.38220 1773.08640
 5616.00000   65.08160   75.93340  202.99840  133.45910   67.05350    0.19250    0.13340    2.55950    0.00610    9.49670 2275.91890    2.48220   70.33690  -63.90260    4.90230    4.99130   52.99400 1763.82300
 5616.50000   64.82770   75.73250  202.76280  132.72390   66.97310    0.18660    0.12660    2.69060    0.00540    9.45120 2268.75460    2.49000   68.02970  -67.61300    5.47810    5.78360  442.61380 1765.07590
 5617.00000   62.17550   74.75520  202.24840  131.92960   64.11050    0.18000    0.11450    2.85770    0.00400    9.39850 2295.53250    2.50520   65.09190  -71.91690    6.18030    6.82930 1211.42570 1765.77590
 5617.50000   59.34630   71.54260  201.15610  127.15820   62.82450    0.15910    0.09850    3.16510    0.00290    9.33550 2288.03150    2.54150   63.77430  -73.44210    7.52050    8.34800 1995.88000 1764.09660
 5618.00000   60.11570   69.11390  200.06380  119.47610   66.29130    0.14080    0.08790    3.46680    0.00070    9.23530 2273.27950    2.55450   68.79280  -74.44520    9.07730   10.07650 1995.57210 1764.30800
 5618.50000   65.28940   68.24640  198.97150  120.27200   74.53930    0.12990    0.08500    3.70080   -0.00170    9.10640 2284.90090    2.56430   76.25500  -75.62790   11.07340   12.76820 1992.21610 1764.51940
 5619.00000   71.10470   67.65920  198.15010  121.28880   78.70610    0.14520    0.08810    3.84310   -0.00200    9.04710 2284.37920    2.56270   80.88060  -78.95140   14.17620   16.34560 1988.86670 1764.73070
 5619.50000   71.27120   67.17920  198.15010  121.39180   75.16430    0.15730    0.09060    3.91510   -0.00070    8.98780 2289.35570    2.55750   77.85230  -83.89530   18.38520   21.20060 1985.52200 1764.94210
 5620.00000   67.90140   66.67000  199.11610  120.38240   68.75450    0.15640    0.09080    3.92970    0.00170    8.96130 2295.73950    2.55450   69.85040  -86.11460   23.67000   26.95350 1729.96330 1765.15340
 5620.50000   61.75130   66.55350  199.60900  119.37300   62.68490    0.15160    0.09090    3.81440    0.00150    8.95690 2304.92720    2.55400   60.12580  -87.79500   29.95290   32.23310  598.94790 1765.36490
 5621.00000   59.67790   66.86600  199.39760  118.11050   62.83580    0.14550    0.09480    3.61070   -0.00010    8.95250 2291.85060    2.54840   60.39790  -88.39990   33.63120   35.03850  161.65160 1765.57630
 5621.50000   59.79540   67.00650  198.49040  117.20680   67.41000    0.14050    0.10130    3.33150   -0.00250    8.94810 2287.03980    2.54190   65.48120  -88.79890   36.16770   37.14350   96.44260 1765.78760
 5622.00000   64.80230   66.54510  197.92790  116.46140   73.39620    0.14310    0.10740    3.13520   -0.00350    8.94380 2293.80030    2.53540   72.44380  -89.19780   37.01920   38.55210   77.84350 1765.99900
 5622.50000   69.84820   65.95110  198.09280  115.89390   77.53770    0.15000    0.10360    3.33130   -0.00550    8.93940 2289.14160    2.52580   76.62990  -89.34390   37.82630   38.93370   57.64720 1766.21040
 5623.00000   72.09780   65.35700  198.53090  115.23730   79.42390    0.14400    0.09400    3.62150   -0.00620    8.93500 2269.60600    2.54100   77.33510  -89.64350   37.41750   38.77730   54.21680 1766.42180
 5623.50000   73.03520   64.76300  198.87550  114.65100   80.52170    0.12870    0.08530    3.80960   -0.00620    8.93060 2291.05540    2.56420   78.29960  -90.65600   36.30380   38.25220   58.26230 1766.63320
 5624.00000   73.86200   64.47980  198.90480  114.06470   80.47870    0.12090    0.08050    3.87160   -0.00360    8.92620 2306.95700    2.56910   80.29080  -93.23180   34.13230   35.40900   62.86000 1766.84460
 5624.50000   74.32830   64.48170  198.24700  114.05010   79.82310    0.13350    0.08050    3.82040    0.00130    8.92190 2277.34160    2.57390   82.59560  -94.43210   32.09080   31.37050   57.21240 1767.05590
 5625.00000   74.19980   64.68750  198.14090  115.83940   78.13810    0.15180    0.08200    3.64400    0.00250    8.93110 2272.93260    2.57320   81.63980  -93.79210   30.41540   27.79250   47.53130 1767.26730
 5625.50000   73.22680   65.56550  198.65920  118.27260   74.77050    0.16240    0.08350    3.51150    0.00010    8.92230 2327.93950    2.57090   79.89280  -90.62060   28.98890   25.21510   37.49040 1767.47880
 5626.00000   73.45870   67.78670  199.17750  120.70570   70.36500    0.17050    0.08180    3.52890   -0.00050    8.91780 2318.67970    2.56940   78.93900  -87.78100   27.62930   23.84600   31.06280 1767.69010
 5626.50000   73.49330   69.69430  199.65500  122.41550   67.28560    0.17650    0.07780    3.61000   -0.00110    8.91340 2311.97310    2.56890   80.60220  -86.81960   26.33340   22.53470   29.26710 1767.90150
 5627.00000   72.26660   69.64650  199.65150  123.53350   66.84280    0.17460    0.07230    3.73330   -0.00170    8.90890 2332.43040    2.57460   81.79070  -85.56260   25.26510   21.81810   31.55340 1768.11290
