~Version ---------------------------------------------------
VERS.   2.0 : CWLS log ASCII Standard -VERSION 2.0
WRAP.    NO : One line per depth step
DLM . SPACE : Column Data Section Delimiter
~Well ------------------------------------------------------
STRT .F                  148.0 : START DEPTH
STOP .F                 9028.0 : STOP DEPTH
STEP .F                    0.5 : STEP
NULL .                -9999.25 : NULL VALUE
COMP .                         : COMPANY
WELL .                         : WELL
FLD  .                         : FIELD
LOC  .                         : LOCATION
PROV .                         : PROVINCE
CNTY .                         : COUNTY
STAT .                         : STATE
CTRY .                         : COUNTRY
SRVC .                         : SERVICE COMPANY
DATE .                         : DATE
UWI  .                         : UNIQUE WELL ID
API  .                         : API NUMBER
SLAT .WGS84 2.8148881094058993 : SURFACE LATITUDE
SLON .WGS84  6.662970019962003 : SURFACE LONGITUDE
DATUM.F                2959.87 : DEPTH DATUM ELEV
~Curve Information -----------------------------------------
DEPT   .F     : 
GRS    .GAPI  : GAMMA RAY FROM SONIC LOG
DTCO   .US/F  : DELTA-T COMPRESSIONAL
DTST   .US/F  : DELTA-T STONELEY - MONOPOLE STONELEY
DTSM   .US/F  : DELTA-T SHEAR
GRD    .GAPI  : GAMMA RAY FROM DENSITY LOG
NPHI_LS.DEC   : NEUTRON POROSITY LIMESTONE
DPHI_LS.DEC   : DENSITY POROSITY LIMESTONE
PEF    .B/E   : PHOTOELECTRIC FACTOR
DRHO   .G/C3  : BULK DENSITY CORRECTION
CALD   .IN    : CALIPER FROM DENSITY LOG
TEND   .LB    : TENSION FROM DENSITY LOG
RHOB   .G/C3  : BULK DENSITY
GRR    .GAPI  : GAMMA RAY FROM RESISTIVITY LOG
SPR    .MV    : SPONTANEOUS POTENTIAL FROM RESISTIVITY LOG
ILD    .OHMM  : INDUCTION DEEP RESISTIVITY
ILM    .OHMM  : INDUCTION MEDIUM RESISTIVITY
SFLU   .OHMM  : SHALLOW FOCUSED RESISTIVITY (UNAVERAGED)
TENR   .LB    : TENSION FROM RESISTIVITY LOG
~Params ----------------------------------------------------
~Other -----------------------------------------------------
~ASCII -----------------------------------------------------
# ...
 8650.00000   76.26150   66.88050  196.34730  115.11500   74.31290    0.13240    0.10800    2.54320   -0.00470    8.57900 3430.40600    2.52530   67.09940  -15.74730    9.25750   10.58970   13.97860 2670.50760
 8650.50000   95.20450   67.32720  196.42220  116.59510   91.56830    0.15260    0.11890    2.55530   -0.00270    8.56080 3422.09960    2.50660   78.26440  -14.68980   10.80610   11.95510   17.80170 2669.14160
 8651.00000  110.32000   69.30120  196.47630  120.54040  109.35270    0.19580    0.13100    2.56620   -0.00130    8.55470 3421.64090    2.48610  103.28780  -13.63220   12.55790   13.66990   30.79020 2667.77590
 8651.50000  119.92790   72.05510  196.68170  124.48570  120.13160    0.23580    0.13930    2.58480   -0.00000    8.55950 3421.18210    2.47190  111.46700  -12.57460   14.59240   15.88320   57.63780 2666.41020
 8652.00000  115.14760   74.80900  197.48450  127.70730  117.22650    0.25110    0.13520    2.60230   -0.00120    8.55000 3420.72340    2.47870  112.47300  -11.51710   16.95660   18.49930   96.14650 2665.04440
 8652.50000  107.17620   77.24330  198.13550  128.91180  107.96510    0.23810    0.12290    2.60230   -0.00210    8.54010 3420.26460    2.50000  105.06800  -10.45950   19.80990   21.68400   89.99770 2663.67850
 8653.00000   98.25590   78.52880  198.00070  127.21590  100.90800    0.21090    0.10620    2.62630   -0.00130    8.53160 3419.80590    2.52840   98.82330  -10.39030   23.07090   24.22890   64.35540 2662.31270
 8653.50000   91.53680   77.27730  197.52150  125.56040   98.12470    0.18370    0.09600    2.66690    0.00090    8.51360 3419.34720    2.54600   94.67370  -10.13400   25.64740   26.72870   43.55350 2660.94700
 8654.00000   88.67310   75.62150  197.66300  123.18640   98.86820    0.17490    0.09340    2.73280    0.00260    8.49990 3418.88840    2.55020   98.70250   -9.95330   28.40740   29.48640   35.19460 2659.58130
 8654.50000   89.75070   74.24700  196.74290  121.13000  100.80060    0.18090    0.10320    2.78290    0.00260    8.49200 3423.07060    2.53360  104.06760   -9.21330   29.06130   31.80660   41.34540 2658.21560
 8655.00000   93.89090   72.98150  196.28200  121.11220  104.73680    0.19810    0.11220    2.68730    0.00240    8.48950 3425.13990    2.51820  108.27260   -9.24220   28.53990   33.77340   62.95310 2656.84960
 8655.50000   98.65600   72.40070  196.25860  121.65260  106.62800    0.20960    0.11300    2.57800    0.00100    8.48250 3425.59690    2.51670  109.20010   -9.27110   26.27760   31.67710   87.27780 2655.48390
 8656.00000  101.42020   72.74870  195.99430  122.22530  105.65160    0.20780    0.10600    2.57770   -0.00140    8.48250 3426.05420    2.52870  105.66990   -9.32590   26.10420   29.58770   69.97180 2654.11820
 8656.50000  103.09000   73.42460  195.79630  122.79800  102.88180    0.20040    0.09660    2.58120   -0.00210    8.48370 3426.51150    2.54470  101.61900   -9.43180   27.02060   29.73050   54.06160 2653.39720
 8657.00000   99.91160   73.96090  195.94940  121.99940  100.43090    0.19420    0.09160    2.57750   -0.00050    8.48310 3426.96880    2.55330   98.22090   -9.51830   28.35210   30.59470   43.62190 2658.27590
 8657.50000   94.50360   73.32910  195.79040  120.09360   97.92920    0.18980    0.09220    2.48310    0.00140    8.48020 3427.42580    2.55240   95.02180   -9.51680   29.24510   31.48410   44.36970 2667.57060
 8658.00000   90.10640   72.21990  195.52310  118.46150   96.36250    0.18150    0.09430    2.44630    0.00270    8.47980 3427.88310    2.54880   91.82260   -9.07280   29.62680   32.22850   50.68580 2676.86520
 8658.50000   91.66290   71.16440  195.40050  117.80560   97.14760    0.17750    0.09620    2.44570    0.00450    8.48200 3428.34030    2.54550   92.04890   -8.57440   29.79350   32.63190   57.29420 2680.94950
 8659.00000   94.57460   70.94230  195.51140  117.89260   99.88950    0.18160    0.09770    2.55400    0.00630    8.48630 3428.79760    2.54300   93.61190   -7.98840   29.62230   33.04040   65.19190 2678.85820
 8659.50000   96.66190   70.88740  195.62120  118.15950  102.85870    0.19000    0.10050    2.69820    0.00740    8.49000 3429.25460    2.53820   97.68380   -7.40570   29.52180   33.45400   77.01080 2678.39260
 8660.00000  101.12660   71.47550  195.53570  120.54870  104.68890    0.19540    0.10300    2.75290    0.00690    8.49020 3429.71190    2.53390  102.36160   -7.15870   29.44510   33.58700   80.06760 2677.92680
 8660.50000  105.70380   72.51870  195.76740  122.78920  106.22170    0.20100    0.10590    2.76730    0.00440    8.49030 3430.16920    2.52900  107.34560   -6.91170   29.36860   32.04400   72.51630 2677.46120
 8661.00000  107.37800   73.56200  196.25680  123.69490  106.86820    0.20790    0.10910    2.68890    0.00180    8.49350 3430.62650    2.52340  108.75810   -6.66440   28.55330   30.06480   52.60200 2676.99540
 8661.50000  105.66270   74.55180  196.98650  124.11180  107.42290    0.21800    0.11020    2.61140    0.00090    8.50080 3431.08370    2.52160  106.21810   -6.41690   27.03260   28.20790   41.97170 2676.52980
 8662.00000  101.91950   74.61930  196.30840  124.50290  106.24520    0.22160    0.10530    2.57810    0.00180    8.51420 3431.54080    2.52980  102.26570   -6.39590   25.41110   25.72930   38.70820 2676.06420
 8662.50000  101.52910   74.81720  195.95360  124.61230  104.04490    0.21470    0.09440    2.55580    0.00320    8.53060 3431.99800    2.56870   98.23480   -6.38700   23.72480   22.87330   33.38450 2675.59840
 8663.00000  102.11720   74.92460  196.07430  124.03680  100.88730    0.20820    0.08310    2.53990    0.00460    8.54940 3432.45530    2.57550   97.31790   -6.35620   22.49420   20.33430   27.71680 2675.13280
 8663.50000   92.83370   74.41440  196.19510  122.72070   96.31000    0.20310    0.07540    2.54810    0.00570    8.55550 3432.91260    2.58190   96.57150   -6.83630   22.22620   20.49320   24.32670 2674.66700
 8664.00000   79.23840   73.64190  196.26290  119.05030   89.33050    0.19750    0.07170    2.59860    0.00410    8.55520 3433.36960    2.58740   91.72200   -7.36460   21.96140   21.31610   23.40970 2674.20140
 8664.50000   67.04670   69.63270  196.31980  115.56270   75.66770    0.16630    0.06900    2.67530    0.00040    8.55140 3433.82690    2.59190   81.49130   -7.89300   21.69970   22.01560   26.79600 2673.73560
 8665.00000   60.65400   66.80580  196.23710  110.67460   66.07150    0.12000    0.06860    2.85390   -0.00220    8.55020 3434.28420    2.59280   69.62840   -8.63500   21.44120   22.26490   31.47920 2673.27000
 8665.50000   57.92460   64.53940  195.94520  106.50400   62.43310    0.08720    0.06720    3.14220   -0.00550    8.55310 3434.74150    2.59510   63.75930   -9.47770   21.18570   22.10480   35.16280 2672.80420
 8666.00000   55.03570   62.28470  195.07390  102.81840   62.54000    0.08840    0.05970    3.50060   -0.00770    8.56300 3435.19850    2.60800   62.52720   -9.89620   20.38250   21.64770   32.57440 2672.07740
 8666.50000   52.65060   60.95350  194.18980  102.88980   62.77050    0.10060    0.05180    3.65440   -0.00900    8.57460 3430.98970    2.62150   63.11640   -9.91920   18.78240   19.84060   27.23840 2665.24490
 8667.00000   53.37930   60.38380  193.44910  103.86520   62.46270    0.10830    0.04870    3.22420   -0.00920    8.58960 3425.69090    2.62680   63.46440   -9.94230   17.30790   18.16770   22.49340 2658.41240
 8667.50000   58.16580   60.52550  193.69400  105.45760   63.23300    0.10680    0.05750    2.80660   -0.00850    8.60450 3440.14040    2.61180   63.52360   -9.96540   15.94920   16.63590   19.92200 2651.85420
 8668.00000   65.71370   61.69840  194.10930  107.05000   66.82650    0.10340    0.07430    2.53220   -0.00800    8.62610 3459.64430    2.58290   64.18560   -9.72830   14.00220   15.16990   17.61370 2650.87330
 8668.50000   71.84100   63.54220  194.52450  108.86100   72.66840    0.10410    0.08880    2.43520   -0.00740    8.64360 3448.60400    2.55900   69.79010   -9.44240   12.17570   12.66000   14.68520 2653.49560
 8669.00000   73.43870   65.11460  194.93980  111.17820   77.73900    0.11300    0.09720    2.36570   -0.00530    8.64580 3429.55270    2.54390   73.78090   -9.15650   10.64350   10.56530   12.47960 2656.78520
