~Version ---------------------------------------------------
VERS.   2.0 : CWLS log ASCII Standard -VERSION 2.0
WRAP.    NO : One line per depth step
DLM . SPACE : Column Data Section Delimiter
~Well ------------------------------------------------------
STRT .F                  148.0 : START DEPTH
STOP .F                 9028.0 : STOP DEPTH
STEP .F                    0.5 : STEP
NULL .                -9999.25 : NULL VALUE
COMP .                         : COMPANY
WELL .                         : WELL
FLD  .                         : FIELD
LOC  .                         : LOCATION
PROV .                         : PROVINCE
CNTY .                         : COUNTY
STAT .                         : STATE
CTRY .                         : COUNTRY
SRVC .                         : SERVICE COMPANY
DATE .                         : DATE
UWI  .                         : UNIQUE WELL ID
API  .                         : API NUMBER
SLAT .WGS84 2.8148881094058993 : SURFACE LATITUDE
SLON .WGS84  6.662970019962003 : SURFACE LONGITUDE
DATUM.F                2959.87 : DEPTH DATUM ELEV
~Curve Information -----------------------------------------
DEPT   .F     : 
GRS    .GAPI  : GAMMA RAY FROM SONIC LOG
DTCO   .US/F  : DELTA-T COMPRESSIONAL
DTST   .US/F  : DELTA-T STONELEY - MONOPOLE STONELEY
DTSM   .US/F  : DELTA-T SHEAR
GRD    .GAPI  : GAMMA RAY FROM DENSITY LOG
NPHI_LS.DEC   : NEUTRON POROSITY LIMESTONE
DPHI_LS.DEC   : DENSITY POROSITY LIMESTONE
PEF    .B/E   : PHOTOELECTRIC FACTOR
DRHO   .G/C3  : BULK DENSITY CORRECTION
CALD   .IN    : CALIPER FROM DENSITY LOG
TEND   .LB    : TENSION FROM DENSITY LOG
RHOB   .G/C3  : BULK DENSITY
GRR    .GAPI  : GAMMA RAY FROM RESISTIVITY LOG
SPR    .MV    : SPONTANEOUS POTENTIAL FROM RESISTIVITY LOG
ILD    .OHMM  : INDUCTION DEEP RESISTIVITY
ILM    .OHMM  : INDUCTION MEDIUM RESISTIVITY
SFLU   .OHMM  : SHALLOW FOCUSED RESISTIVITY (UNAVERAGED)
TENR   .LB    : TENSION FROM RESISTIVITY LOG
~Params ----------------------------------------------------
~Other -----------------------------------------------------
~ASCII -----------------------------------------------------
# ...
 8045.50000   81.52880   64.15540  196.00000  108.90710   74.20330    0.14150    0.06760    3.75540   -0.00130    8.47200 3203.54100    2.59410   72.33680  -63.47750   26.70460   32.48090   65.73720 2460.56540
 8046.00000   70.69940   63.03200  195.96460  107.82870   62.19530    0.10250    0.06140    3.82110   -0.00320    8.47350 3218.69900    2.60500   58.36270  -65.74890   26.56100   35.26960   90.69470 2468.52150
 8046.50000   58.32620   61.63660  196.08720  104.81770   63.32780    0.07880    0.06480    3.32600   -0.00320    8.47080 3223.44820    2.59930   59.01680  -67.98230   25.49370   36.81920  130.53840 2476.66670
 8047.00000   60.57360   60.28080  196.20980  104.17700   73.45880    0.09010    0.07890    2.87090   -0.00270    8.46550 3236.08960    2.57520   68.69440  -71.99170   24.09590   32.86500  130.76530 2480.81350
 8047.50000   70.38750   59.96790  196.24580  104.64220   84.99950    0.11660    0.09000    2.62960   -0.00110    8.47610 3248.73100    2.55640   81.72960  -77.97680   22.34820   29.35640   81.84340 2483.26710
 8048.00000   83.04860   60.65540  196.16380  105.48380   93.59040    0.14620    0.09720    2.52760    0.00240    8.47730 3261.37230    2.54380   97.44430  -81.06110   19.66080   26.22230   53.85290 2490.65040
 8048.50000   95.51830   63.25690  196.08190  107.67990  101.07990    0.16150    0.10110    2.52600    0.00650    8.47000 3261.65310    2.53720  101.21450  -74.86180   17.29680   23.77810   39.97470 2498.03390
 8049.00000   97.87950   65.88770  196.00000  111.32770  109.11260    0.17470    0.10510    2.52580    0.00630    8.47870 3245.15800    2.53040  103.63780  -68.46910   15.22800   21.63810   35.64720 2492.26370
 8049.50000   99.26770   67.97460  195.93360  113.87470  110.61620    0.19660    0.11070    2.44840    0.00410    8.48570 3227.57960    2.52070  103.56580  -62.20490   13.40660   17.29710   33.77460 2484.89400
 8050.00000  101.11590   70.06150  196.30580  115.21820  100.58190    0.19910    0.11600    2.34350    0.00370    8.47970 3217.92110    2.51170   99.39110  -58.51710   11.80310   13.84070   29.26990 2477.52470
 8050.50000   98.19490   70.87730  196.67790  116.42450   91.26710    0.18470    0.12040    2.31750    0.00340    8.47370 3216.30760    2.50430   96.60250  -54.86790   10.39130   11.99490   22.66570 2472.25220
 8051.00000   92.62430   70.86750  197.05010  116.29930   93.67900    0.16460    0.12640    2.35000    0.00300    8.47040 3231.30370    2.49410  100.37790  -51.10980    9.14840   10.92270   17.85660 2475.20580
 8051.50000   90.72270   70.79020  197.40720  115.61550  101.13720    0.18620    0.13990    2.36310    0.00050    8.47020 3253.70090    2.47130  105.35950  -47.87460    8.05420    9.94640   16.89600 2478.22090
 8052.00000   94.69500   70.79020  197.68560  116.57610  106.01740    0.22800    0.15420    2.29500   -0.00090    8.48520 3276.09840    2.44800  106.58300  -48.00930    7.09080    8.72490   19.76730 2483.19870
 8052.50000   96.83570   70.94460  197.96400  118.28170   94.19500    0.27640    0.17080    2.23930    0.00010    8.47840 3288.52320    2.41800   95.21290  -52.73950    6.52750    7.45220   19.98080 2488.17630
 8053.00000   83.98530   71.44710  198.35130  121.27510   77.37990    0.25650    0.16750    2.27170    0.00130    8.46890 3287.05960    2.42350   81.88560  -61.07490    6.40130    6.49080   13.86830 2493.15410
 8053.50000   63.46230   72.06000  199.38290  123.05910   55.16980    0.20720    0.15250    2.53890    0.00410    8.46390 3257.28910    2.44880   60.70010  -69.41030    6.35990    6.77630    8.63460 2491.74340
 8054.00000   49.63370   71.56970  199.51790  123.79520   43.98460    0.12270    0.11780    2.80600    0.00710    8.46550 3234.29880    2.51180   46.95660  -77.12330    6.54390    7.75820    8.54430 2485.38400
 8054.50000   39.14040   69.21030  198.80070  116.77610   38.09730    0.05650    0.06190    2.98460    0.00650    8.46700 3246.10330    2.60220   42.20480  -81.55100    6.82630    9.04660   14.80990 2479.02470
 8055.00000   37.41810   65.89940  197.90610  113.08730   39.15590    0.03490    0.04580    3.15600    0.00680    8.46860 3243.86060    2.63170   39.74310  -79.52050    7.14870   10.54890   34.31240 2477.56710
 8055.50000   36.71360   62.46210  197.01160  107.18560   39.97870    0.02820    0.04190    3.30730    0.00290    8.47010 3232.22580    2.63830   37.28140  -76.08610    7.75440   12.31440   68.51850 2478.10110
 8056.00000   35.56770   60.14380  196.11700  103.33530   36.97810    0.02320    0.03750    3.43570    0.00040    8.47170 3184.28320    2.64580   35.39720  -72.94410    8.53200   14.37680  148.01740 2478.78830
 8056.50000   32.90990   57.96720  194.47240   98.42830   33.34490    0.02030    0.02800    3.48350   -0.00060    8.47320 3116.96090    2.66190   33.79250  -72.52460    9.32000   18.52470  533.29800 2479.23950
 8057.00000   32.32370   56.36550  194.08530   96.19850   32.09070    0.01620    0.01720    3.42940    0.00120    8.47480 3158.02250    2.68040   31.81040  -72.81210    9.97090   21.13210 1230.37600 2478.81860
 8057.50000   32.82490   54.76370  193.88690   94.68040   33.36330    0.01500    0.01710    3.27800    0.00280    8.47680 3197.26420    2.68080   31.68910  -75.26600    9.95080   21.10960 1836.45950 2478.39770
 8058.00000   33.76040   53.79660  194.21010   95.25980   36.93820    0.02140    0.03160    3.11960    0.00230    8.48630 3225.36330    2.65660   35.34870  -77.90470    9.16010   18.83910 1863.28860 2478.51070
 8058.50000   34.76090   53.40560  194.33810   95.82140   42.28890    0.03450    0.05610    2.96640   -0.00050    8.49390 3232.52080    2.61470   39.66470  -79.86910    8.43640   14.66270  798.06560 2478.67630
 8059.00000   39.13700   54.11180  194.39600   94.02250   53.68770    0.05830    0.08600    2.76660   -0.00090    8.48790 3218.91020    2.56390   52.74640  -77.30650    7.42000   11.16520  197.32620 2478.84200
 8059.50000   52.22500   55.85830  194.80450   98.90620   74.74260    0.08860    0.12360    2.61520   -0.00050    8.48550 3210.83150    2.49890   71.78030  -72.49720    7.02850    9.29930   34.90010 2477.18360
 8060.00000   72.20880   56.90890  196.00090  111.02270  102.22150    0.16390    0.14950    2.53530    0.00250    8.48300 3217.97090    2.45440  103.78970  -70.47410    7.00830    8.28990   11.69350 2477.57250
 8060.50000   96.84340   57.29220  197.20890  117.71760  123.71000    0.21340    0.14530    2.49780    0.00670    8.48100 3225.11010    2.46150  127.38570  -73.35040    6.98810    8.68560   12.21850 2479.82640
 8061.00000  119.14900   62.89880  197.91420  123.76500  128.51200    0.24810    0.13560    2.45960    0.01080    8.49040 3236.95830    2.47790  132.61800  -84.45550    6.87320    9.26030   21.82280 2482.08030
 8061.50000  125.87350   70.48450  198.19770  125.26380  122.52300    0.23920    0.12300    2.41460    0.01080    8.49930 3228.74120    2.49960  121.13580  -95.69560    6.77710    9.87300   43.85020 2484.33420
 8062.00000  124.26550   76.18740  198.29190  126.25620  117.38560    0.21470    0.11760    2.37220    0.01070    8.50720 3227.21730    2.50880  114.76010 -112.39210    6.82240   10.31340   67.90510 2486.58840
 8062.50000  115.84800   77.38730  198.10830  122.41480  115.98170    0.20110    0.11550    2.30540    0.00920    8.52380 3220.93330    2.51250  111.92550 -126.41720    6.86800   10.29650   58.77940 2488.84230
 8063.00000  110.43310   75.39040  197.57190  121.44870  109.53750    0.21870    0.11430    2.26350    0.00850    8.53720 3214.64970    2.51460  109.21070 -135.49540    7.12410    9.60180   38.92010 2491.09620
 8063.50000   99.16730   72.80130  197.21950  118.28310   84.85900    0.21610    0.10700    2.32170    0.00710    8.52440 3208.36600    2.52690   93.42350 -135.43460    7.44220    8.73680   25.41820 2493.35010
 8064.00000   79.07560   70.42170  196.95420  116.31370   63.29730    0.17910    0.08930    2.61580    0.00470    8.51010 3209.90410    2.55710   68.78780 -132.22090    7.79500    8.20650   13.14680 2495.60400
 8064.50000   59.52200   67.77950  196.72770  111.53270   46.21520    0.11550    0.06840    2.91230    0.00160    8.53100 3221.61940    2.59280   46.98570 -124.99250    7.93260    8.56280   13.36500 2497.85790
