~Version ---------------------------------------------------
VERS.   2.0 : CWLS log ASCII Standard -VERSION 2.0
WRAP.    NO : One line per depth step
DLM . SPACE : Column Data Section Delimiter
~Well ------------------------------------------------------
STRT .F                   95.0 : START DEPTH
STOP .F                 5491.0 : STOP DEPTH
STEP .F                    0.5 : STEP
NULL .                -9999.25 : NULL VALUE
COMP .                         : COMPANY
WELL .                         : WELL
FLD  .                         : FIELD
LOC  .                         : LOCATION
PROV .                         : PROVINCE
CNTY .                         : COUNTY
STAT .                         : STATE
CTRY .                         : COUNTRY
SRVC .                         : SERVICE COMPANY
DATE .                         : DATE
UWI  .                         : UNIQUE WELL ID
API  .                         : API NUMBER
SLAT .WGS84 3.3617013234043966 : SURFACE LATITUDE
SLON .WGS84  7.688234486331993 : SURFACE LONGITUDE
DATUM.F                    nan : DEPTH DATUM ELEV
~Curve Information -----------------------------------------
DEPT   .F     : 1 MEASURED DEPTH
DTCO   .US/F  : DELTA-T COMPRESSIONAL
DTSM   .US/F  : DELTA-T SHEAR
AE10   .OHMM  : ARRAY INDUCTION RESISTIVITY EVIRONMENTALLY COMPENSATED LOG PROCESSING AE10
AE30   .OHMM  : ARRAY INDUCTION RESISTIVITY EVIRONMENTALLY COMPENSATED LOG PROCESSING AE30
AE90   .OHMM  : ARRAY INDUCTION RESISTIVITY EVIRONMENTALLY COMPENSATED LOG PROCESSING AE90
GRD    .GAPI  : GAMMA RAY FROM DENSITY LOG
TNPH_LS.DEC   : THERMAL NEUTRON POROSITY [LIMESTONE]
HDRA   .G/C3  : HRDD SPINE AND RIBS DENSITY CORRECTION
PEFZ   .B/E   : HRDD STANDARD RESOLUTION FORMATION PHOTOELECTRIC FACTOR
CALD   .IN    : CALIPER FROM DENSITY LOG
DPHZ_LS.DEC   : HGRD STANDARD RESOLUTION DENSITY POROSITY
RHOZ   .G/C3  : HRDD STANDARD RESOLUTION FORMATION DENSITY
~Params ----------------------------------------------------
~Other -----------------------------------------------------
~ASCII -----------------------------------------------------
# ...
 4743.00000   72.87610   95.04240   -9999.25   91.58660   78.45300   24.53180    0.00330   -0.00260    4.58310    8.96250   -0.11790    2.92540
 4743.50000   73.41140   95.96700   -9999.25  177.51660  125.71610   16.44120   -0.00880   -0.00220    4.85760    8.96360   -0.13720    2.95280
 4744.00000   73.30890   95.44150   -9999.25  293.04560  201.45240   12.04960   -0.01290   -0.00300    5.00820    8.96460   -0.15420    2.97690
 4744.50000   73.17110   95.72390   -9999.25  219.19810  211.33160   10.70940   -0.01500   -0.00370    5.09920    8.96560   -0.15820    2.98520
 4745.00000   72.94700   95.46270   -9999.25  159.28810  121.24880   11.75050   -0.01370   -0.00450    5.05080    8.96670   -0.15930    2.98560
 4745.50000   72.53360   94.24070 2002.39580  128.02800   97.98640   14.83840   -0.01010   -0.00770    4.95750    8.96770   -0.15400    2.98130
 4746.00000   72.17340   93.18660 2003.78450  121.91240   79.18710   16.54510   -0.00640   -0.01100    4.78660    8.96250   -0.14520    2.95130
 4746.50000   70.87980   92.16880 1183.89900  103.89570   65.61430   17.96990   -0.00010   -0.00990    4.53300    8.94800   -0.13690    2.94280
 4747.00000   70.12530   92.05150  479.32860   72.62300   51.21970   20.91010    0.01030   -0.00360    4.21740    8.94500   -0.12620    2.92000
 4747.50000   69.74850   92.72070  230.43900   50.60850   38.37970   22.68700    0.02110    0.00270    3.94560    8.95280   -0.11450    2.90310
 4748.00000   70.68800   93.22470  101.30950   34.13940   23.65440   22.62720    0.03010    0.00270    3.75700    8.96060   -0.10410    2.87460
 4748.50000   72.78420   94.67170   59.28190   23.02970   17.66240   20.98490    0.03880   -0.00050    3.62840    8.97000   -0.09110    2.85110
 4749.00000   74.08860   95.67830   31.32650   15.53530   11.95100   21.39790    0.05280   -0.00170    3.51160    8.98310   -0.07350    2.81620
 4749.50000   76.11100   96.85550   19.16900    9.11480    7.26340   24.71760    0.07270   -0.00270    3.39920    8.99620   -0.04720    2.78700
 4750.00000   76.87930   97.06400   11.77480    5.46130    5.11500   29.36210    0.09120   -0.00390    3.34530    9.00930   -0.03140    2.75780
 4750.50000   76.59390   97.00990    8.25590    5.34560    5.04550   33.53370    0.10330   -0.00490    3.33030    9.02230   -0.02390    2.75560
 4751.00000   75.64040   95.72110   19.22880    9.57470    8.20360   29.57250    0.08280   -0.00550    3.49130    9.03540   -0.04290    2.78760
 4751.50000   73.52180   93.64170   28.07740   18.05190   13.63200   24.36740    0.05190   -0.00390    3.72070    9.05610   -0.07550    2.82800
 4752.00000   72.58680   92.44210   43.49980   33.99220   31.91650   24.07840    0.03160   -0.00240    3.90560    9.07800   -0.09050    2.87300
 4752.50000   71.85960   93.06710   90.55980   34.65800   30.05870   27.00290    0.03060   -0.00150    4.02540    9.09990   -0.09380    2.86310
 4753.00000   72.59580   93.60840  178.90460   24.19240   20.93280   30.48200    0.04060   -0.00200    3.96480    9.12340   -0.07600    2.82640
 4753.50000   72.41600   93.71450  308.72430   16.88710   14.57750   30.43400    0.05310   -0.00270    3.85840    9.15460   -0.06190    2.81430
 4754.00000   73.65950   94.95340  513.09690   12.41860   12.16880   30.38610    0.06960   -0.00340    3.80270    9.18320   -0.05560    2.80600
 4754.50000   74.57690   96.29370  714.99210   13.54010   12.26380   29.67760    0.07670   -0.00470    3.79740    9.21170   -0.05240    2.80180
 4755.00000   74.79580   96.50660  920.82250   16.13080   14.72560   28.08890    0.07300   -0.00620    3.85920    9.24020   -0.05430    2.80250
 4755.50000   74.74190   96.19940 1135.46530   18.88580   17.98970   26.12520    0.06110   -0.00730    3.91800    9.26870   -0.05910    2.81300
 4756.00000   75.18940   96.00040 1262.31820   18.92310   17.97580   25.39180    0.05140   -0.00520    3.96560    9.29020   -0.06610    2.82630
 4756.50000   75.03280   96.16680 1259.65660   18.53190   17.92970   25.64450    0.03710   -0.00150    4.21830    9.31370   -0.07380    2.84830
 4757.00000   73.39720   95.90070  955.51920   22.66200   18.21730   21.54810    0.01890    0.00220    4.51220    9.35170   -0.10340    2.90380
 4757.50000   74.09680   96.68610  733.03820   35.01300   28.30310   15.65030    0.00170    0.00470    4.85250    9.38960   -0.12370    2.95520
 4758.00000   75.43800   98.38980  460.33930   32.41600   30.42380   11.69910   -0.00630    0.00480    4.98380    9.42820   -0.14360    2.95750
 4758.50000   77.32180  100.00730  301.11630   20.56090   20.44420   13.37560   -0.00610    0.00300    5.08450    9.46590   -0.13620    2.94370
 4759.00000   78.82550  101.63470  204.34780   14.44860   13.73800   24.36810    0.00530    0.00050    4.95440    9.47970   -0.11810    2.91610
 4759.50000   79.72440  102.88690  140.41680   11.70930   11.54590   35.44680    0.02440    0.00040    4.81810    9.50340   -0.10050    2.88580
 4760.00000   79.57700  102.34810  174.53730   15.61170   11.96900   37.09790    0.03010    0.00060    4.67680    9.52870   -0.09710    2.87530
 4760.50000   78.88270  101.50250  269.90580   26.89190   21.38890   36.38860    0.02280    0.00280    4.60130    9.55400   -0.10360    2.88090
 4761.00000   77.40820  100.26210  418.61400   46.85330   39.22030   31.58190    0.01140    0.00500    4.62520    9.57280   -0.11180    2.90100
 4761.50000   74.95020   98.56530  611.57460   75.60810   66.29390   25.15450    0.00010    0.00900    4.75820    9.58110   -0.13130    2.92830
 4762.00000   74.64060   98.29200  893.48050   99.64930   85.64370   18.10140   -0.00620    0.01110    4.88490    9.58940   -0.14340    2.95940
 4762.50000   74.93100   98.06480 1305.33060   88.12930   75.13320   14.51290   -0.00830    0.00910    4.95560    9.59780   -0.15010    2.96780
 4763.00000   75.33710   98.55600 1713.46890   61.43430   53.92130   17.77910   -0.00470    0.00370    4.87930    9.59810   -0.14450    2.95920
 4763.50000   75.91330   99.08560 2027.74350   50.35630   47.04080   20.96160   -0.00110   -0.00010    4.79400    9.59740   -0.13630    2.94490
 4764.00000   76.43360   98.82950 2048.48290   55.42220   48.35630   20.36530    0.00070   -0.00380    4.71780    9.58980   -0.13490    2.94140
 4764.50000   76.52230   97.25150   -9999.25   63.05140   51.11420   19.11810    0.00250   -0.00410    4.65000    9.57730   -0.13340    2.93810
 4765.00000   76.32330   96.54460   -9999.25   49.32900   44.15450   25.07220    0.00590   -0.00240    4.55130    9.56490   -0.12710    2.92910
 4765.50000   75.77960   95.87500   -9999.25   42.57290   40.61560   35.41580    0.01280   -0.00170    4.28440    9.59740   -0.10390    2.88660
 4766.00000   74.63990   94.93110   -9999.25   50.22130   43.68120   44.86740    0.01880   -0.00110    4.06520    9.59960   -0.09240    2.86020
 4766.50000   73.11720   94.30090   -9999.25   73.75850   58.55120   46.26770    0.02070   -0.00200    3.90910    9.59270   -0.08390    2.85100
 4767.00000   71.74620   92.76220   -9999.25  108.32710   82.22020   38.64090    0.01320   -0.00320    3.93450    9.59450   -0.08230    2.87740
 4767.50000   65.68650   91.98410   -9999.25  165.39300  115.45720   30.81650    0.00590   -0.00450    4.03610    9.59330   -0.10690    2.89730
 4768.00000   53.00730   91.08350   -9999.25  280.82420  149.13930   28.66820    0.00310   -0.00500    4.07920    9.59920   -0.10870    2.89610
 4768.50000   48.38030   90.75990   -9999.25  380.50380  171.65540   27.75190    0.00130   -0.00500    4.06880    9.61470   -0.10480    2.89230
 4769.00000   48.52020   91.78800   -9999.25  479.32700  197.57100   25.11360   -0.00210   -0.00490    4.11540    9.62960   -0.10530    2.89480
 4769.50000   49.26280   92.28010   -9999.25  564.48170  243.72710   18.26190   -0.00760   -0.00210    4.31100    9.63350   -0.11820    2.92400
 4770.00000   50.69350   93.37530   -9999.25  620.82950  294.04310   12.98190   -0.01560    0.00090    4.55770    9.65200   -0.13560    2.95320
 4770.50000   51.99590   94.91600   -9999.25  620.54900  313.29470    8.29320   -0.01990    0.00140    4.82920    9.67400   -0.14930    2.97630
