~Version ---------------------------------------------------
VERS.   2.0 : CWLS log ASCII Standard -VERSION 2.0
WRAP.    NO : One line per depth step
DLM . SPACE : Column Data Section Delimiter
~Well ------------------------------------------------------
STRT .F                   95.0 : START DEPTH
STOP .F                 5491.0 : STOP DEPTH
STEP .F                    0.5 : STEP
NULL .                -9999.25 : NULL VALUE
COMP .                         : COMPANY
WELL .                         : WELL
FLD  .                         : FIELD
LOC  .                         : LOCATION
PROV .                         : PROVINCE
CNTY .                         : COUNTY
STAT .                         : STATE
CTRY .                         : COUNTRY
SRVC .                         : SERVICE COMPANY
DATE .                         : DATE
UWI  .                         : UNIQUE WELL ID
API  .                         : API NUMBER
SLAT .WGS84 3.3617013234043966 : SURFACE LATITUDE
SLON .WGS84  7.688234486331993 : SURFACE LONGITUDE
DATUM.F                    nan : DEPTH DATUM ELEV
~Curve Information -----------------------------------------
DEPT   .F     : 1 MEASURED DEPTH
DTCO   .US/F  : DELTA-T COMPRESSIONAL
DTSM   .US/F  : DELTA-T SHEAR
AE10   .OHMM  : ARRAY INDUCTION RESISTIVITY EVIRONMENTALLY COMPENSATED LOG PROCESSING AE10
AE30   .OHMM  : ARRAY INDUCTION RESISTIVITY EVIRONMENTALLY COMPENSATED LOG PROCESSING AE30
AE90   .OHMM  : ARRAY INDUCTION RESISTIVITY EVIRONMENTALLY COMPENSATED LOG PROCESSING AE90
GRD    .GAPI  : GAMMA RAY FROM DENSITY LOG
TNPH_LS.DEC   : THERMAL NEUTRON POROSITY [LIMESTONE]
HDRA   .G/C3  : HRDD SPINE AND RIBS DENSITY CORRECTION
PEFZ   .B/E   : HRDD STANDARD RESOLUTION FORMATION PHOTOELECTRIC FACTOR
CALD   .IN    : CALIPER FROM DENSITY LOG
DPHZ_LS.DEC   : HGRD STANDARD RESOLUTION DENSITY POROSITY
RHOZ   .G/C3  : HRDD STANDARD RESOLUTION FORMATION DENSITY
~Params ----------------------------------------------------
~Other -----------------------------------------------------
~ASCII -----------------------------------------------------
# ...
 5079.00000   47.03610   89.22890  154.24070  122.22330  110.94980   31.83110    0.02280    0.01380    3.85000    8.31970   -0.07400    2.83890
 5079.50000   48.41130   92.46480  237.93530  181.67010  167.68210   28.58460    0.01880    0.01220    3.85690    8.31850   -0.07960    2.84810
 5080.00000   49.36970   94.06270  187.36510  142.87010  115.56780   28.76260    0.01790    0.00840    3.81980    8.32440   -0.07550    2.84880
 5080.50000   50.91980   97.43410  103.07700   84.64540   53.09790   35.39090    0.01830    0.00450    3.78210    8.32750   -0.06740    2.82750
 5081.00000   51.47600   99.24930   57.37790   52.71210   44.46370   35.22010    0.01600    0.00930    4.01880    8.32360   -0.07680    2.87060
 5081.50000   51.73620  100.04290   53.56740   52.36450   44.93590   32.50780    0.01070    0.01100    4.36190    8.32950   -0.09650    2.89020
 5082.00000   51.79820  102.20040   81.80360   70.53200   59.24380   25.03380    0.00190    0.01280    4.74390    8.33430   -0.11640    2.91880
 5082.50000   51.41890  102.29530  145.73370  125.85300  108.71760   17.67800   -0.00460    0.01120    4.91780    8.33680   -0.12750    2.92990
 5083.00000   51.81790  101.02630  184.83770  148.98050  139.05320   13.06600   -0.00930    0.00540    5.05480    8.33930   -0.13040    2.93670
 5083.50000   51.54120   99.79910  133.78140  114.17450  104.22040   13.84500   -0.00990   -0.00160    5.06330    8.34190   -0.13270    2.93860
 5084.00000   51.03880   98.60520  103.82690   90.25120   85.30090   15.14570   -0.00940   -0.00390    5.06420    8.34440   -0.13180    2.93680
 5084.50000   50.91150   97.88070  128.25510  102.62580   91.20180   14.71910   -0.00820   -0.00380    5.04270    8.34480   -0.13060    2.93820
 5085.00000   51.42570   96.21650  168.59040  136.39140  114.68750   10.75530   -0.00980   -0.00520    4.98610    8.34680   -0.13450    2.94110
 5085.50000   50.58530   95.55990  221.61090  180.49470  144.22110    6.36960   -0.01370   -0.01980    4.91400    8.34370   -0.13490    2.93760
 5086.00000   49.56560   94.01670  291.30590  225.75520  150.95390    5.53190   -0.01360   -0.03270    4.84200    8.34150   -0.13000    2.92750
 5086.50000   49.00930   92.47490  347.55820  282.36470  149.07480    7.73770   -0.01140   -0.02680    4.76440    8.32820   -0.12550    2.92490
 5087.00000   48.39290   91.24210  384.59600  343.36790  153.58330   12.78130   -0.00350   -0.01140    4.50110    8.31480   -0.12080    2.91150
 5087.50000   46.43040   90.32460  356.04730  340.39850  171.17450   19.14530    0.00530   -0.00530    4.17620    8.29690   -0.11170    2.89420
 5088.00000   45.79840   88.26530  314.89830  305.04470  175.46560   24.63190    0.01480   -0.00330    3.94340    8.27710   -0.09690    2.86210
 5088.50000   45.59430   87.40700  280.91430  262.04840  155.06780   28.29070    0.02180   -0.00140    3.78300    8.25810   -0.08380    2.84870
 5089.00000   44.43690   92.69650  194.13190  174.95510  118.39800   29.26470    0.02560   -0.00060    3.65200    8.24270   -0.07740    2.83270
 5089.50000   45.33230   99.41800  128.79150  115.60430   78.37480   30.26530    0.03000   -0.00030    3.57990    8.23610   -0.06920    2.82070
 5090.00000   48.99080  106.64900   84.56670   75.92770   51.19250   31.27030    0.03630   -0.00010    3.53350    8.23670   -0.06210    2.80870
 5090.50000   52.76560  112.60270   55.02760   48.76240   32.46500   31.79140    0.04140   -0.00100    3.50780    8.23730   -0.05690    2.79830
 5091.00000   56.63270  113.91110   34.28880   30.98540   20.58840   32.71930    0.04330   -0.00270    3.69820    8.24140   -0.05030    2.79720
 5091.50000   63.86520  112.54990   29.13870   28.41780   19.22380   32.52740    0.04310   -0.00240    3.99560    8.23080   -0.04970    2.79690
 5092.00000   58.24690  111.80640   28.20020   27.57640   22.66000   30.60990    0.03170   -0.00210    4.60130    8.23110   -0.06440    2.84240
 5092.50000   53.83800  104.51000   34.56940   31.57360   32.13770   25.79050    0.01910   -0.00640    5.06960    8.22540   -0.09190    2.89490
 5093.00000   54.15690  101.07050   49.22420   44.95630   46.07800   19.48920    0.00650   -0.01840    5.54160    8.21740   -0.12800    2.94390
 5093.50000   51.51240   96.62520   70.09140   64.01130   66.06510   13.50380   -0.00560   -0.02930    5.56270    8.20940   -0.14380    2.95770
 5094.00000   49.27590   95.73180   99.80480   91.14280   94.72200   10.48590   -0.00730   -0.02870    5.32090    8.20150   -0.13770    2.95480
 5094.50000   46.27890   90.74530  142.11440  129.77410  135.80920   11.99710   -0.00420   -0.02340    4.91680    8.19560   -0.13090    2.92980
 5095.00000   48.57760   90.39680  202.35980  184.77960  194.71880   15.85820    0.00230   -0.01650    4.51280    8.18320   -0.11850    2.90880
 5095.50000   47.07550   88.73010  250.62260  247.58240  225.01350   20.95990    0.00800   -0.01030    4.27490    8.17190   -0.10730    2.89960
 5096.00000   46.90340   88.76970  249.01350  244.55190  220.26010   24.48000    0.01280   -0.00460    4.02120    8.15880   -0.10270    2.88720
 5096.50000   45.07160   89.01460  215.23580  205.59730  196.60890   30.59190    0.01790   -0.00310    3.82050    8.15510   -0.10170    2.88340
 5097.00000   45.31200   89.50200  180.95090  172.84780  166.14610   35.03520    0.02570   -0.00160    3.59950    8.14810   -0.09940    2.87800
 5097.50000   49.56710   91.89330  152.12730  145.31490  140.40340   39.94660    0.03050   -0.00170    3.51890    8.14110   -0.09230    2.86860
 5098.00000   48.40940   91.80160  130.13540  125.85330  118.64910   41.89370    0.03680   -0.00300    3.43860    8.13160   -0.08270    2.84980
 5098.50000   47.02260   90.01490  117.82850  116.37800  110.25050   43.53370    0.03950   -0.00440    3.39960    8.11420   -0.07570    2.83970
 5099.00000   48.23060   91.46700  117.86900  116.37660  111.12610   44.69920    0.03590   -0.00510    3.46760    8.11450   -0.07830    2.84510
 5099.50000   51.56310   92.03560  155.61420  144.49820  121.87040   41.15900    0.02500   -0.00560    3.68050    8.11410   -0.08570    2.86540
 5100.00000   50.19090   92.59220  207.53220  199.41000  170.20350   32.19610    0.01220   -0.00510    4.03380    8.11360   -0.09750    2.88880
 5100.50000   49.42880   93.00310  295.54100  280.23380  237.70530   23.55830   -0.00070   -0.00460    4.40700    8.11310   -0.11380    2.91260
 5101.00000   48.91020   93.12290  511.39270  393.81680  320.03520   17.88510   -0.00850   -0.00400    4.55040    8.11260   -0.13630    2.93560
 5101.50000   48.85770   93.21640  791.96580  470.48230  408.44920   15.86950   -0.01090   -0.00410    4.62460    8.11210   -0.15130    2.95860
 5102.00000   48.80530   92.98350 1077.77450  495.48980  417.65980   15.85420   -0.00870   -0.00440    4.53310    8.11220   -0.15020    2.97010
 5102.50000   48.81180   92.47580 1465.86360  487.73700  402.63640   17.27380   -0.00420   -0.00480    4.36440    8.10960   -0.14240    2.96250
 5103.00000   47.83940   92.21360 1475.86900  357.31520  332.91850   20.20380    0.00590   -0.00480    4.09310    8.10690   -0.12750    2.92230
 5103.50000   48.58170   91.73470 1366.34470  278.59230  250.26900   22.41770    0.01620   -0.00480    3.92380    8.10410   -0.10930    2.89510
 5104.00000   47.88320   90.30890 1083.10570  203.83100  188.13780   25.94070    0.02560   -0.00490    3.79700    8.10140   -0.09530    2.85660
 5104.50000   47.90590   89.76220  877.64540  170.52420  148.42140   28.87920    0.03340   -0.00480    3.74330    8.09750   -0.08290    2.85170
 5105.00000   48.07530   91.16400  724.91040  144.32670  134.43870   31.88670    0.03970   -0.00390    3.59350    8.09560   -0.07860    2.84400
 5105.50000   48.15000   91.45860  710.56180  127.24180  123.63200   33.88810    0.04310   -0.00300    3.44150    8.10180   -0.07690    2.84170
 5106.00000   48.55520   90.38590  813.94740  125.93900  120.90050   36.51330    0.04290   -0.00200    3.38420    8.10030   -0.07680    2.84030
 5106.50000   48.57300   89.03990  955.08490  141.09550  130.32510   38.31080    0.03830   -0.00160    3.40290    8.10150   -0.07940    2.84890
