~Version ---------------------------------------------------
VERS.   2.0 : CWLS log ASCII Standard -VERSION 2.0
WRAP.    NO : One line per depth step
DLM . SPACE : Column Data Section Delimiter
~Well ------------------------------------------------------
STRT .F                   95.0 : START DEPTH
STOP .F                 5491.0 : STOP DEPTH
STEP .F                    0.5 : STEP
NULL .                -9999.25 : NULL VALUE
COMP .                         : COMPANY
WELL .                         : WELL
FLD  .                         : FIELD
LOC  .                         : LOCATION
PROV .                         : PROVINCE
CNTY .                         : COUNTY
STAT .                         : STATE
CTRY .                         : COUNTRY
SRVC .                         : SERVICE COMPANY
DATE .                         : DATE
UWI  .                         : UNIQUE WELL ID
API  .                         : API NUMBER
SLAT .WGS84 3.3617013234043966 : SURFACE LATITUDE
SLON .WGS84  7.688234486331993 : SURFACE LONGITUDE
DATUM.F                    nan : DEPTH DATUM ELEV
~Curve Information -----------------------------------------
DEPT   .F     : 1 MEASURED DEPTH
DTCO   .US/F  : DELTA-T COMPRESSIONAL
DTSM   .US/F  : DELTA-T SHEAR
AE10   .OHMM  : ARRAY INDUCTION RESISTIVITY EVIRONMENTALLY COMPENSATED LOG PROCESSING AE10
AE30   .OHMM  : ARRAY INDUCTION RESISTIVITY EVIRONMENTALLY COMPENSATED LOG PROCESSING AE30
AE90   .OHMM  : ARRAY INDUCTION RESISTIVITY EVIRONMENTALLY COMPENSATED LOG PROCESSING AE90
GRD    .GAPI  : GAMMA RAY FROM DENSITY LOG
TNPH_LS.DEC   : THERMAL NEUTRON POROSITY [LIMESTONE]
HDRA   .G/C3  : HRDD SPINE AND RIBS DENSITY CORRECTION
PEFZ   .B/E   : HRDD STANDARD RESOLUTION FORMATION PHOTOELECTRIC FACTOR
CALD   .IN    : CALIPER FROM DENSITY LOG
DPHZ_LS.DEC   : HGRD STANDARD RESOLUTION DENSITY POROSITY
RHOZ   .G/C3  : HRDD STANDARD RESOLUTION FORMATION DENSITY
~Params ----------------------------------------------------
~Other -----------------------------------------------------
~ASCII -----------------------------------------------------
# ...
 5331.00000   48.46850   89.43640  681.22050  213.12680  206.45620   33.97030    0.04340   -0.00060    3.39440    7.98450   -0.05540    2.80190
 5331.50000   48.47270   89.58050 1096.53770  243.45760  226.01890   32.48710    0.04660   -0.00100    3.37220    7.98590   -0.05120    2.78850
 5332.00000   48.58180   89.52350 1387.63680  274.52880  246.77370   29.91290    0.05350   -0.00150    3.37920    7.98730   -0.04540    2.77780
 5332.50000   48.74590   89.43690 1755.18740  309.56540  273.94490   29.09210    0.05620   -0.00200    3.40100    7.98880   -0.03970    2.78350
 5333.00000   48.38170   89.18740 2011.42240  353.73900  324.37160   29.60480    0.05210   -0.00360    3.39960    7.98770   -0.04530    2.79830
 5333.50000   48.07270   88.64990 2013.43970  410.54080  384.08040   30.03200    0.04310   -0.00190    3.39880    7.98130   -0.05300    2.81730
 5334.00000   47.99450   88.33530 2015.45910  476.46370  454.78030   28.54900    0.03240    0.00150    3.42720    7.97490   -0.07010    2.84950
 5334.50000   47.60110   88.13540 2017.48050  552.97200  537.78940   24.78820    0.02170    0.00420    3.51030    7.96860   -0.08900    2.86690
 5335.00000   47.19310   88.17930 2019.50380  621.06770  557.18330   19.70210    0.01900    0.00400    3.60360    7.96220   -0.09410    2.87070
 5335.50000   47.52180   88.22330 2021.52930  540.39410  489.46570   16.23790    0.02230    0.00270    3.64970    7.95580   -0.08990    2.85620
 5336.00000   47.82490   88.26720 2023.55680  427.49510  402.81830   17.23610    0.02500    0.00130    3.58660    7.94950   -0.08210    2.84970
 5336.50000   47.71510   88.33090 2019.44070  338.97360  331.50960   22.07210    0.02760    0.00000    3.40720    7.94310   -0.08360    2.85490
 5337.00000   47.41790   88.34210 1801.41910  275.38190  272.82420   28.71220    0.03550   -0.00090    3.23390    7.93670   -0.07920    2.83550
 5337.50000   47.86130   88.23080 1606.93460  229.93080  224.52760   31.92970    0.04070   -0.00180    3.13730    7.93040   -0.07060    2.82960
 5338.00000   48.20410   88.20080 1289.92860  191.98130  184.78060   31.10990    0.04180   -0.00270    3.11420    7.93620   -0.06720    2.82550
 5338.50000   48.73450   88.33110 1022.92220  175.90570  167.37800   26.39960    0.04060   -0.00370    3.16610    7.94450   -0.06720    2.82520
 5339.00000   48.95980   88.58210  815.04160  161.80230  152.91950   22.49770    0.04060   -0.00410    3.25570    7.95270   -0.06580    2.80820
 5339.50000   49.06610   89.34300  650.34030  148.82950  143.11540   22.44530    0.04680   -0.00450    3.30450    7.96100   -0.05150    2.79360
 5340.00000   49.14410   89.26630  596.30290  141.93970  136.51330   22.98330    0.05770   -0.00390    3.30300    7.96920   -0.03670    2.77200
 5340.50000   49.13070   89.10280  626.07730  141.99040  136.40440   23.60110    0.05780   -0.00190    3.28910    7.97750   -0.02850    2.76070
 5341.00000   48.72860   88.93940  741.47770  160.89000  147.18270   22.16050    0.04510    0.00010    3.33400    7.98570   -0.04320    2.78940
 5341.50000   48.32650   88.79040  925.87780  198.83220  186.05950   20.34930    0.03180    0.00210    3.38610    7.99390   -0.06820    2.81920
 5342.00000   48.14550   88.74510 1195.86790  249.02490  235.05570   17.84620    0.03180    0.00380    3.40180    8.00220   -0.08040    2.85490
 5342.50000   48.04330   88.89940 1521.91270  317.55500  295.49200   16.84760    0.03440    0.00370    3.41350    8.00370   -0.07820    2.84640
 5343.00000   47.82940   88.93690 1764.17330  404.94400  371.46750   16.92790    0.03890    0.00360    3.42530    8.00200   -0.06510    2.81800
 5343.50000   48.12950   89.19930 1973.21150  471.88510  437.09120   19.58040    0.04240    0.00330    3.44400    8.00040   -0.05880    2.81320
 5344.00000   48.56140   90.41810 2039.41100  471.15560  441.26120   23.16300    0.04450    0.00220    3.44310    7.99870   -0.05940    2.81310
 5344.50000   48.94020   92.62110   -9999.25  423.01140  402.13450   25.96790    0.04660    0.00180    3.41000    7.99700   -0.05800    2.81190
 5345.00000   49.45060   95.00560   -9999.25  367.27870  347.29710   27.68670    0.05420    0.00130    3.30820    7.99540   -0.05330    2.79700
 5345.50000   50.49840   95.38730   -9999.25  322.47310  299.93750   29.84090    0.06690    0.00050    3.20040    7.99370   -0.04450    2.78120
 5346.00000   51.00520   95.04100   -9999.25  277.61020  268.74350   33.34660    0.07520    0.00520    3.10060    7.99200   -0.03430    2.76710
 5346.50000   51.75680   94.81980   -9999.25  278.71010  268.11880   36.38750    0.08260    0.00990    3.05900    7.99040   -0.02860    2.75970
 5347.00000   51.69360   94.34100   -9999.25  326.49810  310.26450   40.27290    0.07990    0.01180    3.03690    7.98970   -0.02550    2.75230
 5347.50000   51.47150   93.71580   -9999.25  415.22300  380.36300   44.69370    0.07320    0.00760    3.12780    7.98970   -0.02090    2.74900
 5348.00000   50.47300   92.11120   -9999.25  528.05870  466.29900   47.69410    0.05380   -0.00070    3.26690    7.98970   -0.02570    2.75230
 5348.50000   49.56330   89.42370   -9999.25  671.55740  571.65090   43.57060    0.03940   -0.00430    3.49750    7.98970   -0.04020    2.77250
 5349.00000   49.03860   89.13510   -9999.25  844.16090  659.22240   35.67260    0.03780   -0.00490    3.75510    7.98970   -0.05900    2.80520
 5349.50000   48.44740   88.84650   -9999.25  879.20300  668.05490   28.71900    0.03610   -0.00500    3.87430    7.98970   -0.07180    2.83010
 5350.00000   48.38350   88.80360   -9999.25  823.30360  635.15030   27.34250    0.03900   -0.00510    3.85530    7.98970   -0.06700    2.82620
 5350.50000   48.71140   89.07820   -9999.25  730.59190  556.63610   26.82790    0.04670   -0.00520    3.80680    7.98970   -0.05590    2.79630
 5351.00000   48.96630   89.80890 1987.10850  602.67770  476.95780   26.04800    0.05730   -0.00520    3.78370    7.98970   -0.04440    2.77860
 5351.50000   49.91200   92.71530 1982.96420  497.15930  404.27720   25.72360    0.06400   -0.00520    3.75750    7.98970   -0.04040    2.78150
 5352.00000   50.37690   93.24550 1709.41760  410.11510  341.80440   26.30690    0.06820   -0.00070    3.73710    7.98970   -0.04530    2.79740
 5352.50000   51.10890   93.74290 1454.06510  332.92000  288.98540   27.56710    0.07230    0.00690    3.68940    7.98970   -0.05130    2.79790
 5353.00000   51.39180   93.54120 1154.87830  276.77740  244.32870   30.36240    0.08160    0.01440    3.52510    7.98970   -0.04150    2.77940
 5353.50000   51.16150   93.15730  888.08180  230.10250  206.57270   32.11860    0.08350    0.00650    3.40870    7.98970   -0.02650    2.74240
 5354.00000   50.87460   92.84420  667.54750  191.29870  176.12330   33.91950    0.08330   -0.00060    3.32810    7.99820   -0.01360    2.73500
 5354.50000   50.58050   92.70260  578.87170  183.02760  168.61650   34.69150    0.08020   -0.00010    3.22660    8.00960   -0.01420    2.73890
 5355.00000   50.52430   92.91930  526.08770  192.13970  171.78670   34.59340    0.07860    0.00040    3.17930    8.02100   -0.01590    2.73650
 5355.50000   50.46790   93.05370  481.93280  202.60710  185.27630   34.17930    0.07730    0.00090    3.17150    8.03240   -0.01280    2.73260
 5356.00000   50.46000   93.50960  430.86220  213.64480  199.82540   37.28520    0.07920    0.00160    3.18770    8.04520   -0.01340    2.73260
 5356.50000   50.59710   94.09450  362.57680  214.65430  201.42040   45.30600    0.08120    0.00240    3.19490    8.02580   -0.01730    2.74640
 5357.00000   50.56570   94.41740  272.60950  192.54970  168.02660   52.95960    0.07980    0.00320    3.16660    8.00670   -0.02400    2.75560
 5357.50000   50.47350   94.92000  152.03650  138.43120  123.55930   56.50740    0.07760    0.00390    3.10900    7.98760   -0.02640    2.74700
 5358.00000   51.01590   95.23820  106.10270   96.67920   90.86000   54.86140    0.08090    0.00220    3.07750    7.96850   -0.01530    2.71860
 5358.50000   51.50000   96.15910   74.30910   72.51940   66.81440   46.84210    0.09630   -0.00160    3.09830    7.95720    0.00510    2.69640
