~Version ---------------------------------------------------
VERS.   2.0 : CWLS log ASCII Standard -VERSION 2.0
WRAP.    NO : One line per depth step
DLM . SPACE : Column Data Section Delimiter
~Well ------------------------------------------------------
STRT .F                   95.0 : START DEPTH
STOP .F                 5491.0 : STOP DEPTH
STEP .F                    0.5 : STEP
NULL .                -9999.25 : NULL VALUE
COMP .                         : COMPANY
WELL .                         : WELL
FLD  .                         : FIELD
LOC  .                         : LOCATION
PROV .                         : PROVINCE
CNTY .                         : COUNTY
STAT .                         : STATE
CTRY .                         : COUNTRY
SRVC .                         : SERVICE COMPANY
DATE .                         : DATE
UWI  .                         : UNIQUE WELL ID
API  .                         : API NUMBER
SLAT .WGS84 3.3617013234043966 : SURFACE LATITUDE
SLON .WGS84  7.688234486331993 : SURFACE LONGITUDE
DATUM.F                    nan : DEPTH DATUM ELEV
~Curve Information -----------------------------------------
DEPT   .F     : 1 MEASURED DEPTH
DTCO   .US/F  : DELTA-T COMPRESSIONAL
DTSM   .US/F  : DELTA-T SHEAR
AE10   .OHMM  : ARRAY INDUCTION RESISTIVITY EVIRONMENTALLY COMPENSATED LOG PROCESSING AE10
AE30   .OHMM  : ARRAY INDUCTION RESISTIVITY EVIRONMENTALLY COMPENSATED LOG PROCESSING AE30
AE90   .OHMM  : ARRAY INDUCTION RESISTIVITY EVIRONMENTALLY COMPENSATED LOG PROCESSING AE90
GRD    .GAPI  : GAMMA RAY FROM DENSITY LOG
TNPH_LS.DEC   : THERMAL NEUTRON POROSITY [LIMESTONE]
HDRA   .G/C3  : HRDD SPINE AND RIBS DENSITY CORRECTION
PEFZ   .B/E   : HRDD STANDARD RESOLUTION FORMATION PHOTOELECTRIC FACTOR
CALD   .IN    : CALIPER FROM DENSITY LOG
DPHZ_LS.DEC   : HGRD STANDARD RESOLUTION DENSITY POROSITY
RHOZ   .G/C3  : HRDD STANDARD RESOLUTION FORMATION DENSITY
~Params ----------------------------------------------------
~Other -----------------------------------------------------
~ASCII -----------------------------------------------------
# ...
 5135.00000   48.10750   87.94910   -9999.25  170.50170  163.92550   19.02390    0.04450   -0.00450    3.24170    8.18010   -0.06820    2.83000
 5135.50000   48.38620   87.87680   -9999.25  171.54280  165.58760   19.69180    0.04350   -0.00370    3.22590    8.18310   -0.07200    2.83250
 5136.00000   48.22960   87.90460   -9999.25  179.07750  174.80190   18.06050    0.04150   -0.00260    3.26740    8.18610   -0.07520    2.84220
 5136.50000   47.95060   88.76790 1960.62330  198.10120  190.21160   16.57590    0.03630   -0.00150    3.33460    8.18940   -0.08050    2.84570
 5137.00000   48.08560   91.96740 1904.48380  211.74050  200.65830   15.25410    0.03200   -0.00110    3.41330    8.19380   -0.08220    2.84920
 5137.50000   48.55630   92.24360 1612.39560  197.89180  194.11710   14.83680    0.02850   -0.00180    3.54620    8.19260   -0.08380    2.85180
 5138.00000   49.62070   93.44740 1201.62220  150.47080  144.56820   16.71870    0.03040   -0.00270    3.62820    8.20110   -0.08090    2.84740
 5138.50000   51.76890   95.13050  815.56530  112.13760   99.45300   19.60860    0.03640   -0.00350    3.62940    8.21770   -0.07650    2.83960
 5139.00000   52.05680   96.11880  520.39160   83.57000   67.92910   24.21350    0.04870   -0.00420    3.53640    8.23440   -0.06090    2.81230
 5139.50000   52.38990   97.14350  326.64390   62.28010   47.33360   29.27510    0.06410   -0.00420    3.39960    8.25080   -0.04830    2.79840
 5140.00000   53.50380   98.21830  219.23610   46.41390   40.62060   34.80340    0.07550   -0.00410    3.32350    8.26630   -0.04120    2.78580
 5140.50000   54.64120   98.54810  172.70460   37.16620   35.05050   36.75290    0.08220   -0.00410    3.28470    8.27710   -0.03580    2.77660
 5141.00000   55.20070   98.68800  136.04920   33.68520   32.40670   38.30970    0.08680   -0.00360    3.24600    8.27870   -0.03560    2.76960
 5141.50000   55.02510   98.58360  129.62310   32.20800   31.62070   39.23080    0.08950   -0.00230    3.20720    8.30460   -0.03320    2.76690
 5142.00000   54.76480   98.65580  130.62800   32.41490   31.62070   38.85040    0.09120   -0.00090    3.21410    8.32140   -0.03550    2.77020
 5142.50000   54.50450   97.23060  177.00170   36.37010   34.94530   36.60170    0.08780   -0.00010    3.22560    8.33520   -0.04160    2.78220
 5143.00000   53.61610   95.59390  239.93550   42.02580   39.06380   34.31150    0.07760   -0.00090    3.28830    8.34900   -0.05050    2.79810
 5143.50000   55.11170   94.61230  326.12140   55.09570   45.06340   33.82860    0.07080   -0.00240    3.42000    8.37340   -0.05890    2.80860
 5144.00000   51.23350   95.03220  443.26550   72.79140   63.68170   31.85670    0.06270   -0.00400    3.54880    8.39490   -0.06140    2.81350
 5144.50000   50.58390   94.50720  602.48840   87.47480   84.34900   28.71990    0.05710   -0.00500    3.64600    8.42480   -0.06200    2.81490
 5145.00000   50.56520   95.24810  586.18500   88.80120   86.42540   25.75460    0.05660   -0.00420    3.58550    8.46310   -0.06000    2.81120
 5145.50000   52.07510   94.23020  456.35160   74.03780   71.05460   25.03810    0.06520   -0.00330    3.41610    8.47500   -0.05240    2.80190
 5146.00000   51.90590   94.49410  355.27470   52.83340   54.29050   24.32170    0.07840   -0.00250    3.26540    8.48700   -0.03650    2.77080
 5146.50000   52.53290   94.75890  295.77640   49.71330   45.52170   24.03610    0.09140   -0.00220    3.20740    8.49890   -0.02280    2.75490
 5147.00000   51.95440   94.42920  293.32710   48.48180   43.93880   24.52960    0.09180   -0.00270    3.17260    8.51090   -0.02180    2.74570
 5147.50000   50.79840   93.38800  313.40260   49.29420   48.03530   27.30100    0.08860   -0.00320    3.16020    8.52280   -0.03060    2.75110
 5148.00000   50.20620   95.16700  341.97510   59.09330   56.12810   25.79280    0.07870   -0.00310    3.20420    8.54470   -0.04530    2.78440
 5148.50000   49.74110   94.85300  373.15230   68.57890   65.58440   23.84780    0.06520   -0.00260    3.29940    8.56030   -0.05890    2.80880
 5149.00000   49.80710   94.15470  349.42490   76.61490   73.01730   23.11520    0.06050   -0.00220    3.44370    8.56420   -0.06290    2.81690
 5149.50000   50.57840   95.28810  281.50880   74.64130   70.87750   27.87600    0.06420   -0.00170    3.51550    8.56800   -0.05650    2.81390
 5150.00000   54.77950   96.14780  208.19800   63.35020   60.28000   34.42460    0.07590   -0.00210    3.43760    8.57190   -0.04150    2.79200
 5150.50000   54.06600   96.10660  145.15560   53.92820   51.26710   41.79560    0.09090   -0.00250    3.33550    8.57570   -0.02800    2.76520
 5151.00000   52.86190   95.84740  101.20240   45.46930   43.60170   44.36240    0.09370   -0.00290    3.21980    8.57960   -0.02370    2.75210
 5151.50000   51.94990   95.97970   80.15360   42.38780   38.00160   43.42270    0.09100   -0.00260    3.14480    8.57580   -0.03180    2.76450
 5152.00000   51.46420   96.75240   80.94770   53.87370   41.31360   36.53050    0.08110    0.00010    3.17840    8.59650   -0.04450    2.78270
 5152.50000   50.41450   96.29070  115.53890   70.44390   55.90020   30.13370    0.06870    0.00270    3.30370    8.61250   -0.05720    2.80080
 5153.00000   50.58470   96.57860  150.93560   91.01640   74.53210   27.11840    0.06050    0.00530    3.43660    8.59290   -0.06370    2.81670
 5153.50000   50.86670   96.88090  121.45490   85.34630   81.19110   29.60210    0.06310    0.00740    3.47940    8.58700   -0.05710    2.81550
 5154.00000   51.35730   96.93980   89.30980   62.07970   63.72000   36.84090    0.08380    0.00250    3.41330    8.58150   -0.03840    2.76340
 5154.50000   52.60870   97.52150   66.02770   50.82140   49.60690   40.62090    0.09960   -0.00240    3.25060    8.57210   -0.01510    2.74040
 5155.00000   53.52510   97.69840   57.11950   44.66060   41.79430   40.39680    0.10890   -0.00690    3.21390    8.57080   -0.00560    2.72540
 5155.50000   53.34270   98.87140   49.41310   39.24660   36.80080   36.73190    0.10470   -0.00740    3.23700    8.56990   -0.00570    2.72050
 5156.00000   53.02420   98.99290   42.74640   34.66410   33.34960   35.90590    0.10150   -0.00630    3.35410    8.56340   -0.01400    2.73650
 5156.50000   52.45070   99.18040   41.06230   33.06360   30.68140   37.89250    0.09980   -0.00520    3.46750    8.55690   -0.02300    2.74910
 5157.00000   51.74210   99.77940   42.62780   35.90780   33.45350   40.15160    0.10180   -0.00410    3.51830    8.55040   -0.03370    2.76600
 5157.50000   54.37120  100.94980   44.02040   40.79650   36.83810   44.24290    0.10550   -0.00130    3.42390    8.52630   -0.03660    2.77310
 5158.00000   73.27700  102.85880   37.68780   34.09560   36.25410   47.99770    0.11140    0.00140    3.27510    8.53050   -0.02770    2.75620
 5158.50000   77.32780  103.00700   27.96470   26.07910   24.68450   50.35190    0.12580    0.00340    3.11990    8.52720   -0.00430    2.71310
 5159.00000   78.86890  104.17200   20.75000   19.17050   15.82000   49.51200    0.15070    0.00130    2.99580    8.51110    0.02080    2.67530
 5159.50000   81.07780  105.92930   15.39670   12.86520   10.86820   45.33740    0.16420    0.00210    2.96280    8.50050    0.02960    2.65790
 5160.00000   81.76720  106.99910   12.53350   10.85150   10.18880   43.90080    0.17010    0.00300    2.92440    8.49060    0.03570    2.64050
 5160.50000   81.89510  107.35780   12.88330   10.38450   10.07810   43.53560    0.17430    0.00280    2.91670    8.48000    0.04160    2.62310
 5161.00000   81.32100  106.79020   15.93040   12.24020   12.29910   42.77690    0.17830   -0.00090    2.97320    8.46350    0.05820    2.61110
 5161.50000   81.42840  103.31700   22.92660   18.52920   15.88310   42.93020    0.17010   -0.00450    3.05440    8.44420    0.05590    2.62370
 5162.00000   80.41250  102.47980   32.99540   27.51290   23.12980   41.08120    0.14110   -0.00300    3.11980    8.44100    0.03910    2.64970
 5162.50000   76.26600  100.26830   47.48620   40.85250   33.68270   39.04740    0.11730   -0.00110    3.16420    8.43270    0.01460    2.68980
