~Version ---------------------------------------------------
VERS.   2.0 : CWLS log ASCII Standard -VERSION 2.0
WRAP.    NO : One line per depth step
DLM . SPACE : Column Data Section Delimiter
~Well ------------------------------------------------------
STRT .F                   95.0 : START DEPTH
STOP .F                 5491.0 : STOP DEPTH
STEP .F                    0.5 : STEP
NULL .                -9999.25 : NULL VALUE
COMP .                         : COMPANY
WELL .                         : WELL
FLD  .                         : FIELD
LOC  .                         : LOCATION
PROV .                         : PROVINCE
CNTY .                         : COUNTY
STAT .                         : STATE
CTRY .                         : COUNTRY
SRVC .                         : SERVICE COMPANY
DATE .                         : DATE
UWI  .                         : UNIQUE WELL ID
API  .                         : API NUMBER
SLAT .WGS84 3.3617013234043966 : SURFACE LATITUDE
SLON .WGS84  7.688234486331993 : SURFACE LONGITUDE
DATUM.F                    nan : DEPTH DATUM ELEV
~Curve Information -----------------------------------------
DEPT   .F     : 1 MEASURED DEPTH
DTCO   .US/F  : DELTA-T COMPRESSIONAL
DTSM   .US/F  : DELTA-T SHEAR
AE10   .OHMM  : ARRAY INDUCTION RESISTIVITY EVIRONMENTALLY COMPENSATED LOG PROCESSING AE10
AE30   .OHMM  : ARRAY INDUCTION RESISTIVITY EVIRONMENTALLY COMPENSATED LOG PROCESSING AE30
AE90   .OHMM  : ARRAY INDUCTION RESISTIVITY EVIRONMENTALLY COMPENSATED LOG PROCESSING AE90
GRD    .GAPI  : GAMMA RAY FROM DENSITY LOG
TNPH_LS.DEC   : THERMAL NEUTRON POROSITY [LIMESTONE]
HDRA   .G/C3  : HRDD SPINE AND RIBS DENSITY CORRECTION
PEFZ   .B/E   : HRDD STANDARD RESOLUTION FORMATION PHOTOELECTRIC FACTOR
CALD   .IN    : CALIPER FROM DENSITY LOG
DPHZ_LS.DEC   : HGRD STANDARD RESOLUTION DENSITY POROSITY
RHOZ   .G/C3  : HRDD STANDARD RESOLUTION FORMATION DENSITY
~Params ----------------------------------------------------
~Other -----------------------------------------------------
~ASCII -----------------------------------------------------
# ...
 5387.00000   50.25650   94.17040   96.56450   67.02220   66.73340   37.65920    0.08870   -0.00010    3.16500    8.02250   -0.01780    2.73980
 5387.50000   50.18520   94.81800  112.88360   64.88150   62.38200   50.08070    0.08530    0.00060    3.12380    7.99390   -0.01780    2.74250
 5388.00000   50.34280   94.82080   97.03470   59.14340   55.75670   53.10510    0.08430    0.00130    3.05800    7.96540   -0.00800    2.71540
 5388.50000   50.71960   95.08320   77.79440   51.71000   49.83500   48.34770    0.08300    0.00130    2.97190    7.95350    0.01130    2.68750
 5389.00000   51.60090   95.84740   59.16210   45.20410   43.41410   37.80470    0.08620    0.00060    2.93040    7.95220    0.02370    2.66770
 5389.50000   52.49940   96.32560   43.83720   35.31990   34.17410   27.35160    0.08680   -0.00010    2.92150    7.94330    0.02710    2.65940
 5390.00000   53.02060   96.09040   32.48200   28.70310   26.61670   25.23760    0.09050   -0.00060    2.91400    7.94890    0.02180    2.67540
 5390.50000   53.36430   95.60770   25.98170   22.32790   20.92750   24.64810    0.09550   -0.00060    2.90700    7.95940    0.01980    2.67530
 5391.00000   53.44220   94.96270   23.92660   20.56660   19.70570   24.16140    0.09990   -0.00070    2.90140    7.97000    0.02950    2.65500
 5391.50000   52.68350   94.79610   24.05680   21.03130   20.59640   24.83450    0.10000   -0.00120    2.89350    7.96810    0.03440    2.65880
 5392.00000   51.68690   93.27940   27.23270   25.13140   22.12840   27.10840    0.08610   -0.00380    2.93040    7.96560    0.01910    2.69640
 5392.50000   49.51300   90.81420   65.04040   59.01820   45.39190   30.71670    0.06500   -0.00420    3.06590    7.96300   -0.01450    2.75280
 5393.00000   48.29170   89.27740  101.21630   86.37000   77.43350   29.59510    0.04300   -0.00450    3.26100    7.96050   -0.05360    2.80920
 5393.50000   46.92340   87.44570  201.56610  126.39780  116.92380   26.23710    0.02250   -0.00460    3.42590    7.95740   -0.07870    2.84350
 5394.00000   46.52980   86.43900  367.90730  178.80790  171.14910   21.27130    0.01830   -0.00270    3.42310    7.95400   -0.08510    2.85870
 5394.50000   46.76580   86.33880  490.44180  206.22740  204.94650   -9999.25    0.02140    0.00010    3.40600    7.95060   -0.08070    2.85730
 5395.00000   47.59790   86.58850  366.32680  207.84140  177.99250   -9999.25    0.03360    0.00300    3.33450    7.94720   -0.06980    2.82700
 5395.50000   49.32810   87.98850  263.75690  122.69390  126.44240   -9999.25    0.05110    0.00460    3.23000    7.94380   -0.05770    2.80570
 5396.00000   50.01230   89.93740  161.59910   95.95820   89.82220   -9999.25    0.06760    0.00420    3.14160    7.94040   -0.03920    2.76420
 5396.50000   50.99650   94.66920  105.59960   78.75860   69.31420   -9999.25    0.08410    0.00380    3.05750    7.94330   -0.01960    2.74580
 5397.00000   51.31700   95.25690   87.37880   64.64200   60.42670   -9999.25    0.10040    0.00340    3.03330    7.94720   -0.00430    2.72110
 5397.50000   51.57640   94.25620   75.59300   57.13910   53.55190   -9999.25    0.10870    0.00250    3.02430    7.95100   -0.00910    2.72780
 5398.00000   51.41050   95.50940   66.32580   51.30670   47.88780   -9999.25    0.11020    0.00150    3.06290    7.95490   -0.01530    2.74110
 5398.50000   51.03030   93.18820   59.20560   46.06970   42.82280   -9999.25    0.10110    0.00060    3.10600    7.95880   -0.02010    2.74490
 5399.00000   50.36280   91.86030   57.53640   44.24840   40.60580   -9999.25    0.09730   -0.00070    3.11450    7.96260   -0.02000    2.74530
 5399.50000   49.88250   92.77380   58.26180   43.30200   41.94150   -9999.25    0.09340   -0.00070    3.10250    7.96650   -0.01970    2.74150
 5400.00000   49.67900   92.82420   58.20330   42.76300   39.77900   -9999.25    0.09090   -0.00070    3.09060    7.97040   -0.01650    2.73310
 5400.50000   49.68440   92.88480   53.81620   35.63200   32.44910   -9999.25   -9999.25   -0.00070    3.04630    7.97420   -0.01040    2.72470
 5401.00000   49.82540   92.96730   48.30500   30.59730   28.21390   -9999.25   -9999.25   -0.00160    2.98770    7.96310   -0.00380    2.71330
 5401.50000   49.97150   93.04440   43.05990   32.65750   32.72280   -9999.25   -9999.25   -0.00260    2.96670    7.95000   -0.00010    2.71090
 5402.00000   49.87120   93.11880   37.57690   31.80530   30.83870   -9999.25   -9999.25   -0.00350    3.05520    7.93690   -0.00070    2.71230
 5402.50000   49.69500   93.16820   32.79200   28.62310   28.06960   -9999.25   -9999.25   -0.00400    3.12420    7.92380   -0.01230    2.72030
 5403.00000   49.43380   92.74700   32.48550   27.46800   25.95290   -9999.25   -9999.25   -0.00130    3.19630    7.99880   -0.02940    2.75230
 5403.50000   49.16980   92.24970   34.90730   28.19540   25.77000   -9999.25   -9999.25    0.00220    3.19240    7.99060   -0.04680    2.78120
 5404.00000   49.33230   90.57330   37.54790   31.76380   29.48980   -9999.25   -9999.25    0.00580    3.11260    7.97810   -0.04800    2.79460
 5404.50000   49.98240   90.17010   40.38830   35.78390   33.74650   -9999.25   -9999.25    0.00580    3.02450    7.97870   -0.03380    2.77580
 5405.00000   50.64090   91.51300   43.44350   40.31280   37.95230   -9999.25   -9999.25    0.00410    2.94880    7.98390   -0.01620    2.74630
 5405.50000   50.97130   92.17840   44.82040   36.17880   33.46820   -9999.25   -9999.25    0.00230    2.93990    7.98920   -0.00270    2.73160
 5406.00000   51.15530   91.00540   33.66560   30.00590   26.49430   -9999.25   -9999.25    0.00060    2.96240    7.99440    0.00360    2.70480
 5406.50000   51.11080   94.55270   24.06150   24.71100   21.20590   -9999.25   -9999.25   -0.00100    2.98490    7.99960    0.00080    2.70650
 5407.00000   50.99380   94.42350   20.39190   21.35130   18.17160   -9999.25   -9999.25   -0.00250    3.00750    8.00480   -0.00530    2.71870
 5407.50000   50.90120   94.83500   25.92170   27.45360   21.79940   -9999.25   -9999.25   -0.00320    3.02660    7.98810   -0.01140    2.72430
 5408.00000   50.89850   94.47130   28.47920   34.06620   28.21650   -9999.25   -9999.25   -0.00350    3.02680    7.97010   -0.01650    2.73390
 5408.50000   50.89820   93.91890   21.44290   25.39410   19.96570   -9999.25   -9999.25   -0.00250    3.03910    7.95200   -0.01560    2.73900
 5409.00000   51.07190   94.90600   19.11130   19.71440   18.02330   -9999.25   -9999.25   -0.00070    3.05140    7.94020   -0.01190    2.73810
 5409.50000   51.12320   93.18960   25.48920   23.32300   21.33530   -9999.25   -9999.25   -0.00070    3.07840    7.95130   -0.01100    2.73090
 5410.00000   50.91130   94.33270   23.86320   26.77000   25.00720   -9999.25   -9999.25   -0.00060    3.06990    7.96460   -0.01720    2.73270
 5410.50000   50.61280   92.40950   17.90130   21.64970   20.91090   -9999.25   -9999.25    0.00110    3.06130    7.95410   -0.02160    2.74240
 5411.00000   50.51270   95.12590   17.80120   19.64580   18.66620   -9999.25   -9999.25    0.00270    3.05280    7.94370   -0.01960    2.74900
 5411.50000   50.70090   93.38610   19.94350   21.33840   21.79490   -9999.25   -9999.25    0.00460    3.05230    7.93330   -0.00980    2.73740
 5412.00000   50.94050   95.01600   21.92360   23.17680   24.95280   -9999.25   -9999.25    0.01160    3.05230    7.92290   -0.00330    2.71690
 5412.50000   50.99470   95.16670   21.68140   25.17360   26.69610   -9999.25   -9999.25    0.01860    3.05230    7.89790    0.00080    2.71160
 5413.00000   50.84690   95.48150   20.92040   26.34880   26.85140   -9999.25   -9999.25    0.02610    3.05230    7.84820    0.00040    2.70970
 5413.50000   50.34870   95.37130   19.55770   26.54140   26.93920   -9999.25   -9999.25   -9999.25   -9999.25   -9999.25   -9999.25   -9999.25
 5414.00000   49.94240   92.41980   18.09990   26.73540   27.49460   -9999.25   -9999.25   -9999.25   -9999.25   -9999.25   -9999.25   -9999.25
 5414.50000   49.48720   91.26730   18.29390   28.12390   29.79140   -9999.25   -9999.25   -9999.25   -9999.25   -9999.25   -9999.25   -9999.25
