~Version ---------------------------------------------------
VERS.   2.0 : CWLS log ASCII Standard -VERSION 2.0
WRAP.    NO : One line per depth step
DLM . SPACE : Column Data Section Delimiter
~Well ------------------------------------------------------
STRT .F                   95.0 : START DEPTH
STOP .F                 5491.0 : STOP DEPTH
STEP .F                    0.5 : STEP
NULL .                -9999.25 : NULL VALUE
COMP .                         : COMPANY
WELL .                         : WELL
FLD  .                         : FIELD
LOC  .                         : LOCATION
PROV .                         : PROVINCE
CNTY .                         : COUNTY
STAT .                         : STATE
CTRY .                         : COUNTRY
SRVC .                         : SERVICE COMPANY
DATE .                         : DATE
UWI  .                         : UNIQUE WELL ID
API  .                         : API NUMBER
SLAT .WGS84 3.3617013234043966 : SURFACE LATITUDE
SLON .WGS84  7.688234486331993 : SURFACE LONGITUDE
DATUM.F                    nan : DEPTH DATUM ELEV
~Curve Information -----------------------------------------
DEPT   .F     : 1 MEASURED DEPTH
DTCO   .US/F  : DELTA-T COMPRESSIONAL
DTSM   .US/F  : DELTA-T SHEAR
AE10   .OHMM  : ARRAY INDUCTION RESISTIVITY EVIRONMENTALLY COMPENSATED LOG PROCESSING AE10
AE30   .OHMM  : ARRAY INDUCTION RESISTIVITY EVIRONMENTALLY COMPENSATED LOG PROCESSING AE30
AE90   .OHMM  : ARRAY INDUCTION RESISTIVITY EVIRONMENTALLY COMPENSATED LOG PROCESSING AE90
GRD    .GAPI  : GAMMA RAY FROM DENSITY LOG
TNPH_LS.DEC   : THERMAL NEUTRON POROSITY [LIMESTONE]
HDRA   .G/C3  : HRDD SPINE AND RIBS DENSITY CORRECTION
PEFZ   .B/E   : HRDD STANDARD RESOLUTION FORMATION PHOTOELECTRIC FACTOR
CALD   .IN    : CALIPER FROM DENSITY LOG
DPHZ_LS.DEC   : HGRD STANDARD RESOLUTION DENSITY POROSITY
RHOZ   .G/C3  : HRDD STANDARD RESOLUTION FORMATION DENSITY
~Params ----------------------------------------------------
~Other -----------------------------------------------------
~ASCII -----------------------------------------------------
# ...
 4771.00000   52.12750   95.49410   -9999.25  577.54040  321.63680    6.42510   -0.02210   -0.00260    5.10530    9.68370   -0.15840    2.98000
 4771.50000   52.16020   96.32820   -9999.25  485.59080  323.36080    6.46010   -0.02250   -0.00770    5.35020    9.68480   -0.15630    2.98000
 4772.00000   51.90070   96.52000   -9999.25  380.04030  291.65730    6.54740   -0.02290   -0.00550    5.45380    9.68290   -0.15850    2.98170
 4772.50000   51.89890   96.78830   -9999.25  297.07060  238.26430    6.07180   -0.02240   -0.00040    5.49640    9.69060   -0.16520    2.99700
 4773.00000   52.86700   97.55460   -9999.25  177.10020  137.29160    5.74610   -0.02110    0.00980    5.41170    9.67750   -0.16790    2.99740
 4773.50000   54.12450  100.02730   -9999.25  103.36380   69.40480    8.39060   -0.01820    0.02510    5.33180    9.68070   -0.16500    2.98290
 4774.00000   54.48610  100.28920   -9999.25   60.86800   50.88810   13.84730   -0.01260    0.03600    5.31460    9.67250   -0.15610    2.97530
 4774.50000   54.65460  100.37050   -9999.25   66.71410   62.35170   15.76420   -0.00830    0.02910    5.31730    9.65070   -0.15320    2.97410
 4775.00000   54.23400   99.90600   -9999.25  150.78230  123.92070   15.52510   -0.00630    0.01760    5.30550    9.62890   -0.15390    2.97610
 4775.50000   52.92090   98.89130   -9999.25  239.13910  203.49960    9.76830   -0.00870    0.00710    5.27480    9.60700   -0.15690    2.98160
 4776.00000   52.12780   96.77380   -9999.25  240.32330  215.35850    8.56250   -0.01560   -0.00210    5.23070    9.59410   -0.15950    2.98530
 4776.50000   51.19920   94.65880   -9999.25  195.24980  168.61740    8.76340   -0.01670   -0.01040    5.16590    9.56580   -0.15810    2.97950
 4777.00000   49.95500   93.85590   -9999.25  147.56240  130.88170   12.96980   -0.01570   -0.01190    5.03250    9.55310   -0.15130    2.96660
 4777.50000   49.23730   93.07930   -9999.25  131.68950  127.95060   17.27340   -0.00810   -0.01290    4.81950    9.53070   -0.14260    2.95420
 4778.00000   48.80570   91.79120   -9999.25  180.87640  163.11390   20.69880    0.00010   -0.01090    4.60340    9.50540   -0.13240    2.92920
 4778.50000   48.03420   90.48660 2025.46060  263.29380  207.71720   22.78740    0.00660   -0.00890    4.29630    9.48870   -0.12190    2.91070
 4779.00000   47.69630   90.16740 1774.52880  254.48270  203.98060   24.88940    0.00930   -0.00680    4.19000    9.46540   -0.10770    2.88130
 4779.50000   47.84040   90.78690 1032.41600  168.36600  158.59860   27.41360    0.01080   -0.00480    4.11150    9.45760   -0.09730    2.87280
 4780.00000   48.50400   91.80690  536.31650  109.09150   88.27700   29.31850    0.01400   -0.00430    3.98610    9.45050   -0.09200    2.86510
 4780.50000   49.58150   93.08100  283.78880   64.53380   50.26070   30.91460    0.01860   -0.00450    3.84260    9.44510   -0.08770    2.85690
 4781.00000   51.15500   95.51710  150.16530   50.40250   40.91080   31.74500    0.02640   -0.00470    3.69870    9.43970   -0.08240    2.84180
 4781.50000   52.94030   97.89750   95.04200   39.36570   28.37470   32.01190    0.03610   -0.00490    3.59050    9.43200   -0.07540    2.83130
 4782.00000   54.49760   99.76740   61.61450   20.51640   17.35740   34.50600    0.04790   -0.00550    3.50660    9.42390   -0.06310    2.78810
 4782.50000   55.74470  101.49300   39.82240   11.95000   10.58660   38.45360    0.06300   -0.00620    3.44740    9.41580   -0.03920    2.76310
 4783.00000   56.27580  102.99030   24.66870    9.21900    8.37630   41.77310    0.08960   -0.00240    3.43620    9.41440   -0.02390    2.75320
 4783.50000   56.38140  102.92950   26.92040    9.04850    8.82900   38.21830    0.08110    0.00540    3.57370    9.41790   -0.02890    2.79150
 4784.00000   55.64900  102.49950   44.97330   14.17500   12.25840   28.04870    0.05770    0.01150    3.92000    9.42150   -0.05210    2.85630
 4784.50000   54.44660  101.67990   75.13230   27.95400   21.46100   20.19900    0.02920    0.01160    4.45900    9.41810   -0.08620    2.88460
 4785.00000   53.52100  100.07500  124.48060   49.17290   37.85930   12.14810    0.00470    0.00890    4.73510    9.40780   -0.12030    2.94140
 4785.50000   52.78620   99.34350  202.99200   68.51770   59.30790    9.93810   -0.00480    0.00620    4.94570    9.39590   -0.13640    2.94590
 4786.00000   52.46920   98.79430  387.87170   90.21260   75.65120    9.15580   -0.00860    0.00360    5.00950    9.37910   -0.14280    2.96350
 4786.50000   52.28000   98.33900  908.64710  168.09630  146.31120    8.84220   -0.01180    0.00340    5.01810    9.36230   -0.15000    2.96790
 4787.00000   51.71430   97.26930 1665.97310  353.59120  282.96950    8.53630   -0.01530    0.00320    4.97190    9.34540   -0.15420    2.97800
 4787.50000   51.55050   96.16680 2035.36430  570.31900  475.28230    7.58990   -0.01750    0.00330    4.90220    9.32860   -0.15770    2.97830
 4788.00000   51.32240   94.98880 2031.79970  551.92460  455.53240    7.35600   -0.01700    0.00190    4.83250    9.30160   -0.15420    2.97420
 4788.50000   50.59430   93.77860 2028.24230  316.55360  264.83390    9.50300   -0.01380    0.00040    4.76860    9.29390   -0.14770    2.96030
 4789.00000   49.81690   92.53700 2024.69020  205.69300  153.96710   18.34220   -0.00610   -0.00100    4.44630    9.28310   -0.13270    2.92600
 4789.50000   48.89160   91.53150 2021.14430  187.35490  121.82760   24.65800   -0.00130   -0.00110    4.24420    9.25900   -0.11580    2.90810
 4790.00000   48.32670   90.71760 2017.60560  219.90450  122.42000   23.96440    0.00180   -0.00250    4.21390    9.25160   -0.10860    2.89510
 4790.50000   47.40360   89.86620 2014.07200  266.09280  170.63030   19.77310    0.00440   -0.00400    4.28070    9.23540   -0.09830    2.88210
 4791.00000   47.18770   88.14170 2010.54580  300.11730  184.93910   18.16750    0.00870   -0.00480    4.30390    9.22830   -0.09140    2.86430
 4791.50000   47.10440   88.24460 2007.02470  221.16050  157.48490   21.50850    0.01040   -0.00420    4.20830    9.22120   -0.08810    2.86050
 4792.00000   47.14950   90.04820 2003.51070  125.20640   90.64460   25.60680    0.01190   -0.00360    4.09050    9.20580   -0.08870    2.86270
 4792.50000   47.51770   91.73180 1206.97340   58.57410   48.20470   29.22510    0.01620   -0.00300    3.96160    9.19730   -0.08950    2.86160
 4793.00000   48.07300   92.95790  570.55160   38.48060   31.15310   30.26980    0.02550   -0.00220    3.84700    9.19650   -0.08390    2.85240
 4793.50000   49.07260   94.41050  269.70680   35.78300   29.19910   29.12400    0.03040   -0.00260    3.76560    9.20060   -0.07980    2.84460
 4794.00000   50.25590   92.76800  136.40000   35.78400   26.79980   26.21610    0.03320   -0.00310    3.74710    9.20430   -0.07680    2.84020
 4794.50000   51.46070   94.99370   71.90780   26.54540   23.42900   25.29700    0.03730   -0.00270    3.72520    9.20350   -0.07490    2.83630
 4795.00000   52.04930   95.61080   38.70670   16.08890   14.51310   25.80040    0.04590   -0.00170    3.65510    9.20310   -0.06620    2.81390
 4795.50000   53.56760   97.31940   21.85930   10.23920    8.99020   29.30800    0.06550   -0.00110    3.51470    9.20530   -0.05190    2.80030
 4796.00000   54.54260   98.74100   13.13330    7.32990    6.34490   34.00410    0.08410   -0.00060    3.45060    9.20950   -0.03840    2.77440
 4796.50000   54.59380   99.02110   11.37880    6.96980    6.24300   36.17070    0.09260   -0.00200    3.39290    9.21370   -0.02890    2.75930
 4797.00000   54.44830   98.85060   15.44360    9.79050    8.22980   38.34180    0.09210   -0.00370    3.50570    9.21750   -0.03190    2.77830
 4797.50000   53.07440   97.97000   25.18680   15.16480   11.14970   40.37050    0.06710   -0.00520    3.67240    9.21850   -0.05160    2.79560
 4798.00000   52.47390   96.85860   43.96740   23.74800   19.00290   39.47640    0.05400   -0.00660    3.79000    9.21940   -0.06230    2.82610
 4798.50000   51.61360   95.63220   76.75150   28.17270   24.50440   38.32370    0.04130   -0.00700    3.83030    9.22220   -0.06930    2.82940
