~Version ---------------------------------------------------
VERS.   2.0 : CWLS log ASCII Standard -VERSION 2.0
WRAP.    NO : One line per depth step
DLM . SPACE : Column Data Section Delimiter
~Well ------------------------------------------------------
STRT .F                   95.0 : START DEPTH
STOP .F                 5491.0 : STOP DEPTH
STEP .F                    0.5 : STEP
NULL .                -9999.25 : NULL VALUE
COMP .                         : COMPANY
WELL .                         : WELL
FLD  .                         : FIELD
LOC  .                         : LOCATION
PROV .                         : PROVINCE
CNTY .                         : COUNTY
STAT .                         : STATE
CTRY .                         : COUNTRY
SRVC .                         : SERVICE COMPANY
DATE .                         : DATE
UWI  .                         : UNIQUE WELL ID
API  .                         : API NUMBER
SLAT .WGS84 3.3617013234043966 : SURFACE LATITUDE
SLON .WGS84  7.688234486331993 : SURFACE LONGITUDE
DATUM.F                    nan : DEPTH DATUM ELEV
~Curve Information -----------------------------------------
DEPT   .F     : 1 MEASURED DEPTH
DTCO   .US/F  : DELTA-T COMPRESSIONAL
DTSM   .US/F  : DELTA-T SHEAR
AE10   .OHMM  : ARRAY INDUCTION RESISTIVITY EVIRONMENTALLY COMPENSATED LOG PROCESSING AE10
AE30   .OHMM  : ARRAY INDUCTION RESISTIVITY EVIRONMENTALLY COMPENSATED LOG PROCESSING AE30
AE90   .OHMM  : ARRAY INDUCTION RESISTIVITY EVIRONMENTALLY COMPENSATED LOG PROCESSING AE90
GRD    .GAPI  : GAMMA RAY FROM DENSITY LOG
TNPH_LS.DEC   : THERMAL NEUTRON POROSITY [LIMESTONE]
HDRA   .G/C3  : HRDD SPINE AND RIBS DENSITY CORRECTION
PEFZ   .B/E   : HRDD STANDARD RESOLUTION FORMATION PHOTOELECTRIC FACTOR
CALD   .IN    : CALIPER FROM DENSITY LOG
DPHZ_LS.DEC   : HGRD STANDARD RESOLUTION DENSITY POROSITY
RHOZ   .G/C3  : HRDD STANDARD RESOLUTION FORMATION DENSITY
~Params ----------------------------------------------------
~Other -----------------------------------------------------
~ASCII -----------------------------------------------------
# ...
 4687.00000   47.90480   86.34260   -9999.25   46.03630   40.29110   30.28190    0.03550   -0.00280    3.17500    8.58870   -0.07130    2.83100
 4687.50000   48.09500   85.28080   -9999.25   51.94560   46.29510   30.88560    0.03220   -0.00380    3.19840    8.60620   -0.06750    2.82690
 4688.00000   48.04900   84.63700   -9999.25   58.55390   53.19370   34.41920    0.02890   -0.00430    3.25890    8.62980   -0.06570    2.82360
 4688.50000   46.99830   84.88050   -9999.25   66.00280   61.12040   35.47360    0.02550   -0.00490    3.37450    8.65340   -0.06930    2.82840
 4689.00000   46.72390   84.97690   -9999.25   74.76390   70.22830   34.48830    0.02250   -0.00540    3.49980    8.67700   -0.07520    2.83810
 4689.50000   46.45720   84.18170   -9999.25   86.77790   80.69340   29.60310    0.02060   -0.00600    3.55170    8.69690   -0.07940    2.84800
 4690.00000   46.02960   85.64870   -9999.25   83.94470   81.77520   28.21200    0.02030   -0.00360    3.56600    8.72460   -0.08360    2.85790
 4690.50000   45.88630   89.26160   -9999.25   69.25010   64.01750   27.04520    0.02100   -0.00120    3.54940    8.73110   -0.08830    2.86300
 4691.00000   49.19850   93.81500   -9999.25   52.59540   46.34120   27.36400    0.02480    0.00130    3.47180    8.76130   -0.08950    2.85620
 4691.50000   51.38170   96.89990   -9999.25   36.06700   31.75380   30.66330    0.03320    0.00200    3.39110    8.79430   -0.07150    2.83880
 4692.00000   52.87380   98.79610   -9999.25   26.13250   24.82140   37.24800    0.04090    0.00010    3.43710    8.82720   -0.05690    2.80650
 4692.50000   56.37470  100.30840   -9999.25   25.03150   23.69350   39.13640    0.03460   -0.00200    3.64640    8.86010   -0.05850    2.80830
 4693.00000   56.32980  100.85940   -9999.25   25.60330   24.88690   34.86430    0.01880   -0.00410    4.02980    8.89110   -0.08720    2.87090
 4693.50000   58.63520  101.56160   -9999.25   26.83290   26.59010   26.93480    0.00410   -0.00380    4.44740    8.93840   -0.09700    2.88270
 4694.00000   63.96190  100.66530   -9999.25   30.65460   28.40990   26.25570    0.00190   -0.00260    4.57470    8.97590   -0.10670    2.89720
 4694.50000   68.68170   99.38510 1970.47280   36.79720   33.81660   25.71350   -0.00040   -0.00150    4.58660    9.00310   -0.11190    2.90640
 4695.00000   74.00150   98.48700 1857.01250   45.43750   44.76860   20.79300   -0.00700   -0.00030    4.63100    9.03040   -0.12810    2.95120
 4695.50000   73.39180   97.34200 1214.04210   64.34460   59.26760    9.75490   -0.01540   -0.00010    4.78350    9.05530   -0.14400    2.95810
 4696.00000   72.25980   97.56260  793.69370   87.62970   78.46220    6.58740   -0.01730   -0.00050    5.04520    9.08160   -0.14460    2.95760
 4696.50000   71.67110   98.65690  412.35240   84.34150   82.37670    5.67650   -0.01700   -0.00080    5.17110    9.12260   -0.14190    2.95400
 4697.00000   73.02920   98.88090  191.78840   62.73820   58.19490    7.24180   -0.01290    0.00220    5.27350    9.15410   -0.14010    2.95040
 4697.50000   79.15610  100.72330  101.14520   46.66850   40.21620   13.24510   -0.00540    0.00780    5.26280    9.18100   -0.13770    2.94630
 4698.00000   78.96680  104.04300   54.69780   31.29100   27.50940   21.60220    0.00990    0.01340    5.17660    9.21460   -0.12280    2.89660
 4698.50000   83.29160  108.81640   39.95060   20.66340   18.81750   32.52540    0.03230    0.01900    4.95720    9.26560   -0.08120    2.85090
 4699.00000   86.70500  109.17250   29.17940   16.08670   14.84260   44.24490    0.05110    0.01910    4.71380    9.28000   -0.06500    2.83120
 4699.50000   86.59610  108.76610   26.15000   15.49640   14.23210   50.21650    0.05950    0.01910    4.59470    9.28030   -0.06670    2.82040
 4700.00000   84.26350  106.32450   26.51910   17.25970   16.22890   44.60830    0.04560    0.01850    4.61570    9.28050   -0.08980    2.84130
 4700.50000   80.52310  103.80410   40.62460   23.50650   20.24830   34.46510    0.02440    0.01530    4.65590    9.25640   -0.10380    2.87620
 4701.00000   76.63650  100.78110   63.98550   37.50910   30.46410   22.16200    0.00330    0.01110    4.72450    9.23140   -0.11940    2.91570
 4701.50000   73.37860   97.57750  100.77990   66.51150   48.85020   15.92010   -0.01300    0.00440    4.79850    9.20640   -0.13420    2.94230
 4702.00000   72.45070   96.32370  189.75910  119.94600   78.36980   10.60820   -0.01800    0.00500    4.88320    9.18240   -0.14610    2.96570
 4702.50000   71.67350   95.96220  402.73300  190.21040  147.60940    7.05450   -0.02200    0.00750    4.99270    9.18000   -0.15390    2.97830
 4703.00000   72.08960   96.10810  854.73520  337.97730  278.02200    4.12000   -0.02390    0.00990    5.14020    9.17650   -0.16510    2.99640
 4703.50000   72.78450   96.19160 1580.08480  597.78240  523.65410    3.87230   -0.02470    0.00570    5.20290    9.15810   -0.16730    3.00260
 4704.00000   72.72500   96.10610 1965.21170  992.47610  983.63040    3.63880   -0.02430    0.00030    5.23180    9.14200   -0.17170    3.00510
 4704.50000   72.66340   95.90910 1940.11830 1504.08810 1028.73910    3.54870   -0.02360   -0.00510    5.24420    9.12540   -0.16980    2.99900
 4705.00000   72.75300   95.87980   -9999.25 1502.92350  961.07620    3.32530   -0.02290   -0.01000    5.20980    9.10880   -0.16710    2.99180
 4705.50000   72.69340   95.47850   -9999.25 1311.40420  839.77210    3.67320   -0.02180   -0.01430    5.13450    9.09220   -0.15990    2.98170
 4706.00000   72.47700   94.93900   -9999.25 1098.30410  733.77910    5.52130   -0.01910   -0.01860    5.05200    9.06330   -0.14840    2.95330
 4706.50000   71.59230   94.26700   -9999.25  909.64080  622.33330    8.55140   -0.01370   -0.02220    4.90470    9.04850   -0.13500    2.93610
 4707.00000   70.15900   93.30210   -9999.25  686.11800  512.98820   13.75710   -0.00430   -0.02450    4.66780    9.00860   -0.12300    2.91720
 4707.50000   68.55690   91.94900   -9999.25  517.52100  427.43670   20.48430    0.00500   -0.01540    4.40990    8.97270   -0.11580    2.90490
 4708.00000   67.65420   91.38140   -9999.25  399.53090  356.15270   23.19780    0.00830   -0.00200    4.18640    8.94300   -0.10810    2.89650
 4708.50000   66.79860   90.72670   -9999.25  328.79690  300.24010   24.97590    0.00690    0.00230    4.02540    8.91320   -0.10740    2.89560
 4709.00000   65.01820   90.62870   -9999.25  265.27120  253.84560   25.09970    0.00560    0.00100    3.97920    8.88270   -0.10700    2.89480
 4709.50000   65.63620   91.71810   -9999.25  211.04130  184.96300   29.29630    0.00570   -0.00130    3.96380    8.85220   -0.10750    2.89400
 4710.00000   67.59120   93.03110   -9999.25  157.61050  130.78600   31.79630    0.00820   -0.00320    3.93170    8.82170   -0.10290    2.88730
 4710.50000   69.45170   94.20280   -9999.25  108.40750   92.47790   34.57120    0.01040   -0.00290    3.89920    8.81850   -0.09420    2.88030
 4711.00000   69.56440   95.61340   -9999.25   86.91690   71.06450   31.64640    0.00860   -0.00180    3.96260    8.81900   -0.08830    2.86720
 4711.50000   71.70090   96.92810   -9999.25   77.97430   74.75980   25.91350    0.00560   -0.00170    4.23010    8.81940   -0.09420    2.86350
 4712.00000   73.60830   97.82740   -9999.25   84.05480   78.36390   19.70600   -0.00260    0.00110    4.62850    8.81990   -0.11230    2.90250
 4712.50000   74.72410   98.85710   -9999.25  100.08020   80.24430   14.19740   -0.00970    0.00420    4.93310    8.82030   -0.13570    2.93110
 4713.00000   75.22210   99.30870   -9999.25  110.54260   94.53750   12.14120   -0.01270   -0.00190    5.11480    8.82080   -0.16010    2.96380
 4713.50000   75.54370   99.71920   -9999.25  130.29910  111.73610   10.40940   -0.01320   -0.00500    5.15350    8.81900   -0.15810    2.98270
 4714.00000   75.69370   99.81560   -9999.25  134.50480  104.64560   10.19680   -0.01260   -0.00350    5.13090    8.81510   -0.15590    2.98110
 4714.50000   75.30500   99.96070   -9999.25  118.19150   73.93680   10.72800   -0.01100    0.00010    5.09390    8.80490   -0.15410    2.97560
