~Version ---------------------------------------------------
VERS.   2.0 : CWLS log ASCII Standard -VERSION 2.0
WRAP.    NO : One line per depth step
DLM . SPACE : Column Data Section Delimiter
~Well ------------------------------------------------------
STRT .F                   95.0 : START DEPTH
STOP .F                 5491.0 : STOP DEPTH
STEP .F                    0.5 : STEP
NULL .                -9999.25 : NULL VALUE
COMP .                         : COMPANY
WELL .                         : WELL
FLD  .                         : FIELD
LOC  .                         : LOCATION
PROV .                         : PROVINCE
CNTY .                         : COUNTY
STAT .                         : STATE
CTRY .                         : COUNTRY
SRVC .                         : SERVICE COMPANY
DATE .                         : DATE
UWI  .                         : UNIQUE WELL ID
API  .                         : API NUMBER
SLAT .WGS84 3.3617013234043966 : SURFACE LATITUDE
SLON .WGS84  7.688234486331993 : SURFACE LONGITUDE
DATUM.F                    nan : DEPTH DATUM ELEV
~Curve Information -----------------------------------------
DEPT   .F     : 1 MEASURED DEPTH
DTCO   .US/F  : DELTA-T COMPRESSIONAL
DTSM   .US/F  : DELTA-T SHEAR
AE10   .OHMM  : ARRAY INDUCTION RESISTIVITY EVIRONMENTALLY COMPENSATED LOG PROCESSING AE10
AE30   .OHMM  : ARRAY INDUCTION RESISTIVITY EVIRONMENTALLY COMPENSATED LOG PROCESSING AE30
AE90   .OHMM  : ARRAY INDUCTION RESISTIVITY EVIRONMENTALLY COMPENSATED LOG PROCESSING AE90
GRD    .GAPI  : GAMMA RAY FROM DENSITY LOG
TNPH_LS.DEC   : THERMAL NEUTRON POROSITY [LIMESTONE]
HDRA   .G/C3  : HRDD SPINE AND RIBS DENSITY CORRECTION
PEFZ   .B/E   : HRDD STANDARD RESOLUTION FORMATION PHOTOELECTRIC FACTOR
CALD   .IN    : CALIPER FROM DENSITY LOG
DPHZ_LS.DEC   : HGRD STANDARD RESOLUTION DENSITY POROSITY
RHOZ   .G/C3  : HRDD STANDARD RESOLUTION FORMATION DENSITY
~Params ----------------------------------------------------
~Other -----------------------------------------------------
~ASCII -----------------------------------------------------
# ...
 5023.00000   47.28790   88.20680   -9999.25  116.69800  108.70140   28.52120    0.02530   -0.00520    3.78360    8.31120   -0.08340    2.85310
 5023.50000   47.24040   90.76570   -9999.25  115.28730  105.49840   32.27820    0.02910   -0.00570    3.72280    8.30960   -0.08170    2.84920
 5024.00000   47.76930   91.35270   -9999.25  115.06630  106.14230   33.63570    0.02970   -0.00620    3.71790    8.31210   -0.07380    2.83410
 5024.50000   48.56150   91.98860   -9999.25  138.92020  117.61110   34.16220    0.02820   -0.00600    3.78530    8.31160   -0.06920    2.83010
 5025.00000   48.83080   91.91120   -9999.25  193.92980  176.52590   33.48370    0.02040   -0.00330    3.97090    8.32300   -0.07660    2.85740
 5025.50000   49.14650   93.45510   -9999.25  270.72200  257.36900   27.03080    0.01030   -0.00070    4.23290    8.31720   -0.11220    2.89670
 5026.00000   49.16250   93.23670   -9999.25  377.92240  375.23570   19.64470    0.00040    0.00200    4.53050    8.31880   -0.13770    2.93250
 5026.50000   49.25040   92.52010   -9999.25  527.57170  547.08160   14.00890   -0.00760    0.00430    4.68790    8.32040   -0.15920    2.97290
 5027.00000   49.11950   93.04280 2003.42710  803.30290  627.70380   14.09330   -0.01050    0.00550    4.68080    8.32200   -0.15640    2.99010
 5027.50000   48.56960   92.26810 1995.61270  829.70890  640.45030   16.84840   -0.00640    0.00110    4.48650    8.32350   -0.13520    2.95450
 5028.00000   48.06310   91.56320 1992.04540  792.14760  622.96530   21.18390    0.00110   -0.00060    4.25800    8.32500   -0.11750    2.91600
 5028.50000   47.95110   89.79380 1890.81180  683.97410  551.07010   24.86240    0.00860   -0.00210    4.18400    8.32640   -0.10740    2.89000
 5029.00000   47.64820   90.87350 1729.65370  549.40390  464.11410   24.09110    0.01080   -0.00290    4.17450    8.32780   -0.09720    2.87830
 5029.50000   47.27790   89.62390 1545.60690  438.16540  404.60020   19.58490    0.00670   -0.00270    4.34140    8.32880   -0.10670    2.87830
 5030.00000   47.10310   90.39360 1272.88110  340.61200  331.74500   14.74500    0.00440   -0.00180    4.40460    8.31820   -0.11870    2.89650
 5030.50000   47.13210   88.84330  989.43460  264.77800  213.10180   16.77710    0.00680   -0.00070    4.32790    8.31780   -0.12260    2.91940
 5031.00000   46.92960   88.57150  662.37230  182.42010  133.47690   26.13500    0.01530   -0.00070    4.16880    8.32080   -0.10970    2.91980
 5031.50000   46.90610   88.93300  437.05500  154.97100  120.49340   30.93610    0.01970   -0.00150    4.07710    8.32380   -0.10320    2.88770
 5032.00000   47.20920   91.35020  372.88260  166.96270  154.99490   29.10940    0.01880   -0.00220    4.05230    8.32690   -0.09670    2.87640
 5032.50000   48.10980   92.30150  303.54500  194.45930  169.19630   24.42250    0.01560   -0.00230    4.00530    8.32990   -0.10170    2.87770
 5033.00000   47.79200   92.99220  238.23080  152.71050  150.84220   24.52990    0.01220   -0.00140    3.87350    8.32880   -0.11130    2.89090
 5033.50000   49.02020   93.29770  149.80650  110.68360  103.91600   29.45280    0.02120   -0.00040    3.73630    8.32050   -0.10850    2.90190
 5034.00000   49.56670   94.67940   94.20270   80.22280   71.58830   35.29880    0.03790    0.00060    3.58650    8.31220   -0.10000    2.89910
 5034.50000   50.11320   93.77590   62.32150   58.14490   51.46020   40.20530    0.04270   -0.00040    3.53650    8.30860   -0.08920    2.86410
 5035.00000   50.42500   94.88630   78.31570   54.80960   50.72420   39.46080    0.04090   -0.00330    3.69040    8.30650   -0.08160    2.85210
 5035.50000   50.65470   93.64530  110.76980   73.59380   62.01070   32.62140    0.02820   -0.00610    3.92320    8.30700   -0.09530    2.85350
 5036.00000   50.03860   93.25990  165.85920  136.41440   97.62490   21.53420    0.01620   -0.00900    4.16210    8.30810   -0.11410    2.88960
 5036.50000   49.23370   92.17540  266.99180  174.96970  159.99100   15.28250    0.00830   -0.00610    4.25230    8.30860   -0.13250    2.93360
 5037.00000   48.91530   91.28860  429.79010  214.98810  198.44450   17.36230    0.00700   -0.00290    4.10270    8.30040   -0.13110    2.94250
 5037.50000   48.28760   91.33490  459.23070  217.50030  190.22720   24.22230    0.01250    0.00080    3.94290    8.29230   -0.12070    2.93420
 5038.00000   48.13820   91.57930  409.79660  137.01720  137.12320   29.94980    0.01740    0.00290    3.89810    8.28410   -0.11060    2.90400
 5038.50000   48.25410   91.86580  318.56670  102.62850   98.84380   30.01940    0.02080   -0.00110    3.96940    8.27590   -0.10160    2.89190
 5039.00000   48.84550   92.01750  247.32680   89.89370   85.91070   28.12480    0.02180   -0.00520    4.09550    8.26780   -0.10120    2.88300
 5039.50000   49.33600   92.16930  191.56360   79.52920   70.76390   27.28420    0.02420   -0.00300    4.02840    8.26240   -0.10740    2.88730
 5040.00000   49.22620   93.23930  139.85860   66.76800   57.39570   29.75760    0.02940   -0.00270    3.77210    8.25960   -0.10490    2.89610
 5040.50000   49.24770   94.08240  102.10270   54.31770   46.55300   34.00610    0.04020   -0.00240    3.47370    8.25440   -0.09430    2.88480
 5041.00000   50.02660   93.61960   69.75590   38.23370   37.75860   36.51380    0.04690   -0.00210    3.31030    8.25260   -0.06880    2.84760
 5041.50000   50.48590   94.38580   47.65680   30.44580   30.62560   40.69100    0.05390   -0.00230    3.25480    8.25210   -0.05200    2.80360
 5042.00000   50.39070   94.97500   32.55880   26.67960   25.25040   48.54880    0.06090   -0.00270    3.23630    8.24920   -0.04490    2.78810
 5042.50000   50.21750   94.73640   33.09010   25.23950   23.38830   52.50070    0.06670   -0.00300    3.25660    8.24310   -0.04790    2.78950
 5043.00000   49.62230   93.92670   50.98410   37.20060   31.04400   41.56070    0.06050   -0.00230    3.35300    8.23710   -0.06290    2.82590
 5043.50000   49.11530   93.16780  151.98480   55.16810   53.86700   30.04910    0.04780   -0.00100    3.53220    8.25000   -0.08410    2.84480
 5044.00000   48.76370   92.66850  144.17020   56.35550   45.24720   24.27790    0.04080    0.00040    3.57240    8.25440   -0.09460    2.87350
 5044.50000   48.08530   92.33450   74.96990   38.83280   31.75310   28.39600    0.04500    0.00180    3.55110    8.25540   -0.09350    2.86730
 5045.00000   48.39900   92.22350   38.98500   27.75630   22.45030   32.97390    0.05170    0.00290    3.44830    8.25490   -0.08260    2.84880
 5045.50000   48.71310   91.40030   36.11840   24.32840   21.65710   34.16660    0.05670    0.00100    3.37040    8.25460   -0.07280    2.83850
 5046.00000   48.57860   90.85540   44.23430   29.56250   24.50570   33.26890    0.05320   -0.00080    3.40610    8.25430   -0.07010    2.83130
 5046.50000   47.02050   88.27410   80.67210   47.73510   36.93000   30.87580    0.04010   -0.00260    3.48240    8.25520   -0.07110    2.83270
 5047.00000   47.06200   87.85310  127.68770   83.19540   85.03160   27.66680    0.02010   -0.00310    3.60900    8.25850   -0.07960    2.84820
 5047.50000   46.60040   87.63710  202.10390  101.98480   81.92520   23.61700    0.01860   -0.00190    3.68470    8.26130   -0.08930    2.86900
 5048.00000   46.89670   88.09470  234.06380  112.72950   96.14720   20.86050    0.01420   -0.00120    3.74460    8.26410   -0.10050    2.88450
 5048.50000   47.81310   91.62770  228.85400  161.43550  113.19920   19.19440    0.01520   -0.00160    3.76590    8.26680   -0.09960    2.88450
 5049.00000   48.73040   93.82320  120.21590   91.18110   65.74290   20.37060    0.02000   -0.00150    3.71600    8.26960   -0.09760    2.87260
 5049.50000   49.43670   96.13260   63.14880   36.52550   28.13910   29.88700    0.03170   -0.00140    3.59250    8.27240   -0.08440    2.84450
 5050.00000   51.62630   98.32320   31.78500   20.14130   14.27590   39.44240    0.05620   -0.00120    3.41160    8.27510   -0.06940    2.82780
 5050.50000   53.12730   97.71650   22.04170   16.64430   13.36660   46.20580    0.08060   -0.00100    3.25730    8.27890   -0.05710    2.80800
