~Version ---------------------------------------------------
VERS.   2.0 : CWLS log ASCII Standard -VERSION 2.0
WRAP.    NO : One line per depth step
DLM . SPACE : Column Data Section Delimiter
~Well ------------------------------------------------------
STRT .F                   95.0 : START DEPTH
STOP .F                 5491.0 : STOP DEPTH
STEP .F                    0.5 : STEP
NULL .                -9999.25 : NULL VALUE
COMP .                         : COMPANY
WELL .                         : WELL
FLD  .                         : FIELD
LOC  .                         : LOCATION
PROV .                         : PROVINCE
CNTY .                         : COUNTY
STAT .                         : STATE
CTRY .                         : COUNTRY
SRVC .                         : SERVICE COMPANY
DATE .                         : DATE
UWI  .                         : UNIQUE WELL ID
API  .                         : API NUMBER
SLAT .WGS84 3.3617013234043966 : SURFACE LATITUDE
SLON .WGS84  7.688234486331993 : SURFACE LONGITUDE
DATUM.F                    nan : DEPTH DATUM ELEV
~Curve Information -----------------------------------------
DEPT   .F     : 1 MEASURED DEPTH
DTCO   .US/F  : DELTA-T COMPRESSIONAL
DTSM   .US/F  : DELTA-T SHEAR
AE10   .OHMM  : ARRAY INDUCTION RESISTIVITY EVIRONMENTALLY COMPENSATED LOG PROCESSING AE10
AE30   .OHMM  : ARRAY INDUCTION RESISTIVITY EVIRONMENTALLY COMPENSATED LOG PROCESSING AE30
AE90   .OHMM  : ARRAY INDUCTION RESISTIVITY EVIRONMENTALLY COMPENSATED LOG PROCESSING AE90
GRD    .GAPI  : GAMMA RAY FROM DENSITY LOG
TNPH_LS.DEC   : THERMAL NEUTRON POROSITY [LIMESTONE]
HDRA   .G/C3  : HRDD SPINE AND RIBS DENSITY CORRECTION
PEFZ   .B/E   : HRDD STANDARD RESOLUTION FORMATION PHOTOELECTRIC FACTOR
CALD   .IN    : CALIPER FROM DENSITY LOG
DPHZ_LS.DEC   : HGRD STANDARD RESOLUTION DENSITY POROSITY
RHOZ   .G/C3  : HRDD STANDARD RESOLUTION FORMATION DENSITY
~Params ----------------------------------------------------
~Other -----------------------------------------------------
~ASCII -----------------------------------------------------
# ...
 4939.00000   48.47060   92.54160  618.55430  249.88980  263.63560   18.70810   -0.00300   -0.02050    4.58560    8.52020   -0.13660    2.92790
 4939.50000   48.06130   91.92270  283.65800  174.17920  161.49970   30.53080    0.00910   -0.01490    4.11920    8.50910   -0.11470    2.89730
 4940.00000   47.84940   92.17440  212.17060  113.24320   98.93260   35.69170    0.02040   -0.01140    3.74010    8.49790   -0.10020    2.87100
 4940.50000   47.81360   92.34180  158.69930   78.46180   69.33760   36.26140    0.03010   -0.01020    3.56530    8.48680   -0.08570    2.84770
 4941.00000   47.59770   92.49110  135.51700   63.46640   58.92530   34.09560    0.03460   -0.00890    3.54780    8.47100   -0.07430    2.83170
 4941.50000   48.23600   92.64400  116.45280   59.44690   56.55110   33.61660    0.03700   -0.00780    3.58090    8.46610   -0.06340    2.81580
 4942.00000   48.41920   91.86640  113.92370   58.08400   54.56440   34.46690    0.03780   -0.00720    3.59060    8.46330   -0.05950    2.80680
 4942.50000   48.87700   91.97060  138.21020   66.83900   65.42400   35.48890    0.03780   -0.00650    3.62310    8.46000   -0.06040    2.81550
 4943.00000   48.89600   93.00540  207.98240  100.11490   89.10900   32.78930    0.02810   -0.00580    3.72330    8.45400   -0.07670    2.86480
 4943.50000   48.79720   91.45440  322.93700  149.95720  121.36840   27.29920    0.01580   -0.00490    3.97430    8.44800   -0.10330    2.88980
 4944.00000   48.21360   90.82860  501.42860  200.80830  171.35160   25.02630    0.00910   -0.00370    4.25980    8.44190   -0.12390    2.93050
 4944.50000   47.81780   90.84100  778.57500  206.59860  183.39210   25.14670    0.00850   -0.00110    4.33530    8.43590   -0.12760    2.93050
 4945.00000   47.68590   91.11140 1208.90380  145.43100  135.18210   29.75590    0.01670    0.00200    4.18010    8.42990   -0.11820    2.90350
 4945.50000   47.14450   91.38180 1409.62130  141.08900  133.92430   31.80240    0.02200    0.00120    3.91740    8.42380   -0.10670    2.89260
 4946.00000   46.73120   91.80500 1442.49760  150.30650  142.76210   29.24610    0.02290    0.00050    3.73090    8.42780   -0.10180    2.87830
 4946.50000   46.94540   92.22610 1230.35710  154.58660  149.57400   26.85190    0.02260    0.00000    3.66240    8.42950   -0.09690    2.87410
 4947.00000   48.22660   92.70800 1016.76420  134.94670  129.32470   25.39980    0.02310   -0.00200    3.64370    8.42490   -0.09000    2.86250
 4947.50000   48.52410   94.70890  793.25600   99.74500   91.14190   28.59040    0.02360   -0.00280    3.67160    8.42160   -0.08310    2.84930
 4948.00000   49.68820   95.63180  618.87990   78.19720   72.48240   29.76010    0.01840   -0.00350    3.82530    8.42180   -0.08290    2.86090
 4948.50000   50.10890   95.85170  581.43740   74.53670   68.82910   27.53620    0.01270   -0.00400    4.14510    8.42190   -0.09630    2.88150
 4949.00000   50.78510   95.91380  870.54300  107.57340   74.75790   22.17340    0.00280   -0.00880    4.68000    8.42210   -0.12050    2.93700
 4949.50000   50.86530   95.94120 1118.54790  173.57510  119.77380   15.14420   -0.00520   -0.01360    5.03000    8.42220   -0.14150    2.95180
 4950.00000   50.95310   95.66240 1442.14280  280.07210  200.58140   11.19180   -0.00980   -0.01790    5.21810    8.41470   -0.14960    2.96670
 4950.50000   50.23160   94.85310 1875.36410  451.91050  335.90730    8.59970   -0.01190   -0.01780    5.09000    8.40340   -0.15420    2.97460
 4951.00000   49.35460   91.77720 1999.37390  603.08810  562.53340    7.59690   -0.00990   -0.00810    4.75600    8.39530   -0.15340    2.97430
 4951.50000   48.86300   91.45660 1991.55550  705.07280  650.50920    7.90900   -0.00670   -0.00460    4.40510    8.38150   -0.14670    2.95560
 4952.00000   48.31530   90.75750 1983.76780  634.66930  624.49180   10.37760    0.00060   -0.00120    4.12200    8.36780   -0.13330    2.93010
 4952.50000   46.51450   87.81250 1870.47610  488.68360  421.39940   12.87350    0.00710    0.00120    3.92560    8.35560   -0.12310    2.92080
 4953.00000   45.85900   87.04060 1164.70260  304.28420  273.81850   15.48290    0.00850    0.00210    3.71830    8.36280   -0.11610    2.90950
 4953.50000   45.28990   86.62800  558.08800  232.70440  213.74920   16.83570    0.00780    0.00200    3.66150    8.36550   -0.11630    2.90980
 4954.00000   45.23950   86.68800  281.59880  192.34860  177.66440   18.28340    0.00980    0.00180    3.61060    8.36440   -0.11570    2.90690
 4954.50000   46.12140   87.64500  148.02490  110.46500  100.14810   20.08380    0.01390    0.00160    3.54890    8.36080   -0.11140    2.89630
 4955.00000   47.61550   92.60570   85.68260   60.24210   51.13230   24.48940    0.02240    0.00090    3.45340    8.32510   -0.09460    2.85030
 4955.50000   49.79600   95.78060   49.59640   36.11160   25.96340   29.71580    0.03780    0.00010    3.32910    8.34660   -0.07780    2.82270
 4956.00000   51.84180   98.86520   28.70830   18.74040   13.14510   36.20030    0.05780    0.00010    3.21950    8.36810   -0.05140    2.78650
 4956.50000   53.45060   99.81760   16.61750   11.25900   10.79140   39.72120    0.08220    0.00010    3.13370    8.39350   -0.04150    2.77850
 4957.00000   55.42930  100.19150   16.12290   10.16740    9.83870   43.03980    0.09950   -0.00080    3.12330    8.41750   -0.03540    2.76900
 4957.50000   56.79750  100.15540   17.66640   10.77380   10.26150   45.35990    0.10630   -0.00240    3.14810    8.42880   -0.03370    2.76710
 4958.00000   56.93210   99.32990   19.35760   11.60270   11.09600   45.61820    0.09870   -0.00400    3.17280    8.43100   -0.03230    2.76500
 4958.50000   55.36430   97.00610   23.77240   12.49540   11.99840   45.94730    0.08990   -0.00730    3.20730    8.43680   -0.03150    2.76660
 4959.00000   55.18250   95.13000   30.23100   14.94880   14.05090   42.23030    0.07990   -0.00880    3.33250    8.46590   -0.04000    2.80150
 4959.50000   51.48130   92.06270   48.70320   25.51460   20.66320   36.41870    0.05370   -0.00700    3.44410    8.48900   -0.06020    2.83940
 4960.00000   49.63480   90.32580   84.25530   45.53210   33.01610   25.56870    0.03600   -0.00490    3.58570    8.50150   -0.08890    2.86830
 4960.50000   46.49580   88.59590  145.75960   81.25420   57.67160   17.47200    0.01940   -0.00270    3.72680    8.51400   -0.10510    2.89260
 4961.00000   45.30660   88.21670  328.69840  145.00200  139.38160   14.50470    0.01490   -0.00090    3.84210    8.51960   -0.10340    2.88330
 4961.50000   44.18970   91.40910  605.73060  156.29070  150.35470   17.83650    0.01650   -0.00440    3.89100    8.52710   -0.09360    2.86830
 4962.00000   46.73130   92.79120 1020.97160  106.89370   94.72960   26.23920    0.02060   -0.00610    3.92390    8.54280   -0.08930    2.86030
 4962.50000   50.24620   94.28610 1720.86900   64.05760   52.51430   35.61160    0.02440   -0.00250    3.95180    8.55940   -0.08850    2.86380
 4963.00000   71.38120   95.29850 2025.65970   39.32040   37.56930   41.61340    0.02430    0.00180    4.10030    8.58240   -0.09220    2.87770
 4963.50000   72.74410   95.71210 2017.86470   39.01160   38.06060   34.75510    0.01590    0.00370    4.36430    8.62070   -0.11080    2.89520
 4964.00000   73.51370   95.94390 2010.10000   64.59490   48.70100   25.73710    0.00510    0.00310    4.60920    8.63790   -0.12880    2.93390
 4964.50000   73.55260   95.80100 2002.36390  136.33560   99.01200   16.11320   -0.00620   -0.00280    4.72800    8.65410   -0.14700    2.95750
 4965.00000   72.40710   94.52510 1994.65870  328.44670  254.64720   11.97410   -0.00980   -0.00750    4.61930    8.66790   -0.14730    2.96470
 4965.50000   71.09880   94.05400 1986.98300  428.48750  346.51700   16.52300   -0.00670   -0.00920    4.40410    8.68180   -0.14040    2.95160
 4966.00000   70.55680   94.27610 1307.43910  328.45450  248.49110   23.17020    0.00240   -0.00510    4.09550    8.69570   -0.12970    2.92680
 4966.50000   70.52160   94.94160  831.77310  190.78860  114.40640   33.07280    0.01200    0.00020    3.78220    8.70960   -0.10870    2.90550
