~Version ---------------------------------------------------
VERS.   2.0 : CWLS log ASCII Standard -VERSION 2.0
WRAP.    NO : One line per depth step
DLM . SPACE : Column Data Section Delimiter
~Well ------------------------------------------------------
STRT .F                   95.0 : START DEPTH
STOP .F                 5491.0 : STOP DEPTH
STEP .F                    0.5 : STEP
NULL .                -9999.25 : NULL VALUE
COMP .                         : COMPANY
WELL .                         : WELL
FLD  .                         : FIELD
LOC  .                         : LOCATION
PROV .                         : PROVINCE
CNTY .                         : COUNTY
STAT .                         : STATE
CTRY .                         : COUNTRY
SRVC .                         : SERVICE COMPANY
DATE .                         : DATE
UWI  .                         : UNIQUE WELL ID
API  .                         : API NUMBER
SLAT .WGS84 3.3617013234043966 : SURFACE LATITUDE
SLON .WGS84  7.688234486331993 : SURFACE LONGITUDE
DATUM.F                    nan : DEPTH DATUM ELEV
~Curve Information -----------------------------------------
DEPT   .F     : 1 MEASURED DEPTH
DTCO   .US/F  : DELTA-T COMPRESSIONAL
DTSM   .US/F  : DELTA-T SHEAR
AE10   .OHMM  : ARRAY INDUCTION RESISTIVITY EVIRONMENTALLY COMPENSATED LOG PROCESSING AE10
AE30   .OHMM  : ARRAY INDUCTION RESISTIVITY EVIRONMENTALLY COMPENSATED LOG PROCESSING AE30
AE90   .OHMM  : ARRAY INDUCTION RESISTIVITY EVIRONMENTALLY COMPENSATED LOG PROCESSING AE90
GRD    .GAPI  : GAMMA RAY FROM DENSITY LOG
TNPH_LS.DEC   : THERMAL NEUTRON POROSITY [LIMESTONE]
HDRA   .G/C3  : HRDD SPINE AND RIBS DENSITY CORRECTION
PEFZ   .B/E   : HRDD STANDARD RESOLUTION FORMATION PHOTOELECTRIC FACTOR
CALD   .IN    : CALIPER FROM DENSITY LOG
DPHZ_LS.DEC   : HGRD STANDARD RESOLUTION DENSITY POROSITY
RHOZ   .G/C3  : HRDD STANDARD RESOLUTION FORMATION DENSITY
~Params ----------------------------------------------------
~Other -----------------------------------------------------
~ASCII -----------------------------------------------------
# ...
 5275.00000   52.39170   95.15150   91.64130   70.22650   68.03640   40.38910    0.07580    0.00060    2.98420    8.10830   -0.03210    2.76390
 5275.50000   52.47260   95.03490   82.96160   69.95810   66.74510   46.22450    0.07560    0.00070    2.98430    8.10300   -0.03080    2.76380
 5276.00000   52.59310   94.46210   81.67870   69.70200   67.39840   54.25830    0.08340    0.00070    2.98450    8.09700   -0.02690    2.76280
 5276.50000   52.99200   94.76480   78.07640   69.03250   67.22950   53.71040    0.09090   -0.00030    3.00650    8.09410   -0.02220    2.75010
 5277.00000   52.67660   95.16510   72.75090   66.86470   62.72540   47.54890    0.09320   -0.00060    3.02780    8.09250   -0.01430    2.73890
 5277.50000   53.06280   95.40280   68.10080   64.76510   57.21080   40.97850    0.09590   -0.00050    3.04270    8.09100   -0.00670    2.72730
 5278.00000   52.87860   95.44520   66.71240   63.89180   57.43010   33.60110    0.10070   -0.00000    3.07060    8.08940    0.00160    2.71340
 5278.50000   52.22570   95.46770   66.99110   64.33910   59.26710   28.10400    0.10230    0.00050    3.10080    8.08480    0.00590    2.70380
 5279.00000   52.97470   95.54730   69.68890   69.33600   64.06420   24.38680    0.09720    0.00100    3.15460    8.08100    0.00890    2.69650
 5279.50000   52.75290   95.35060   75.85720   74.72100   69.24960   21.75820    0.09520    0.00160    3.23670    8.06850    0.00660    2.70250
 5280.00000   51.87200   94.84840   82.57140   80.52430   74.85480   20.84470    0.09260    0.00210    3.27230    8.06180    0.00160    2.70960
 5280.50000   51.40150   95.07880   89.88000   86.25590   80.91360   21.08610    0.08990    0.00260    3.31580    8.05510   -0.00410    2.71620
 5281.00000   51.30070   95.08300   97.83550   91.90270   87.46280   22.76060    0.08790    0.00290    3.31630    8.04830   -0.00640    2.72560
 5281.50000   50.11980   95.16000  101.53210   97.91920   92.10340   22.79550    0.08200    0.00330    3.30610    8.04160   -0.01370    2.74030
 5282.00000   50.05080   95.53270  100.33550   90.49660   81.86870   23.78850    0.07430    0.00360    3.29590    8.03590   -0.03050    2.77330
 5282.50000   49.97570   95.93110   83.43640   78.39820   67.01770   29.65680    0.06150    0.00400    3.25970    8.02790   -0.04740    2.78890
 5283.00000   50.21710   95.75590   70.60110   67.91730   57.78190   37.41470    0.06100    0.00390    3.22090    8.01630   -0.04840    2.79260
 5283.50000   50.87960   97.08720   64.29450   58.83750   50.59630   42.36210    0.06940    0.00200    3.19070    8.01310   -0.03600    2.76200
 5284.00000   51.66280   96.16570   61.14040   54.21220   49.41310   44.49930    0.08040    0.00010    3.15720    8.01460   -0.02460    2.75040
 5284.50000   52.64960   95.39730   60.46780   55.56930   49.94040   42.21440    0.08360   -0.00090    3.13840    8.01620   -0.01920    2.74430
 5285.00000   54.39290   94.84500   70.88790   64.24410   57.07440   39.82310    0.08090   -0.00190    3.10290    8.01770   -0.02200    2.75580
 5285.50000   53.64720   94.76670   93.35360   74.27320   67.62880   35.97330    0.07520    0.00030    3.09960    8.01930   -0.03250    2.78200
 5286.00000   51.60250   92.92130  122.93910   85.86800   80.13500   32.45790    0.06230    0.00320    3.11910    8.02090   -0.04550    2.80120
 5286.50000   49.74310   90.38010  129.02710   99.27270   92.18610   30.20360    0.05280    0.00600    3.14940    8.02240   -0.05450    2.80390
 5287.00000   49.74690   89.54770  121.86850  103.12490   92.81650   29.32840    0.04960    0.00980    3.13390    8.02400   -0.05080    2.78800
 5287.50000   49.25300   89.14650  115.10710  104.48900   92.35720   27.97750    0.05000    0.00500    3.10130    8.02650   -0.03490    2.75580
 5288.00000   49.32260   89.12170  111.21560  107.69180   94.13350   27.27360    0.05360    0.00030    3.06860    8.03430   -0.01760    2.73450
 5288.50000   49.31610   89.48720  134.76320  116.84590   97.67190   28.62400    0.05990   -0.00260    3.05050    8.03740   -0.01440    2.73940
 5289.00000   49.43440   89.65210  164.98280  144.96500  126.27350   32.08780    0.06180   -0.00300    3.08110    8.02370   -0.02120    2.74990
 5289.50000   49.52090   89.47400  201.97910  179.85080  163.25050   36.45700    0.05880   -0.00330    3.12460    8.02110   -0.03250    2.75970
 5290.00000   48.96610   89.42140  247.27140  223.87210  211.05570   41.30730    0.05280   -0.00360    3.18770    8.01860   -0.03500    2.76890
 5290.50000   48.40090   89.42740  287.03000  266.08230  253.07500   41.54710    0.05060   -0.00380    3.20950    8.01600   -0.03610    2.77540
 5291.00000   48.89020   89.90040  256.08440  244.53030  239.12440   38.98160    0.05120   -0.00370    3.20150    8.01340   -0.03930    2.77590
 5291.50000   49.56880   91.30440  209.26320  187.91610  172.72970   35.54210    0.05820   -0.00360    3.21310    8.01080   -0.03650    2.77290
 5292.00000   49.76680   94.34540  130.94410  121.97410  122.48280   31.92120    0.06960   -0.00340    3.24560    8.00830   -0.02740    2.75090
 5292.50000   49.96470   94.32820   99.87980   92.28080   86.85270   29.38170    0.07740   -0.00250    3.28560    8.00570   -0.01900    2.74210
 5293.00000   50.15260   94.66990   74.44180   67.23260   62.34980   26.04720    0.07440   -0.00040    3.29320    8.00310   -0.02260    2.75310
 5293.50000   50.17000   93.26140   76.59910   61.39100   58.42080   23.75370    0.07090    0.00180    3.30080    8.00050   -0.03710    2.77300
 5294.00000   49.98130   95.02430   86.40540   69.55920   63.23510   19.86220    0.06910    0.00230    3.31400    7.99800   -0.04110    2.78060
 5294.50000   49.60920   91.94880   97.46710   78.81430   71.71850   18.55640    0.06850    0.00100    3.32780    7.99500   -0.04100    2.77630
 5295.00000   49.77230   92.85660  109.94480   89.30070   81.34000   18.79360    0.06920   -0.00080    3.36440    7.99110   -0.03900    2.78210
 5295.50000   49.31880   92.66540  124.02010  101.15610   92.25220   20.91820    0.05890   -0.00250    3.40670    7.98720   -0.04670    2.79490
 5296.00000   48.80520   90.72310  138.55900  114.21430   99.02480   22.53670    0.04420   -0.00300    3.48140    7.98330   -0.05690    2.81890
 5296.50000   47.85560   89.38610  105.89660   96.42470   85.44120   23.58290    0.03630   -0.00240    3.50320    7.97950   -0.07240    2.83160
 5297.00000   47.72170   88.74170   77.21060   71.95320   67.65130   23.67900    0.03760   -0.00180    3.48920    7.97560   -0.07700    2.84100
 5297.50000   47.56890   88.68310   59.24900   55.07840   52.29340   23.30950    0.04490   -0.00120    3.44770    7.97170   -0.07540    2.84100
 5298.00000   47.59430   88.77760   42.14760   38.36400   36.66020   20.20150    0.05220   -0.00180    3.39670    7.96780   -0.06740    2.81970
 5298.50000   47.74010   89.04550   29.34480   26.70330   25.70060   16.99000    0.06010   -0.00260    3.32920    7.96400   -0.05890    2.80950
 5299.00000   48.48850   89.48600   23.96740   23.64730   22.78630   15.97260    0.06440   -0.00340    3.26130    7.96190   -0.05140    2.79510
 5299.50000   48.14830   90.87130   35.35650   31.57050   26.92730   21.44120    0.06720   -0.00390    3.22330    7.96360   -0.04460    2.77810
 5300.00000   49.18180   94.01220   54.94050   46.23340   40.88660   26.03720    0.07010   -0.00330    3.19410    7.96530   -0.03370    2.76140
 5300.50000   50.13200   93.89760   73.05220   64.69370   54.94650   29.80850    0.07380   -0.00270    3.17590    7.96710   -0.02100    2.74410
 5301.00000   50.47800   94.75490   79.84330   70.89990   63.95980   28.00070    0.08170   -0.00210    3.19620    7.97100   -0.01380    2.73930
 5301.50000   50.58800   94.05720   83.71540   74.21370   68.87060   26.45480    0.08220    0.00010    3.23100    7.97490   -0.02180    2.75810
 5302.00000   50.65810   93.61920  114.50820  101.62320   90.06670   23.55950    0.07360   -0.00210    3.32720    7.97880   -0.03850    2.79040
 5302.50000   50.85640   93.52880  157.45710  139.97930  126.77250   21.26020    0.06870   -0.00440    3.47130    7.98270   -0.04770    2.79040
