~Version ---------------------------------------------------
VERS.   2.0 : CWLS log ASCII Standard -VERSION 2.0
WRAP.    NO : One line per depth step
DLM . SPACE : Column Data Section Delimiter
~Well ------------------------------------------------------
STRT .F                   95.0 : START DEPTH
STOP .F                 5491.0 : STOP DEPTH
STEP .F                    0.5 : STEP
NULL .                -9999.25 : NULL VALUE
COMP .                         : COMPANY
WELL .                         : WELL
FLD  .                         : FIELD
LOC  .                         : LOCATION
PROV .                         : PROVINCE
CNTY .                         : COUNTY
STAT .                         : STATE
CTRY .                         : COUNTRY
SRVC .                         : SERVICE COMPANY
DATE .                         : DATE
UWI  .                         : UNIQUE WELL ID
API  .                         : API NUMBER
SLAT .WGS84 3.3617013234043966 : SURFACE LATITUDE
SLON .WGS84  7.688234486331993 : SURFACE LONGITUDE
DATUM.F                    nan : DEPTH DATUM ELEV
~Curve Information -----------------------------------------
DEPT   .F     : 1 MEASURED DEPTH
DTCO   .US/F  : DELTA-T COMPRESSIONAL
DTSM   .US/F  : DELTA-T SHEAR
AE10   .OHMM  : ARRAY INDUCTION RESISTIVITY EVIRONMENTALLY COMPENSATED LOG PROCESSING AE10
AE30   .OHMM  : ARRAY INDUCTION RESISTIVITY EVIRONMENTALLY COMPENSATED LOG PROCESSING AE30
AE90   .OHMM  : ARRAY INDUCTION RESISTIVITY EVIRONMENTALLY COMPENSATED LOG PROCESSING AE90
GRD    .GAPI  : GAMMA RAY FROM DENSITY LOG
TNPH_LS.DEC   : THERMAL NEUTRON POROSITY [LIMESTONE]
HDRA   .G/C3  : HRDD SPINE AND RIBS DENSITY CORRECTION
PEFZ   .B/E   : HRDD STANDARD RESOLUTION FORMATION PHOTOELECTRIC FACTOR
CALD   .IN    : CALIPER FROM DENSITY LOG
DPHZ_LS.DEC   : HGRD STANDARD RESOLUTION DENSITY POROSITY
RHOZ   .G/C3  : HRDD STANDARD RESOLUTION FORMATION DENSITY
~Params ----------------------------------------------------
~Other -----------------------------------------------------
~ASCII -----------------------------------------------------
# ...
 5247.00000   48.30390   89.18080  468.22080  237.23070  181.20540   17.20040    0.03520   -0.00090    3.67760    8.07750   -0.07490    2.83980
 5247.50000   48.06030   89.08310  982.05380  395.27580  343.93460   19.39970    0.03610   -0.00260    3.73440    8.08170   -0.07210    2.83540
 5248.00000   47.93240   90.58940 2006.58840  698.95820  693.36430   23.19590    0.03700   -0.00400    3.75750    8.08490   -0.06800    2.82820
 5248.50000   48.02850   89.96210 2007.25490 1235.95420 1397.80710   29.17280    0.03800   -0.00540    3.78450    8.07320   -0.06650    2.82360
 5249.00000   47.78570   91.43960 2007.92180 1621.32510 1556.51550   32.05560    0.04100   -0.00670    3.81250    8.06010   -0.06830    2.82530
 5249.50000   48.60250   90.06900 2008.58870 1334.43250 1186.50290   34.02250    0.04450   -0.00550    3.79720    8.05770   -0.06880    2.82870
 5250.00000   49.15050   91.34100 2009.25490  900.56530  820.29030   30.93180    0.04660   -0.00350    3.69890    8.05520   -0.06890    2.83080
 5250.50000   49.21290   91.71810 1199.34990  607.76250  567.10910   28.47030    0.04840   -0.00150    3.56600    8.05160   -0.06770    2.82700
 5251.00000   48.86180   91.42380  598.05220  410.15900  393.57450   28.46960    0.04320   -0.00080    3.46270    8.03670   -0.07270    2.82700
 5251.50000   48.19510   89.47180  320.73500  276.80300  269.55750   34.36500    0.03890    0.00050    3.41160    8.03150   -0.08190    2.84530
 5252.00000   47.80930   90.48910  195.58130  184.22240  159.05340   37.31250    0.03610    0.00200    3.39490    8.03250   -0.08970    2.86510
 5252.50000   47.68540   89.10510  132.95210  118.63520   95.63460   36.22640    0.03930    0.00350    3.37180    8.02990   -0.08970    2.86550
 5253.00000   47.66930   89.17360   84.76640   75.63980   75.92560   33.60940    0.04440    0.00220    3.31390    8.02180   -0.08170    2.85340
 5253.50000   47.73160   89.43320   64.48480   62.38680   60.27830   31.21470    0.04980    0.00180    3.25600    8.01360   -0.07200    2.83720
 5254.00000   48.08150   90.07810   57.69260   56.06050   53.56330   33.03870    0.05420    0.00160    3.16370    8.01330   -0.06800    2.82690
 5254.50000   48.17710   92.14640   52.04560   51.32760   49.54600   34.57700    0.05820    0.00220    3.13480    8.01270   -0.06270    2.81930
 5255.00000   48.74690   91.23570   51.61870   50.99300   48.02740   36.03490    0.06220    0.00290    3.15580    8.00910   -0.06220    2.81660
 5255.50000   48.87100   91.58150   62.02510   53.64500   48.91910   35.35410    0.06800    0.00320    3.22080    8.01140   -0.06400    2.81970
 5256.00000   49.67780   92.61650  101.61290   91.30370   74.32700   35.02260    0.06620    0.00350    3.25400    8.01130   -0.06420    2.81950
 5256.50000   49.67770   92.58180  171.62270  139.17760  115.39510   33.47890    0.06390    0.00340    3.25150    8.01120   -0.06060    2.81350
 5257.00000   49.65530   91.93250  327.13990  212.15360  179.72740   31.09020    0.06260    0.00250    3.23050    8.01140   -0.05270    2.79960
 5257.50000   49.51730   90.52920  592.49450  323.39350  279.92500   31.17740    0.06440    0.00130    3.22950    8.01380   -0.04910    2.79490
 5258.00000   49.81070   92.47590  915.19430  492.96060  423.52400   32.11370    0.06670    0.00020    3.23500    8.02140   -0.03590    2.77340
 5258.50000   50.49980   92.71570 1413.65190  502.29930  492.03460   31.82830    0.07360    0.00030    3.24730    8.03590   -0.02340    2.75990
 5259.00000   50.59440   92.84840 1739.29550  576.42640  548.55490   28.14760    0.08200    0.00130    3.25800    8.05020   -0.01420    2.73270
 5259.50000   50.89790   94.60590 1982.08480  737.40300  630.90670   30.19120    0.08400    0.00240    3.23980    8.04570   -0.01870    2.73270
 5260.00000   51.26610   95.14760 1974.38070  846.19220  672.28410   40.84880    0.08190    0.00220    3.21280    8.04130   -0.02800    2.75000
 5260.50000   51.66290   95.33100 1966.70650  752.24110  666.31920   48.82460    0.07770    0.00140    3.18860    8.03690   -0.03530    2.76490
 5261.00000   52.05970   95.33750 1959.06100  627.01090  599.83600   49.25870    0.07340    0.00050    3.14760    8.05080   -0.03730    2.77430
 5261.50000   52.40730   95.46280 1951.44640  545.55900  500.49960   45.87150    0.07330   -0.00050    3.12530    8.06400   -0.03230    2.76990
 5262.00000   52.50340   95.59800 1943.86150  513.46620  456.06740   45.37430    0.07930   -0.00150    3.12310    8.05410   -0.02660    2.75940
 5262.50000   52.50380   94.95620 1754.84730  443.36840  405.76670   44.56820    0.08610   -0.00240    3.15280    8.03950   -0.01560    2.74170
 5263.00000   51.78340   94.05470 1192.10410  377.56650  332.68920   39.78610    0.08600   -0.00340    3.24270    8.03340   -0.01220    2.72980
 5263.50000   50.83610   92.27890  777.34330  264.17530  237.51420   32.60550    0.07870   -0.00400    3.29600    8.02700   -0.02180    2.73470
 5264.00000   49.33140   90.86520  493.47420  181.37130  160.50040   26.71260    0.06430   -0.00380    3.30960    8.02530   -0.04080    2.76340
 5264.50000   47.63000   88.38740  304.68580  124.10780  108.45820   23.55050    0.04880   -0.00350    3.32310    8.02350   -0.06000    2.79350
 5265.00000   47.02800   87.56550  202.26160   84.49270   73.29070   21.11840    0.04240   -0.00330    3.28730    8.02180   -0.06470    2.82030
 5265.50000   46.53130   86.91390  145.53000   59.09500   54.36330   20.57230    0.04080   -0.00300    3.23790    8.02000   -0.06230    2.82010
 5266.00000   46.35240   86.61830  104.71080   47.70570   47.25390   21.61290    0.04620   -0.00400    3.19330    8.01830   -0.06170    2.81710
 5266.50000   46.39680   86.35100   94.25760   46.31610   45.43420   22.64990    0.04930   -0.00300    3.17810    8.01650   -0.06180    2.81420
 5267.00000   46.89500   86.33490   98.79130   46.73860   45.99990   22.28330    0.04830   -0.00210    3.17140    8.01480   -0.06220    2.81510
 5267.50000   47.12470   86.76880  102.36500   50.14940   49.15300   20.42460    0.04600   -0.00100    3.17100    8.01300   -0.06500    2.81660
 5268.00000   47.16540   87.12410   95.89970   52.53530   49.78640   22.36980    0.04570    0.00020    3.14690    8.01690   -0.06900    2.82420
 5268.50000   47.20610   87.66900   76.30410   45.43210   43.25160   26.21790    0.05130    0.00130    3.13790    8.02700   -0.07100    2.82910
 5269.00000   47.41320   89.24190   58.16970   36.37440   34.37740   31.22880    0.05590    0.00190    3.14650    8.03950   -0.06340    2.82670
 5269.50000   48.12850   92.08310   47.26430   29.19880   29.34090   36.43760    0.05960    0.00060    3.12900    8.05190   -0.05150    2.81090
 5270.00000   49.10490   93.64630   44.33350   30.04820   29.39060   37.68160    0.06340   -0.00060    3.07870    8.06440   -0.04630    2.78900
 5270.50000   50.18120   94.48520   48.23610   31.68370   31.87330   35.75130    0.06490   -0.00160    3.06340    8.07600   -0.04330    2.78490
 5271.00000   52.04540   94.42070   58.71490   39.84580   38.56430   33.70170    0.06510    0.00010    2.99670    8.08490   -0.03740    2.78080
 5271.50000   53.54610   94.60700   70.97440   48.03350   46.99490   34.39460    0.06510   -0.00080    2.94040    8.08600   -0.02620    2.76810
 5272.00000   54.46180   94.69130   85.54550   57.90380   57.26850   36.78330    0.06700   -0.00180    2.95950    8.08570   -0.01540    2.73760
 5272.50000   54.71590   94.58460  103.10800   66.20870   61.82650   38.76740    0.06890   -0.00260    2.98090    8.10570   -0.01060    2.73120
 5273.00000   54.52450   93.26160  121.41450   72.03790   66.53010   39.96070    0.07070   -0.00250    3.00060    8.09700   -0.01060    2.72750
 5273.50000   53.47340   94.70430  121.84950   78.38020   76.22600   42.34870    0.07300   -0.00210    2.98940    8.10910   -0.01070    2.72740
 5274.00000   53.11360   94.39590  117.41050   82.07520   75.57460   42.74680    0.07650   -0.00160    2.95340    8.10800   -0.01590    2.73280
 5274.50000   52.96040   94.95960  104.93250   76.58640   71.97830   40.74960    0.07690    0.00010    2.95560    8.10160   -0.02380    2.74980
