~Version ---------------------------------------------------
VERS.   2.0 : CWLS log ASCII Standard -VERSION 2.0
WRAP.    NO : One line per depth step
DLM . SPACE : Column Data Section Delimiter
~Well ------------------------------------------------------
STRT .F                   95.0 : START DEPTH
STOP .F                 5491.0 : STOP DEPTH
STEP .F                    0.5 : STEP
NULL .                -9999.25 : NULL VALUE
COMP .                         : COMPANY
WELL .                         : WELL
FLD  .                         : FIELD
LOC  .                         : LOCATION
PROV .                         : PROVINCE
CNTY .                         : COUNTY
STAT .                         : STATE
CTRY .                         : COUNTRY
SRVC .                         : SERVICE COMPANY
DATE .                         : DATE
UWI  .                         : UNIQUE WELL ID
API  .                         : API NUMBER
SLAT .WGS84 3.3617013234043966 : SURFACE LATITUDE
SLON .WGS84  7.688234486331993 : SURFACE LONGITUDE
DATUM.F                    nan : DEPTH DATUM ELEV
~Curve Information -----------------------------------------
DEPT   .F     : 1 MEASURED DEPTH
DTCO   .US/F  : DELTA-T COMPRESSIONAL
DTSM   .US/F  : DELTA-T SHEAR
AE10   .OHMM  : ARRAY INDUCTION RESISTIVITY EVIRONMENTALLY COMPENSATED LOG PROCESSING AE10
AE30   .OHMM  : ARRAY INDUCTION RESISTIVITY EVIRONMENTALLY COMPENSATED LOG PROCESSING AE30
AE90   .OHMM  : ARRAY INDUCTION RESISTIVITY EVIRONMENTALLY COMPENSATED LOG PROCESSING AE90
GRD    .GAPI  : GAMMA RAY FROM DENSITY LOG
TNPH_LS.DEC   : THERMAL NEUTRON POROSITY [LIMESTONE]
HDRA   .G/C3  : HRDD SPINE AND RIBS DENSITY CORRECTION
PEFZ   .B/E   : HRDD STANDARD RESOLUTION FORMATION PHOTOELECTRIC FACTOR
CALD   .IN    : CALIPER FROM DENSITY LOG
DPHZ_LS.DEC   : HGRD STANDARD RESOLUTION DENSITY POROSITY
RHOZ   .G/C3  : HRDD STANDARD RESOLUTION FORMATION DENSITY
~Params ----------------------------------------------------
~Other -----------------------------------------------------
~ASCII -----------------------------------------------------
# ...
 4631.00000   -9999.25   -9999.25   -9999.25   -9999.25   -9999.25   25.81430    0.10140   -9999.25   -9999.25   -9999.25   -9999.25   -9999.25
 4631.50000   -9999.25   -9999.25   -9999.25   -9999.25   -9999.25   26.55190    0.11680   -9999.25   -9999.25   -9999.25   -9999.25   -9999.25
 4632.00000   -9999.25   -9999.25   -9999.25   -9999.25   -9999.25   25.95600    0.12000   -9999.25   -9999.25   -9999.25   -9999.25   -9999.25
 4632.50000   -9999.25   -9999.25   -9999.25   -9999.25   -9999.25   22.68120    0.09310   -9999.25   -9999.25   -9999.25   -9999.25   -9999.25
 4633.00000   -9999.25   -9999.25   -9999.25   -9999.25   -9999.25   18.47550    0.04000   -9999.25   -9999.25   -9999.25   -9999.25   -9999.25
 4633.50000   -9999.25   -9999.25   -9999.25   -9999.25   -9999.25   14.57650    0.01980   -9999.25   -9999.25   -9999.25   -9999.25   -9999.25
 4634.00000   -9999.25   -9999.25   -9999.25   -9999.25   -9999.25   14.51580    0.01210   -9999.25   -9999.25   -9999.25   -9999.25   -9999.25
 4634.50000   -9999.25   -9999.25   -9999.25   -9999.25   -9999.25   14.61310    0.01300   -9999.25   -9999.25   -9999.25   -9999.25   -9999.25
 4635.00000   -9999.25   -9999.25   -9999.25   -9999.25   -9999.25   14.83370    0.01590   -9999.25   -9999.25   -9999.25   -9999.25   -9999.25
 4635.50000   -9999.25   -9999.25   -9999.25   -9999.25   -9999.25   15.31260    0.01660   -9999.25   -9999.25   -9999.25   -9999.25   -9999.25
 4636.00000   -9999.25   -9999.25   -9999.25   -9999.25   -9999.25   16.33110    0.01800   -9999.25   -9999.25   -9999.25   -9999.25   -9999.25
 4636.50000   -9999.25   -9999.25   -9999.25   -9999.25   -9999.25   16.92270    0.02050   -9999.25   -9999.25   -9999.25   -9999.25   -9999.25
 4637.00000   -9999.25   -9999.25   -9999.25   -9999.25   -9999.25   17.11520    0.02280   -9999.25   -9999.25   -9999.25   -9999.25   -9999.25
 4637.50000   -9999.25   -9999.25   -9999.25   -9999.25   -9999.25   17.38570    0.02140   -9999.25   -9999.25   -9999.25   -9999.25   -9999.25
 4638.00000   -9999.25   -9999.25   -9999.25   -9999.25   -9999.25   17.92410    0.01990   -9999.25   -9999.25   -9999.25   -9999.25   -9999.25
 4638.50000   -9999.25   -9999.25   -9999.25   -9999.25   -9999.25   17.82050    0.01900   -9999.25   -9999.25   -9999.25   -9999.25   -9999.25
 4639.00000   -9999.25   -9999.25   -9999.25   -9999.25   -9999.25   17.47730    0.02100   -9999.25   -9999.25   -9999.25   -9999.25   -9999.25
 4639.50000   -9999.25   -9999.25   -9999.25   -9999.25   -9999.25   17.67470    0.02590   -9999.25   -9999.25   -9999.25   -9999.25   -9999.25
 4640.00000   -9999.25   -9999.25   -9999.25   -9999.25   -9999.25   19.56210    0.03130   -9999.25   -9999.25   -9999.25   -9999.25   -9999.25
 4640.50000   -9999.25   -9999.25   -9999.25   -9999.25   -9999.25   20.76720    0.03680   -9999.25   -9999.25   -9999.25   -9999.25   -9999.25
 4641.00000   -9999.25   -9999.25   -9999.25   -9999.25   -9999.25   20.05950    0.03780   -9999.25   -9999.25   -9999.25   -9999.25   -9999.25
 4641.50000   -9999.25   -9999.25   -9999.25   -9999.25   -9999.25   20.85550    0.03800   -9999.25   -9999.25   -9999.25   -9999.25   -9999.25
 4642.00000   -9999.25   -9999.25   -9999.25   -9999.25   -9999.25   24.69190    0.04700   -9999.25   -9999.25   -9999.25   -9999.25   -9999.25
 4642.50000   -9999.25   -9999.25   -9999.25   -9999.25   -9999.25   29.09240    0.05840   -9999.25   -9999.25   -9999.25   -9999.25   -9999.25
 4643.00000   -9999.25   -9999.25   -9999.25   -9999.25   -9999.25   31.15580    0.07230   -9999.25   -9999.25   -9999.25   -9999.25   -9999.25
 4643.50000   -9999.25   -9999.25   -9999.25   -9999.25   -9999.25   27.63560    0.05520   -9999.25   -9999.25   -9999.25   -9999.25   -9999.25
 4644.00000   -9999.25   -9999.25   -9999.25   -9999.25   -9999.25   24.06860    0.04130   -9999.25   -9999.25   -9999.25   -9999.25   -9999.25
 4644.50000   -9999.25   -9999.25   -9999.25   -9999.25   -9999.25   20.49460    0.03570   -9999.25   -9999.25   -9999.25   -9999.25   -9999.25
 4645.00000   48.95760   40.03290   -9999.25   -9999.25   -9999.25   17.03920    0.04500    0.32980    8.71090    7.93180   -9999.25    2.94830
 4645.50000   47.73920   40.03740   -9999.25   -9999.25   -9999.25   12.86380    0.03820    0.06250    7.75100    7.97850   -0.46670    2.87790
 4646.00000   47.25840   40.04200   -9999.25   -9999.25   -9999.25   10.25450    0.02360    0.13040    6.50910    9.09260   -0.20950    2.81200
 4646.50000   46.69910   40.04660   -9999.25   -9999.25   -9999.25    9.14350    0.00820    0.11340    5.60810   10.29590   -0.04970    2.79350
 4647.00000   46.15850   40.05120   -9999.25   -9999.25   -9999.25    8.66960    0.00520    0.06140    5.19430   10.54060   -0.09440    2.94720
 4647.50000   45.56220   40.05580   -9999.25   -9999.25   -9999.25    9.17470    0.00460    0.04330    5.10840   10.62660   -0.15490    2.97540
 4648.00000   44.92730   40.06040   -9999.25   -9999.25   -9999.25    8.81780    0.00560    0.02780    5.06390   10.62770   -0.14400    2.95420
 4648.50000   44.43820   40.06500   -9999.25   -9999.25   -9999.25    8.20780    0.00600    0.01680    5.01490   10.62940   -0.13130    2.90870
 4649.00000   52.16440   40.06960   -9999.25   -9999.25   -9999.25    8.32010    0.00490    0.01390    4.97100   10.63020   -0.09810    2.81480
 4649.50000   50.88320   40.07410   -9999.25   -9999.25   -9999.25    7.66350    0.00260    0.03760    4.95680   10.63190   -0.02660    2.74600
 4650.00000   53.83050   40.07870   -9999.25   -9999.25   -9999.25    6.97630    0.00140    0.06130    4.97350   10.49710   -0.01780    2.80200
 4650.50000   53.07420  107.51920   -9999.25   -9999.25   -9999.25    6.65690    0.00000    0.17000    5.04880   10.20600   -0.06770    2.89140
 4651.00000   54.42210  109.87500   -9999.25   -9999.25   -9999.25    6.86450   -0.00170    0.18590    5.24710    8.85190   -0.16290    2.99920
 4651.50000   52.38090  103.51890   -9999.25   -9999.25   -9999.25    5.90680   -0.00860    0.10440    5.27900    8.44210   -0.18590    2.99880
 4652.00000   53.73670  100.47940 1943.67360  165.37670  158.97090    4.15860   -0.01350    0.03770    5.15860    8.41570   -0.17400    2.99400
 4652.50000   51.89980   97.28080 1944.56910  164.34880  157.10730    3.31230   -0.01480   -0.00480    4.97140    8.39080   -0.16300    2.97500
 4653.00000   48.21240   95.40830 1945.46480  159.49620  153.14220    4.65410   -0.01040   -0.00890    4.71030    8.37500   -0.15010    2.94270
 4653.50000   48.04540   94.22410 1946.36120  154.48530  149.27710   12.42310    0.00120   -0.00570    4.40090    8.35920   -0.13090    2.91680
 4654.00000   47.49670   93.37960 1947.25780  152.25750  146.41020   17.61160    0.00840   -0.00200    4.26310    8.34810   -0.11550    2.90910
 4654.50000   47.68570   92.89000 1948.15490  154.10600  146.42840   18.34850    0.00700    0.00380    4.25510    8.34660   -0.12020    2.92660
 4655.00000   47.47490   92.81180 1949.05250  160.82140  152.97300   13.06410   -0.00380   -0.00410    4.51780    8.37120   -0.13460    2.95260
 4655.50000   47.30560   92.74010 1949.95140  167.82960  162.14970    7.47250   -0.01050   -0.01360    4.69500    8.39530   -0.14570    2.95960
 4656.00000   47.60240   92.64400 1950.84990  187.37010  170.60710    6.79130   -0.00960   -0.01800    4.61590    8.39480   -0.14160    2.95020
 4656.50000   47.34090   92.31650 1951.74850  216.22630  184.29430    8.07590    0.00050   -0.02020    4.36200    8.38480   -0.13390    2.92470
 4657.00000   46.65610   88.43300 1952.64770  255.92240  200.14690   15.41720    0.01350   -0.01990    3.96380    8.37520   -0.11350    2.88850
 4657.50000   47.13220   87.50590 1953.54740  331.05480  200.75220   22.40010    0.02280   -0.01070    3.68260    8.39010   -0.10360    2.87000
 4658.00000   46.43390   85.57740 1954.44730  428.24420  194.63640   26.18780    0.02080    0.00010    3.67860    8.37070   -0.09370    2.87210
 4658.50000   45.78110   84.26280 1955.34780  462.24850  177.15880   24.46240    0.01680    0.00290    3.70220    8.36580   -0.10380    2.89200
