~Version ---------------------------------------------------
VERS.   2.0 : CWLS log ASCII Standard -VERSION 2.0
WRAP.    NO : One line per depth step
DLM . SPACE : Column Data Section Delimiter
~Well ------------------------------------------------------
STRT .F                   95.0 : START DEPTH
STOP .F                 5491.0 : STOP DEPTH
STEP .F                    0.5 : STEP
NULL .                -9999.25 : NULL VALUE
COMP .                         : COMPANY
WELL .                         : WELL
FLD  .                         : FIELD
LOC  .                         : LOCATION
PROV .                         : PROVINCE
CNTY .                         : COUNTY
STAT .                         : STATE
CTRY .                         : COUNTRY
SRVC .                         : SERVICE COMPANY
DATE .                         : DATE
UWI  .                         : UNIQUE WELL ID
API  .                         : API NUMBER
SLAT .WGS84 3.3617013234043966 : SURFACE LATITUDE
SLON .WGS84  7.688234486331993 : SURFACE LONGITUDE
DATUM.F                    nan : DEPTH DATUM ELEV
~Curve Information -----------------------------------------
DEPT   .F     : 1 MEASURED DEPTH
DTCO   .US/F  : DELTA-T COMPRESSIONAL
DTSM   .US/F  : DELTA-T SHEAR
AE10   .OHMM  : ARRAY INDUCTION RESISTIVITY EVIRONMENTALLY COMPENSATED LOG PROCESSING AE10
AE30   .OHMM  : ARRAY INDUCTION RESISTIVITY EVIRONMENTALLY COMPENSATED LOG PROCESSING AE30
AE90   .OHMM  : ARRAY INDUCTION RESISTIVITY EVIRONMENTALLY COMPENSATED LOG PROCESSING AE90
GRD    .GAPI  : GAMMA RAY FROM DENSITY LOG
TNPH_LS.DEC   : THERMAL NEUTRON POROSITY [LIMESTONE]
HDRA   .G/C3  : HRDD SPINE AND RIBS DENSITY CORRECTION
PEFZ   .B/E   : HRDD STANDARD RESOLUTION FORMATION PHOTOELECTRIC FACTOR
CALD   .IN    : CALIPER FROM DENSITY LOG
DPHZ_LS.DEC   : HGRD STANDARD RESOLUTION DENSITY POROSITY
RHOZ   .G/C3  : HRDD STANDARD RESOLUTION FORMATION DENSITY
~Params ----------------------------------------------------
~Other -----------------------------------------------------
~ASCII -----------------------------------------------------
# ...
 4827.00000   66.51280   86.07650   -9999.25  220.04310  177.53190   26.61180    0.01770   -0.00240    4.06540    9.36820   -0.10120    2.87720
 4827.50000   67.01360   86.47370   -9999.25  178.30210  140.76520   31.13470    0.02050   -0.00050    3.97710    9.36610   -0.09770    2.86830
 4828.00000   67.69780   87.65490   -9999.25  147.48800  128.82470   33.85160    0.02240    0.00080    3.97540    9.36950   -0.09290    2.86830
 4828.50000   68.42190   88.98220   -9999.25  138.26330  127.16280   33.73850    0.02070    0.00040    3.98060    9.37620   -0.09430    2.89720
 4829.00000   69.71450   91.68060   -9999.25  143.10330  132.40040   25.30410    0.00890   -0.00080    4.19890    9.37790   -0.10960    2.93640
 4829.50000   70.78650   92.70350   -9999.25  193.31250  161.37320   17.45220   -0.00320   -0.00200    4.59890    9.37970   -0.13740    2.96110
 4830.00000   71.45060   93.74210   -9999.25  270.72600  199.69890    7.03650   -0.01540   -0.00930    4.84330    9.38140   -0.15430    2.97450
 4830.50000   71.82530   94.52430   -9999.25  379.14030  231.66190    3.50570   -0.01940   -0.02120    4.96200    9.37920   -0.15890    2.97950
 4831.00000   72.32240   94.36340   -9999.25  406.85250  232.74520    4.34810   -0.02060   -0.03080    5.03380    9.37810   -0.15350    2.97180
 4831.50000   72.36260   93.91950   -9999.25  342.50280  213.57940    6.62980   -0.01800   -0.02640    4.95640    9.37550   -0.15270    2.97000
 4832.00000   72.36570   93.86310   -9999.25  282.16900  183.27160    9.25840   -0.01570   -0.00690    4.82060    9.36390   -0.15160    2.96780
 4832.50000   72.36770   93.93350   -9999.25  232.46350  157.26450   10.21140   -0.01190    0.00250    4.66150    9.34760   -0.14950    2.96350
 4833.00000   72.06390   94.09620   -9999.25  188.29630  145.11240   10.91860   -0.00980    0.00540    4.60860    9.33130   -0.14530    2.95030
 4833.50000   72.03010   94.07670   -9999.25  181.74330  142.09520   14.29320   -0.00780    0.00830    4.57470    9.31020   -0.13800    2.94020
 4834.00000   72.17830   93.99570   -9999.25  180.36120  144.59770   20.03960   -0.00400    0.00750    4.52160    9.28930   -0.12920    2.91570
 4834.50000   71.67960   93.87300   -9999.25  184.75210  150.03500   22.19550   -0.00240    0.00610    4.46150    9.24720   -0.11860    2.91020
 4835.00000   71.75980   93.49270   -9999.25  194.19240  155.67670   20.97180   -0.00370    0.00470    4.45930    9.19340   -0.11580    2.90410
 4835.50000   70.71250   92.48090   -9999.25  173.54970  150.91830   19.42560   -0.00450    0.00500    4.45650    9.13340   -0.11110    2.90020
 4836.00000   70.26160   91.84190   -9999.25  147.91620  122.76540   20.47410   -0.00120    0.00470    4.39460    9.08150   -0.10220    2.87120
 4836.50000   69.82060   91.66280   -9999.25  121.35130   96.22910   26.31480    0.00600    0.00120    4.22240    9.02940   -0.09250    2.85290
 4837.00000   69.37960   91.31350   -9999.25   93.85230   75.42880   30.66340    0.01320    0.00020    4.03310    8.99220   -0.08180    2.84550
 4837.50000   69.08350   91.27380   -9999.25   72.58480   59.12450   34.48730    0.02080    0.00050    3.81890    8.96740   -0.07580    2.84000
 4838.00000   69.18210   92.26190   -9999.25   59.77070   52.02980   37.69530    0.02850    0.00050    3.74140    8.94260   -0.07520    2.84040
 4838.50000   69.27050   92.58140   -9999.25   69.04700   54.31790   35.69950    0.02670    0.00050    3.77480    8.92220   -0.08130    2.85600
 4839.00000   69.08070   92.59650   -9999.25   94.04340   75.56670   30.10790    0.01800    0.00040    3.81380    8.91500   -0.09050    2.87250
 4839.50000   68.96220   92.27470   -9999.25  128.08900  110.78450   23.35960    0.01160    0.00010    3.97750    8.90770   -0.10380    2.88720
 4840.00000   68.75080   91.83120   -9999.25  174.45970  161.46590   19.40900    0.00670   -0.00020    4.16190    8.90360   -0.10760    2.90170
 4840.50000   68.42440   91.65410   -9999.25  224.64890  190.82170   17.94120    0.00160   -0.00050    4.33480    8.90070   -0.11720    2.91440
 4841.00000   68.18410   92.60590   -9999.25  209.40030  184.07100   17.06250    0.00100   -0.00080    4.40360    8.89480   -0.12660    2.92710
 4841.50000   68.44170   93.47710 1977.66870  162.23530  150.34080   22.18730    0.00110   -0.00110    4.37120    8.88660   -0.12770    2.93080
 4842.00000   68.81990   93.35220 1895.28560  125.69380  114.92760   26.70340    0.00950   -0.00200    4.25260    8.87480   -0.11420    2.89890
 4842.50000   68.92550   93.23880 1752.70410   97.38270   86.06380   35.07520    0.01990   -0.00290    4.09120    8.86000   -0.09320    2.87160
 4843.00000   69.30540   95.05030 1605.05750   77.01670   64.44910   39.43950    0.02350   -0.00390    4.00850    8.84520   -0.08170    2.84980
 4843.50000   71.18410   96.58310 1444.44370   62.00380   51.66670   39.41870    0.02310   -0.00430    4.05590    8.83660   -0.08100    2.85130
 4844.00000   72.80710   97.16890 1319.73650   51.21480   46.33650   35.70710    0.01420   -0.00400    4.26910    8.83960   -0.09020    2.87300
 4844.50000   74.31090   98.72590 1133.72380   44.08240   42.49090   31.92890    0.00810   -0.00310    4.56550    8.83710   -0.10200    2.88540
 4845.00000   74.83830   98.92310  724.34390   43.11070   41.18510   27.96370    0.00210   -0.00050    4.73040    8.83410   -0.12140    2.92300
 4845.50000   75.32240   98.81070  721.23980   50.59370   42.12080   21.45560   -0.00590    0.00230    4.82130    8.83110   -0.13810    2.94080
 4846.00000   75.30050   98.36540  876.98650   79.10550   53.90040   13.18890   -0.01470    0.00270    4.90990    8.82810   -0.14860    2.96640
 4846.50000   74.05540   97.69940 1142.20240  127.33680   99.23480    5.96780   -0.02010    0.00250    5.01640    8.82510   -0.15700    2.97970
 4847.00000   72.90980   96.74800 1466.20010  213.14510  182.69890    3.57630   -0.02130    0.00280    5.13810    8.82210   -0.15750    2.98170
 4847.50000   72.57370   96.54910 1649.54550  356.77660  297.73490    3.61580   -0.02100    0.00310    5.17390    8.80940   -0.16030    2.98390
 4848.00000   72.42110   96.42780 1775.84340  432.70610  401.60500    5.27910   -0.01990    0.00300    5.18290    8.80370   -0.16100    2.98580
 4848.50000   72.25730   96.32410 1911.81030  510.85540  409.88210    5.63990   -0.01910    0.00320    5.17150    8.79990   -0.16280    2.98850
 4849.00000   72.30530   96.22050 1978.14430  505.07850  385.82320    5.62410   -0.01890    0.00360    5.13810    8.79730   -0.16300    2.99060
 4849.50000   72.47620   96.05210 1979.82710  380.93450  314.58700    4.49020   -0.01850    0.00410    5.11110    8.78970   -0.16490    2.99480
 4850.00000   72.65060   95.69850 1981.51260  283.33260  184.36900    4.38860   -0.01820   -0.00740    5.10270    8.78210   -0.16470    2.99020
 4850.50000   72.83840   95.46630 1983.19840  144.43760  105.16420    6.04400   -0.01750   -0.01950    5.08060    8.77550   -0.15290    2.96490
 4851.00000   72.66020   94.49050 1984.88550   91.10530   79.37970   11.26970   -0.01140   -0.02330    5.05480    8.76540   -0.13950    2.93870
 4851.50000   72.22930   93.87790 1986.57520   94.17730   82.38710   15.63970   -0.00510   -0.02020    4.88760    8.76260   -0.13180    2.93530
 4852.00000   71.12010   91.86050 1988.26530  148.26590  117.92730   18.18280   -0.00030   -0.01510    4.55310    8.75680   -0.12850    2.92990
 4852.50000   69.75080   88.85260 1989.95780  243.94970  196.89870   19.89540    0.00380   -0.00560    4.21530    8.75580   -0.12630    2.92530
 4853.00000   68.28840   87.60950 1957.63330  322.65910  256.06530   25.88020    0.00740    0.00390    3.89110    8.74620   -0.12090    2.91040
 4853.50000   67.03010   86.50480 1680.66270  320.58830  274.11370   31.75720    0.01080    0.00550    3.72400    8.73670   -0.11080    2.89990
 4854.00000   66.57710   86.00270 1389.11010  244.37900  241.34950   33.65760    0.01430    0.00380    3.67510    8.73550   -0.09940    2.87620
 4854.50000   66.38500   85.99850 1114.71840  174.26490  166.41250   34.67300    0.01730    0.00080    3.64600    8.74080   -0.09300    2.86870
