~Version ---------------------------------------------------
VERS.   2.0 : CWLS log ASCII Standard -VERSION 2.0
WRAP.    NO : One line per depth step
DLM . SPACE : Column Data Section Delimiter
~Well ------------------------------------------------------
STRT .F                   95.0 : START DEPTH
STOP .F                 5491.0 : STOP DEPTH
STEP .F                    0.5 : STEP
NULL .                -9999.25 : NULL VALUE
COMP .                         : COMPANY
WELL .                         : WELL
FLD  .                         : FIELD
LOC  .                         : LOCATION
PROV .                         : PROVINCE
CNTY .                         : COUNTY
STAT .                         : STATE
CTRY .                         : COUNTRY
SRVC .                         : SERVICE COMPANY
DATE .                         : DATE
UWI  .                         : UNIQUE WELL ID
API  .                         : API NUMBER
SLAT .WGS84 3.3617013234043966 : SURFACE LATITUDE
SLON .WGS84  7.688234486331993 : SURFACE LONGITUDE
DATUM.F                    nan : DEPTH DATUM ELEV
~Curve Information -----------------------------------------
DEPT   .F     : 1 MEASURED DEPTH
DTCO   .US/F  : DELTA-T COMPRESSIONAL
DTSM   .US/F  : DELTA-T SHEAR
AE10   .OHMM  : ARRAY INDUCTION RESISTIVITY EVIRONMENTALLY COMPENSATED LOG PROCESSING AE10
AE30   .OHMM  : ARRAY INDUCTION RESISTIVITY EVIRONMENTALLY COMPENSATED LOG PROCESSING AE30
AE90   .OHMM  : ARRAY INDUCTION RESISTIVITY EVIRONMENTALLY COMPENSATED LOG PROCESSING AE90
GRD    .GAPI  : GAMMA RAY FROM DENSITY LOG
TNPH_LS.DEC   : THERMAL NEUTRON POROSITY [LIMESTONE]
HDRA   .G/C3  : HRDD SPINE AND RIBS DENSITY CORRECTION
PEFZ   .B/E   : HRDD STANDARD RESOLUTION FORMATION PHOTOELECTRIC FACTOR
CALD   .IN    : CALIPER FROM DENSITY LOG
DPHZ_LS.DEC   : HGRD STANDARD RESOLUTION DENSITY POROSITY
RHOZ   .G/C3  : HRDD STANDARD RESOLUTION FORMATION DENSITY
~Params ----------------------------------------------------
~Other -----------------------------------------------------
~ASCII -----------------------------------------------------
# ...
 4883.00000   71.29280   94.01890 1613.56630   42.76060   40.93140   26.66870    0.01090    0.00350    4.13890    8.99810   -0.11120    2.91570
 4883.50000   70.60090   93.46270 1564.28600   40.26240   33.91180   27.94950    0.02160    0.00420    3.85140    8.99480   -0.10240    2.89190
 4884.00000   70.45180   93.01380 1462.94630   55.80320   45.77600   28.02750    0.02460    0.00460    3.71040    8.99140   -0.09760    2.88010
 4884.50000   69.54820   92.57040 1225.06420   64.46800   55.21740   30.56150    0.02750    0.00210    3.58010    8.98800   -0.09270    2.87450
 4885.00000   69.11930   92.42120  667.38450   34.47760   27.40350   35.83680    0.03510   -0.00030    3.49820    8.98150   -0.08080    2.84950
 4885.50000   69.49610   93.32140  386.42580   30.55130   26.79030   38.23050    0.03780   -0.00300    3.46660    8.96880   -0.07180    2.83190
 4886.00000   70.31570   93.33490  227.48340   37.01920   33.45450   36.37450    0.03630   -0.00330    3.50510    8.97160   -0.07560    2.83910
 4886.50000   71.88070   93.64840  132.47150   41.77890   39.66590   34.68820    0.03350   -0.00250    3.52610    8.97880   -0.07910    2.84630
 4887.00000   73.16290   95.52960   77.14270   31.10340   28.31020   35.72930    0.03560   -0.00170    3.52270    8.98600   -0.07310    2.83830
 4887.50000   71.84970   97.45180   51.40890   23.33730   19.20920   41.26990    0.04830   -0.00100    3.48030    8.99320   -0.05700    2.81360
 4888.00000   55.20870   97.55540   35.97220   19.11460   15.79900   45.66770    0.06130   -0.00390    3.43790    9.00040   -0.04430    2.78840
 4888.50000   54.42820   98.07650   28.91000   19.57290   13.72360   48.05170    0.07430   -0.00690    3.46470    9.00760   -0.03350    2.77040
 4889.00000   54.32560   98.08700   29.69560   17.30590   13.80870   47.94630    0.07680   -0.00980    3.56960    9.01480   -0.03200    2.76600
 4889.50000   54.99150   97.32720   35.06920   17.91620   16.08420   46.60960    0.07780   -0.01060    3.64510    9.02210   -0.04190    2.76660
 4890.00000   56.00060   95.97030   47.07340   28.17310   22.10610   39.80690    0.04630   -0.01090    3.81600    9.03010   -0.06460    2.81470
 4890.50000   53.18570   94.48490   88.31560   53.03170   41.06240   29.63900    0.01810   -0.01120    4.09580    9.03820   -0.10410    2.88200
 4891.00000   52.01490   93.51070  165.69110   99.96820   76.27400   19.53510   -0.00440   -0.01240    4.50710    9.04620   -0.13430    2.93240
 4891.50000   51.14550   92.45290  310.85710  188.48080  141.67980   11.87530   -0.01220   -0.01480    4.73310    9.05430   -0.14390    2.95980
 4892.00000   50.66440   92.19820  583.20660  229.45520  202.67320   13.55750   -0.01000   -0.01730    4.62160    9.05800   -0.14380    2.95870
 4892.50000   50.15090   92.52150 1012.29970  169.51270  148.85950   19.96110   -0.00150   -0.01210    4.24750    9.05890   -0.13800    2.94100
 4893.00000   49.01680   92.45460 1597.25720   92.26110   66.81990   26.82770    0.01290    0.00450    3.78560    9.06070   -0.12120    2.89930
 4893.50000   49.22160   92.27320 2003.90450   50.41730   48.02240   32.45140    0.02730    0.00720    3.46380    9.06260   -0.10370    2.87580
 4894.00000   48.94860   92.09180 2003.65590   45.51570   42.58190   34.13070    0.04090    0.00370    3.36680    9.06570   -0.08710    2.84860
 4894.50000   50.61940   91.69180   -9999.25   48.26580   43.14620   35.70120    0.04480   -0.00180    3.41440    9.06880   -0.07870    2.84300
 4895.00000   51.00300   90.56570   -9999.25   61.21580   49.92420   38.14860    0.03960   -0.00460    3.48160    9.07280   -0.07320    2.83650
 4895.50000   50.63650   90.60410   -9999.25   66.54960   57.84190   39.69930    0.03270   -0.00420    3.64410    9.09000   -0.07210    2.83590
 4896.00000   49.92090   90.23540   -9999.25   76.03110   60.97950   37.11390    0.02620   -0.00280    3.76180    9.09200   -0.08180    2.86540
 4896.50000   49.11270   88.87610   -9999.25  106.88260   75.35210   33.41090    0.01920   -0.00140    3.77350    9.08380   -0.10900    2.90060
 4897.00000   48.43040   85.92760   -9999.25  150.25290  110.40600   31.28430    0.01370   -0.00030    3.69700    9.07550   -0.12800    2.93130
 4897.50000   47.36620   85.49670   -9999.25  211.22190  161.76690   32.37550    0.01010    0.00060    3.59080    9.06730   -0.12840    2.93090
 4898.00000   45.77540   83.34400   -9999.25  296.93050  237.02110   35.12200    0.00850    0.00130    3.51230    9.05900   -0.11080    2.89100
 4898.50000   45.11610   80.18890   -9999.25  417.41750  347.28380   34.55070    0.00720    0.00030    3.48640    9.05080   -0.10350    2.88610
 4899.00000   44.69100   77.62880   -9999.25  475.38350  406.15980   33.11050    0.00630   -0.00520    3.56180    9.05520   -0.10050    2.87670
 4899.50000   45.77700   77.92200   -9999.25  426.96600  352.76030   29.99360    0.00660   -0.00360    3.63700    9.06220   -0.09390    2.86370
 4900.00000   46.95560   84.00590   -9999.25  302.98660  261.54610   29.35840    0.00660   -0.00410    3.78660    9.06920   -0.08970    2.86020
 4900.50000   48.11220   86.10170   -9999.25  215.00740  188.70170   29.09100    0.00650   -0.00460    3.96120    9.07630   -0.08700    2.86260
 4901.00000   49.26870   88.76440   -9999.25  169.60560  156.64120   25.51770    0.00310   -0.00520    4.28820    9.08330   -0.09720    2.89900
 4901.50000   50.23970   90.79320   -9999.25  192.31220  159.91760   19.81530   -0.00810   -0.00570    4.70670    9.11300   -0.12720    2.92180
 4902.00000   50.82800   92.26650   -9999.25  234.34990  210.02100   11.34420   -0.01370   -0.00590    4.90290    9.13940   -0.14850    2.97720
 4902.50000   51.35410   92.81900   -9999.25  288.32890  260.26370    6.34460   -0.01770   -0.00590    5.02750    9.13430   -0.16320    2.98990
 4903.00000   51.80170   92.53470   -9999.25  357.09590  322.52580    3.08140   -0.01610   -0.00460    4.95620    9.14670   -0.16020    2.98900
 4903.50000   49.49750   91.58480   -9999.25  442.26380  399.68250    4.99720   -0.01150   -0.00370    4.79020    9.15580   -0.15330    2.97100
 4904.00000   49.79190   90.00650   -9999.25  458.53920  421.76110   12.94990   -0.00050   -0.00310    4.47560    9.15890   -0.14100    2.93220
 4904.50000   49.23470   87.56110   -9999.25  431.12530  400.35710   20.82800    0.01350   -0.00280    4.12530    9.16420   -0.12020    2.90010
 4905.00000   47.96840   87.01450   -9999.25  463.60760  377.05080   25.27070    0.02070   -0.00280    3.92370    9.16950   -0.10010    2.87910
 4905.50000   46.45970   86.08420   -9999.25  483.06410  355.10100   26.00940    0.02250   -0.00280    3.92500    9.17730   -0.09340    2.86980
 4906.00000   47.41030   86.25480   -9999.25  450.01490  339.54150   27.21770    0.02000   -0.00230    3.92720    9.16250   -0.09300    2.87740
 4906.50000   47.89350   87.02580   -9999.25  417.31670  327.53440   29.98390    0.01720   -0.00180    3.93830    9.15810   -0.10120    2.88870
 4907.00000   49.85550   88.09510   -9999.25  390.09000  316.35170   33.24290    0.01150   -0.00110    3.97420    9.15380   -0.10940    2.90210
 4907.50000   49.11220   91.37870   -9999.25  364.63950  306.38270   32.82860    0.00560    0.00240    4.09030    9.14940   -0.12030    2.91740
 4908.00000   49.98090   92.08350   -9999.25  340.84950  294.02820   28.26210    0.00170    0.00310    4.29530    9.15730   -0.12870    2.93570
 4908.50000   50.22850   93.24800   -9999.25  318.61180  280.25330   23.88110   -0.00110    0.00300    4.45020    9.16780   -0.13690    2.94530
 4909.00000   50.07780   91.84450   -9999.25  290.70030  265.55910   22.41960   -0.00140    0.00270    4.45170    9.15640   -0.14020    2.95260
 4909.50000   47.87690   92.40700   -9999.25  264.64970  245.15110   25.32490    0.00370    0.00170    4.46150    9.14000   -0.13610    2.94470
 4910.00000   48.96430   90.83310   -9999.25  249.90200  220.36650   32.25510    0.01150    0.00050    4.30430    9.13500   -0.12680    2.92560
 4910.50000   48.42750   91.05810   -9999.25  236.58360  208.82900   36.45480    0.01860   -0.00080    4.13630    9.12950   -0.11030    2.90260
