~Version ---------------------------------------------------
VERS.   2.0 : CWLS log ASCII Standard -VERSION 2.0
WRAP.    NO : One line per depth step
DLM . SPACE : Column Data Section Delimiter
~Well ------------------------------------------------------
STRT .F                   95.0 : START DEPTH
STOP .F                 5491.0 : STOP DEPTH
STEP .F                    0.5 : STEP
NULL .                -9999.25 : NULL VALUE
COMP .                         : COMPANY
WELL .                         : WELL
FLD  .                         : FIELD
LOC  .                         : LOCATION
PROV .                         : PROVINCE
CNTY .                         : COUNTY
STAT .                         : STATE
CTRY .                         : COUNTRY
SRVC .                         : SERVICE COMPANY
DATE .                         : DATE
UWI  .                         : UNIQUE WELL ID
API  .                         : API NUMBER
SLAT .WGS84 3.3617013234043966 : SURFACE LATITUDE
SLON .WGS84  7.688234486331993 : SURFACE LONGITUDE
DATUM.F                    nan : DEPTH DATUM ELEV
~Curve Information -----------------------------------------
DEPT   .F     : 1 MEASURED DEPTH
DTCO   .US/F  : DELTA-T COMPRESSIONAL
DTSM   .US/F  : DELTA-T SHEAR
AE10   .OHMM  : ARRAY INDUCTION RESISTIVITY EVIRONMENTALLY COMPENSATED LOG PROCESSING AE10
AE30   .OHMM  : ARRAY INDUCTION RESISTIVITY EVIRONMENTALLY COMPENSATED LOG PROCESSING AE30
AE90   .OHMM  : ARRAY INDUCTION RESISTIVITY EVIRONMENTALLY COMPENSATED LOG PROCESSING AE90
GRD    .GAPI  : GAMMA RAY FROM DENSITY LOG
TNPH_LS.DEC   : THERMAL NEUTRON POROSITY [LIMESTONE]
HDRA   .G/C3  : HRDD SPINE AND RIBS DENSITY CORRECTION
PEFZ   .B/E   : HRDD STANDARD RESOLUTION FORMATION PHOTOELECTRIC FACTOR
CALD   .IN    : CALIPER FROM DENSITY LOG
DPHZ_LS.DEC   : HGRD STANDARD RESOLUTION DENSITY POROSITY
RHOZ   .G/C3  : HRDD STANDARD RESOLUTION FORMATION DENSITY
~Params ----------------------------------------------------
~Other -----------------------------------------------------
~ASCII -----------------------------------------------------
# ...
 4995.00000   45.55570   87.27420 1708.69980  762.45060  676.14780   20.99240    0.01900   -0.00130    3.75850    8.21340   -0.10020    2.87610
 4995.50000   45.81700   87.62080 1228.11390  591.40690  525.11500   21.66780    0.02020   -0.00230    3.77050    8.21440   -0.09500    2.86860
 4996.00000   46.11400   88.27060  790.39570  415.86490  381.54060   22.70850    0.02140   -0.00370    3.77180    8.21530   -0.09250    2.86710
 4996.50000   46.45140   88.80530  487.66580  283.66560  220.10520   23.35000    0.02270   -0.00470    3.73110    8.21620   -0.09180    2.86610
 4997.00000   46.85920   90.55440  200.30840  166.39350  126.97550   24.46960    0.02760   -0.00470    3.61130    8.22060   -0.09010    2.85770
 4997.50000   49.24360   95.53450  112.25340  103.29790   90.91770   25.66460    0.03480   -0.00450    3.43560    8.23320   -0.08560    2.85240
 4998.00000   49.10500   95.78760   81.27840   74.80620   65.90280   29.01290    0.04360   -0.00420    3.35230    8.23050   -0.07820    2.83100
 4998.50000   50.79620   96.11000   50.98260   37.87480   34.94660   33.85190    0.05260   -0.00480    3.32110    8.24610   -0.06760    2.82100
 4999.00000   52.48150   98.71010   24.60210   21.13630   19.56980   39.32930    0.06970   -0.00510    3.28720    8.25730   -0.05750    2.80060
 4999.50000   54.56170   99.15690   16.51700   15.74830   14.13090   44.77650    0.07960   -0.00510    3.25780    8.26320   -0.04870    2.78440
 5000.00000   54.94830   99.60370   14.74280   14.56550   12.77050   47.03020    0.08160   -0.00510    3.32810    8.27060   -0.04390    2.78240
 5000.50000   53.39180   99.80580   15.37230   14.99540   12.99040   42.69520    0.06890   -0.00520    3.45530    8.27950   -0.04630    2.79570
 5001.00000   53.02790   99.67620   23.77510   20.79900   19.72920   30.09310    0.03240   -0.00180    4.00600    8.28910   -0.08630    2.88530
 5001.50000   53.03930   99.05290   56.11120   36.11910   32.28720   15.93860    0.00000    0.00180    4.34740    8.29860   -0.12960    2.92960
 5002.00000   52.20800   95.86200  138.75040   72.82260   52.83860    8.70220   -0.01340    0.00190    4.79220    8.30820   -0.15340    2.97440
 5002.50000   51.49540   94.34290  343.09880  119.58190   86.47140    5.14050   -0.01900   -0.00940    4.92840    8.31410   -0.16220    2.98860
 5003.00000   51.00050   92.32400 1058.28500  230.64410  157.44960    6.94330   -0.01880   -0.02070    4.95080    8.31440   -0.15810    2.98860
 5003.50000   50.89760   91.86390 1977.74150  546.10640  343.78700   11.07930   -0.01540   -0.01850    4.76260    8.31470   -0.15420    2.97430
 5004.00000   49.27770   91.25310 1977.74150  832.81710  594.82640   19.43900   -0.00940   -0.01220    4.54890    8.31450   -0.14000    2.94600
 5004.50000   48.29340   90.81920 1977.74150 1287.11740  930.29210   28.64150   -0.00240   -0.00520    4.29770    8.31380   -0.12470    2.92790
 5005.00000   46.84800   90.36150 1977.74150 1207.18870  976.32350   37.60630    0.00200   -0.00390    4.07670    8.31310   -0.10470    2.88810
 5005.50000   46.12000   90.25120 1977.74150  828.62700  663.81560   39.17620    0.00480   -0.00310    3.99220    8.31240   -0.10030    2.88310
 5006.00000   45.62190   91.11600 1376.11950  553.23050  435.49270   35.52890    0.00570   -0.00230    3.93010    8.31410   -0.10570    2.89490
 5006.50000   45.87090   91.81020  667.18040  359.49700  257.90580   32.96330    0.00580   -0.00150    3.92410    8.31270   -0.10930    2.89860
 5007.00000   46.88800   93.20520  430.16280  177.57110  129.69030   29.97100    0.00840    0.00010    3.95500    8.30890   -0.10620    2.89570
 5007.50000   48.65610   94.68780  168.69060   87.71000   68.87850   31.54500    0.01580    0.00220    3.94860    8.31330   -0.10130    2.88270
 5008.00000   49.61140   95.56510   64.65360   54.67420   44.64970   38.68020    0.02550    0.00280    3.91530    8.31390   -0.09430    2.86580
 5008.50000   52.62240   97.17530   38.57300   34.22350   28.94370   48.00960    0.03600    0.00120    3.96310    8.31390   -0.08160    2.84320
 5009.00000   53.51070   97.61240   25.98510   21.42230   20.17320   55.80710    0.03960   -0.00060    4.12800    8.31390   -0.07430    2.83230
 5009.50000   53.64800   97.33510   28.50490   21.41280   18.92330   46.49950    0.03030   -0.00030    4.37130    8.31360   -0.09820    2.84990
 5010.00000   53.25030   95.61840   45.57680   32.29680   35.75220   31.46970    0.01300    0.00100    4.42950    8.31330   -0.11360    2.89070
 5010.50000   49.57620   93.35270   72.87320   52.51680   56.31150   21.61850    0.00440    0.00230    4.44520    8.31300   -0.13640    2.94220
 5011.00000   48.44120   92.45670  116.51760   79.83930   72.96790   19.90680    0.00300    0.00310    4.32660    8.31270   -0.13250    2.94430
 5011.50000   47.09300   91.46650  142.98220  100.77470   99.13730   23.17640    0.00560    0.00110    4.14560    8.31240   -0.12400    2.93340
 5012.00000   46.95520   91.41470  160.94510   96.97040   79.35720   25.17070    0.01230   -0.00090    3.98770    8.31250   -0.11480    2.90830
 5012.50000   48.32720   91.31360  127.46730   67.01940   55.57770   27.58550    0.02360   -0.00540    3.80810    8.31370   -0.10430    2.88240
 5013.00000   48.78730   91.06490  100.95320   46.31930   38.92380   32.53550    0.03730   -0.00430    3.65610    8.31210   -0.08680    2.85650
 5013.50000   49.33710   91.01030   87.30090   37.64590   32.43930   35.53140    0.04710   -0.00390    3.54900    8.30380   -0.07410    2.83960
 5014.00000   49.06410   91.41340  106.80270   41.26040   35.81510   36.19840    0.04880   -0.00390    3.42640    8.31120   -0.06970    2.82800
 5014.50000   48.85330   90.20490  147.47250   52.77360   45.01190   36.39690    0.04580   -0.00390    3.41360    8.30930   -0.07220    2.83790
 5015.00000   49.14380   91.06890  226.51820   72.83120   62.02200   35.76480    0.03900   -0.00320    3.47110    8.31060   -0.08190    2.84970
 5015.50000   49.16770   88.43980  347.93260  101.78040   88.76540   35.36150    0.03170   -0.00250    3.63550    8.30970   -0.08970    2.86320
 5016.00000   47.61830   87.73180  534.42550  142.23660  127.04040   33.69210    0.02650   -0.00330    3.73750    8.30830   -0.09560    2.87590
 5016.50000   46.21010   87.26360  820.87920  198.77350  177.15580   30.98110    0.02390   -0.00340    3.74890    8.31330   -0.09680    2.87340
 5017.00000   46.80890   86.93080 1379.87460  277.78290  241.54910   29.35510    0.02140   -0.00350    3.72730    8.31110   -0.09440    2.86270
 5017.50000   47.07100   87.30850 1809.32420  388.19740  329.34860   28.12870    0.01840   -0.00530    3.73010    8.31430   -0.08810    2.85540
 5018.00000   47.20110   89.64960 1998.01550  508.26780  445.87960   28.33960    0.01380   -0.00860    3.76700    8.31560   -0.08660    2.85540
 5018.50000   47.23550   88.80370   -9999.25  576.42100  473.16450   27.03840    0.00870   -0.01190    3.91860    8.31550   -0.09310    2.89150
 5019.00000   47.68060   90.70200   -9999.25  500.50650  436.88460   22.67820    0.00320   -0.01350    4.11560    8.31490   -0.11620    2.91810
 5019.50000   47.51880   90.64870   -9999.25  378.19820  354.43800   19.37970   -0.00120   -0.01110    4.24230    8.31430   -0.12700    2.93130
 5020.00000   47.05020   88.82920   -9999.25  278.39140  259.91500   21.39120   -0.00130   -0.00910    4.20170    8.31370   -0.12330    2.93110
 5020.50000   46.87920   88.26220   -9999.25  204.92370  190.59990   25.45710    0.00760   -0.00820    4.04050    8.31320   -0.11320    2.91440
 5021.00000   46.86510   87.90720   -9999.25  150.84420  139.77000   32.88230    0.01610   -0.00810    3.82980    8.31260   -0.10330    2.89160
 5021.50000   46.73200   87.85200   -9999.25  128.97380  118.71510   33.43860    0.02200   -0.00670    3.75450    8.31200   -0.09730    2.87610
 5022.00000   46.81520   87.82680   -9999.25  126.38250  112.68310   31.00880    0.02520   -0.00480    3.76910    8.31140   -0.09130    2.86390
 5022.50000   47.05900   87.97700   -9999.25  121.52790  111.50580   27.77770    0.02560   -0.00420    3.79090    8.31040   -0.08680    2.85610
