~Version ---------------------------------------------------
VERS.   2.0 : CWLS log ASCII Standard -VERSION 2.0
WRAP.    NO : One line per depth step
DLM . SPACE : Column Data Section Delimiter
~Well ------------------------------------------------------
STRT .F                   95.0 : START DEPTH
STOP .F                 5491.0 : STOP DEPTH
STEP .F                    0.5 : STEP
NULL .                -9999.25 : NULL VALUE
COMP .                         : COMPANY
WELL .                         : WELL
FLD  .                         : FIELD
LOC  .                         : LOCATION
PROV .                         : PROVINCE
CNTY .                         : COUNTY
STAT .                         : STATE
CTRY .                         : COUNTRY
SRVC .                         : SERVICE COMPANY
DATE .                         : DATE
UWI  .                         : UNIQUE WELL ID
API  .                         : API NUMBER
SLAT .WGS84 3.3617013234043966 : SURFACE LATITUDE
SLON .WGS84  7.688234486331993 : SURFACE LONGITUDE
DATUM.F                    nan : DEPTH DATUM ELEV
~Curve Information -----------------------------------------
DEPT   .F     : 1 MEASURED DEPTH
DTCO   .US/F  : DELTA-T COMPRESSIONAL
DTSM   .US/F  : DELTA-T SHEAR
AE10   .OHMM  : ARRAY INDUCTION RESISTIVITY EVIRONMENTALLY COMPENSATED LOG PROCESSING AE10
AE30   .OHMM  : ARRAY INDUCTION RESISTIVITY EVIRONMENTALLY COMPENSATED LOG PROCESSING AE30
AE90   .OHMM  : ARRAY INDUCTION RESISTIVITY EVIRONMENTALLY COMPENSATED LOG PROCESSING AE90
GRD    .GAPI  : GAMMA RAY FROM DENSITY LOG
TNPH_LS.DEC   : THERMAL NEUTRON POROSITY [LIMESTONE]
HDRA   .G/C3  : HRDD SPINE AND RIBS DENSITY CORRECTION
PEFZ   .B/E   : HRDD STANDARD RESOLUTION FORMATION PHOTOELECTRIC FACTOR
CALD   .IN    : CALIPER FROM DENSITY LOG
DPHZ_LS.DEC   : HGRD STANDARD RESOLUTION DENSITY POROSITY
RHOZ   .G/C3  : HRDD STANDARD RESOLUTION FORMATION DENSITY
~Params ----------------------------------------------------
~Other -----------------------------------------------------
~ASCII -----------------------------------------------------
# ...
 5191.00000   50.44370   95.39510  156.48220   68.14390   59.28810   33.61530    0.04080   -0.00270    3.47210    8.12100   -0.08690    2.85840
 5191.50000   50.37500   95.26010  108.94190   53.85240   52.21530   39.73790    0.04210   -0.00390    3.67000    8.12120   -0.09860    2.88160
 5192.00000   50.69080   94.79340  114.94730   58.15700   52.60620   38.56210    0.04430   -0.00170    3.80460    8.12050   -0.10840    2.89540
 5192.50000   50.90120   93.62050  164.20920   77.13600   72.00040   32.12790    0.04440    0.00040    3.82480    8.11940   -0.10670    2.89080
 5193.00000   51.75980   91.66200  234.58250  111.97320  106.99090   25.18860    0.03840   -0.00050    3.67960    8.11830   -0.10190    2.88240
 5193.50000   49.19510   91.58930  334.29790  135.13170  155.98370   23.10860    0.03720   -0.00150    3.59120    8.11720   -0.09420    2.87060
 5194.00000   48.52600   89.44690  471.93950  159.44980  172.65750   20.69020    0.03680   -0.00250    3.59550    8.11610   -0.08890    2.86080
 5194.50000   48.78960   88.32560  666.25260  171.28550  188.69960   18.75830    0.03700   -0.00350    3.62620    8.11500   -0.08380    2.85370
 5195.00000   47.46090   88.40400  903.59710  184.12940  218.06450   17.41420    0.03940   -0.00440    3.64610    8.11390   -0.07670    2.83830
 5195.50000   47.54250   88.87240  950.31090  188.00520  267.24460   14.86360    0.04100   -0.00430    3.63660    8.11280   -0.07320    2.83570
 5196.00000   48.73620   88.94980  850.49590  191.81860  280.52930   13.73000    0.03960   -0.00380    3.59390    8.11170   -0.07350    2.83610
 5196.50000   48.50470   88.89210  688.35080  185.39310  264.66070   13.22960    0.03680   -0.00330    3.53860    8.10750   -0.07670    2.84120
 5197.00000   47.94170   89.29780  481.90130  162.28060  191.99300   15.42260    0.03410   -0.00320    3.46940    8.10250   -0.08000    2.84820
 5197.50000   48.97970   92.13710  336.50780  134.77410  139.25920   19.46940    0.03160   -0.00220    3.44490    8.09930   -0.08130    2.85080
 5198.00000   49.35530   93.40410  319.63860  114.27090  137.00160   19.86980    0.02510   -0.00160    3.59470    8.09450   -0.08830    2.86650
 5198.50000   49.56430   93.48310  358.82680  119.04710  155.55560   17.75320    0.01560   -0.00150    3.87160    8.09360   -0.10710    2.88850
 5199.00000   50.24170   92.52750  400.90270  128.69140  169.43600   11.77770    0.01180   -0.00130    4.04010    8.09520   -0.12140    2.91720
 5199.50000   50.16650   93.04060  410.59760  126.60420  148.89790   11.35940    0.01300   -0.00120    4.02620    8.09390   -0.11860    2.91730
 5200.00000   49.88390   92.80410  452.07920  100.88560  118.25290   14.86130    0.02500   -0.00110    3.83820    8.09260   -0.10400    2.89710
 5200.50000   49.09460   92.36380  456.13520   83.27730  106.19830   18.91840    0.04040   -0.00100    3.66940    8.09130   -0.08080    2.87090
 5201.00000   48.97910   91.59410  474.40640   82.35380  105.73490   20.11110    0.05300   -0.00090    3.60360    8.09010   -0.06540    2.84060
 5201.50000   48.65830   92.31870  453.81340   81.87550  107.17300   20.54650    0.05590   -0.00090    3.55320    8.08880   -0.06440    2.82270
 5202.00000   48.33010   92.71800  411.33970   84.26100  108.40710   20.16310    0.05890   -0.00090    3.47460    8.08750   -0.06300    2.81780
 5202.50000   48.14740   93.05830  327.35730   87.16500   96.33220   19.49020    0.06230   -0.00160    3.40760    8.08800   -0.05900    2.81190
 5203.00000   49.43650   93.20880  237.32600   82.98190   81.62960   18.12070    0.06990   -0.00300    3.39530    8.09020   -0.05240    2.80070
 5203.50000   49.51650   93.29760  196.75190   78.26740   77.78370   18.11790    0.07260   -0.00440    3.40640    8.09230   -0.04810    2.79350
 5204.00000   49.42660   93.32070  197.48190   74.72920   77.47480   19.31940    0.07180   -0.00450    3.39350    8.09440   -0.04860    2.79090
 5204.50000   49.21890   93.22610  243.09780   82.94690   90.26380   20.61420    0.06370   -0.00190    3.36040    8.09660   -0.05340    2.80390
 5205.00000   49.15250   93.14910  319.28380  100.71390  119.49760   22.14440    0.05400    0.00010    3.34350    8.09870   -0.06500    2.82120
 5205.50000   49.08620   92.98540  430.77370  118.46450  158.19930   23.66480    0.04650    0.00210    3.30610    8.10090   -0.07570    2.83340
 5206.00000   48.80020   92.89230  574.71570  133.47890  176.31050   27.30620    0.04280    0.00170    3.28730    8.10300   -0.07910    2.84810
 5206.50000   48.92070   93.10840  531.47490  138.89350  181.21520   28.10150    0.04160   -0.00050    3.28500    8.10740   -0.07900    2.84810
 5207.00000   49.29220   93.34760  377.89170  134.77510  178.46480   27.53980    0.04280   -0.00270    3.31430    8.11660   -0.06810    2.82390
 5207.50000   48.95440   93.46120  233.59590  124.14080  140.74650   23.47810    0.04440   -0.00440    3.36190    8.12880   -0.05440    2.80710
 5208.00000   49.00880   93.56850  138.84900  106.74970  101.07140   20.90120    0.04590   -0.00430    3.36810    8.13830   -0.05060    2.79470
 5208.50000   49.44020   94.09060   88.20990   79.75860   72.49950   20.20850    0.05120   -0.00420    3.34530    8.13510   -0.04760    2.79090
 5209.00000   50.32500   94.79260   59.57490   53.86760   50.05180   20.90970    0.06270   -0.00410    3.30780    8.14610   -0.04140    2.77940
 5209.50000   50.85230   95.33630   40.23550   36.38120   34.55450   21.63090    0.07630   -0.00400    3.29380    8.15710   -0.03000    2.75350
 5210.00000   51.77770   95.39250   30.17870   29.73640   25.42160   22.34970    0.08750   -0.00360    3.32440    8.16810   -0.02880    2.75630
 5210.50000   52.48100   95.33350   29.53710   29.15850   23.93250   22.52170    0.09510   -0.00080    3.39400    8.17910   -0.03330    2.76940
 5211.00000   52.62560   95.27460   30.04850   29.66330   26.29410   21.57520    0.09510    0.00190    3.50810    8.19010   -0.04300    2.78250
 5211.50000   52.15800   95.11830   30.56870   30.17690   27.43050   19.83340    0.09790   -0.00000    3.52170    8.20110   -0.04320    2.78530
 5212.00000   51.75090   95.87780   28.53160   27.46730   24.52880   18.26300    0.10350   -0.00000    3.42560    8.20120   -0.03470    2.76990
 5212.50000   51.50730   96.20040   26.49820   25.79570   22.75840   16.03270    0.11250   -0.00010    3.33340    8.19060   -0.02520    2.75380
 5213.00000   51.73530   95.89900   30.14040   29.49390   23.98330   15.31360    0.11370   -0.00010    3.30220    8.18010   -0.02080    2.74520
 5213.50000   50.98920   95.74520   33.12650   31.61700   27.14160   14.55460    0.10900   -0.00010    3.35230    8.16960   -0.02940    2.75580
 5214.00000   50.43820   96.04130   41.09900   38.81760   34.13730   14.57900    0.09720   -0.00010    3.40410    8.16710   -0.04250    2.77220
 5214.50000   50.18980   95.31610   47.81000   47.16410   43.31200   15.13470    0.08540   -0.00010    3.43290    8.16640   -0.05040    2.78870
 5215.00000   49.82360   95.88530   43.32460   40.11880   38.22520   18.17010    0.08340   -0.00020    3.40610    8.16470   -0.04570    2.78900
 5215.50000   51.01880   95.42540   32.28270   29.89480   26.56810   20.90020    0.08920   -0.00130    3.36320    8.17120   -0.03330    2.77130
 5216.00000   51.51900   95.52010   24.05500   22.27630   18.46590   22.96500    0.09700   -0.00240    3.29820    8.17410   -0.01990    2.75350
 5216.50000   52.15890   95.03960   20.21120   19.86850   17.40670   23.05450    0.10440   -0.00360    3.23190    8.17680   -0.02030    2.74700
 5217.00000   52.28850   95.35380   25.08120   23.34510   18.92470   22.69340    0.10210   -0.00270    3.23430    8.17940   -0.03220    2.76360
 5217.50000   51.55240   95.37740   33.07080   30.77990   25.44340   22.42650    0.09130   -0.00160    3.29520    8.18210   -0.04550    2.78700
 5218.00000   51.10840   94.28190   43.60540   40.58240   34.20730   21.84690    0.08030   -0.00050    3.43840    8.18470   -0.05550    2.80440
 5218.50000   50.22870   93.29390   57.49580   53.50680   45.99010   21.52040    0.07120   -0.00020    3.55420    8.18740   -0.06340    2.81400
