~Version ---------------------------------------------------
VERS.   2.0 : CWLS log ASCII Standard -VERSION 2.0
WRAP.    NO : One line per depth step
DLM . SPACE : Column Data Section Delimiter
~Well ------------------------------------------------------
STRT .F                 990.0 : START DEPTH
STOP .F               10880.5 : STOP DEPTH
STEP .F                   0.5 : STEP
NULL .               -9999.25 : NULL VALUE
COMP .                        : COMPANY
WELL .                        : WELL
FLD  .                        : FIELD
LOC  .                        : LOCATION
PROV .                        : PROVINCE
CNTY .                        : COUNTY
STAT .                        : STATE
CTRY .                        : COUNTRY
SRVC .                        : SERVICE COMPANY
DATE .                        : DATE
UWI  .                        : UNIQUE WELL ID
API  .                        : API NUMBER
SLAT .WGS84 5.515475274736296 : SURFACE LATITUDE
SLON .WGS84 2.537779911560804 : SURFACE LONGITUDE
DATUM.F               1375.04 : DEPTH DATUM ELEV
~Curve Information -----------------------------------------
DEPT.F     : 
DTSM.US/F  : SHEAR-WAVE TRANSIT TIME
DTCO.US/F  : COMPRESSIONAL-WAVE INTERVAL TRANSIT TIME ACOUSTIC SLOWNESS
SPR .MV    : SPONTANEOUS POTENTIAL FROM RES. LOG
ILD .OHMM  : INDUCTION LOG DEEP
GRR .GAPI  : GAMMA RAY FROM RES. LOG
SFLU.OHMM  : SPHERICALLY FOCUSED LOG UNAVERAGED RESISTIVITY
CILD.MMHO  : CONDUCTIVITY INDUCTION LOG DEEP
ILM .OHMM  : INDUCTION LOG MEDIUM
NPHI.DEC   : NEUTRON POROSITY LIMESTONE
DPHI.DEC   : DENSITY POROSITY LIMESTONE
RHOB.G/C3  : BULK DENSITY
PEF .B/E   : PHOTOELECTRIC FACTOR
CORR.G/C3  : DENSITY CORRECTION
~Params ----------------------------------------------------
~Other -----------------------------------------------------
~ASCII -----------------------------------------------------
# ...
 9596.00000   -9999.25   -9999.25    8.08010   11.39260  106.44590   11.83800   81.98160   10.59900    0.24900    0.29680    2.18040    2.43020    0.14180
 9596.50000   -9999.25   -9999.25    8.04740   11.77310  101.80560   12.44060   80.22310   11.09250    0.23880    0.29880    2.09110    2.49660    0.15200
 9597.00000   -9999.25   -9999.25    7.73090   12.12120   97.02110   13.07380   78.46460   11.60900    0.22870    0.29880    2.14950    2.66620    0.18930
 9597.50000   -9999.25   -9999.25    7.15500   12.54010   92.56130   13.73930   76.70600   11.95370    0.21850    0.21070    2.30150    2.89820    0.22620
 9598.00000   -9999.25   -9999.25    6.46640   12.83510   90.23380   14.31960   75.78740   11.43780    0.20840    0.07860    2.56390    2.82880    0.23520
 9598.50000   -9999.25   -9999.25    5.73560   12.24430   91.48830   13.47660   73.81890   11.07190    0.19820    0.09050    2.54160    2.71330    0.22050
 9599.00000   -9999.25   -9999.25    4.89900   11.70510   95.18420   12.79350   73.81890   10.71780    0.23400    0.12020    2.49960    2.68170    0.20720
 9599.50000   -9999.25   -9999.25    4.06410   11.23160   98.68850   12.14510   73.81890   10.37500    0.25030    0.14990    2.45680    2.71300    0.19430
 9600.00000   -9999.25   -9999.25    3.66280   10.75600  101.07520   11.52960   73.81890   10.04320    0.25680    0.13330    2.46240    2.76660    0.19360
 9600.50000   -9999.25   -9999.25    4.00910   10.30020  103.83510   10.72610   76.55270    9.72190   -9999.25   -9999.25   -9999.25   -9999.25   -9999.25
 9601.00000   -9999.25   -9999.25    4.92080    9.80800  107.81400   10.55700   81.99310    9.41100   -9999.25   -9999.25   -9999.25   -9999.25   -9999.25
 9601.50000   -9999.25   -9999.25    5.99230    9.60480  110.80910   10.28600   87.43360    9.11000   -9999.25   -9999.25   -9999.25   -9999.25   -9999.25
 9602.00000   -9999.25   -9999.25    7.00800    9.41690  109.83250   10.02190   95.47240    8.81860   -9999.25   -9999.25   -9999.25   -9999.25   -9999.25
 9602.50000   -9999.25   -9999.25    7.88720    9.17400  105.61200    9.76470   95.47240    8.53650   -9999.25   -9999.25   -9999.25   -9999.25   -9999.25
 9603.00000   -9999.25   -9999.25    8.50550    8.95390  102.99700    9.51400   96.25490    8.32990   -9999.25   -9999.25   -9999.25   -9999.25   -9999.25
 9603.50000   -9999.25   -9999.25    8.87180    9.04080  105.51150    9.28320   97.73870    8.55790   -9999.25   -9999.25   -9999.25   -9999.25   -9999.25
 9604.00000   -9999.25   -9999.25    9.24630    9.14420  110.54720    9.41790   99.22240    8.74530   -9999.25   -9999.25   -9999.25   -9999.25   -9999.25
 9604.50000   -9999.25   -9999.25    9.79450    9.28320  112.00100    9.54740  101.37800    8.93690   -9999.25   -9999.25   -9999.25   -9999.25   -9999.25
 9605.00000   -9999.25   -9999.25   10.28060    9.48020  107.67920    9.67860  100.29530    9.13270   -9999.25   -9999.25   -9999.25   -9999.25   -9999.25
 9605.50000   -9999.25   -9999.25   10.34570    9.78010  101.72430    9.80000   98.31690    9.33280   -9999.25   -9999.25   -9999.25   -9999.25   -9999.25
 9606.00000   -9999.25   -9999.25    9.96380   10.08940   98.84090   10.27400   96.33860    9.53730   -9999.25   -9999.25   -9999.25   -9999.25   -9999.25
 9606.50000   -9999.25   -9999.25    9.42430   10.40850   98.60480   10.71750   94.36020    9.74620   -9999.25   -9999.25   -9999.25   -9999.25   -9999.25
 9607.00000   -9999.25   -9999.25    8.95670   10.73770   97.60460   11.18010   92.38190    9.97860   -9999.25   -9999.25   -9999.25   -9999.25   -9999.25
 9607.50000   -9999.25   -9999.25    8.56580   11.07730   95.39040   11.66270   90.40350    9.93720   -9999.25   -9999.25   -9999.25   -9999.25   -9999.25
 9608.00000   -9999.25   -9999.25    8.16730   11.42770   94.98840   12.16620   88.42520    9.89210   -9999.25   -9999.25   -9999.25   -9999.25   -9999.25
 9608.50000   -9999.25   -9999.25    7.72140   11.73970   97.96070   12.61920   85.62990    9.84720   -9999.25   -9999.25   -9999.25   -9999.25   -9999.25
 9609.00000   -9999.25   -9999.25    7.24320   11.10090  102.14250   12.63510   85.62990    9.80000   -9999.25   -9999.25   -9999.25   -9999.25   -9999.25
 9609.50000   -9999.25   -9999.25    6.82360   10.56680  104.91110   12.39330   86.63390    9.45520   -9999.25   -9999.25   -9999.25   -9999.25   -9999.25
 9610.00000   -9999.25   -9999.25    6.61050   10.05850  106.35200   11.30790   88.32960    8.95390   -9999.25   -9999.25   -9999.25   -9999.25   -9999.25
 9610.50000   -9999.25   -9999.25    6.66330    9.57460  108.10460   10.44230   90.02530    8.97430   -9999.25   -9999.25   -9999.25   -9999.25   -9999.25
 9611.00000   -9999.25   -9999.25    6.85520    9.28320  110.60220    9.62460   91.72100    9.01070   -9999.25   -9999.25   -9999.25   -9999.25   -9999.25
 9611.50000   -9999.25   -9999.25    7.01880    9.35310  112.88110    9.62460   93.29380    9.04720   -9999.25   -9999.25   -9999.25   -9999.25   -9999.25
 9612.00000   -9999.25   -9999.25    7.13350    9.40430  114.35930    9.62460   95.25110    9.08390   -9999.25   -9999.25   -9999.25   -9999.25   -9999.25
 9612.50000   -9999.25   -9999.25    7.27290    9.45580  115.33050    9.62460   97.28670    9.12070   -9999.25   -9999.25   -9999.25   -9999.25   -9999.25
 9613.00000   -9999.25   -9999.25    7.43510    9.50760  115.49180    9.77580   95.62570    9.15770   -9999.25   -9999.25   -9999.25   -9999.25   -9999.25
 9613.50000   -9999.25   -9999.25    7.56230    9.55960  113.52870    9.90370   95.07780    9.19480   -9999.25   -9999.25   -9999.25   -9999.25   -9999.25
 9614.00000   -9999.25   -9999.25    7.68020    9.61200  109.28030   10.03330   94.95270    9.23210   -9999.25   -9999.25   -9999.25   -9999.25   -9999.25
 9614.50000   -9999.25   -9999.25    7.86170    9.66460  105.28500   10.16460   94.33100    9.26950   -9999.25   -9999.25   -9999.25   -9999.25   -9999.25
 9615.00000   -9999.25   -9999.25    8.03810    9.71750  104.38610   10.34560   94.11030    9.30700   -9999.25   -9999.25   -9999.25   -9999.25   -9999.25
 9615.50000   -9999.25   -9999.25    8.00980    9.77070  106.20570   10.27600   93.45630    9.34480   -9999.25   -9999.25   -9999.25   -9999.25   -9999.25
 9616.00000   -9999.25   -9999.25    7.68960    9.80000  107.75590   10.16860   93.53150    9.38270   -9999.25   -9999.25   -9999.25   -9999.25   -9999.25
 9616.50000   -9999.25   -9999.25    7.21100    9.87500  107.32020   10.06240   93.49680    9.42070   -9999.25   -9999.25   -9999.25   -9999.25   -9999.25
 9617.00000   -9999.25   -9999.25    6.74360    9.92700  105.87810    9.95730   93.49940    9.45890   -9999.25   -9999.25   -9999.25   -9999.25   -9999.25
 9617.50000   -9999.25   -9999.25    6.32420    9.97930  104.72660    9.85320   93.51370    9.49720   -9999.25   -9999.25   -9999.25   -9999.25   -9999.25
 9618.00000   -9999.25   -9999.25    5.91530   10.03180  103.67850    9.80000   93.48660    9.53570   -9999.25   -9999.25   -9999.25   -9999.25   -9999.25
 9618.50000   -9999.25   -9999.25    5.49500   10.08460  102.21970    9.90180   93.51730    9.57500   -9999.25   -9999.25   -9999.25   -9999.25   -9999.25
 9619.00000   -9999.25   -9999.25    5.04210   10.13770  100.92750    9.98100   93.48650    9.62590   -9999.25   -9999.25   -9999.25   -9999.25   -9999.25
 9619.50000   -9999.25   -9999.25    4.56910   10.19110  100.71160   10.04390   93.51660    9.62480   -9999.25   -9999.25   -9999.25   -9999.25   -9999.25
 9620.00000   -9999.25   -9999.25    4.21400   10.24480  101.34490   10.12560   93.48920    9.55640   -9999.25   -9999.25   -9999.25   -9999.25   -9999.25
 9620.50000   -9999.25   -9999.25    4.16900   10.29870  101.77870   10.18880   93.51220    9.50240   -9999.25   -9999.25   -9999.25   -9999.25   -9999.25
 9621.00000   -9999.25   -9999.25    4.46480   10.34560  101.86850   10.27190   93.50270    9.45120   -9999.25   -9999.25   -9999.25   -9999.25   -9999.25
 9621.50000   -9999.25   -9999.25    4.92390   10.18650  102.82630   10.34040   93.50460    9.39740   -9999.25   -9999.25   -9999.25   -9999.25   -9999.25
