~Version ---------------------------------------------------
VERS.   2.0 : CWLS log ASCII Standard -VERSION 2.0
WRAP.    NO : One line per depth step
DLM . SPACE : Column Data Section Delimiter
~Well ------------------------------------------------------
STRT .F                 990.0 : START DEPTH
STOP .F               10880.5 : STOP DEPTH
STEP .F                   0.5 : STEP
NULL .               -9999.25 : NULL VALUE
COMP .                        : COMPANY
WELL .                        : WELL
FLD  .                        : FIELD
LOC  .                        : LOCATION
PROV .                        : PROVINCE
CNTY .                        : COUNTY
STAT .                        : STATE
CTRY .                        : COUNTRY
SRVC .                        : SERVICE COMPANY
DATE .                        : DATE
UWI  .                        : UNIQUE WELL ID
API  .                        : API NUMBER
SLAT .WGS84 5.515475274736296 : SURFACE LATITUDE
SLON .WGS84 2.537779911560804 : SURFACE LONGITUDE
DATUM.F               1375.04 : DEPTH DATUM ELEV
~Curve Information -----------------------------------------
DEPT.F     : 
DTSM.US/F  : SHEAR-WAVE TRANSIT TIME
DTCO.US/F  : COMPRESSIONAL-WAVE INTERVAL TRANSIT TIME ACOUSTIC SLOWNESS
SPR .MV    : SPONTANEOUS POTENTIAL FROM RES. LOG
ILD .OHMM  : INDUCTION LOG DEEP
GRR .GAPI  : GAMMA RAY FROM RES. LOG
SFLU.OHMM  : SPHERICALLY FOCUSED LOG UNAVERAGED RESISTIVITY
CILD.MMHO  : CONDUCTIVITY INDUCTION LOG DEEP
ILM .OHMM  : INDUCTION LOG MEDIUM
NPHI.DEC   : NEUTRON POROSITY LIMESTONE
DPHI.DEC   : DENSITY POROSITY LIMESTONE
RHOB.G/C3  : BULK DENSITY
PEF .B/E   : PHOTOELECTRIC FACTOR
CORR.G/C3  : DENSITY CORRECTION
~Params ----------------------------------------------------
~Other -----------------------------------------------------
~ASCII -----------------------------------------------------
# ...
 7568.00000   -9999.25   -9999.25 -106.74920   20.81890   33.13530   60.52460   39.23240   20.93680    0.01850    0.07070    2.59680    5.38270    0.00730
 7568.50000   -9999.25   -9999.25 -105.62090   21.30500   29.78380   58.48570   37.17080   21.35690    0.01930    0.06440    2.60720    5.27520    0.00610
 7569.00000   -9999.25   -9999.25 -104.62110   22.34830   28.67860   56.51550   34.67910   21.78540    0.02020    0.05810    2.61810    5.17950    0.00500
 7569.50000   -9999.25   -9999.25 -103.78960   23.10340   28.81380   55.48390   32.53050   22.22250    0.02110    0.05460    2.62090    5.07560    0.00370
 7570.00000   -9999.25   -9999.25 -102.70390   23.88400   28.75070   49.77490   30.12800   22.66840    0.02160    0.05290    2.62410    5.04200    0.00260
 7570.50000   -9999.25   -9999.25 -101.15660   24.61650   27.83760   46.21310   27.89490   22.90090    0.02010    0.05090    2.62660    4.61470    0.00150
 7571.00000   -9999.25   -9999.25  -99.42910   27.48900   26.13200   43.87390   25.56060   25.35650    0.01770    0.04860    2.62920    4.46920    0.00150
 7571.50000   -9999.25   -9999.25  -97.84240   30.41570   24.35540   48.68740   23.28520   27.15520    0.01530    0.04590    2.63320    4.45110    0.00150
 7572.00000   -9999.25   -9999.25  -96.38560   33.65390   23.54550   53.69550   20.97020   30.02620    0.01290    0.04320    2.63830    4.48940    0.00150
 7572.50000   -9999.25   -9999.25  -94.88490   37.49920   23.85520   60.72720   18.69470   31.78380    0.01130    0.04190    2.64240    4.53890    0.00150
 7573.00000   -9999.25   -9999.25  -93.30490   42.82760   24.32290   67.23850   16.35370   35.35960    0.01090    0.04340    2.64260    4.61150    0.00150
 7573.50000   -9999.25   -9999.25  -91.74170   46.10090   24.54010   77.11660   14.11290   39.33760    0.01030    0.04300    2.64260    4.82960    0.00150
 7574.00000   -9999.25   -9999.25  -90.25180   50.69750   25.58780   93.67380   11.72880   43.76310    0.00960    0.03720    2.64820    5.14470    0.00150
 7574.50000   -9999.25   -9999.25  -88.76430   57.18620   28.30070   95.10570    9.53520   48.68660    0.00890    0.03430    2.65210    5.34880    0.00150
 7575.00000   -9999.25   -9999.25  -87.12450   63.00430   31.48150   97.62150    7.10440   54.16390    0.00820    0.03230    2.65600    5.40650    0.00150
 7575.50000   -9999.25   -9999.25  -85.23790   70.84580   32.86080  100.69100    4.93110   60.25740    0.00760    0.02640    2.66040    5.23260    0.00150
 7576.00000   -9999.25   -9999.25  -83.19080   78.12980   31.49080  121.27610    4.76360   64.10800    0.00630    0.01840    2.66980    5.19720    0.00150
 7576.50000   -9999.25   -9999.25  -81.18610   77.14720   28.48970  152.40200    4.93440   66.65100    0.00470    0.01670    2.68350    5.32800    0.00150
 7577.00000   -9999.25   -9999.25  -79.26390   75.55140   26.04520  189.45260    4.75220   68.50340    0.00310    0.01650    2.68600    5.46700    0.00150
 7577.50000   -9999.25   -9999.25  -77.25540   74.36190   25.95640  204.52930    4.92740   70.40740    0.00150    0.01840    2.68260    5.34250    0.00150
 7578.00000   -9999.25   -9999.25  -75.11720   72.99460   28.54050  218.90000    5.67770   71.44490    0.00220    0.02020    2.67890    5.13790    0.00150
 7578.50000   -9999.25   -9999.25  -73.16580   71.67070   32.32850  172.14860    6.81370   62.48490    0.00620    0.02210    2.67570    4.99650    0.00150
 7579.00000   -9999.25   -9999.25  -71.64870   69.31590   35.12990  137.55980    7.63650   57.02810    0.01020    0.02390    2.67270    5.02840    0.00140
 7579.50000   -9999.25   -9999.25  -70.14460   68.07070   35.63540  109.92080    8.83170   52.04780    0.01290    0.02550    2.67230    5.03860    0.00150
 7580.00000   -9999.25   -9999.25  -67.91340   56.78590   33.89760   82.54990   12.65600   46.31650    0.01320    0.02150    2.67330    5.03810    0.00140
 7580.50000   -9999.25   -9999.25  -64.86870   50.48230   31.14540   83.00580   18.42740   40.39000    0.01350    0.02000    2.67570    4.94690    0.00140
 7581.00000   -9999.25   -9999.25  -61.60030   44.26990   30.03710   83.64030   24.76840   33.42460    0.01370    0.02000    2.67780    4.81080    0.00370
 7581.50000   -9999.25   -9999.25  -58.23410   34.25430   34.10100   84.05420   31.07340   27.43370    0.01570    0.03430    2.65910    4.36690    0.01260
 7582.00000   -9999.25   -9999.25  -53.97850   26.16630   44.50070   71.44490   37.37840   20.97450    0.04110    0.06860    2.59550    3.91860    0.02000
 7582.50000   -9999.25   -9999.25  -48.26370   19.02340   56.92020   32.47430   43.68340   15.84150    0.09850    0.13560    2.50130    3.18530    0.02840
 7583.00000   -9999.25   -9999.25  -41.79200   17.90330   63.96880   18.77500   49.98840   12.61920    0.15340    0.20270    2.40650    2.69550    0.02910
 7583.50000   -9999.25   -9999.25  -35.98190   17.31140   62.38190   14.84630   56.29340   13.79310    0.13850    0.27820    2.31170    2.42850    0.02390
 7584.00000   -9999.25   -9999.25  -31.66500   15.98010   56.58920   16.26690   62.59840   14.86390    0.11680    0.24060    2.24010    2.38990    0.01980
 7584.50000   -9999.25   -9999.25  -28.59310   15.34650   53.72880   18.90180   68.90340   16.01780    0.09510    0.19770    2.28290    2.48810    0.01550
 7585.00000   -9999.25   -9999.25  -26.01080   14.48390   56.26460   22.49110   75.20840   17.46650    0.07590    0.15470    2.39040    2.58280    0.02150
 7585.50000   -9999.25   -9999.25  -23.49500   14.06310   61.57990   23.37310   81.51340   14.90370    0.06390    0.09210    2.49790    2.64950    0.02880
 7586.00000   -9999.25   -9999.25  -21.18870   13.36640   67.49470   24.17590   87.81840   12.34360    0.08840    0.11890    2.57750    2.69370    0.03600
 7586.50000   -9999.25   -9999.25  -19.24350   12.79160   74.78240   17.61060   94.12340    9.62460    0.13410    0.16810    2.52590    2.73550    0.04320
 7587.00000   -9999.25   -9999.25  -17.38640   12.16700   83.79890   13.32170  100.42840    9.74490    0.17990    0.21740    2.41650    2.66810    0.05110
 7587.50000   -9999.25   -9999.25  -15.39470   11.59000   91.80320   12.28190  106.73340    9.97860    0.22560    0.28610    2.30730    2.55430    0.06940
 7588.00000   -9999.25   -9999.25  -13.68240   11.04710   95.48220   11.52960  113.03840    9.97860    0.26130    0.28380    2.22990    2.42430    0.09040
 7588.50000   -9999.25   -9999.25  -12.84010   10.44390   93.90460    8.44930  121.21070    9.19750    0.26010    0.27270    2.22430    2.31570    0.10750
 7589.00000   -9999.25   -9999.25  -12.86470    9.96330   90.87410    7.20930  121.05190    8.64190    0.27050    0.26000    2.26830    2.63910    0.10230
 7589.50000   -9999.25   -9999.25  -13.37760    9.41870   88.26300    6.90260  115.24330    8.11990    0.29870    0.27740    2.25200    2.55800    0.10280
 7590.00000   -9999.25   -9999.25  -14.30240    8.96420   84.28060    6.58680  106.42970    7.61070    0.31910    0.30040    2.20370    2.47540    0.06020
 7590.50000   -9999.25   -9999.25  -15.73820    9.17150   79.60920    6.99600   95.75790    8.33930    0.37250    0.30120    2.12230    2.32470    0.05310
 7591.00000   -9999.25   -9999.25  -17.46300    9.45390   74.07970    7.78300   95.26340    9.17210    0.35770    0.30070    2.05450    2.16120    0.04810
 7591.50000   -9999.25   -9999.25  -19.10140    9.69770   64.93620    8.48170   95.76810   10.08810    0.31550    0.29990    2.00300    2.00830    0.04570
 7592.00000   -9999.25   -9999.25  -20.59300    9.97870   57.51210   13.96500   93.33980   11.09550    0.14830    0.29910    1.99910    1.94420    0.02210
 7592.50000   -9999.25   -9999.25  -22.13540   10.25450   59.64010   21.20630   93.71930   11.95370    0.20770    0.24260    2.03780    2.22500    0.00830
 7593.00000   -9999.25   -9999.25  -23.73420   10.52230   67.12760   26.94270   90.91270    9.90770    0.27640    0.25110    2.18910    2.45710    0.00970
 7593.50000   -9999.25   -9999.25  -25.06160   10.37410   73.57240   25.52190   85.69140    8.49180    0.33510    0.27430    2.30400    2.31730    0.01330
