~Version ---------------------------------------------------
VERS.   2.0 : CWLS log ASCII Standard -VERSION 2.0
WRAP.    NO : One line per depth step
DLM . SPACE : Column Data Section Delimiter
~Well ------------------------------------------------------
STRT .F                 990.0 : START DEPTH
STOP .F               10880.5 : STOP DEPTH
STEP .F                   0.5 : STEP
NULL .               -9999.25 : NULL VALUE
COMP .                        : COMPANY
WELL .                        : WELL
FLD  .                        : FIELD
LOC  .                        : LOCATION
PROV .                        : PROVINCE
CNTY .                        : COUNTY
STAT .                        : STATE
CTRY .                        : COUNTRY
SRVC .                        : SERVICE COMPANY
DATE .                        : DATE
UWI  .                        : UNIQUE WELL ID
API  .                        : API NUMBER
SLAT .WGS84 5.515475274736296 : SURFACE LATITUDE
SLON .WGS84 2.537779911560804 : SURFACE LONGITUDE
DATUM.F               1375.04 : DEPTH DATUM ELEV
~Curve Information -----------------------------------------
DEPT.F     : 
DTSM.US/F  : SHEAR-WAVE TRANSIT TIME
DTCO.US/F  : COMPRESSIONAL-WAVE INTERVAL TRANSIT TIME ACOUSTIC SLOWNESS
SPR .MV    : SPONTANEOUS POTENTIAL FROM RES. LOG
ILD .OHMM  : INDUCTION LOG DEEP
GRR .GAPI  : GAMMA RAY FROM RES. LOG
SFLU.OHMM  : SPHERICALLY FOCUSED LOG UNAVERAGED RESISTIVITY
CILD.MMHO  : CONDUCTIVITY INDUCTION LOG DEEP
ILM .OHMM  : INDUCTION LOG MEDIUM
NPHI.DEC   : NEUTRON POROSITY LIMESTONE
DPHI.DEC   : DENSITY POROSITY LIMESTONE
RHOB.G/C3  : BULK DENSITY
PEF .B/E   : PHOTOELECTRIC FACTOR
CORR.G/C3  : DENSITY CORRECTION
~Params ----------------------------------------------------
~Other -----------------------------------------------------
~ASCII -----------------------------------------------------
# ...
 10012.00000   -9999.25   -9999.25   -4.88120   28.30160  105.78760   37.96840   18.62160   31.89280    0.17760   -9999.25    2.05430    2.72690    0.09690
 10012.50000   -9999.25   -9999.25   -5.63710   27.85260  109.03740   41.56020   18.78580   30.45160    0.18990   -9999.25    2.10420    2.70230    0.12140
 10013.00000   -9999.25   -9999.25   -5.89230   27.44810  117.64810   39.88360   18.61310   29.58520    0.20220   -9999.25    2.15400    2.67660    0.14980
 10013.50000   -9999.25   -9999.25   -6.05540   29.72890  123.45200   38.10230   17.26600   31.76670    0.19940   -9999.25    2.19020    2.56920    0.17580
 10014.00000   -9999.25   -9999.25   -6.39980   33.28760  119.04290   36.62480   15.09300   34.17530    0.19660   -9999.25    2.16860    2.46750    0.20090
 10014.50000   -9999.25   -9999.25   -7.01110   37.29490  107.85100   43.82220   13.28570   36.64890    0.16460   -9999.25    2.18250    2.50880    0.14680
 10015.00000   -9999.25   -9999.25   -7.93580   41.69820   97.49140   51.33120   11.09410   39.30150    0.13330   -9999.25    2.26670    2.50070    0.09650
 10015.50000   -9999.25   -9999.25   -9.19740   46.75750   93.04030   60.12700    9.31170   42.14610    0.11580    0.20920    2.36270    2.77420    0.03410
 10016.00000   -9999.25   -9999.25  -10.67550   53.53250   93.17870   70.42990    7.09670   45.19660    0.11650    0.14680    2.45740    2.82980    0.02510
 10016.50000   -9999.25   -9999.25  -12.05660   54.91420   93.71040   82.54990    5.00050   47.16060    0.11970    0.09090    2.56700    2.80960    0.02260
 10017.00000   -9999.25   -9999.25  -12.95860   56.55160   92.70700   85.41610    5.17660   48.90520    0.12030    0.07070    2.58050    2.82950    0.00800
 10017.50000   -9999.25   -9999.25  -13.17710   57.62770   91.85430   87.14560    5.90710   50.69340    0.11800    0.07020    2.59220    2.87450    0.00470
 10018.00000   -9999.25   -9999.25  -12.90320   52.06980   93.27690   71.12120    6.18510   46.91540    0.11580    0.06990    2.59610    2.91310    0.00540
 10018.50000   -9999.25   -9999.25  -12.61740   48.53640   96.06400   61.60770    6.94290   41.44340    0.12770    0.06460    2.60180    2.95110    0.00640
 10019.00000   -9999.25   -9999.25  -12.60920   45.15820   97.24110   53.36680   10.03890   35.96930    0.13850    0.05690    2.61290    2.99490    0.00460
 10019.50000   -9999.25   -9999.25  -12.60510   42.08820   96.43170   46.22820   13.89200   34.58700    0.14940    0.04920    2.62380    3.01560    0.00370
 10020.00000   -9999.25   -9999.25  -12.05740   39.16570   97.03410   39.36840   17.55680   33.46260    0.15310    0.04160    2.63470    2.98830   -0.00150
 10020.50000   -9999.25   -9999.25  -10.78040   36.47960  101.11740   41.22270   21.32210   30.46130    0.15010    0.03390    2.65730    2.98490    0.00160
 10021.00000   -9999.25   -9999.25   -9.10390   34.71300  105.37860   43.43240   25.06660   25.98700    0.14710    0.02920    2.66220    3.01990    0.00240
 10021.50000   -9999.25   -9999.25   -7.40870   29.17320  105.23020   45.48760   28.77680   23.95210    0.14440    0.02840    2.65830    2.98950    0.00530
 10022.00000   -9999.25   -9999.25   -5.82620   25.53340  102.65090   35.26180   32.50490   20.41230    0.14360    0.02950    2.64770    2.83570    0.01850
 10022.50000   -9999.25   -9999.25   -4.34350   22.34770  104.17620   28.06010   36.41730   17.39570    0.18890    0.05440    2.58960    2.68780    0.04690
 10023.00000   -9999.25   -9999.25   -2.85400   18.43890  112.30340   22.32920   38.30710   15.67280    0.22820    0.09320    2.53870    2.60240    0.05450
 10023.50000   -9999.25   -9999.25   -1.14840   18.35380  120.78820   16.84690   40.29530   16.02780    0.26000    0.13200    2.46360    2.59590    0.06670
 10024.00000   -9999.25   -9999.25    0.72530   18.20190  120.34020   18.93390   42.28350   16.29630    0.24860    0.14830    2.46770    2.65980    0.07700
 10024.50000   -9999.25   -9999.25    2.20440   18.05130  110.22430   22.04870   44.27160   16.56930    0.22890    0.12760    2.50790    2.73030    0.08620
 10025.00000   -9999.25   -9999.25    2.81900   17.90200  100.93010   25.67600   46.25980   16.84690    0.20930    0.11010    2.53790    2.80280    0.05930
 10025.50000   -9999.25   -9999.25    2.87770   17.78480  101.48900   28.96110   45.26580   16.42500    0.20410    0.09260    2.56910    2.83900    0.03900
 10026.00000   -9999.25   -9999.25    3.00470   17.20480  107.96740   25.54380   44.29130   15.28710    0.20220    0.08180    2.56280    2.82650    0.02840
 10026.50000   -9999.25   -9999.25    3.25230   16.84690  111.60880   21.89350   40.52590   14.06330    0.21870    0.08740    2.55660    2.79590    0.01750
 10027.00000   -9999.25   -9999.25    3.26390   19.25920  112.08210   17.78480   36.83350   14.06330    0.23900    0.10320    2.53400    2.73280    0.01900
 10027.50000   -9999.25   -9999.25    2.97100   21.46670  112.32490   17.78480   33.14120   17.06330    0.25840    0.13480    2.50350    2.67380    0.02090
 10028.00000   -9999.25   -9999.25    2.45170   23.74320  108.86610   21.74420   29.44880   19.51050    0.26080    0.12970    2.49180    2.60800    0.02320
 10028.50000   -9999.25   -9999.25    1.42920   33.03770   98.71050   25.51490   25.75650   22.30880    0.22730    0.10870    2.53360    2.59810    0.02520
 10029.00000   -9999.25   -9999.25   -0.42200   38.66380   86.10730   29.48880   22.06410   25.50840    0.18260    0.08780    2.57650    2.58770    0.02730
 10029.50000   -9999.25   -9999.25   -2.87120   52.55790   74.87250   49.44860   18.70080   31.13060    0.15420    0.06890    2.60360    2.59230    0.02940
 10030.00000   -9999.25   -9999.25   -5.37670   67.43310   64.45800   79.28660   13.64830   37.75910    0.12580    0.06630    2.57180    2.51490    0.03170
 10030.50000   -9999.25   -9999.25   -7.71080   88.70170   55.74070  158.15000    9.00920   54.97640    0.09700    0.08690    2.54080    2.42320    0.03200
 10031.00000   -9999.25   -9999.25   -9.95690  116.67850   50.78670  174.47610    4.37010   80.04430    0.06780    0.10410    2.53620    2.33020    0.03020
 10031.50000   -9999.25   -9999.25  -12.13890  155.31950   48.40130  226.95090    0.00040  118.46200    0.04560    0.10300    2.53830    2.23970    0.02850
 10032.00000   -9999.25   -9999.25  -14.21270  189.45260   46.75080  215.60430    0.00040  123.75410    0.03110    0.10100    2.54050    2.14820    0.02690
 10032.50000   -9999.25   -9999.25  -16.24570  181.37190   46.80060  196.77560    0.00040  127.33610    0.03470    0.10070    2.53610    2.07190    0.02520
 10033.00000   -9999.25   -9999.25  -18.30700  174.71690   48.85920  179.59110    0.00040  122.11120    0.03660    0.10360    2.53040    2.09750    0.02350
 10033.50000   -9999.25   -9999.25  -20.28630  168.30600   49.91780  163.96660    0.00040  118.44770    0.03420    0.10740    2.52470    2.11850    0.02190
 10034.00000   -9999.25   -9999.25  -22.08900  161.03210   47.91920  174.04180    0.00040  114.25960    0.03290    0.11120    2.51900    2.14510    0.02020
 10034.50000   -9999.25   -9999.25  -23.89330  168.96090   45.65640  184.69270    0.00040  152.53970    0.03360    0.11500    2.51360    2.14180    0.01850
 10035.00000   -9999.25   -9999.25  -25.92480  179.18390   46.31430  195.99530    0.00040  434.79530    0.03430    0.11900    2.50820    2.13670    0.01690
 10035.50000   -9999.25   -9999.25  -27.96870  189.45260   48.91930  207.35580    0.00040 1053.41280    0.04230    0.11900    2.51370    2.13190    0.01520
 10036.00000   -9999.25   -9999.25  -29.40630  183.74870   51.89070  203.40950    0.00040  555.70840    0.05090    0.11100    2.52150    2.12960    0.01360
 10036.50000   -9999.25   -9999.25  -29.89040  178.48300   56.14460  199.72570    0.00040  209.66540    0.04930    0.10420    2.53330    2.16100    0.01190
 10037.00000   -9999.25   -9999.25  -29.76530  173.36820   63.23560  196.06920    0.00040  104.39440    0.04650    0.10000    2.54010    2.24370    0.01020
 10037.50000   -9999.25   -9999.25  -29.63000  166.95470   74.56610  193.53670    0.00040  111.52020    0.04630    0.10030    2.54060    2.34570    0.00860
