~Version ---------------------------------------------------
VERS.   2.0 : CWLS log ASCII Standard -VERSION 2.0
WRAP.    NO : One line per depth step
DLM . SPACE : Column Data Section Delimiter
~Well ------------------------------------------------------
STRT .F                 990.0 : START DEPTH
STOP .F               10880.5 : STOP DEPTH
STEP .F                   0.5 : STEP
NULL .               -9999.25 : NULL VALUE
COMP .                        : COMPANY
WELL .                        : WELL
FLD  .                        : FIELD
LOC  .                        : LOCATION
PROV .                        : PROVINCE
CNTY .                        : COUNTY
STAT .                        : STATE
CTRY .                        : COUNTRY
SRVC .                        : SERVICE COMPANY
DATE .                        : DATE
UWI  .                        : UNIQUE WELL ID
API  .                        : API NUMBER
SLAT .WGS84 5.515475274736296 : SURFACE LATITUDE
SLON .WGS84 2.537779911560804 : SURFACE LONGITUDE
DATUM.F               1375.04 : DEPTH DATUM ELEV
~Curve Information -----------------------------------------
DEPT.F     : 
DTSM.US/F  : SHEAR-WAVE TRANSIT TIME
DTCO.US/F  : COMPRESSIONAL-WAVE INTERVAL TRANSIT TIME ACOUSTIC SLOWNESS
SPR .MV    : SPONTANEOUS POTENTIAL FROM RES. LOG
ILD .OHMM  : INDUCTION LOG DEEP
GRR .GAPI  : GAMMA RAY FROM RES. LOG
SFLU.OHMM  : SPHERICALLY FOCUSED LOG UNAVERAGED RESISTIVITY
CILD.MMHO  : CONDUCTIVITY INDUCTION LOG DEEP
ILM .OHMM  : INDUCTION LOG MEDIUM
NPHI.DEC   : NEUTRON POROSITY LIMESTONE
DPHI.DEC   : DENSITY POROSITY LIMESTONE
RHOB.G/C3  : BULK DENSITY
PEF .B/E   : PHOTOELECTRIC FACTOR
CORR.G/C3  : DENSITY CORRECTION
~Params ----------------------------------------------------
~Other -----------------------------------------------------
~ASCII -----------------------------------------------------
# ...
 7880.00000   -9999.25   -9999.25   -5.49200   12.18750   95.85670   14.76400   73.52400   11.59320    0.16790    0.08180    2.58540    2.68390    0.06210
 7880.50000   -9999.25   -9999.25   -5.89220   12.11700   97.19690   14.25410   74.12540   11.58270    0.17640    0.07930    2.57640    2.68350    0.05250
 7881.00000   -9999.25   -9999.25   -6.26000   12.04690   94.01570   13.76190   74.49740   11.50430    0.18500    0.07310    2.58300    2.68500    0.05290
 7881.50000   -9999.25   -9999.25   -6.50770   11.97730   89.25410   13.08330   75.02640   11.47600    0.19380    0.07740    2.57670    2.66500    0.05300
 7882.00000   -9999.25   -9999.25   -6.82410   11.90800   86.96320   13.12060   75.45620   11.41320    0.20260    0.08730    2.56670    2.64720    0.05280
 7882.50000   -9999.25   -9999.25   -7.25620   11.83910   87.30280   13.18740   75.93770   11.37350    0.20800    0.08390    2.56710    2.66340    0.05920
 7883.00000   -9999.25   -9999.25   -7.53930   11.77060   89.19250   13.25450   76.38260   11.32550    0.20620    0.07860    2.57870    2.68100    0.06800
 7883.50000   -9999.25   -9999.25   -7.41900   11.70250   92.95060   13.32170   76.84900   11.27770    0.20240    0.07460    2.58080    2.63090    0.07230
 7884.00000   -9999.25   -9999.25   -6.95870   11.63480   96.62500   12.43590   77.31530   11.23010    0.19900    0.08020    2.57100    2.51520    0.07950
 7884.50000   -9999.25   -9999.25   -6.41990   11.56750   96.02220   11.95370   77.78170   11.18270    0.20370    0.08650    2.56100    2.47070    0.08850
 7885.00000   -9999.25   -9999.25   -5.95960   11.50060   90.45770   12.08390   78.24800   11.13550    0.20930    0.09160    2.55410    2.50770    0.09680
 7885.50000   -9999.25   -9999.25   -5.53840   11.43400   85.50500   12.17150   78.71440   11.08850    0.20720    0.08870    2.55910    2.55260    0.10550
 7886.00000   -9999.25   -9999.25   -5.06370   11.36790   86.52530   11.95450   79.18070   11.04170    0.19660    0.07940    2.56860    2.53140    0.11390
 7886.50000   -9999.25   -9999.25   -4.54380   11.30210   92.30180   11.52960   79.64710   10.99510    0.20230    0.08340    2.56680    2.46520    0.11980
 7887.00000   -9999.25   -9999.25   -4.07720   11.23670   98.08890   11.68990   80.11340   10.94860    0.21800    0.09680    2.55070    2.43200    0.11220
 7887.50000   -9999.25   -9999.25   -3.67800   11.17170  101.81440   11.92970   80.57980   10.90240    0.23370    0.09270    2.55640    2.45900    0.10480
 7888.00000   -9999.25   -9999.25   -3.20270   11.10710  103.88510   12.17440   81.04610   10.85640    0.25820    0.08230    2.57190    2.48580    0.11040
 7888.50000   -9999.25   -9999.25   -2.59030   11.04280  103.88030   12.39330   81.69290   10.81050    0.25650    0.07250    2.58340    2.58340    0.12070
 7889.00000   -9999.25   -9999.25   -2.13150   10.97890  101.34210   12.04510   81.55950   10.76490    0.25130    0.08330    2.56280    2.65670    0.12880
 7889.50000   -9999.25   -9999.25   -2.24810   10.91540   98.12410   11.74320   81.34190   10.72610    0.24620    0.09370    2.54380    2.67540    0.13710
 7890.00000   -9999.25   -9999.25   -2.97400   10.85230   96.60260   11.32320   81.12420   10.78290    0.24040    0.10410    2.52410    2.65530    0.14520
 7890.50000   -9999.25   -9999.25   -3.89400   10.78950   96.42330   11.42120   80.90660   10.85890    0.23710    0.11250    2.51740    2.62490    0.15120
 7891.00000   -9999.25   -9999.25   -4.65640   10.72610   95.39940   11.59640   80.68900   10.93550    0.23720    0.10830    2.52610    2.61580    0.14290
 7891.50000   -9999.25   -9999.25   -5.30920   10.77000   93.10110   11.77440   80.47140   11.01270    0.23730    0.09970    2.54540    2.61110    0.13580
 7892.00000   -9999.25   -9999.25   -6.04520   10.81490   91.35570   11.95510   80.25370   11.12060    0.23750    0.09050    2.55650    2.60650    0.12790
 7892.50000   -9999.25   -9999.25   -6.84720   10.85990   91.31390   12.17150   80.03610   11.04300    0.23770    0.09020    2.55640    2.63970    0.12330
 7893.00000   -9999.25   -9999.25   -7.57070   10.90510   92.17150   11.94500   79.72440   10.91760    0.23780    0.08990    2.55710    2.67520    0.12760
 7893.50000   -9999.25   -9999.25   -8.23820   10.95050   93.36380   11.67520   80.16930   10.79360    0.23780    0.08970    2.55610    2.70880    0.13200
 7894.00000   -9999.25   -9999.25   -9.01640   10.99600   95.88560   11.41150   80.95280   10.67100    0.23860    0.09050    2.55540    2.73870    0.13640
 7894.50000   -9999.25   -9999.25   -9.89960   11.04180  100.00530   11.15380   81.73620   10.54980    0.24060    0.10900    2.52460    2.68180    0.14590
 7895.00000   -9999.25   -9999.25  -10.61040   11.08780  103.29700   10.90190   82.51970   10.43000    0.25190    0.12740    2.47930    2.56290    0.15840
 7895.50000   -9999.25   -9999.25  -10.91950   11.13390  102.93540   10.72610   83.66140   10.34560    0.27540    0.14830    2.44970    2.44760    0.17350
 7896.00000   -9999.25   -9999.25  -10.93260   11.18030   99.45640   11.08270   83.66140   10.45990    0.29700    0.15370    2.44940    2.34440    0.18750
 7896.50000   -9999.25   -9999.25  -10.93140   11.22680   96.48230   11.36770   83.66140   10.58940   -9999.25    0.16010    2.44270    2.30180    0.20250
 7897.00000   -9999.25   -9999.25  -11.03030   11.27350   96.63600   11.73970   83.66140   10.72040   -9999.25    0.16570    2.43510    2.34110   -9999.25
 7897.50000   -9999.25   -9999.25  -11.13710   11.32320   98.88980   11.84920   83.66140   10.85310   -9999.25    0.15690   -9999.25   -9999.25   -9999.25
 7898.00000   -9999.25   -9999.25  -11.18390   11.45380  100.19410   12.00050   82.88870   10.98750   -9999.25    0.12690   -9999.25   -9999.25   -9999.25
 7898.50000   -9999.25   -9999.25  -11.22600   11.59420   98.92650   12.15380   81.43080   11.12350   -9999.25    0.13850   -9999.25   -9999.25   -9999.25
 7899.00000   -9999.25   -9999.25  -11.31700   11.73630   96.23190   12.30900   79.89930   11.26110   -9999.25    0.16650   -9999.25   -9999.25   -9999.25
 7899.50000   -9999.25   -9999.25  -11.40970   11.88020   94.04380   12.46630   78.49970   11.40050   -9999.25    0.15420   -9999.25   -9999.25   -9999.25
 7900.00000   -9999.25   -9999.25  -11.44430   12.02580   92.53640   12.62550   76.90860   11.54160   -9999.25    0.12890   -9999.25   -9999.25   -9999.25
 7900.50000   -9999.25   -9999.25  -11.47780   12.17150   90.39500   12.84910   75.55840   11.73970   -9999.25    0.09310   -9999.25   -9999.25   -9999.25
 7901.00000   -9999.25   -9999.25  -11.64640   12.08650   87.49990   12.77390   73.93530   11.67560   -9999.25    0.10760   -9999.25   -9999.25   -9999.25
 7901.50000   -9999.25   -9999.25  -11.98790   12.00310   85.78730   12.65290   71.91460   11.57230   -9999.25    0.13990   -9999.25   -9999.25   -9999.25
 7902.00000   -9999.25   -9999.25  -12.39070   11.92030   86.57760   12.53300   72.09930   11.46990   -9999.25    0.24310   -9999.25   -9999.25   -9999.25
 7902.50000   -9999.25   -9999.25  -12.76260   11.83810   88.43030   12.41430   72.85020   11.36850   -9999.25    0.29720   -9999.25   -9999.25   -9999.25
 7903.00000   -9999.25   -9999.25  -13.14000   11.75640   89.21510   12.29670   73.34930   11.26800   -9999.25   -9999.25   -9999.25   -9999.25   -9999.25
 7903.50000   -9999.25   -9999.25  -13.54360   11.67530   89.52550   12.18020   74.06690   11.16830   -9999.25   -9999.25   -9999.25   -9999.25   -9999.25
 7904.00000   -9999.25   -9999.25  -13.86090   11.59480   91.64740   12.06480   74.60170   11.06950   -9999.25   -9999.25   -9999.25   -9999.25   -9999.25
 7904.50000   -9999.25   -9999.25  -13.97940   11.51480   95.35990   11.95050   75.28960   10.97160   -9999.25   -9999.25   -9999.25   -9999.25   -9999.25
 7905.00000   -9999.25   -9999.25  -13.95100   11.43530   97.33930   11.83730   75.84840   10.87450   -9999.25   -9999.25   -9999.25   -9999.25   -9999.25
 7905.50000   -9999.25   -9999.25  -13.91200   11.35650   95.54740   11.73970   76.51230   10.77840   -9999.25   -9999.25   -9999.25   -9999.25   -9999.25
