~Version ---------------------------------------------------
VERS.   2.0 : CWLS log ASCII Standard -VERSION 2.0
WRAP.    NO : One line per depth step
DLM . SPACE : Column Data Section Delimiter
~Well ------------------------------------------------------
STRT .F                 990.0 : START DEPTH
STOP .F               10880.5 : STOP DEPTH
STEP .F                   0.5 : STEP
NULL .               -9999.25 : NULL VALUE
COMP .                        : COMPANY
WELL .                        : WELL
FLD  .                        : FIELD
LOC  .                        : LOCATION
PROV .                        : PROVINCE
CNTY .                        : COUNTY
STAT .                        : STATE
CTRY .                        : COUNTRY
SRVC .                        : SERVICE COMPANY
DATE .                        : DATE
UWI  .                        : UNIQUE WELL ID
API  .                        : API NUMBER
SLAT .WGS84 5.515475274736296 : SURFACE LATITUDE
SLON .WGS84 2.537779911560804 : SURFACE LONGITUDE
DATUM.F               1375.04 : DEPTH DATUM ELEV
~Curve Information -----------------------------------------
DEPT.F     : 
DTSM.US/F  : SHEAR-WAVE TRANSIT TIME
DTCO.US/F  : COMPRESSIONAL-WAVE INTERVAL TRANSIT TIME ACOUSTIC SLOWNESS
SPR .MV    : SPONTANEOUS POTENTIAL FROM RES. LOG
ILD .OHMM  : INDUCTION LOG DEEP
GRR .GAPI  : GAMMA RAY FROM RES. LOG
SFLU.OHMM  : SPHERICALLY FOCUSED LOG UNAVERAGED RESISTIVITY
CILD.MMHO  : CONDUCTIVITY INDUCTION LOG DEEP
ILM .OHMM  : INDUCTION LOG MEDIUM
NPHI.DEC   : NEUTRON POROSITY LIMESTONE
DPHI.DEC   : DENSITY POROSITY LIMESTONE
RHOB.G/C3  : BULK DENSITY
PEF .B/E   : PHOTOELECTRIC FACTOR
CORR.G/C3  : DENSITY CORRECTION
~Params ----------------------------------------------------
~Other -----------------------------------------------------
~ASCII -----------------------------------------------------
# ...
 10610.00000  141.85910   78.22570   19.16420    7.56830  122.54390    8.95390  131.69290    7.20930   -9999.25    0.11820    2.33900    2.72150    0.01280
 10610.50000  142.34830   76.59490   19.47580    7.61800  122.08170    9.23780  133.01180    7.25580   -9999.25    0.12610   -9999.25   -9999.25   -9999.25
 10611.00000  154.64920   76.79060   20.12400    7.66830  125.73420    9.54300  134.84250    7.29030   -9999.25    0.14830   -9999.25   -9999.25   -9999.25
 10611.50000  166.95000   78.20940   20.80880    7.71740  131.14250    9.80000  134.84250    7.32500   -9999.25   -9999.25   -9999.25   -9999.25   -9999.25
 10612.00000  176.79060   80.28870   21.29230    7.76970  132.04310    9.62580  133.82550    7.35970   -9999.25   -9999.25   -9999.25   -9999.25   -9999.25
 10612.50000  177.57340   82.36790   21.69550    7.81820  124.78110    9.48080  132.17680    7.39470   -9999.25   -9999.25   -9999.25   -9999.25   -9999.25
 10613.00000  177.57340   84.03130   22.27820    7.87300  112.46340    9.28320  130.52820    7.42990   -9999.25   -9999.25   -9999.25   -9999.25   -9999.25
 10613.50000  170.13700   82.85710   23.02590    7.92060  101.80380    9.59340  128.87960    7.46520   -9999.25   -9999.25   -9999.25   -9999.25   -9999.25
 10614.00000  160.67840   76.98630   23.71580    7.97780   96.95640   10.12350  127.23100    7.50060   -9999.25   -9999.25   -9999.25   -9999.25   -9999.25
 10614.50000  151.21980   71.11550   24.32450    8.03280   97.04790   10.68290  125.00000    7.53630   -9999.25   -9999.25   -9999.25   -9999.25   -9999.25
 10615.00000  145.91000   66.22310   25.03330    8.01630   98.82820   11.27320  125.00000    7.57210   -9999.25   -9999.25   -9999.25   -9999.25   -9999.25
 10615.50000  143.36600   66.36290   25.76790    7.97840  100.39950   11.73970  125.00000    7.60810   -9999.25   -9999.25   -9999.25   -9999.25   -9999.25
 10616.00000  142.20160   66.78220   26.08610    7.95910  101.90290   10.83350  123.96060    7.64420   -9999.25   -9999.25   -9999.25   -9999.25   -9999.25
 10616.50000  141.95700   67.20160   25.69850    7.91910  103.46660   10.15710  122.37800    7.68060   -9999.25   -9999.25   -9999.25   -9999.25   -9999.25
 10617.00000  141.71230   66.95690   24.85180    7.88630  104.27780    9.52290  120.79530    7.71710   -9999.25   -9999.25   -9999.25   -9999.25   -9999.25
 10617.50000  141.56560   66.81020   23.99880    7.91020  104.14580    8.92830  119.21260    7.75370   -9999.25   -9999.25   -9999.25   -9999.25   -9999.25
 10618.00000  140.58710   67.78870   23.27130    7.96590  104.09390    8.63620  117.12600    7.79060   -9999.25   -9999.25   -9999.25   -9999.25   -9999.25
 10618.50000  140.00000   67.98430   22.50940    8.03970  104.34490   10.50630  117.80020    7.80130   -9999.25   -9999.25   -9999.25   -9999.25   -9999.25
 10619.00000  140.97850   67.73970   21.66820    8.09620  103.82070   12.38350  118.78940    7.85010   -9999.25   -9999.25   -9999.25   -9999.25   -9999.25
 10619.50000  141.95700   67.49510   20.89230    8.18080  102.95370   13.36560  119.77850    7.86060   -9999.25   -9999.25   -9999.25   -9999.25   -9999.25
 10620.00000  141.71230   67.25050   20.18790    8.04470  104.38760   13.01790  120.76770    7.62960   -9999.25   -9999.25   -9999.25   -9999.25   -9999.25
 10620.50000  141.56560   67.00590   19.35270    7.78740  108.48280   12.12990  121.75690    7.47740   -9999.25   -9999.25   -9999.25   -9999.25   -9999.25
 10621.00000  142.12470   66.81020   18.39790    7.53840  110.40670   11.75420  123.03150    7.26740   -9999.25   -9999.25   -9999.25   -9999.25   -9999.25
 10621.50000  142.68380   67.20160   17.79800    7.29720  104.90440   10.14180  114.02360    7.19950   -9999.25   -9999.25   -9999.25   -9999.25   -9999.25
 10622.00000  142.94940   67.58630   18.05060    7.06380   93.18160    8.86680  101.36220    6.89540   -9999.25   -9999.25   -9999.25   -9999.25   -9999.25
 10622.50000  142.46890   67.33170   19.04280    6.82910   82.16710    7.98530   88.70080    6.95370   -9999.25   -9999.25   -9999.25   -9999.25   -9999.25
 10623.00000  141.96620   67.00960   20.08370    7.95780   77.06480    6.91340   76.03940    7.13320   -9999.25   -9999.25   -9999.25   -9999.25   -9999.25
 10623.50000  141.97750   66.64990   20.61820    9.33190   76.83580   17.06300   63.37790    8.16120   -9999.25   -9999.25   -9999.25   -9999.25   -9999.25
 10624.00000  142.94760   66.25560   20.70190   11.32320   76.95360   61.39590   50.71650   10.79330   -9999.25   -9999.25   -9999.25   -9999.25   -9999.25
 10624.50000  142.14630   65.82510   20.71170   21.48850   74.49430  262.03920   38.05510   17.06640   -9999.25   -9999.25   -9999.25   -9999.25   -9999.25
 10625.00000  143.41050   67.41580   20.75610   48.56510   70.06740 1273.92860   25.39370   22.02630   -9999.25   -9999.25   -9999.25   -9999.25   -9999.25
 10625.50000  143.01800   73.75730   20.54950  109.75940   66.27330 1579.49770   12.73230   30.96970   -9999.25   -9999.25   -9999.25   -9999.25   -9999.25
 10626.00000  119.64780   88.72800   19.83560  250.51040   64.61280 1911.71060    0.00040   80.54700   -9999.25   -9999.25   -9999.25   -9999.25   -9999.25
 10626.50000   39.80430   56.63400   18.79850  553.16380   62.00200 1911.71060    3.57280  166.83410   -9999.25   -9999.25   -9999.25   -9999.25   -9999.25
 10627.00000   39.80430   -9999.25   17.89580  477.58790   61.21610 1887.15010   12.14570  390.14500   -9999.25   -9999.25   -9999.25   -9999.25   -9999.25
 10627.50000   -9999.25   -9999.25   17.24680  211.33270   57.03560 1870.05130   20.71850  427.32220   -9999.25   -9999.25   -9999.25   -9999.25   -9999.25
 10628.00000   -9999.25   -9999.25   16.43210   77.26370   55.18840 1853.10740   29.29130  484.55570   -9999.25   -9999.25   -9999.25   -9999.25   -9999.25
 10628.50000   -9999.25   -9999.25   15.25350   30.98870   67.54560 1843.89370   37.86420  218.80960   -9999.25   -9999.25   -9999.25   -9999.25   -9999.25
 10629.00000   -9999.25   -9999.25   14.47810   25.69880   85.27730  303.43470   46.43700   85.79820   -9999.25   -9999.25   -9999.25   -9999.25   -9999.25
 10629.50000   -9999.25   -9999.25   15.20520   22.55330   99.46160   87.59690   55.00980   35.96930   -9999.25   -9999.25   -9999.25   -9999.25   -9999.25
 10630.00000   -9999.25   -9999.25   17.48810   18.91300  116.21420   25.28790   63.58270   20.43080   -9999.25   -9999.25   -9999.25   -9999.25   -9999.25
 10630.50000   -9999.25   -9999.25   20.17110   16.47900  129.30240   13.32170   72.15550   12.61920   -9999.25   -9999.25   -9999.25   -9999.25   -9999.25
 10631.00000   -9999.25   -9999.25   22.23250   13.96120  130.75790   11.95370   80.72830   11.67510   -9999.25   -9999.25   -9999.25   -9999.25   -9999.25
 10631.50000   -9999.25   -9999.25   23.76580   12.01880  128.47350   14.02490   89.30120   10.86930   -9999.25   -9999.25   -9999.25   -9999.25   -9999.25
 10632.00000   -9999.25   -9999.25   25.49780   10.16910  125.92610   16.84690   99.40940   10.34560   -9999.25   -9999.25   -9999.25   -9999.25   -9999.25
 10632.50000   -9999.25   -9999.25   27.77000    9.75800  123.41610   17.04580   99.40940    9.83040   -9999.25   -9999.25   -9999.25   -9999.25   -9999.25
 10633.00000   -9999.25   -9999.25   30.18210    9.30890  125.91950   17.46650   99.40940    9.28320   -9999.25   -9999.25   -9999.25   -9999.25   -9999.25
 10633.50000   -9999.25   -9999.25   32.02580    9.20130  133.54730   17.15390   94.20440    9.58160   -9999.25   -9999.25   -9999.25   -9999.25   -9999.25
 10634.00000   -9999.25   -9999.25   32.94420    9.28320  141.97080   15.80170   87.93960   10.16920   -9999.25   -9999.25   -9999.25   -9999.25   -9999.25
 10634.50000   -9999.25   -9999.25   33.20950    9.79560  143.20210   14.13810   81.67490   10.79280   -9999.25   -9999.25   -9999.25   -9999.25   -9999.25
 10635.00000   -9999.25   -9999.25   33.36960   10.36900  134.06970   12.64960   75.41010   11.45460   -9999.25   -9999.25   -9999.25   -9999.25   -9999.25
 10635.50000   -9999.25   -9999.25   33.72760   11.12060  123.41180   11.52960   69.14530   12.15700   -9999.25   -9999.25   -9999.25   -9999.25   -9999.25
