~Version ---------------------------------------------------
VERS.   2.0 : CWLS log ASCII Standard -VERSION 2.0
WRAP.    NO : One line per depth step
DLM . SPACE : Column Data Section Delimiter
~Well ------------------------------------------------------
STRT .F                 990.0 : START DEPTH
STOP .F               10880.5 : STOP DEPTH
STEP .F                   0.5 : STEP
NULL .               -9999.25 : NULL VALUE
COMP .                        : COMPANY
WELL .                        : WELL
FLD  .                        : FIELD
LOC  .                        : LOCATION
PROV .                        : PROVINCE
CNTY .                        : COUNTY
STAT .                        : STATE
CTRY .                        : COUNTRY
SRVC .                        : SERVICE COMPANY
DATE .                        : DATE
UWI  .                        : UNIQUE WELL ID
API  .                        : API NUMBER
SLAT .WGS84 5.515475274736296 : SURFACE LATITUDE
SLON .WGS84 2.537779911560804 : SURFACE LONGITUDE
DATUM.F               1375.04 : DEPTH DATUM ELEV
~Curve Information -----------------------------------------
DEPT.F     : 
DTSM.US/F  : SHEAR-WAVE TRANSIT TIME
DTCO.US/F  : COMPRESSIONAL-WAVE INTERVAL TRANSIT TIME ACOUSTIC SLOWNESS
SPR .MV    : SPONTANEOUS POTENTIAL FROM RES. LOG
ILD .OHMM  : INDUCTION LOG DEEP
GRR .GAPI  : GAMMA RAY FROM RES. LOG
SFLU.OHMM  : SPHERICALLY FOCUSED LOG UNAVERAGED RESISTIVITY
CILD.MMHO  : CONDUCTIVITY INDUCTION LOG DEEP
ILM .OHMM  : INDUCTION LOG MEDIUM
NPHI.DEC   : NEUTRON POROSITY LIMESTONE
DPHI.DEC   : DENSITY POROSITY LIMESTONE
RHOB.G/C3  : BULK DENSITY
PEF .B/E   : PHOTOELECTRIC FACTOR
CORR.G/C3  : DENSITY CORRECTION
~Params ----------------------------------------------------
~Other -----------------------------------------------------
~ASCII -----------------------------------------------------
# ...
 7724.00000   -9999.25   -9999.25  -30.16410   14.53820   73.55300   16.82780   56.10240   13.01800    0.07610    0.10120    2.54840    2.62490    0.02690
 7724.50000   -9999.25   -9999.25  -29.29280   14.85150   77.67090   17.70570   56.91270   12.93330    0.08010    0.08260    2.57160    2.59730    0.04310
 7725.00000   -9999.25   -9999.25  -28.29280   15.17150   75.20620   16.93620   57.57870   12.84910    0.08010    0.08420    2.57950    2.54680    0.05830
 7725.50000   -9999.25   -9999.25  -27.33570   15.49850   70.29000   16.18120   58.07090   14.56940    0.07130    0.10790    2.55890    2.53740    0.06330
 7726.00000   -9999.25   -9999.25  -26.39320   15.95850   68.90540   18.23450   59.96060   15.95850    0.04300    0.09790    2.53080    2.52890    0.06770
 7726.50000   -9999.25   -9999.25  -25.38020   15.68590   73.03610   20.12560   61.45910   15.33640    0.04810    0.07380    2.54600    2.53930    0.07230
 7727.00000   -9999.25   -9999.25  -24.31350   15.26170   80.25110   18.76250   62.95770   14.75220    0.07020    0.05100    2.60550    2.60010    0.06980
 7727.50000   -9999.25   -9999.25  -23.22870   14.84900   87.05390   17.06120   63.97640   14.19030    0.09530    0.05740    2.62360    2.64720    0.06250
 7728.00000   -9999.25   -9999.25  -22.03410   14.44740   93.47260   15.57130   67.66930   13.64970    0.11550    0.06140    2.61340    2.66420    0.04500
 7728.50000   -9999.25   -9999.25  -20.65380   14.05680   96.76990   14.58060   70.46650   13.12980    0.13420    0.06140    2.60510    2.68160    0.03100
 7729.00000   -9999.25   -9999.25  -19.24770   13.67660   95.33740   14.43910   73.26380   12.62960    0.14020    0.06130    2.60530    2.69810    0.02540
 7729.50000   -9999.25   -9999.25  -18.06450   13.30680   91.76010   14.31960   76.06100   12.14850    0.14520    0.06830    2.59790    2.72080    0.02370
 7730.00000   -9999.25   -9999.25  -17.13360   12.94690   88.55820   13.83250   77.75590   11.73970    0.14670    0.07460    2.58760    2.74360    0.02300
 7730.50000   -9999.25   -9999.25  -16.26490   12.59680   87.22590   13.31570   78.52960   11.48010    0.17030    0.08140    2.57720    2.77300    0.04910
 7731.00000   -9999.25   -9999.25  -15.26990   12.25620   89.18470   12.81820   79.08460   11.25290    0.19130    0.08830    2.56690    2.77680    0.07200
 7731.50000   -9999.25   -9999.25  -14.08600   11.92480   93.19280   12.33930   79.63960   11.03020    0.21230    0.09520    2.55660    2.76020    0.09660
 7732.00000   -9999.25   -9999.25  -12.83180   11.60230   97.07020   11.95370   80.19470   10.81190    0.22990    0.10200    2.54630    2.68670    0.12300
 7732.50000   -9999.25   -9999.25  -11.79020   11.28850  101.81520   11.95370   80.74970   10.59790    0.22520    0.10630    2.53590    2.62710    0.13410
 7733.00000   -9999.25   -9999.25  -11.19440   10.92160  107.62420   11.95370   81.30470   10.34560    0.22120    0.10790    2.52760    2.59400    0.12970
 7733.50000   -9999.25   -9999.25  -10.95440   10.88200  110.41880   11.95370   81.85970   10.33780    0.22120    0.10230    2.53130    2.56160    0.12760
 7734.00000   -9999.25   -9999.25  -10.75700   10.83240  108.28040   11.70160   82.41470   10.32790    0.22590    0.09630    2.54040    2.50380    0.12560
 7734.50000   -9999.25   -9999.25  -10.44230   10.78300  105.43330   11.52960   82.96970   10.31810    0.24010    0.09280    2.54980    2.45290    0.12290
 7735.00000   -9999.25   -9999.25  -10.12900   10.73380  105.81440   11.52960   83.52470   10.30830    0.25420    0.09620    2.54810    2.46330    0.12020
 7735.50000   -9999.25   -9999.25   -9.97870   10.67760  107.77550   11.51840   84.07970   10.29850    0.26190    0.10050    2.54140    2.50800    0.11130
 7736.00000   -9999.25   -9999.25  -10.00280   10.63750  108.54840   11.53590   84.63470   10.28870    0.25180    0.10480    2.53570    2.58430    0.10070
 7736.50000   -9999.25   -9999.25  -10.11420   10.58300  107.10040   11.51750   85.18970   10.27890    0.23150    0.10710    2.52920    2.67760    0.08950
 7737.00000   -9999.25   -9999.25  -10.23770   10.53930  104.56730   11.53880   85.74480   10.26910    0.23360    0.09950    2.53700    2.83860    0.09520
 7737.50000   -9999.25   -9999.25  -10.35930   10.48820  101.67510   11.51350   86.29980   10.25930    0.23670    0.09240    2.55430    2.78630    0.10730
 7738.00000   -9999.25   -9999.25  -10.50810   10.44310   98.83340   11.35980   86.85480   10.24960    0.25420    0.10450    2.54660    2.66180    0.11850
 7738.50000   -9999.25   -9999.25  -10.67060   10.39300   97.64670   11.07070   87.59840   10.23980    0.26000    0.12370    2.51380    2.53670    0.12930
 7739.00000   -9999.25   -9999.25  -10.74540   10.34470   99.01470   10.74260   87.45190   10.23010    0.26630    0.14410    2.48200    2.51270    0.14080
 7739.50000   -9999.25   -9999.25  -10.64480   10.34230  100.36080   10.67330   87.22990   10.22040    0.27200    0.13610    2.46820    2.52920    0.14990
 7740.00000   -9999.25   -9999.25  -10.41260   10.34430   98.38210   10.64750   87.00790   10.21060    0.26770    0.12760    2.48460    2.53030    0.15140
 7740.50000   -9999.25   -9999.25  -10.15040   10.34240   94.51910   10.55220   86.78590   10.20090    0.25610    0.12060    2.49790    2.61970    0.13710
 7741.00000   -9999.25   -9999.25   -9.88960   10.34360   93.93940   10.54340   86.56390   10.19120    0.24440    0.12860    2.50550    2.64400    0.12150
 7741.50000   -9999.25   -9999.25   -9.62720   10.34240   98.35830   10.74270   86.34190   10.18150    0.23280    0.14520    2.47730    2.58340    0.10610
 7742.00000   -9999.25   -9999.25   -9.39920   10.34230  103.42050   10.92410   86.11990   10.17180    0.22120    0.14300    2.45970    2.54640    0.09160
 7742.50000   -9999.25   -9999.25   -9.18650   10.34230  104.62850   11.08510   85.89790   10.16040    0.21960    0.13930    2.47670    2.57760    0.09450
 7743.00000   -9999.25   -9999.25   -8.88500   10.34560  102.78220   11.25380   85.62990   10.28040    0.22250    0.14120    2.46560    2.56500    0.09660
 7743.50000   -9999.25   -9999.25   -8.54970   10.34560  101.61270   11.43820   83.61310   10.42830    0.22590    0.16060    2.43900    2.54120    0.10010
 7744.00000   -9999.25   -9999.25   -8.53090   10.34560  102.40480   11.59560   81.07020   10.57820    0.22530    0.17840    2.41100    2.54640    0.10270
 7744.50000   -9999.25   -9999.25   -9.14680   10.34560  103.31210   11.79810   78.52720   10.73030    0.22440    0.17280    2.40660    2.54710    0.11400
 7745.00000   -9999.25   -9999.25  -10.28500   10.34560  102.70110   11.93960   75.98430   10.88470    0.23210    0.16550    2.42860    2.62110    0.11750
 7745.50000   -9999.25   -9999.25  -11.54110   10.34560  100.90880   11.63710   73.44130   11.04120    0.24850    0.17240    2.41380    2.59700    0.12200
 7746.00000   -9999.25   -9999.25  -12.68820   10.56180   98.91800   11.33210   70.89840   11.52860    0.26960    0.17700    2.36240    2.51980    0.11600
 7746.50000   -9999.25   -9999.25  -13.80830   11.00980   97.10230   10.91520   68.35540   12.39350    0.25570    0.24030    2.30720    2.34440    0.10860
 7747.00000   -9999.25   -9999.25  -15.00020   11.47670   95.55480   10.92810   65.81250   13.32330    0.21110    0.23660    2.30450    2.33460    0.09630
 7747.50000   -9999.25   -9999.25  -16.19070   11.96350   94.16710   11.71910   63.26950   14.32290    0.16640    0.20120    2.33830    2.44980    0.08310
 7748.00000   -9999.25   -9999.25  -17.31260   12.47090   91.70370   12.99150   60.72660   15.67280    0.12850    0.15550    2.41710    2.74240    0.06990
 7748.50000   -9999.25   -9999.25  -18.46220   12.99980   86.22470   14.27560   58.07090   15.47140    0.10960    0.10980    2.49490    2.80270    0.05660
 7749.00000   -9999.25   -9999.25  -19.70180   13.55110   77.95120   15.85330   58.83460   15.20860    0.09320    0.08680    2.55810    2.73620    0.04740
 7749.50000   -9999.25   -9999.25  -20.87680   14.12580   70.61560   17.42490   59.63390   14.95020    0.08260    0.08020    2.56370    2.63860    0.04190
