~Version ---------------------------------------------------
VERS.   2.0 : CWLS log ASCII Standard -VERSION 2.0
WRAP.    NO : One line per depth step
DLM . SPACE : Column Data Section Delimiter
~Well ------------------------------------------------------
STRT .F                 990.0 : START DEPTH
STOP .F               10880.5 : STOP DEPTH
STEP .F                   0.5 : STEP
NULL .               -9999.25 : NULL VALUE
COMP .                        : COMPANY
WELL .                        : WELL
FLD  .                        : FIELD
LOC  .                        : LOCATION
PROV .                        : PROVINCE
CNTY .                        : COUNTY
STAT .                        : STATE
CTRY .                        : COUNTRY
SRVC .                        : SERVICE COMPANY
DATE .                        : DATE
UWI  .                        : UNIQUE WELL ID
API  .                        : API NUMBER
SLAT .WGS84 5.515475274736296 : SURFACE LATITUDE
SLON .WGS84 2.537779911560804 : SURFACE LONGITUDE
DATUM.F               1375.04 : DEPTH DATUM ELEV
~Curve Information -----------------------------------------
DEPT.F     : 
DTSM.US/F  : SHEAR-WAVE TRANSIT TIME
DTCO.US/F  : COMPRESSIONAL-WAVE INTERVAL TRANSIT TIME ACOUSTIC SLOWNESS
SPR .MV    : SPONTANEOUS POTENTIAL FROM RES. LOG
ILD .OHMM  : INDUCTION LOG DEEP
GRR .GAPI  : GAMMA RAY FROM RES. LOG
SFLU.OHMM  : SPHERICALLY FOCUSED LOG UNAVERAGED RESISTIVITY
CILD.MMHO  : CONDUCTIVITY INDUCTION LOG DEEP
ILM .OHMM  : INDUCTION LOG MEDIUM
NPHI.DEC   : NEUTRON POROSITY LIMESTONE
DPHI.DEC   : DENSITY POROSITY LIMESTONE
RHOB.G/C3  : BULK DENSITY
PEF .B/E   : PHOTOELECTRIC FACTOR
CORR.G/C3  : DENSITY CORRECTION
~Params ----------------------------------------------------
~Other -----------------------------------------------------
~ASCII -----------------------------------------------------
# ...
 8062.00000   -9999.25   -9999.25   -4.82680    8.31620  106.12570    9.59410  112.94150    7.69860    0.30910    0.26700    2.25330    2.46160    0.12470
 8062.50000   -9999.25   -9999.25   -4.77810    8.25730  106.30120    9.08420  113.18900    7.61070    0.30970    0.26140    2.25220    2.43160    0.12450
 8063.00000   -9999.25   -9999.25   -4.74020    8.19880  104.07810    8.79360  115.41340    7.61070    0.31150    0.24880    2.27840    2.42970    0.12580
 8063.50000   -9999.25   -9999.25   -4.25220    8.14070  103.73570    8.83400  117.39170    7.61070    0.31620    0.22690    2.32320    2.46870    0.12690
 8064.00000   -9999.25   -9999.25   -3.25280    8.08300  107.60570    8.87430  119.37010    7.61070    0.31310    0.20180    2.36430    2.50680    0.12820
 8064.50000   -9999.25   -9999.25   -2.26070    8.02580  112.34120    8.91480  121.06300    7.61070    0.31070    0.17670    2.40630    2.54400    0.12290
 8065.00000   -9999.25   -9999.25   -1.73500    7.96890  113.56470    8.95390  120.41620    7.61070    0.30590    0.16550    2.42270    2.59030    0.11630
 8065.50000   -9999.25   -9999.25   -1.57730    7.91240  111.55490    8.67580  119.85100    7.61070    0.31150    0.17230    2.41930    2.64300    0.10990
 8066.00000   -9999.25   -9999.25   -1.41670    7.85640  109.51750    8.41660  119.28570    7.61070    0.32650    0.18090    2.39870    2.69580    0.10330
 8066.50000   -9999.25   -9999.25   -1.09900    7.80070  108.45550    8.16500  118.72050    7.61070    0.34160    0.18950    2.38740    2.74190    0.10460
 8067.00000   -9999.25   -9999.25   -0.73650    7.74940  106.81650    8.03440  118.15520    7.61070    0.34320    0.19190    2.38350    2.81110    0.10690
 8067.50000   -9999.25   -9999.25   -0.52660    7.78600  103.90910    8.46300  117.59000    7.61070    0.34470    0.19430    2.37760    2.80650    0.10970
 8068.00000   -9999.25   -9999.25   -0.64930    7.82040  100.82340    8.76790  117.12600    7.61070    0.34880    0.21000    2.36010    2.74900    0.12430
 8068.50000   -9999.25   -9999.25   -1.14360    7.85490   98.69470    9.08890  118.79220    7.61070    0.35280    0.24070    2.30140    2.60890    0.13420
 8069.00000   -9999.25   -9999.25   -1.80210    7.88960   98.04350    8.95450  120.20530    7.61070    0.35580    0.27580    2.26610    2.47340    0.13680
 8069.50000   -9999.25   -9999.25   -2.36770    7.92440   99.44970    8.54170  121.61840    7.54420    0.35590    0.27760    2.23520    2.39330    0.13750
 8070.00000   -9999.25   -9999.25   -2.85010    7.95940  103.19620    8.24220  123.03150    7.45120    0.35440    0.26210    2.24550    2.36290    0.13830
 8070.50000   -9999.25   -9999.25   -3.43960    7.99450  108.12660    7.86450  124.44460    7.35930    0.34920    0.23690    2.27410    2.36330    0.13940
 8071.00000   -9999.25   -9999.25   -4.08200    8.02980  111.99940    7.62830  125.85770    7.26850    0.34400    0.23220    2.30220    2.35740    0.13940
 8071.50000   -9999.25   -9999.25   -4.39440    8.06520  113.38400    7.67430  126.96850    7.20930    0.34130    0.23630    2.31100    2.39170    0.14290
 8072.00000   -9999.25   -9999.25   -4.12280    8.10080  112.55970    7.83030  126.96850    7.37620    0.33180    0.24720    2.28710    2.45260    0.14820
 8072.50000   -9999.25   -9999.25   -3.49830    8.13660  110.28220    7.91290  126.96850    7.50320    0.31960    0.25650    2.27060    2.50880    0.17920
 8073.00000   -9999.25   -9999.25   -2.96280    8.18080  106.71350    8.05000  123.74020    7.63230    0.31020    0.24560    2.28380    2.46160    0.20310
 8073.50000   -9999.25   -9999.25   -2.66240    8.26440  102.38260    8.52140  121.10240    7.76370    0.30070    0.23610    2.30150    2.38370    0.21310
 8074.00000   -9999.25   -9999.25   -2.41400    8.37430   99.08030    9.00790  118.46460    7.89730    0.29140    0.22630    2.31970    2.32190    0.21500
 8074.50000   -9999.25   -9999.25   -2.07810    8.48570   98.29790    9.27650  115.82680    8.03330    0.28160    0.21660    2.34990    2.28180    0.21010
 8075.00000   -9999.25   -9999.25   -1.71490    8.59860   99.13590    9.20820  113.18900    8.17150    0.27980    0.20690    2.35500    2.26090    0.19890
 8075.50000   -9999.25   -9999.25   -1.39010    8.71290   99.32180    9.12140  111.22050    8.31220    0.27760    0.21480    2.34910    2.26310    0.18230
 8076.00000   -9999.25   -9999.25   -1.05560    8.82880   98.20500    9.29630  110.11810    8.48170    0.27370    0.21640    2.35050    2.31820    0.17800
 8076.50000   -9999.25   -9999.25   -0.71920    8.94620   97.37790    9.62490  109.23890    8.55660    0.26030    0.19760    2.37500    2.46790    0.17400
 8077.00000   -9999.25   -9999.25   -0.54980    9.06520   98.25900    9.96220  108.35960    8.65440    0.26000    0.17290    2.41530    2.53900    0.17020
 8077.50000   -9999.25   -9999.25   -0.65890    9.18580  100.11710   10.01090  107.48030    8.73520    0.26170    0.17710    2.41060    2.52200    0.16640
 8078.00000   -9999.25   -9999.25   -0.90330    9.30800  100.90560    9.76760  106.60110    8.84780    0.26840    0.19370    2.38050    2.49970    0.16220
 8078.50000   -9999.25   -9999.25   -1.03650    9.43180   99.75040    9.65830  105.72180    8.91660    0.27580    0.21020    2.35190    2.44680    0.15830
 8079.00000   -9999.25   -9999.25   -1.09240    9.55720   98.38600    9.78730  104.84250    9.04650    0.27270    0.22680    2.31910    2.38370    0.15460
 8079.50000   -9999.25   -9999.25   -1.42760    9.62460   99.78080   10.14680  103.96320    9.09370    0.26630    0.24340    2.28730    2.32840    0.14540
 8080.00000   -9999.25   -9999.25   -2.31260    8.87670  104.35570   10.31350  103.34650    8.55950    0.26240    0.25990    2.22980    2.26980    0.13130
 8080.50000   -9999.25   -9999.25   -3.49170    8.40100  108.38370    9.37660  111.33860    7.99600    0.29640    0.27650    2.16340    2.22380    0.11790
 8081.00000   -9999.25   -9999.25   -4.39390    7.95070  108.04570    8.65060  117.49340    7.57120    0.30360    0.29300    2.09670    2.22420    0.10400
 8081.50000   -9999.25   -9999.25   -4.98230    7.52450  104.96590    8.01750  123.64830    7.06380    0.31140    0.29710    2.02430    2.22100    0.09780
 8082.00000   -9999.25   -9999.25   -6.14520    7.12120  104.86620    7.40880  129.80310    6.69470    0.31780    0.29700    1.92590    2.22340    0.09690
 8082.50000   -9999.25   -9999.25   -8.54080    6.73950  109.70850    6.86340  135.95800    6.24460    0.32180    0.29690    1.94230    2.22780    0.09870
 8083.00000   -9999.25   -9999.25  -11.33080    6.35320  114.24850    6.11060  142.11290    6.03520    0.34730    0.29680    1.96340    2.22330    0.09570
 8083.50000   -9999.25   -9999.25  -13.24850    6.48160  113.04260    6.17170  148.26770    6.58260    0.35350    0.29670    2.00620    2.38080    0.09220
 8084.00000   -9999.25   -9999.25  -15.11580    6.62290  108.34540    6.24540  154.42260    7.08750    0.35500    0.29660    2.00070    2.55390    0.08940
 8084.50000   -9999.25   -9999.25  -17.78080    6.76720  104.67420    6.32340  158.46460    7.60390    0.30200    0.29640    2.30340    2.69090    0.08790
 8085.00000   -9999.25   -9999.25  -23.40580    6.91470  103.63330    6.40240  152.70670    8.15800    0.30080    0.20630    2.38350    2.67720    0.08580
 8085.50000   -9999.25   -9999.25  -28.92780    7.06530   97.51090    6.46890  148.42030    8.75240    0.29970    0.15130    2.44070    2.55020    0.06740
 8086.00000   -9999.25   -9999.25  -32.53070    7.21930   79.12320    8.48170  144.13390    9.39020    0.29860    0.13480    2.48080    2.34990    0.04980
 8086.50000   -9999.25   -9999.25  -38.43170    7.37660   57.31380   10.79380  139.84740   10.07440    0.21330    0.14110    2.47900    2.15020    0.03600
 8087.00000   -9999.25   -9999.25  -49.07610    7.47450   43.66230   16.36370  135.56100   11.12060    0.14590    0.14830    2.46300    1.98900    0.02950
 8087.50000   -9999.25   -9999.25  -60.82250    7.28780   37.29570   26.94270  132.87400   11.28920    0.10910    0.15550    2.44790    1.98250    0.02990
