~Version ---------------------------------------------------
VERS.   2.0 : CWLS log ASCII Standard -VERSION 2.0
WRAP.    NO : One line per depth step
DLM . SPACE : Column Data Section Delimiter
~Well ------------------------------------------------------
STRT .F                 990.0 : START DEPTH
STOP .F               10880.5 : STOP DEPTH
STEP .F                   0.5 : STEP
NULL .               -9999.25 : NULL VALUE
COMP .                        : COMPANY
WELL .                        : WELL
FLD  .                        : FIELD
LOC  .                        : LOCATION
PROV .                        : PROVINCE
CNTY .                        : COUNTY
STAT .                        : STATE
CTRY .                        : COUNTRY
SRVC .                        : SERVICE COMPANY
DATE .                        : DATE
UWI  .                        : UNIQUE WELL ID
API  .                        : API NUMBER
SLAT .WGS84 5.515475274736296 : SURFACE LATITUDE
SLON .WGS84 2.537779911560804 : SURFACE LONGITUDE
DATUM.F               1375.04 : DEPTH DATUM ELEV
~Curve Information -----------------------------------------
DEPT.F     : 
DTSM.US/F  : SHEAR-WAVE TRANSIT TIME
DTCO.US/F  : COMPRESSIONAL-WAVE INTERVAL TRANSIT TIME ACOUSTIC SLOWNESS
SPR .MV    : SPONTANEOUS POTENTIAL FROM RES. LOG
ILD .OHMM  : INDUCTION LOG DEEP
GRR .GAPI  : GAMMA RAY FROM RES. LOG
SFLU.OHMM  : SPHERICALLY FOCUSED LOG UNAVERAGED RESISTIVITY
CILD.MMHO  : CONDUCTIVITY INDUCTION LOG DEEP
ILM .OHMM  : INDUCTION LOG MEDIUM
NPHI.DEC   : NEUTRON POROSITY LIMESTONE
DPHI.DEC   : DENSITY POROSITY LIMESTONE
RHOB.G/C3  : BULK DENSITY
PEF .B/E   : PHOTOELECTRIC FACTOR
CORR.G/C3  : DENSITY CORRECTION
~Params ----------------------------------------------------
~Other -----------------------------------------------------
~ASCII -----------------------------------------------------
# ...
 8868.00000  106.62560   62.55810  -19.29570   17.69190   59.25710   15.39230    8.85830   15.21390    0.07020    0.20310    2.46510    2.34890    0.04480
 8868.50000  107.49520   63.72290  -20.18610   17.46650   50.11340   17.25650    8.85830   15.82150    0.05620    0.13870    2.55290    2.47460    0.04500
 8869.00000  105.55780   63.50290  -21.36660   19.55000   45.47720   19.79160    9.69980   16.54540    0.04210    0.08090    2.57950    2.72740    0.04280
 8869.50000  103.99220   62.70150  -22.93120   21.69320   45.27060   23.74320   11.19830   19.35330    0.02800    0.06910    2.59730    2.93480    0.03000
 8870.00000  100.82190   61.60690  -24.57980   24.76050   45.75630   35.02910   12.69680   23.23420    0.01450    0.06630    2.60950    3.07300    0.01600
 8870.50000   97.91000   59.79640  -26.17300   30.14660   45.38100   47.16060   14.76380   27.43370    0.01290    0.06280    2.61930    3.15750    0.01540
 8871.00000   95.54700   57.98470  -27.89930   36.70420   44.22760   54.49090   18.07090   36.49750    0.01290    0.06430    2.61140    3.19060    0.01390
 8871.50000   94.69760   56.11090  -29.68990   44.68840   40.69120   60.61450   23.39900   47.41440    0.01200    0.06990    2.60450    3.22130    0.01070
 8872.00000   93.84830   54.16530  -30.95520   59.64030   33.92760   74.69430   30.51180   61.59670    0.01130    0.06420    2.60890    3.41250    0.01040
 8872.50000   93.03330   53.08540  -31.26040   59.64030   27.14790   97.11910   31.17620   85.58600    0.00860    0.05260    2.63540    3.44780    0.01480
 8873.00000   92.52840   53.49490  -30.92030   57.16210   24.42690   97.11910   32.48030   87.34730    0.00720    0.04100    2.66040    3.41350    0.01900
 8873.50000   92.04310   53.88940  -30.57590   54.49090   26.52520   95.14580   31.78640   90.35080    0.00720    0.03350    2.66750    3.31690    0.02290
 8874.00000   92.05120   54.28340  -30.44270   47.99980   32.52600   93.67380   30.51180   71.25300    0.00890    0.03190    2.66390    3.21990    0.02690
 8874.50000   92.93360   54.67060  -30.30640   43.03640   41.21350   56.71230   29.06500   52.27710    0.01190    0.03430    2.62130    3.11020    0.02360
 8875.00000   93.81600   55.15650  -30.04210   38.58630   48.67410   41.56020   27.06690   38.35470    0.02220    0.06790    2.57780    3.03150    0.02020
 8875.50000   94.69840   55.63430  -29.78390   34.59630   50.48040   37.53000   24.60630   30.02620    0.02310    0.10210    2.53320    2.98390    0.01660
 8876.00000   95.58090   56.11080  -29.63300   31.01890   48.15530   35.32550   14.76380   26.55630    0.02510    0.12480    2.50430    2.92630    0.01330
 8876.50000   97.20720   56.59970  -29.46880   27.81150   47.48200   33.46260   13.19880   23.99230    0.02910    0.10870    2.53460    2.76830    0.01370
 8877.00000   99.04070   57.56900  -29.17010   25.06510   50.08190   33.46260   11.20080   20.92370    0.03550    0.09680    2.55460    2.62010    0.01400
 8877.50000  100.87410   59.37380  -28.91130   24.12360   52.62170   27.45850    9.20280   20.55290    0.04180    0.09680    2.52790    2.45380    0.01460
 8878.00000  102.42660   59.68430  -29.04440   23.31830   52.24830   23.94130    7.20470   19.82020    0.04460    0.11340    2.48080    2.29220    0.01500
 8878.50000  102.14680   60.49310  -29.64800   23.31830   47.86750   21.69320    4.92130   22.05990    0.04140    0.15390    2.46170    2.34090    0.01560
 8879.00000  101.90410   61.46380  -30.41620   26.40560   40.34020   26.66390    4.92130   25.84590    0.03510    0.14730    2.47360    2.60640    0.01600
 8879.50000  101.64380   61.00980  -31.14080   29.09800   34.46790   33.66080    4.63090   30.28180    0.02890    0.12690    2.54470    2.90690    0.01640
 8880.00000   99.84340   60.03910  -32.00240   31.69790   35.04500   42.49370    4.29790   35.47900    0.02240    0.10650    2.55750    3.05180    0.01740
 8880.50000   97.90220   59.06850  -33.16050   37.63100   40.20660   54.49090    3.96490   41.56810    0.01750    0.08970    2.48170    2.95430    0.01170
 8881.00000   95.94340   58.09790  -34.41460   43.86940   44.16520   55.07460    3.63190   50.69340    0.01520    0.12500    2.41040    2.71930    0.00160
 8881.50000   95.53440   58.00130  -35.59230   51.14200   44.41970   55.70730    3.29890   55.44510    0.01700    0.17130    2.32470    2.48540   -0.00880
 8882.00000   96.11570   58.59100  -36.93480   59.62030   42.20240   56.34730    2.95280   62.51030    0.01890    0.23470    2.36800    2.41630   -0.01040
 8882.50000   95.98830   60.44030  -38.67770   74.07260   39.24850   56.99460    2.95280   74.07260    0.02070    0.21460    2.41420    2.40730   -0.00220
 8883.00000   95.62430   61.02280  -40.55320   75.57240   37.12420   57.52460    2.95280   75.06910    0.02250    0.18260    2.44980    2.42380    0.00530
 8883.50000   96.99500   60.54800  -42.17190   78.19640   34.43210   61.63200    2.95280   76.80380    0.02250    0.14670    2.45870    2.60750    0.01270
 8884.00000   97.22020   61.66470  -43.64790   75.00140   30.85820   67.22150    2.95280   78.57860    0.02150    0.15160    2.43600    2.70900    0.02020
 8884.50000   96.09490   60.59180  -45.33780   70.03330   28.74860   73.31800    2.95280   81.07240    0.02050    0.16160    2.43130    2.60200    0.02780
 8885.00000   95.01000   58.26220  -47.11530   65.39430   30.49810   81.07240    2.95280   76.70450    0.02000    0.17060    2.43630    2.50230    0.03510
 8885.50000   94.61610   57.00460  -48.42940   61.06260   34.91260   73.79660    2.95280   70.27290    0.02210    0.16520    2.44480    2.24910    0.04270
 8886.00000   95.46890   56.63400  -49.08150   57.01780   37.85350   65.99800    2.95280   64.38070    0.02390    0.16100    2.43770    2.06040    0.05070
 8886.50000   96.49810   59.11940  -49.47620   53.51570   36.85370   59.02360    2.95280   58.98240    0.02580    0.16390    2.43000    2.10600    0.05000
 8887.00000   97.52910   61.54600  -50.00960   55.73390   33.72060   54.49090    2.95280   53.51570    0.02760    0.17130    2.44110    2.11500    0.03010
 8887.50000   98.56240   61.80040  -50.59090   60.75760   31.88260   57.59550    2.95280   53.51570    0.02950    0.16740    2.45420    2.12810    0.01570
 8888.00000   99.59710   60.63560  -50.93100   66.23420   32.43160   61.29810    2.95280   56.05920    0.03010    0.15730    2.46780    2.05770    0.01150
 8888.50000  100.63140   60.55660  -50.99480   71.44490   33.69950   65.23880    2.95280   59.88370    0.02990    0.14720    2.47990    2.04860    0.01200
 8889.00000  101.05430   61.23600  -50.95460   74.94810   34.00470   71.44490    2.95280   63.96920    0.02960    0.14250    2.49130    2.12210    0.01280
 8889.50000  100.53170   61.91550  -50.92300   78.21340   33.48510   72.51340    2.95280   67.67710    0.02800    0.13790    2.50290    2.20240    0.01370
 8890.00000  100.00900   62.59490  -50.93090   81.62090   33.21270   75.42240    3.96510   63.85120    0.02460    0.12520    2.51530    2.19250    0.01440
 8890.50000   99.48640   62.55260  -50.98480   85.17680   33.44640   72.55660    4.82140   60.69060    0.02160    0.11610    2.52230    2.16590    0.01540
 8891.00000   98.96370   61.93490  -50.99520   88.88770   33.36450   67.75050    5.67770   56.49500    0.02270    0.11510    2.51930    2.17080    0.01630
 8891.50000   98.51270   61.31720  -50.88150   91.99730   32.37080   63.26270    6.53400   59.27600    0.02370    0.11670    2.51670    2.23880    0.01670
 8892.00000   99.49380   60.69950  -50.83880   95.18730   31.06670   60.72720    7.39030   64.31510    0.02420    0.11990    2.52050    2.28940    0.02170
 8892.50000  100.35660   60.15660  -51.22970   97.94470   30.54520   67.74540    8.24660   69.78260    0.02470    0.12060    2.53110    2.35470    0.03200
 8893.00000  101.21940   61.35340  -52.15770  100.78200   30.93070   73.23690    8.85830   75.71490    0.02690    0.11180    2.54310    2.40920    0.04130
 8893.50000  102.03520   62.42110  -53.40030  103.70150   31.32740   79.17360    8.85830   82.15150    0.02960    0.10420    2.55600    2.46890    0.05070
