~Version ---------------------------------------------------
VERS.   2.0 : CWLS log ASCII Standard -VERSION 2.0
WRAP.    NO : One line per depth step
DLM . SPACE : Column Data Section Delimiter
~Well ------------------------------------------------------
STRT .F                 990.0 : START DEPTH
STOP .F               10880.5 : STOP DEPTH
STEP .F                   0.5 : STEP
NULL .               -9999.25 : NULL VALUE
COMP .                        : COMPANY
WELL .                        : WELL
FLD  .                        : FIELD
LOC  .                        : LOCATION
PROV .                        : PROVINCE
CNTY .                        : COUNTY
STAT .                        : STATE
CTRY .                        : COUNTRY
SRVC .                        : SERVICE COMPANY
DATE .                        : DATE
UWI  .                        : UNIQUE WELL ID
API  .                        : API NUMBER
SLAT .WGS84 5.515475274736296 : SURFACE LATITUDE
SLON .WGS84 2.537779911560804 : SURFACE LONGITUDE
DATUM.F               1375.04 : DEPTH DATUM ELEV
~Curve Information -----------------------------------------
DEPT.F     : 
DTSM.US/F  : SHEAR-WAVE TRANSIT TIME
DTCO.US/F  : COMPRESSIONAL-WAVE INTERVAL TRANSIT TIME ACOUSTIC SLOWNESS
SPR .MV    : SPONTANEOUS POTENTIAL FROM RES. LOG
ILD .OHMM  : INDUCTION LOG DEEP
GRR .GAPI  : GAMMA RAY FROM RES. LOG
SFLU.OHMM  : SPHERICALLY FOCUSED LOG UNAVERAGED RESISTIVITY
CILD.MMHO  : CONDUCTIVITY INDUCTION LOG DEEP
ILM .OHMM  : INDUCTION LOG MEDIUM
NPHI.DEC   : NEUTRON POROSITY LIMESTONE
DPHI.DEC   : DENSITY POROSITY LIMESTONE
RHOB.G/C3  : BULK DENSITY
PEF .B/E   : PHOTOELECTRIC FACTOR
CORR.G/C3  : DENSITY CORRECTION
~Params ----------------------------------------------------
~Other -----------------------------------------------------
~ASCII -----------------------------------------------------
# ...
 10454.00000   87.16240   58.46690   23.55850   16.41640   74.79440   17.03770   55.86610   21.02890    0.05860    0.05460    2.59110    3.43980   -9999.25
 10454.50000   90.16180   57.20380   23.67120   17.48050   64.73860   28.54840   49.93110   23.94570    0.05250    0.01790    2.66990    3.58920   -9999.25
 10455.00000   93.76390   56.24270   23.17620   19.34080   61.11250   49.84850   43.99610   25.77460    0.04930    0.02060    2.67860    3.59050   -9999.25
 10455.50000   97.36600   56.86200   22.37350   23.38420   62.29750   57.16210   38.06100   27.12610    0.05410    0.02580    2.67440    3.58860   -9999.25
 10456.00000   99.64150   57.22270   21.71160   28.60370   64.14980   68.91040   32.12600   31.45270    0.05960    0.03110    2.66640    3.43590   -9999.25
 10456.50000   97.87320   56.43680   21.21880   35.96930   65.59670   62.58570   26.19090   36.19390    0.06340    0.03360    2.65810    2.97330   -9999.25
 10457.00000   96.80630   55.85130   20.45040   34.84400   67.03570   53.93360   20.66930   35.22870    0.06750    0.03400    2.65350    2.86230   -9999.25
 10457.50000   99.61550   56.35620   19.15280   33.46260   66.57440   46.47760   18.70080   34.31590    0.08340    0.03430    2.65010    2.76670   -9999.25
 10458.00000  104.58520   57.02540   17.67110   28.73530   68.17960   40.05240   24.28150   29.81650    0.09970    0.05230    2.62840    2.76080   -9999.25
 10458.50000  109.55500   58.60270   16.45160   24.27070   76.79600   32.27550   29.47470   25.73290    0.11610    0.07830    2.57840    2.49060   -9999.25
 10459.00000  114.52470   60.42720   15.40850   20.49980   84.44060   29.02390   34.66780   23.03880    0.13250    0.10440    2.54450    2.53300   -9999.25
 10459.50000  119.49440   62.11350   14.14410   18.43890   84.80470   23.91970   39.86100   20.05460    0.14790    0.13040    2.51540    2.55900   -9999.25
 10460.00000  124.46410   65.17810   12.67840   16.63900   86.25870   19.71310   45.05410   17.79580    0.15990    0.15660    2.48890    2.64050   -9999.25
 10460.50000  129.43390   68.02700   11.54640   15.43930   93.34650   15.11680   50.24730   15.61920    0.16890    0.18660    2.39690    2.58590   -9999.25
 10461.00000  134.52060   70.87590   11.08110   14.58060  102.59640   14.54550   55.44040   13.76060    0.16280    0.17010    2.40670    2.57410   -9999.25
 10461.50000  132.31980   73.46380   10.97380   15.56000  112.89300   14.31960   60.03940   12.85990    0.14940    0.12850    2.44220    2.61440   -9999.25
 10462.00000  127.82890   70.85940   10.76570   16.40090  117.93100   15.95850   60.03940   13.70050    0.13610    0.07570    2.52540    2.65060   -9999.25
 10462.50000  123.33800   68.47360   10.48040   17.28720  111.98740   18.21140   58.14120   14.40420    0.12140    0.03770    2.62200    2.69310   -9999.25
 10463.00000  120.19490   66.76770   10.46310   18.22140  104.09760   21.15160   56.44540   15.02330    0.12060    0.03290    2.65030    2.75130   -9999.25
 10463.50000  117.60230   66.62730   10.80640   19.42380  102.22620   25.52190   54.74970   15.77220    0.13080    0.03300    2.65750    2.81710   -9999.25
 10464.00000  118.11820   66.48700   11.27640   19.47960  105.65500   23.91110   53.05400   16.24930    0.14500    0.03350    2.65390    2.91960   -9999.25
 10464.50000  119.91920   67.04990   11.70240   18.65130  111.01550   21.90780   51.35830   16.86820    0.15930    0.03660    2.65160    3.05200   -9999.25
 10465.00000  121.88290   68.27790   12.11000   18.09850  117.75790   20.07240   49.66250   17.15390    0.17130    0.03930    2.64830    3.13700   -9999.25
 10465.50000  119.93820   69.50590   12.52210   17.45830  127.25640   18.10890   48.22840   17.15390    0.17710    0.04220    2.64510    3.09700   -9999.25
 10466.00000  122.83090   70.21230   12.92160   17.44540  137.45890   19.04820   47.70140   17.15390    0.17920    0.04220    2.64210    3.02190   -9999.25
 10466.50000  121.44000   69.84390   13.36050   17.85560  143.03620   20.25440   47.24490   17.15390    0.17680    0.04300    2.64120    2.98440   -9999.25
 10467.00000  119.01080   69.47550   13.87480   18.10840  141.64650   21.53710   46.78830   17.50440    0.17720    0.03990    2.64490    2.97670   -9999.25
 10467.50000  117.31720   69.15850   14.30990   18.41480  136.63200   22.49110   46.33180   17.78880    0.18290    0.03680    2.64860    2.90910   -9999.25
 10468.00000  118.24780   69.79810   14.43890   18.74880  131.50440   22.68340   45.87520   18.07790    0.18950    0.03370    2.65230    2.88280   -9999.25
 10468.50000  120.03610   70.35950   14.24600   18.90140  126.68100   22.90090   45.41870   18.37160    0.18620    0.03060    2.65750    2.86320   -9999.25
 10469.00000  121.81940   70.53270   13.93390   19.02270  122.29780   22.90090   44.96210   18.67010    0.17880    0.02950    2.66170    2.84500   -9999.25
 10469.50000  124.73900   69.98700   13.65360   19.24300  119.15770   23.86980   44.50560   18.97350    0.16890    0.03060    2.65980    2.91410   -9999.25
 10470.00000  122.79860   69.44120   13.40070   19.33890  117.78930   24.74030   44.04910   19.28180    0.17140    0.03200    2.65870    3.01980   -9999.25
 10470.50000  123.63730   68.89890   13.13330   19.59880  118.47290   25.98700   43.59250   19.46550    0.18020    0.03270    2.65050    3.13090   -9999.25
 10471.00000  125.16550   69.41350   12.85750   19.74200  120.20860   26.08100   43.13600   19.48810    0.18910    0.03240    2.64560    3.13540   -9999.25
 10471.50000  126.69360   70.25580   12.57510   19.91590  121.66350   25.16730   42.67940   19.62500    0.19430    0.03160    2.64070    3.13670   -9999.25
 10472.00000  128.25830   71.11750   12.29070   20.09140  124.22880   24.94630   42.32280   19.59210    0.19740    0.03030    2.64340    3.13270   -9999.25
 10472.50000  125.86110   70.77570   12.08260   20.18140  128.82050   23.98020   38.18900   19.73320    0.19820    0.02430    2.65460    3.12090   -9999.25
 10473.00000  123.40510   70.18700   12.03660   22.90090  131.26190   24.30930   34.79750   19.71740    0.19230    0.01840    2.66970    3.10290   -9999.25
 10473.50000  120.94910   69.51540   12.08790   25.24910  127.12170   25.22290   31.40610   19.81290    0.18420    0.02350    2.67800    2.94590   -9999.25
 10474.00000  115.00590   68.78110   12.07680   28.07020  117.76080   26.58680   28.01460   24.64620    0.16510    0.03270    2.66400    2.77550   -9999.25
 10474.50000  109.47160   66.33070   12.00740   31.20650  107.49610   36.39860   24.62320   31.06560    0.12700    0.04180    2.65050    2.72180   -9999.25
 10475.00000  103.99220   63.87480   12.06130   34.69330   98.67970   51.49040   21.23170   34.48890    0.08890    0.05090    2.63650    2.73360   -9999.25
 10475.50000  101.78180   60.93930   12.18600   40.94920   91.54200   71.81620   18.70080   38.83800    0.08570    0.06000    2.62250    2.74570   -9999.25
 10476.00000   99.57140   61.37860   11.89810   48.33320   86.36460   87.24890   14.56690   44.56020    0.08920    0.06920    2.60860    2.80580   -9999.25
 10476.50000   97.45920   61.92430   10.79890   57.04870   84.46640   83.87040   11.26970   49.93920    0.09110    0.07840    2.59210    2.87930   -9999.25
 10477.00000   98.27790   62.47010    9.15350   66.46590   85.78880   81.39750    8.85830   57.51440    0.09210    0.08750    2.57300    2.85490   -9999.25
 10477.50000   99.91520   62.74250    7.57730   71.71100   86.91360   78.34130    7.18500   68.43800    0.08260    0.09670    2.55360    2.73380   -9999.25
 10478.00000  100.32770   62.04080    6.20840   76.94390   84.78190   83.72900    5.86610   71.24050    0.07320    0.10860    2.53280    2.58600   -9999.25
 10478.50000   99.06460   61.33910    4.65510   82.55860   80.27390   95.85770    4.92130   73.80580    0.06200    0.10600    2.52520    2.43390   -9999.25
 10479.00000   97.80150   61.78470    2.78150   88.75060   75.04970  109.69570    4.41340   77.99490    0.06090    0.10160    2.53280    2.38810   -9999.25
 10479.50000   97.96090   64.07040    0.93880   95.06700   70.06170  125.53390    4.01770   81.93980    0.05960    0.09740    2.53920    2.44230   -9999.25
