~Version ---------------------------------------------------
VERS.   2.0 : CWLS log ASCII Standard -VERSION 2.0
WRAP.    NO : One line per depth step
DLM . SPACE : Column Data Section Delimiter
~Well ------------------------------------------------------
STRT .F                 990.0 : START DEPTH
STOP .F               10880.5 : STOP DEPTH
STEP .F                   0.5 : STEP
NULL .               -9999.25 : NULL VALUE
COMP .                        : COMPANY
WELL .                        : WELL
FLD  .                        : FIELD
LOC  .                        : LOCATION
PROV .                        : PROVINCE
CNTY .                        : COUNTY
STAT .                        : STATE
CTRY .                        : COUNTRY
SRVC .                        : SERVICE COMPANY
DATE .                        : DATE
UWI  .                        : UNIQUE WELL ID
API  .                        : API NUMBER
SLAT .WGS84 5.515475274736296 : SURFACE LATITUDE
SLON .WGS84 2.537779911560804 : SURFACE LONGITUDE
DATUM.F               1375.04 : DEPTH DATUM ELEV
~Curve Information -----------------------------------------
DEPT.F     : 
DTSM.US/F  : SHEAR-WAVE TRANSIT TIME
DTCO.US/F  : COMPRESSIONAL-WAVE INTERVAL TRANSIT TIME ACOUSTIC SLOWNESS
SPR .MV    : SPONTANEOUS POTENTIAL FROM RES. LOG
ILD .OHMM  : INDUCTION LOG DEEP
GRR .GAPI  : GAMMA RAY FROM RES. LOG
SFLU.OHMM  : SPHERICALLY FOCUSED LOG UNAVERAGED RESISTIVITY
CILD.MMHO  : CONDUCTIVITY INDUCTION LOG DEEP
ILM .OHMM  : INDUCTION LOG MEDIUM
NPHI.DEC   : NEUTRON POROSITY LIMESTONE
DPHI.DEC   : DENSITY POROSITY LIMESTONE
RHOB.G/C3  : BULK DENSITY
PEF .B/E   : PHOTOELECTRIC FACTOR
CORR.G/C3  : DENSITY CORRECTION
~Params ----------------------------------------------------
~Other -----------------------------------------------------
~ASCII -----------------------------------------------------
# ...
 10324.00000  139.21600   73.08420   21.01940   12.58970  105.47600   16.85830   63.97640   13.32170    0.23960    0.11760    2.52770    2.63900    0.16120
 10324.50000  136.14000   70.28960   21.20950   12.32310  109.77090   17.78480   67.01530   12.93450    0.25070    0.13630    2.47650    2.61930    0.15190
 10325.00000  138.81240   69.15850   21.39180   12.06210  118.10750   16.76160   69.51280   12.44940    0.25610    0.15500    2.44000    2.60280    0.13240
 10325.50000  143.46710   69.66510   21.55690   11.80660  125.40500   15.78220   72.01030   11.98250    0.25760    0.18080    2.42320    2.58500    0.11360
 10326.00000  146.06050   70.08780   21.71710   11.55660  126.18690   14.86010   73.81890   11.53310    0.25920    0.16910    2.41530    2.56440    0.09900
 10326.50000  148.57670   70.00080   21.91620   11.32320  120.92970   13.99180   74.83860   11.12060    0.26080    0.15020    2.44370    2.58120    0.09650
 10327.00000  149.37200   69.21170   22.13780   11.32320  115.21100   13.17430   75.63780   11.07960    0.26390    0.13130    2.47220    2.60030    0.10470
 10327.50000  150.21530   69.41290   22.23730   11.32320  113.31220   12.17150   76.43700   11.04060    0.26700    0.11720    2.50100    2.61850    0.11200
 10328.00000  151.34720   70.89240   22.07400   11.32320  114.68270   12.56000   77.23620   11.00170    0.26840    0.11250    2.51880    2.56130    0.12020
 10328.50000  152.92520   72.28960   21.68580   11.32320  116.29490   13.14960   78.03540   10.96290    0.26720    0.11780    2.51910    2.51020    0.11970
 10329.00000  153.87480   71.66500   21.23060   11.32320  116.42810   13.76680   78.83460   10.92160    0.26610    0.12260    2.50430    2.44970    0.10910
 10329.50000  153.05280   71.11550   20.80140   11.32320  115.56270   14.41300   79.63390   10.63780    0.26550    0.12100    2.50670    2.48740    0.10020
 10330.00000  152.13310   72.28960   20.39360   11.32320  114.73260   15.11680   80.43310   10.34060    0.26640    0.11820    2.51450    2.53420    0.10130
 10330.50000  152.56750   71.61380   19.99110   10.98970  114.14520   14.29240   81.23230   10.05180    0.26700    0.11580    2.51480    2.59230    0.10220
 10331.00000  152.22070   70.84670   19.57530   10.65290  113.47130   13.48190   81.69290    9.77100    0.26610    0.13170    2.49680    2.55740    0.11020
 10331.50000  148.21920   70.07960   19.12060   10.33260  112.67220   12.71730   84.53740    9.49980    0.26650    0.15200    2.45850    2.48320    0.11740
 10332.00000  149.01290   69.97730   18.68400   10.00060  111.91750   11.73970   86.53540    9.22480    0.27450    0.17240    2.42260    2.41050    0.12500
 10332.50000  153.30720   71.35810   18.42610    9.70960  110.96310   11.65520   88.53350    8.97960    0.29610    0.18480    2.39050    2.46820    0.13280
 10333.00000  152.15190   71.77610   18.43870    9.39530  109.53090   11.52230   89.56690    8.71580    0.30650    0.17130    2.41640    2.53270    0.14100
 10333.50000  146.26220   70.19800   18.61600    9.12870  108.14040   11.39090   96.67720    8.49020    0.31880    0.15620    2.44440    2.60340    0.14930
 10334.00000  153.69860   68.99020   18.78410    8.82800  107.50700   11.32320  101.47240    8.23470    0.33120    0.15470    2.43810    2.67110    0.15830
 10334.50000  163.96090   68.76710   18.89340    8.58250  107.50730   10.26540  106.26770    8.02610    0.34350    0.19110    2.40980    2.73740    0.17190
 10335.00000  183.44420   74.25420   19.00860    8.29270  108.12830    9.60720  113.18900    7.78040    0.36380    0.22460    2.35050    2.80920    0.16360
 10335.50000  189.31510   78.96490   19.16330    8.04760  110.96130    8.95390  112.18800    7.48340    0.36000    0.26410    2.27560    2.87740    0.13490
 10336.00000  187.76990   83.67030   19.31120    8.21720  117.32860    9.17020  110.38980    7.59160    0.34850    0.29960    2.20390    2.89010    0.10740
 10336.50000  183.62740   85.64200   19.42090    8.44450  124.43990    9.40690  108.59150    7.82890    0.33700    0.29880    2.13920    2.82130    0.10410
 10337.00000  178.87120   82.69470   19.54150    8.65260  126.33990    9.64970  106.79330    8.06800    0.32860    0.29820    2.14740    3.04530    0.10060
 10337.50000  173.15070   79.44790   19.71720    8.86330  120.54380    9.80000  104.99510    8.29730    0.32260    0.26320    2.31780    3.32200    0.12270
 10338.00000  166.79140   76.22820   19.86740    9.12250  111.81020   10.18790  103.19690    8.57790    0.31940    0.19350    2.37390    3.67260    0.14600
 10338.50000  159.49280   74.03720   19.84250    9.29320  106.96260   10.59110  101.39860    8.79150    0.31940    0.20060    2.36110    3.92380   -9999.25
 10339.00000  154.08870   71.89820   19.61310    9.62700  107.44600   11.01020   99.60040    9.12030    0.34640    0.21720    2.33420    3.87170   -9999.25
 10339.50000  151.29420   70.88850   19.30410    9.72300  109.80810   11.44600   97.80220    9.45230    0.37090    0.23390    2.30750    3.65190   -9999.25
 10340.00000  148.61060   69.90220   19.01720    9.76690  112.09950   11.95370   95.47240    8.48930    0.38320    0.25650    2.28870    3.27190   -9999.25
 10340.50000  135.07480   68.07040   18.74310    9.17780  115.38670   10.48100  101.63020    7.23020    0.39480    0.28190    2.19150    2.85060   -9999.25
 10341.00000  122.77890   67.25640   18.49490    7.48960  118.78030    9.02940  110.37160    6.15780    0.40640   -9999.25    2.09810    2.54650   -9999.25
 10341.50000  116.61450   70.35420   18.38080    5.94150  118.12290    7.77880  119.11290    5.24440    0.41800   -9999.25    1.96920    2.37140   -9999.25
 10342.00000  112.50490   74.24660   18.45790    4.90260  111.83970    6.70140  127.85430    4.42720    0.43030   -9999.25    1.88260    2.18140   -9999.25
 10342.50000  107.90610   73.76710   18.63030    4.84730  104.25590    5.91040  136.59570    4.42720    0.41590   -9999.25    1.85010    2.01450   -9999.25
 10343.00000  105.69010   72.04110   18.78140    5.04740  100.50440    5.70070  145.33710    4.53290    0.40070   -9999.25    1.85300    2.08090   -9999.25
 10343.50000  102.83970   70.31510   18.90860    5.00660  101.13250    6.28620  154.07850    4.62630    0.38550   -9999.25    1.90350    2.25480   -9999.25
 10344.00000  101.04430   68.76710   19.04990    5.16310  103.83540    6.75120  164.37010    4.75880    0.37640   -9999.25    1.99790    2.44300   -9999.25
 10344.50000   99.03880   67.67910   19.18760    5.92980  107.13370    7.34070  166.33860    5.07180    0.40250   -9999.25    2.06170    2.53450   -9999.25
 10345.00000   97.02230   66.69280   19.31140    6.75880  109.67510    7.51670  166.33860    5.62600    0.43740   -9999.25    2.09140    2.50690   -9999.25
 10345.50000   95.47250   65.70650   19.46500    7.43810  109.04210    7.73540  157.25720    6.24080    0.43510   -9999.25    2.05700    2.40610   -9999.25
 10346.00000   95.17650   64.72020   19.63770    8.46260  104.67900    8.03440  146.60100    6.92280    0.33720   -9999.25    2.03040    2.35070   -9999.25
 10346.50000  100.47750   63.97650   19.74530    9.31940  100.23390    9.38430  135.94490    7.67930    0.26290   -9999.25    2.14570    2.48470   -9999.25
 10347.00000  110.08220   65.56950   19.82010   10.51720  100.05180   11.80350  125.28870    8.51850    0.21640    0.14780    2.38500    2.72290   -9999.25
 10347.50000  122.38750   69.02150   20.03430   11.77060  104.18920   14.84630  114.63260    9.44940    0.22670    0.04630    2.63390    2.88050   -9999.25
 10348.00000  125.44420   71.89820   20.38800   13.56450  109.09260   19.82020  103.97640   10.48200    0.23080    0.05380    2.61050    2.99100   -9999.25
 10348.50000  127.45200   69.54990   20.57020   16.84690  112.21070   18.52040   93.32020   12.17150    0.23540    0.07210    2.58630    3.11410   -9999.25
 10349.00000  128.43840   70.59750   20.32280   15.70170  113.83620   16.89860   82.66400   12.35110    0.23740    0.09390    2.56230    3.15480   -9999.25
 10349.50000  129.94780   72.40570   19.77150   14.58330  114.93970   15.41880   71.85040   12.67890    0.24770    0.09010    2.55190    3.19830   -9999.25
