~Version ---------------------------------------------------
VERS.   2.0 : CWLS log ASCII Standard -VERSION 2.0
WRAP.    NO : One line per depth step
DLM . SPACE : Column Data Section Delimiter
~Well ------------------------------------------------------
STRT .F                 990.0 : START DEPTH
STOP .F               10880.5 : STOP DEPTH
STEP .F                   0.5 : STEP
NULL .               -9999.25 : NULL VALUE
COMP .                        : COMPANY
WELL .                        : WELL
FLD  .                        : FIELD
LOC  .                        : LOCATION
PROV .                        : PROVINCE
CNTY .                        : COUNTY
STAT .                        : STATE
CTRY .                        : COUNTRY
SRVC .                        : SERVICE COMPANY
DATE .                        : DATE
UWI  .                        : UNIQUE WELL ID
API  .                        : API NUMBER
SLAT .WGS84 5.515475274736296 : SURFACE LATITUDE
SLON .WGS84 2.537779911560804 : SURFACE LONGITUDE
DATUM.F               1375.04 : DEPTH DATUM ELEV
~Curve Information -----------------------------------------
DEPT.F     : 
DTSM.US/F  : SHEAR-WAVE TRANSIT TIME
DTCO.US/F  : COMPRESSIONAL-WAVE INTERVAL TRANSIT TIME ACOUSTIC SLOWNESS
SPR .MV    : SPONTANEOUS POTENTIAL FROM RES. LOG
ILD .OHMM  : INDUCTION LOG DEEP
GRR .GAPI  : GAMMA RAY FROM RES. LOG
SFLU.OHMM  : SPHERICALLY FOCUSED LOG UNAVERAGED RESISTIVITY
CILD.MMHO  : CONDUCTIVITY INDUCTION LOG DEEP
ILM .OHMM  : INDUCTION LOG MEDIUM
NPHI.DEC   : NEUTRON POROSITY LIMESTONE
DPHI.DEC   : DENSITY POROSITY LIMESTONE
RHOB.G/C3  : BULK DENSITY
PEF .B/E   : PHOTOELECTRIC FACTOR
CORR.G/C3  : DENSITY CORRECTION
~Params ----------------------------------------------------
~Other -----------------------------------------------------
~ASCII -----------------------------------------------------
# ...
 9180.00000  140.78280   80.22830    3.97140    8.81100   94.51700    9.29690  100.03280    8.34940   -9999.25   -9999.25   -9999.25   -9999.25   -9999.25
 9180.50000  135.67520   81.37440    3.71040   10.14740   88.22940   11.11490   92.33600    8.63620   -9999.25   -9999.25   -9999.25   -9999.25   -9999.25
 9181.00000  130.76320   82.46580    3.23880   11.68660   83.53830   13.28850   84.63910   10.57230   -9999.25   -9999.25   -9999.25   -9999.25   -9999.25
 9181.50000  125.12720   80.14970    2.73940   14.31960   80.49640   15.88710   76.94230   12.31150   -9999.25   -9999.25   -9999.25   -9999.25   -9999.25
 9182.00000  119.64780   76.20920    2.54010   14.19780   78.75490   18.43890   69.24540   14.84630   -9999.25   -9999.25   -9999.25   -9999.25   -9999.25
 9182.50000  110.31310   70.96360    2.62630   13.98310   78.29550   18.86480   60.03940   13.91810   -9999.25   -9999.25   -9999.25   -9999.25   -9999.25
 9183.00000  102.03520   62.82920    2.52870   13.77180   79.76970   19.23780   63.06590   12.79970   -9999.25   -9999.25   -9999.25   -9999.25   -9999.25
 9183.50000  103.08020   59.82290    1.87730   13.56450   82.82530   19.46550   66.83070   11.77120   -9999.25   -9999.25   -9999.25   -9999.25   -9999.25
 9184.00000  103.60080   59.40080    0.93910   12.18760   85.31940   16.01760   70.59550   10.82530   -9999.25   -9999.25   -9999.25   -9999.25   -9999.25
 9184.50000   99.68690   58.03860    0.37680   10.56570   85.82910   13.19060   74.36020    9.97860   -9999.25   -9999.25   -9999.25   -9999.25   -9999.25
 9185.00000  102.42660   56.43390    0.50840   10.50880   86.91070   10.53410   78.12500   10.04270   -9999.25   -9999.25   -9999.25   -9999.25   -9999.25
 9185.50000  114.51820   59.09830    1.06150   10.02300   90.58730   10.70920   81.88980   10.10540   -9999.25   -9999.25   -9999.25   -9999.25   -9999.25
 9186.00000  125.71740   62.39330    1.66920   10.06100   95.99750   10.92100   85.65450   10.16860   -9999.25   -9999.25   -9999.25   -9999.25   -9999.25
 9186.50000  136.91660   65.58610    2.27210   10.29900   98.54670   11.13700   89.56690   10.23220   -9999.25   -9999.25   -9999.25   -9999.25   -9999.25
 9187.00000  147.43640   67.84870    2.88060   10.40880   93.33870   11.35720   89.56690   10.29610   -9999.25   -9999.25   -9999.25   -9999.25   -9999.25
 9187.50000  146.52320   68.47360    3.26460   10.63700   82.91930   11.58180   83.66140   10.36050   -9999.25   -9999.25   -9999.25   -9999.25   -9999.25
 9188.00000  144.30530   67.49120    3.19410   10.71340   76.69830   11.73970   77.63780   10.42520   -9999.25   -9999.25   -9999.25   -9999.25   -9999.25
 9188.50000  146.21400   67.21200    2.78810   11.99450   77.48970   13.30990   71.61420   10.49040   -9999.25   -9999.25   -9999.25   -9999.25   -9999.25
 9189.00000  151.74170   68.52190    2.31600   13.00840   81.78800   14.65030   65.59060   10.53410   -9999.25   -9999.25   -9999.25   -9999.25   -9999.25
 9189.50000  125.06630   69.55260    1.79100   14.16880   86.95260   16.12560   59.56690   12.70850   -9999.25   -9999.25   -9999.25   -9999.25   -9999.25
 9190.00000  101.06790   52.41000    1.02360   15.97060   86.08900   17.15390   53.54330   14.63120   -9999.25   -9999.25   -9999.25   -9999.25   -9999.25
 9190.50000   -9999.25   -9999.25   -0.04350   15.63480   75.03590   25.06900   48.22840   16.84460   -9999.25   -9999.25   -9999.25   -9999.25   -9999.25
 9191.00000   -9999.25   -9999.25   -1.26180   14.87450   62.10150   33.16480   63.03940   20.54920   -9999.25   -9999.25   -9999.25   -9999.25   -9999.25
 9191.50000   -9999.25   -9999.25   -2.45610   12.42230   57.06630   41.56020   76.29130   17.85530   -9999.25   -9999.25   -9999.25   -9999.25   -9999.25
 9192.00000   -9999.25   -9999.25   -3.51930    9.24840   62.15760   25.98700   89.54330   14.06500   -9999.25   -9999.25   -9999.25   -9999.25   -9999.25
 9192.50000   -9999.25   -9999.25   -4.38240    6.83660   71.86860   10.91170  102.79530   11.07940   -9999.25   -9999.25   -9999.25   -9999.25   -9999.25
 9193.00000   -9999.25   -9999.25   -4.93980    5.11530   81.05220    4.84560  116.04720    8.79360   -9999.25   -9999.25   -9999.25   -9999.25   -9999.25
 9193.50000   -9999.25   -9999.25   -5.01050    4.93390   89.79180    4.34790  129.29920    7.89060   -9999.25   -9999.25   -9999.25   -9999.25   -9999.25
 9194.00000   -9999.25   -9999.25   -4.44820    4.97640   95.44260    4.62530  142.55120    6.89230   -9999.25   -9999.25   -9999.25   -9999.25   -9999.25
 9194.50000   -9999.25   -9999.25   -3.36090    5.02720   95.26610    4.97610  155.80310    6.12780   -9999.25   -9999.25   -9999.25   -9999.25   -9999.25
 9195.00000   -9999.25   -9999.25   -2.08820    5.07850   91.83280    5.35350  169.05510    5.98780   -9999.25   -9999.25   -9999.25   -9999.25   -9999.25
 9195.50000   -9999.25   -9999.25   -0.86890    5.11530   88.48790    5.75950  178.14960    5.87930   -9999.25   -9999.25   -9999.25   -9999.25   -9999.25
 9196.00000   -9999.25   -9999.25    0.31740    5.49970   85.47890    6.19640  162.87350    5.77290   -9999.25   -9999.25   -9999.25   -9999.25   -9999.25
 9196.50000   -9999.25   -9999.25    1.52590    5.81790   84.11080    6.70690  151.24550    5.70070   -9999.25   -9999.25   -9999.25   -9999.25   -9999.25
 9197.00000   -9999.25   -9999.25    2.70790    6.15440   85.65310    6.81970  139.61740    6.47540   -9999.25   -9999.25   -9999.25   -9999.25   -9999.25
 9197.50000   -9999.25   -9999.25    3.88660    6.51040   86.76870    7.04140  127.98940    7.13560   -9999.25   -9999.25   -9999.25   -9999.25   -9999.25
 9198.00000   -9999.25   -9999.25    5.16580    6.82910   84.47130    7.27020  116.36130    7.86320   -9999.25   -9999.25   -9999.25   -9999.25   -9999.25
 9198.50000   -9999.25   -9999.25    6.40240    7.58600   81.16400    7.61070  104.73330    8.66490   -9999.25   -9999.25   -9999.25   -9999.25   -9999.25
 9199.00000   -9999.25   -9999.25    7.16400    8.31180   79.35100    8.11570   93.10520    9.54840   -9999.25   -9999.25   -9999.25   -9999.25   -9999.25
 9199.50000   -9999.25   -9999.25    7.21970    9.10720   77.89500    9.08550   81.47720   10.53410   -9999.25   -9999.25   -9999.25   -9999.25   -9999.25
 9200.00000   -9999.25   -9999.25    6.85130    9.97990   76.13980   10.14720   69.84910   11.46550   -9999.25   -9999.25   -9999.25   -9999.25   -9999.25
 9200.50000   -9999.25   -9999.25    6.49300   10.94580   75.14600   11.42390   63.97640   12.38800   -9999.25   -9999.25   -9999.25   -9999.25   -9999.25
 9201.00000   -9999.25   -9999.25    6.25790   11.97890   75.29550   12.71750   63.97640   13.56580   -9999.25   -9999.25   -9999.25   -9999.25   -9999.25
 9201.50000   -9999.25   -9999.25    6.00260   13.15760   77.17810   14.34360   63.97640   15.06760   -9999.25   -9999.25   -9999.25   -9999.25   -9999.25
 9202.00000   -9999.25   -9999.25    5.68050   14.05650   81.78170   16.20800   66.85040   14.79740   -9999.25   -9999.25   -9999.25   -9999.25   -9999.25
 9202.50000   -9999.25   -9999.25    5.38560   13.62230   89.56790   15.64950   68.79920   14.08150   -9999.25   -9999.25   -9999.25   -9999.25   -9999.25
 9203.00000   -9999.25   -9999.25    5.13530   13.03000   98.12610   14.78550   70.74800   13.60740   -9999.25   -9999.25   -9999.25   -9999.25   -9999.25
 9203.50000   -9999.25   -9999.25    4.83760   12.54820  103.17990   14.13250   72.69690   12.96960   -9999.25   -9999.25   -9999.25   -9999.25   -9999.25
 9204.00000   -9999.25   -9999.25    4.48990   12.00980  103.48160   13.40130   74.64570   12.50940   -9999.25   -9999.25   -9999.25   -9999.25   -9999.25
 9204.50000   -9999.25   -9999.25    4.24990   11.55350  102.32510   12.75420   76.59450   11.94500   -9999.25   -9999.25   -9999.25   -9999.25   -9999.25
 9205.00000   -9999.25   -9999.25    4.24800   11.07180  102.55430   12.14950   78.54330   11.49950   -9999.25   -9999.25   -9999.25   -9999.25   -9999.25
 9205.50000   -9999.25   -9999.25    4.41650   10.63760  102.63580   11.51540   80.49210   10.99640   -9999.25   -9999.25   -9999.25   -9999.25   -9999.25
