~Version ---------------------------------------------------
VERS.   2.0 : CWLS log ASCII Standard -VERSION 2.0
WRAP.    NO : One line per depth step
DLM . SPACE : Column Data Section Delimiter
~Well ------------------------------------------------------
STRT .F                 990.0 : START DEPTH
STOP .F               10880.5 : STOP DEPTH
STEP .F                   0.5 : STEP
NULL .               -9999.25 : NULL VALUE
COMP .                        : COMPANY
WELL .                        : WELL
FLD  .                        : FIELD
LOC  .                        : LOCATION
PROV .                        : PROVINCE
CNTY .                        : COUNTY
STAT .                        : STATE
CTRY .                        : COUNTRY
SRVC .                        : SERVICE COMPANY
DATE .                        : DATE
UWI  .                        : UNIQUE WELL ID
API  .                        : API NUMBER
SLAT .WGS84 5.515475274736296 : SURFACE LATITUDE
SLON .WGS84 2.537779911560804 : SURFACE LONGITUDE
DATUM.F               1375.04 : DEPTH DATUM ELEV
~Curve Information -----------------------------------------
DEPT.F     : 
DTSM.US/F  : SHEAR-WAVE TRANSIT TIME
DTCO.US/F  : COMPRESSIONAL-WAVE INTERVAL TRANSIT TIME ACOUSTIC SLOWNESS
SPR .MV    : SPONTANEOUS POTENTIAL FROM RES. LOG
ILD .OHMM  : INDUCTION LOG DEEP
GRR .GAPI  : GAMMA RAY FROM RES. LOG
SFLU.OHMM  : SPHERICALLY FOCUSED LOG UNAVERAGED RESISTIVITY
CILD.MMHO  : CONDUCTIVITY INDUCTION LOG DEEP
ILM .OHMM  : INDUCTION LOG MEDIUM
NPHI.DEC   : NEUTRON POROSITY LIMESTONE
DPHI.DEC   : DENSITY POROSITY LIMESTONE
RHOB.G/C3  : BULK DENSITY
PEF .B/E   : PHOTOELECTRIC FACTOR
CORR.G/C3  : DENSITY CORRECTION
~Params ----------------------------------------------------
~Other -----------------------------------------------------
~ASCII -----------------------------------------------------
# ...
 10168.00000   -9999.25   -9999.25  -10.73920 1053.41280   23.19100  580.46370    0.00040  396.45710   -0.00270    0.05410    2.63250    2.63280    0.00090
 10168.50000   -9999.25   -9999.25   -7.80600  195.35920   29.87440  249.97280    0.00040  350.07790    0.04020    0.04300    2.62360    2.59270   -0.00750
 10169.00000   -9999.25   -9999.25   -4.64520   70.16620   41.43930  124.16700    0.00040   60.82270    0.09170    0.07450    2.58220    2.31540   -0.01560
 10169.50000   -9999.25   -9999.25   -1.30890   33.46260   54.52200   64.37200    8.61220   26.25720    0.14310    0.11570    2.35630    1.89610   -0.02330
 10170.00000   -9999.25   -9999.25    2.12760   27.08910   66.13920   31.59630   18.94680   17.58060    0.22020    0.29920    2.01310    1.71960   -0.03170
 10170.50000   -9999.25   -9999.25    5.54120   20.92370   74.45790   22.65880   29.28150   11.69370    0.21010    0.29900    1.77800    1.64700   -0.01830
 10171.00000   -9999.25   -9999.25    8.51480   19.02070   78.76650   22.15770   39.61610   14.70610    0.17780    0.29890    1.85600    1.81950    0.01510
 10171.50000   -9999.25   -9999.25   10.63600   16.84690   81.78160   22.24300   49.95080   16.38080    0.19960    0.29890    1.97750    2.21720    0.04720
 10172.00000   -9999.25   -9999.25   12.06670   14.87490   88.40790   22.05250   60.28540   18.56550    0.24310    0.29890    2.10790    2.47060    0.07910
 10172.50000   -9999.25   -9999.25   13.36710   13.30300   99.86840   19.51810   70.62010   15.66200    0.29730    0.29880    2.10120    2.51040    0.11160
 10173.00000   -9999.25   -9999.25   14.83500   11.32320  111.48380   16.28200   76.88100   13.82780    0.29460    0.29880    2.08410    2.58270    0.14320
 10173.50000   -9999.25   -9999.25   16.36350   11.18840  117.80600   15.04970   79.06820   12.31620    0.28780    0.29880    2.17310    2.64820    0.17550
 10174.00000   -9999.25   -9999.25   17.79890   10.95040  118.09560   13.35000   81.25550   10.27520    0.29150    0.27200    2.28660    2.70100    0.18500
 10174.50000   -9999.25   -9999.25   19.17410   10.71740  114.94550   12.56980   83.44270   10.07510    0.30180    0.18910    2.37900    2.74950    0.18410
 10175.00000   -9999.25   -9999.25   20.62200   10.48950  110.23470   12.06500   85.62990    9.57780    0.31210    0.19660    2.38690    2.77200    0.16780
 10175.50000   -9999.25   -9999.25   22.18020   10.26630  105.52630   11.36890   87.81710    9.09410    0.32800    0.22030    2.31180    2.63850    0.15340
 10176.00000   -9999.25   -9999.25   23.61160   10.04790  103.39190   11.11640   90.00440    9.17740    0.32540    0.27640    2.20830    2.51260    0.14450
 10176.50000   -9999.25   -9999.25   24.52230    9.77030  104.88300   11.05960   92.19160    9.32550    0.31820    0.29740    2.08510    2.51070    0.14740
 10177.00000   -9999.25   -9999.25   24.77660    9.78830  108.26010   11.00030   94.37880    9.44240    0.31120    0.29770    2.13140    2.63060    0.14810
 10177.50000   -9999.25   -9999.25   24.68090    9.88380  110.96500   10.94130   95.14440    9.56080    0.30410    0.29800    2.24110    2.80570    0.14890
 10178.00000   -9999.25   -9999.25   24.61670    9.94380  113.77450   10.88270   94.48820    9.68070    0.29800    0.23870    2.35090    2.77550    0.13590
 10178.50000   -9999.25   -9999.25   24.65940   10.02040  113.29800   10.82430   93.83200    9.80210    0.29290    0.16990    2.47320    2.72980    0.11930
 10179.00000   -9999.25   -9999.25   24.68650   10.07610  109.02770   10.76630   91.53540    9.92500    0.28540    0.13330    2.49940    2.67060    0.11100
 10179.50000   -9999.25   -9999.25   24.65990   10.15910  104.73930   10.72610   87.59840   10.04940    0.27790    0.11660    2.52600    2.63550    0.11190
 10180.00000   -9999.25   -9999.25   24.64340   10.35720  100.51450   11.52130   85.30180   10.16040    0.26700    0.09920    2.54950    2.63060    0.11380
 10180.50000   -9999.25   -9999.25   24.65610   10.59610   99.19310   12.17060   84.64570   10.46790    0.25300    0.08000    2.59490    2.77210    0.12130
 10181.00000   -9999.25   -9999.25   24.66520   10.82770  104.95810   12.85650   83.98950   10.75070    0.23900    0.06360    2.61080    2.79990    0.12120
 10181.50000   -9999.25   -9999.25   24.65980   11.07280  112.75040   13.58110   82.18500   11.04100    0.23240    0.05160    2.62640    2.82360    0.11940
 10182.00000   -9999.25   -9999.25   24.65190   11.31550  115.96590   14.34660   79.23230   11.33930    0.22840    0.04610    2.62770    2.87150    0.11620
 10182.50000   -9999.25   -9999.25   24.65030   11.57100  115.06500   14.84630   76.27950   11.64560    0.22440    0.04890    2.61800    2.77330    0.11250
 10183.00000   -9999.25   -9999.25   24.65750   11.82510  111.87520   14.40960   73.32680   11.96010    0.21620    0.05640    2.60830    2.73320    0.10850
 10183.50000   -9999.25   -9999.25   24.66330   12.09150  106.63770   13.97730   71.55510   12.28320    0.20500    0.06380    2.59880    2.74870    0.10510
 10184.00000   -9999.25   -9999.25   24.65170   12.35780  100.35810   13.55790   70.96460   12.61500    0.19380    0.06750    2.59680    2.83960    0.10180
 10184.50000   -9999.25   -9999.25   24.63870   12.63530   93.42700   13.32170   70.37400   13.08330    0.17840    0.06720    2.60980    2.87860    0.10100
 10185.00000   -9999.25   -9999.25   24.66230   12.84910   88.79020   15.89270   69.78350   13.08330    0.18290    0.05830    2.62610    2.86290    0.08510
 10185.50000   -9999.25   -9999.25   24.69060   12.92200   89.63430   18.77500   69.19290   13.56450    0.18990    0.04450    2.64280    2.85180    0.06950
 10186.00000   -9999.25   -9999.25   24.58720   12.98110   94.88430   17.81540   68.60240   13.54060    0.19690    0.03430    2.64620    2.83890    0.05240
 10186.50000   -9999.25   -9999.25   24.23190   13.04060  100.66340   16.44630   68.01180   13.50420    0.20080    0.04220    2.63050    2.78130    0.04230
 10187.00000   -9999.25   -9999.25   23.65820   13.10030  104.09580   15.18250   67.42130   13.46800    0.20140    0.05330    2.62210    2.74890    0.04120
 10187.50000   -9999.25   -9999.25   23.01480   13.16030  104.34360   14.58060   66.83070   13.43180    0.20090    0.05100    2.62900    2.71740    0.03940
 10188.00000   -9999.25   -9999.25   22.39340   13.22050  101.53530   15.36190   66.24020   13.39580    0.19110    0.04470    2.62970    2.68790    0.03820
 10188.50000   -9999.25   -9999.25   21.73970   13.28110   96.93990   15.90820   64.46850   13.35980    0.17920    0.04740    2.62000    2.66150    0.04050
 10189.00000   -9999.25   -9999.25   20.94660   13.32170   93.31360   16.47380   61.51580   13.32170    0.17810    0.05320    2.61070    2.64650    0.04300
 10189.50000   -9999.25   -9999.25   20.01330   14.08600   92.79040   17.05960   58.56300   13.77730    0.17600    0.05900    2.60390    2.64620    0.04050
 10190.00000   -9999.25   -9999.25   19.06800   14.68850   94.25310   17.66620   55.61020   14.28090    0.16720    0.06510    2.59890    2.65700    0.03640
 10190.50000   -9999.25   -9999.25   18.19700   15.31680   94.15660   18.43890   54.13390   14.80290    0.15540    0.06410    2.60030    2.66910    0.03590
 10191.00000   -9999.25   -9999.25   17.32130   16.24930   90.69050   19.35080   54.13390   15.34400    0.14360    0.06320    2.60120    2.68270    0.04330
 10191.50000   -9999.25   -9999.25   16.34600   17.07100   86.57400   20.59480   54.13390   15.90480    0.13670    0.06280    2.60210    2.69680    0.04240
 10192.00000   -9999.25   -9999.25   15.37300   18.60560   86.43650   21.91880   54.13390   16.24930    0.13250    0.06360    2.60100    2.71090    0.04240
 10192.50000   -9999.25   -9999.25   14.62850   19.80220   91.13950   23.32790   54.13390   15.59970    0.14150    0.07300    2.58370    2.71140    0.04250
 10193.00000   -9999.25   -9999.25   14.20350   19.05990   96.08070   24.17590   54.13390   15.15260    0.15620    0.08230    2.55560    2.66600    0.04330
 10193.50000   -9999.25   -9999.25   13.98070   18.34840   96.29500   20.20780   54.13390   14.71840    0.17090    0.09720    2.52550    2.62530    0.04040
