~Version ---------------------------------------------------
VERS.   2.0 : CWLS log ASCII Standard -VERSION 2.0
WRAP.    NO : One line per depth step
DLM . SPACE : Column Data Section Delimiter
~Well ------------------------------------------------------
STRT .F                 990.0 : START DEPTH
STOP .F               10880.5 : STOP DEPTH
STEP .F                   0.5 : STEP
NULL .               -9999.25 : NULL VALUE
COMP .                        : COMPANY
WELL .                        : WELL
FLD  .                        : FIELD
LOC  .                        : LOCATION
PROV .                        : PROVINCE
CNTY .                        : COUNTY
STAT .                        : STATE
CTRY .                        : COUNTRY
SRVC .                        : SERVICE COMPANY
DATE .                        : DATE
UWI  .                        : UNIQUE WELL ID
API  .                        : API NUMBER
SLAT .WGS84 5.515475274736296 : SURFACE LATITUDE
SLON .WGS84 2.537779911560804 : SURFACE LONGITUDE
DATUM.F               1375.04 : DEPTH DATUM ELEV
~Curve Information -----------------------------------------
DEPT.F     : 
DTSM.US/F  : SHEAR-WAVE TRANSIT TIME
DTCO.US/F  : COMPRESSIONAL-WAVE INTERVAL TRANSIT TIME ACOUSTIC SLOWNESS
SPR .MV    : SPONTANEOUS POTENTIAL FROM RES. LOG
ILD .OHMM  : INDUCTION LOG DEEP
GRR .GAPI  : GAMMA RAY FROM RES. LOG
SFLU.OHMM  : SPHERICALLY FOCUSED LOG UNAVERAGED RESISTIVITY
CILD.MMHO  : CONDUCTIVITY INDUCTION LOG DEEP
ILM .OHMM  : INDUCTION LOG MEDIUM
NPHI.DEC   : NEUTRON POROSITY LIMESTONE
DPHI.DEC   : DENSITY POROSITY LIMESTONE
RHOB.G/C3  : BULK DENSITY
PEF .B/E   : PHOTOELECTRIC FACTOR
CORR.G/C3  : DENSITY CORRECTION
~Params ----------------------------------------------------
~Other -----------------------------------------------------
~ASCII -----------------------------------------------------
# ...
 8192.00000   -9999.25   -9999.25   -0.43860    7.77930  105.98930    8.87370  124.04720    7.20930    0.29960    0.10630    2.51750    2.79090    0.12390
 8192.50000   -9999.25   -9999.25   -0.64460    7.79290  104.51060    8.43110  123.65160    7.28390    0.31760    0.11550    2.52460    2.81790    0.12970
 8193.00000   -9999.25   -9999.25   -1.07970    7.80240  101.63880    8.01190  123.15720    7.35020    0.33450    0.12410    2.50540    2.78850    0.12720
 8193.50000   -9999.25   -9999.25   -1.74320    7.82380  100.22310    7.74940  123.16940    7.41720    0.34250    0.13270    2.48520    2.76160    0.12480
 8194.00000   -9999.25   -9999.25   -2.50460    7.83190  102.33890    8.14620  124.34820    7.48470    0.32950    0.14040    2.47250    2.78970    0.12230
 8194.50000   -9999.25   -9999.25   -3.18330    7.85320  106.95170    8.45400  125.57460    7.55290    0.32570    0.12590    2.47870    3.01550    0.11860
 8195.00000   -9999.25   -9999.25   -3.58870    7.86030  111.67480    8.77340  126.33120    7.61070    0.32570    0.10420    2.50310    3.21120    0.11290
 8195.50000   -9999.25   -9999.25   -3.63620    7.88120  115.45650    9.11700  127.07480    7.48990    0.32280    0.08100    2.55470    3.21690    0.10690
 8196.00000   -9999.25   -9999.25   -3.46670    7.88870  118.33020    8.86870  129.77760    7.38730    0.31360    0.08020    2.57240    3.17480    0.10110
 8196.50000   -9999.25   -9999.25   -3.30010    7.71000  119.47870    8.44610  131.85890    7.28610    0.30830    0.13080    2.52980    3.00780    0.09510
 8197.00000   -9999.25   -9999.25   -3.20470    7.56010  117.67010    8.04370  133.81070    7.18620    0.30910    0.17470    2.49800    2.79930    0.09220
 8197.50000   -9999.25   -9999.25   -3.10450    7.40680  113.81090    7.66050  135.74370    7.08780    0.33600    0.21860    2.36550    2.59610    0.08880
 8198.00000   -9999.25   -9999.25   -2.96370    7.26900  111.00540    7.29550  137.86100    6.99070    0.33300    0.29010    2.24960    2.38680    0.08630
 8198.50000   -9999.25   -9999.25   -2.83370    7.11610  110.94160    7.08030  139.64820    6.89490    0.32760    0.27130    2.22180    2.46920    0.08340
 8199.00000   -9999.25   -9999.25   -2.73460    6.95730  111.83720    7.15120  141.86380    6.80040    0.32220    0.22090    2.31400    2.63990    0.08600
 8199.50000   -9999.25   -9999.25   -2.61530    7.12650  111.17110    7.22370  142.62990    6.70690    0.31690    0.17050    2.40800    2.81100    0.09130
 8200.00000   -9999.25   -9999.25   -2.46450    7.36430  108.85470    7.29690  136.90700    6.96580    0.31150    0.12000    2.50170    2.83440    0.08150
 8200.50000   -9999.25   -9999.25   -2.35080    7.60200  106.26260    7.34070  132.78120    7.23580    0.30470    0.08920    2.55670    2.88990    0.07370
 8201.00000   -9999.25   -9999.25   -2.28060    7.84870  103.86470    7.99770  128.84370    7.51640    0.29790    0.09370    2.54820    2.86440    0.06720
 8201.50000   -9999.25   -9999.25   -2.12120    8.10330  101.91420    8.50010  124.87150    7.80770    0.29720    0.10250    2.53470    2.83610    0.06250
 8202.00000   -9999.25   -9999.25   -1.78520    8.36620  101.89490    9.03400  120.89940    8.11040    0.28730    0.10870    2.52830    2.86760    0.07690
 8202.50000   -9999.25   -9999.25   -1.42770    8.63760  104.46130    9.60150  115.15750    8.42480    0.27810    0.09600    2.53970    3.07350    0.09090
 8203.00000   -9999.25   -9999.25   -1.33010    8.95390  106.97170   10.20460  115.76990    8.79360    0.26890    0.08180    2.57650    3.14510    0.10590
 8203.50000   -9999.25   -9999.25   -1.60710    8.60350  105.83930   10.53410  116.87450    8.57900    0.26320    0.06760    2.61540    3.14920    0.12150
 8204.00000   -9999.25   -9999.25   -2.10890    8.21930  101.14980    9.76330  117.97900    8.33980    0.27110    0.05330    2.61050    3.09230    0.13350
 8204.50000   -9999.25   -9999.25   -2.56730    7.85220   97.15080    9.27420  119.08350    8.10720    0.28770    0.06420    2.57240    3.03130    0.13820
 8205.00000   -9999.25   -9999.25   -2.81600    7.50150   98.18340    8.80950  120.18810    7.88110    0.30840    0.08180    2.51340    2.88220    0.14000
 8205.50000   -9999.25   -9999.25   -2.92810    7.20930  104.79130    8.36810  121.29260    7.66130    0.33440    0.12390    2.46480    2.75560    0.14170
 8206.00000   -9999.25   -9999.25   -3.10040    7.27950  113.06300    7.94890  122.39720    7.44760    0.35820    0.16100    2.43840    2.62530    0.14230
 8206.50000   -9999.25   -9999.25   -3.33210    7.55950  117.56180    7.61070  123.50170    7.23990    0.36150    0.16420    2.42950    2.57590    0.14220
 8207.00000   -9999.25   -9999.25   -3.42240    7.85030  116.14790    7.97590  125.00000    6.95350    0.35420    0.16180    2.43230    2.59910    0.13650
 8207.50000   -9999.25   -9999.25   -3.44520    8.15230  112.16920    8.30650  121.80120    7.13800    0.33680    0.16420    2.43440    2.72090    0.12920
 8208.00000   -9999.25   -9999.25   -3.88020    8.46580  110.52410    8.79360  116.83070    7.47170    0.30760    0.16490    2.46300    2.82620    0.12180
 8208.50000   -9999.25   -9999.25   -4.91150    8.79150  112.77470    9.28650  111.77670    7.82110    0.30120    0.13560    2.49790    2.93750    0.11560
 8209.00000   -9999.25   -9999.25   -5.91300    9.12960  114.21430   10.17510  107.03860    8.18670    0.30470    0.11000    2.53440    2.88870    0.11180
 8209.50000   -9999.25   -9999.25   -6.12010    9.48080  114.38670   11.14880  101.77960    8.56940    0.31040    0.09630    2.54150    2.75850    0.10800
 8210.00000   -9999.25   -9999.25   -5.58130    9.97860  114.13640   12.21550   95.64610    8.97000    0.31070    0.09920    2.53370    2.63550    0.10520
 8210.50000   -9999.25   -9999.25   -4.95220    9.97860  113.57030   13.38440   95.09730    9.38940    0.30660    0.10690    2.52570    2.56410    0.10910
 8211.00000   -9999.25   -9999.25   -4.54570    9.97860  112.39020   14.06330   95.06870    9.80000    0.30040    0.10200    2.53780    2.63770    0.11100
 8211.50000   -9999.25   -9999.25   -4.12590    9.97860  109.26450   14.22040   94.46940    9.69080    0.28880    0.09300    2.55080    2.71490    0.11360
 8212.00000   -9999.25   -9999.25   -3.54330    9.97860  105.40470   14.31960   94.34790    9.58910    0.27430    0.08730    2.55410    2.79750    0.10330
 8212.50000   -9999.25   -9999.25   -3.03490    9.97860  104.49930   13.56450   93.86240    9.48850    0.27960    0.10660    2.52590    2.81370    0.09580
 8213.00000   -9999.25   -9999.25   -2.80820    9.97860  106.03430   12.90490   93.54130    9.38900    0.28870    0.12640    2.49090    2.79900    0.09490
 8213.50000   -9999.25   -9999.25   -2.71940    9.97860  107.59690   12.27750   90.73920    9.28320    0.29610    0.14610    2.45810    2.79220    0.09300
 8214.00000   -9999.25   -9999.25   -2.52870   10.44190  111.65960   11.52960   87.10550    9.69750    0.29800    0.16580    2.41970    2.64750    0.09840
 8214.50000   -9999.25   -9999.25   -2.25890   10.96720  120.57430   12.16970   83.52890   10.16640    0.31760    0.17130    2.41500    2.62310    0.10970
 8215.00000   -9999.25   -9999.25   -2.15430   11.51880  131.79300   13.32170   79.82210   10.65790    0.33370    0.17000    2.41360    2.65430    0.11750
 8215.50000   -9999.25   -9999.25   -2.35600   12.09820  141.43100   15.23860   76.31850   11.17310    0.32800    0.17440    2.40270    2.72690    0.11970
 8216.00000   -9999.25   -9999.25   -2.73240   12.70670  146.95170   18.17540   72.54990   11.71580    0.32290    0.17990    2.40690    2.79760    0.11040
 8216.50000   -9999.25   -9999.25   -3.06510   13.34590  149.07110   21.69320   69.05870   12.28110    0.32260    0.17010    2.42450    2.96670    0.10170
 8217.00000   -9999.25   -9999.25   -3.33690   14.01710  145.34390   22.70330   65.44380   12.89090    0.33250    0.15150    2.44270    3.10710    0.09220
 8217.50000   -9999.25   -9999.25   -3.70330   14.72220  148.83440   23.31830   61.82890   13.48620    0.34890    0.15800    2.44510    3.17140    0.08340
