~Version ---------------------------------------------------
VERS.   2.0 : CWLS log ASCII Standard -VERSION 2.0
WRAP.    NO : One line per depth step
DLM . SPACE : Column Data Section Delimiter
~Well ------------------------------------------------------
STRT .F                 990.0 : START DEPTH
STOP .F               10880.5 : STOP DEPTH
STEP .F                   0.5 : STEP
NULL .               -9999.25 : NULL VALUE
COMP .                        : COMPANY
WELL .                        : WELL
FLD  .                        : FIELD
LOC  .                        : LOCATION
PROV .                        : PROVINCE
CNTY .                        : COUNTY
STAT .                        : STATE
CTRY .                        : COUNTRY
SRVC .                        : SERVICE COMPANY
DATE .                        : DATE
UWI  .                        : UNIQUE WELL ID
API  .                        : API NUMBER
SLAT .WGS84 5.515475274736296 : SURFACE LATITUDE
SLON .WGS84 2.537779911560804 : SURFACE LONGITUDE
DATUM.F               1375.04 : DEPTH DATUM ELEV
~Curve Information -----------------------------------------
DEPT.F     : 
DTSM.US/F  : SHEAR-WAVE TRANSIT TIME
DTCO.US/F  : COMPRESSIONAL-WAVE INTERVAL TRANSIT TIME ACOUSTIC SLOWNESS
SPR .MV    : SPONTANEOUS POTENTIAL FROM RES. LOG
ILD .OHMM  : INDUCTION LOG DEEP
GRR .GAPI  : GAMMA RAY FROM RES. LOG
SFLU.OHMM  : SPHERICALLY FOCUSED LOG UNAVERAGED RESISTIVITY
CILD.MMHO  : CONDUCTIVITY INDUCTION LOG DEEP
ILM .OHMM  : INDUCTION LOG MEDIUM
NPHI.DEC   : NEUTRON POROSITY LIMESTONE
DPHI.DEC   : DENSITY POROSITY LIMESTONE
RHOB.G/C3  : BULK DENSITY
PEF .B/E   : PHOTOELECTRIC FACTOR
CORR.G/C3  : DENSITY CORRECTION
~Params ----------------------------------------------------
~Other -----------------------------------------------------
~ASCII -----------------------------------------------------
# ...
 9024.00000  145.47940   74.32000    4.40940    9.16710  109.32380    8.95030  101.91840    8.56490    0.22750    0.12790    2.50160    2.53030    0.18550
 9024.50000  141.56560   72.97460    4.78850    9.22420  110.57970    9.08070  101.73760    8.71590    0.22670    0.13480    2.49090    2.53010    0.17770
 9025.00000  138.43440   71.89820    5.02850    9.27650  111.64170    9.24810  101.55690    8.86960    0.22770    0.12810    2.50350    2.53020    0.16990
 9025.50000  141.48730   75.02940    4.74330    9.41510  111.58560    9.44470  101.37800    9.02590    0.22910    0.12060    2.51520    2.53230    0.16120
 9026.00000  143.52250   73.31700    3.92870    9.55640  109.75480    9.59240   99.11910    9.18500    0.22730    0.13320    2.49690    2.53920    0.15280
 9026.50000  138.43440   71.60470    2.92850    9.73810  107.09930    9.80910   96.88240    9.34690    0.22000    0.15320    2.44090    2.54590    0.14480
 9027.00000  139.90210   69.54990    1.97020    9.87920  105.66630   10.03640   94.64570    9.51170    0.21270    0.16190    2.44770    2.54120    0.14910
 9027.50000  142.34830   70.33270    1.08270    9.99040  106.35540   10.27810   92.40900    9.67940    0.20540    0.14290    2.46810    2.50940    0.15360
 9028.00000  140.06520   69.84340    0.45010   10.39830  107.56340   10.49940   90.17220    9.80000    0.19970    0.12270    2.49510    2.47220    0.15850
 9028.50000  136.86890   68.37570    0.42310   10.72260  106.67490   10.77000   87.93550   10.13200    0.19640    0.12510    2.50920    2.48830    0.16330
 9029.00000  139.33460   69.51730    1.05700   11.01730  102.95700   11.10260   85.69880   10.39690    0.19290    0.12120    2.51340    2.51080    0.16790
 9029.50000  145.08810   70.65880    1.91570   11.34370   98.47380   11.39710   83.66140   10.67180    0.18770    0.10970    2.53540    2.60810    0.17190
 9030.00000  142.73970   68.88450    2.45020   11.67360   96.01990   11.93210   82.57870   10.94500    0.17580    0.09820    2.55260    2.72450    0.16680
 9030.50000  137.26030   65.16630    2.43230   11.95370   96.56910   12.49220   81.58460   11.24350    0.16390    0.10030    2.55050    2.82930    0.16190
 9031.00000  139.09490   64.46180    2.00630   11.90790   98.74300   12.84910   80.59060   11.52260    0.15770    0.10640    2.54040    2.91820    0.15680
 9031.50000  138.23880   65.76650    1.48110   11.84960  100.42040   12.34860   79.72440   11.37000    0.15780    0.11570    2.51990    2.85210    0.15260
 9032.00000  136.86890   66.81020    1.10280   11.79150  100.89190   11.99960   80.28540   11.17420    0.16890    0.12450    2.49660    2.74330    0.15720
 9032.50000  138.71400   66.02740    0.92530   11.73370  101.50420   11.66050   80.78250   11.02800    0.18110    0.13320    2.48470    2.61640    0.16080
 9033.00000  141.17420   67.98430    0.84680   11.67610  103.65860   11.33090   81.27950   10.83760    0.18710    0.14040    2.50560    2.55390    0.16970
 9033.50000  140.26090   69.94130    0.76180   11.61890  106.17230   11.01070   81.77660   10.69390    0.18470    0.11550    2.53590    2.59460    0.17960
 9034.00000  137.97780   68.31050    0.65090   11.56190  106.03560   10.72610   82.27360   10.51280    0.18690    0.09840    2.55590    2.61090    0.18760
 9034.50000  135.69470   66.67970    0.54250   11.50520  102.39500   10.90580   82.77070   10.35450    0.19160    0.09730    2.55660    2.57750    0.18800
 9035.00000  137.65170   66.32090    0.44440   11.44880   98.11980   11.07380   83.26770   10.40920    0.19510    0.09550    2.55760    2.54480    0.18730
 9035.50000  139.60860   66.81020    0.34550   11.39270   96.27540   11.24450   83.66140   10.56040    0.19150    0.09350    2.56150    2.52760    0.18560
 9036.00000  141.17420   68.76710    0.24220   11.32320   96.74220   11.41770   81.74020   10.68570    0.18740    0.09130    2.55660    2.53110    0.18380
 9036.50000  139.76520   70.72410    0.13840   11.32320   97.67320   11.59360   80.14960   10.84100    0.18400    0.10540    2.53160    2.53550    0.18220
 9037.00000  138.82580   73.07240    0.03190   11.32320   98.44650   11.77230   78.55910   10.96820    0.18670    0.12060    2.50530    2.60710    0.18050
 9037.50000  137.65170   70.91980   -0.07340   11.32320   99.17640   11.95370   76.96850   11.12060    0.18950    0.13260    2.48370    2.64820    0.17870
 9038.00000  133.31840   68.22900   -0.16840   11.32320   98.90590   12.17150   75.84240   11.26730    0.17590    0.14200    2.49170    2.67690    0.17710
 9038.50000  128.98520   65.53820   -0.26720   11.32320   96.58570   12.54280   76.48390   11.41590    0.14990    0.11970    2.51040    2.70910    0.17530
 9039.00000  125.51860   64.81410   -0.38660   11.32320   93.25580   13.08330   77.10320   11.52960    0.15340    0.09590    2.55400    2.69740    0.17360
 9039.50000  131.65040   65.40120   -0.49400   11.32320   91.68500   13.08330   77.65840   11.22410    0.16180    0.10200    2.53440    2.68280    0.17290
 9040.00000  136.76020   66.64240   -0.51510   11.32320   93.72030   12.29220   78.23950   10.98440    0.18070    0.12800    2.48560    2.64570    0.17490
 9040.50000  141.87000   68.31980   -0.42120   11.32320   98.17840   11.77710   78.79450   10.74980    0.20300    0.15550    2.45750    2.58150    0.17710
 9041.00000  143.71820   70.33270   -0.26840   11.32320  101.14780   11.28350   79.41840   10.52030    0.20040    0.15550    2.46280    2.51990    0.17940
 9041.50000  143.39200   70.52840   -0.12820   11.32320   99.37830   10.81060   79.70270   10.29560    0.19770    0.14780    2.46900    2.45720    0.18070
 9042.00000  143.13110   70.55630   -0.01590   11.32320   94.55700   10.16040   83.17480    9.97860    0.19500    0.14380    2.47840    2.45330    0.19040
 9042.50000  138.49280   70.30370    0.09860   11.32320   92.40740   10.16040   85.42480    9.97860    0.19680    0.13740    2.48860    2.54370    0.20890
 9043.00000  134.35460   69.99690    0.23470   11.32320   95.53980   10.16040   88.21440   10.18680    0.20470    0.13110    2.49870    2.56890    0.22380
 9043.50000  135.66440   71.20130    0.37350   11.32320   99.47790   10.16040   89.43630   10.37010    0.21260    0.12770    2.50250    2.50180    0.22800
 9044.00000  139.15580   72.40190    0.48720   11.32320   98.61960   10.61510   82.11990   10.55680    0.21880    0.12690    2.50340    2.39130    0.22960
 9044.50000  136.75210   76.47900    0.59250   11.32320   93.08110   11.32320   76.07530   10.74680    0.21320    0.12850    2.50310    2.38690    0.22230
 9045.00000  130.34750   75.44330    0.73850   12.10030   85.67200   12.84910   70.83210   10.94020    0.20060    0.13030    2.50230    2.44030    0.20010
 9045.50000  123.94180   73.28400    0.90780   12.84910   78.82780   14.97190   64.97050   11.13710    0.18630    0.13170    2.49840    2.57110    0.17870
 9046.00000  117.55290   70.05690    0.97260   14.95870   67.18430   17.44550   59.33730   11.32320    0.15130    0.12920    2.52240    2.70450    0.15580
 9046.50000  112.68100   67.00590    0.81840   16.88990   56.13590   19.46550   53.70410   13.36510    0.11660    0.10140    2.57290    2.91470    0.13180
 9047.00000  109.94130   63.33660    0.48790   19.07040   52.85630   25.52000   48.07090   15.60290    0.08310    0.06120    2.61860    2.94550    0.10500
 9047.50000  105.68820   59.66730    0.12320   21.53250   54.58190   31.51520   42.43770   18.21550    0.03820    0.03740    2.66390    2.94350    0.07760
 9048.00000   99.16500   57.17220   -0.20500   24.31240   56.37890   38.91880   36.80450   21.26560    0.03740    0.03270    2.66770    2.93770    0.04970
 9048.50000   92.64190   55.45990   -0.52800   28.96110   58.36340   44.67350   31.17130   24.82630    0.04030    0.03310    2.66450    2.93980    0.03760
 9049.00000   97.20810   56.43840   -0.86730   28.96110   60.67710   42.31750   25.53810   30.02620    0.04220    0.03350    2.66230    2.96060    0.03100
 9049.50000  101.77430   57.41680   -1.19950   28.40460   62.87960   38.20480   22.63780   30.02620    0.05510    0.03580    2.66110    3.00160    0.02420
