~Version ---------------------------------------------------
VERS.   2.0 : CWLS log ASCII Standard -VERSION 2.0
WRAP.    NO : One line per depth step
DLM . SPACE : Column Data Section Delimiter
~Well ------------------------------------------------------
STRT .F                 990.0 : START DEPTH
STOP .F               10880.5 : STOP DEPTH
STEP .F                   0.5 : STEP
NULL .               -9999.25 : NULL VALUE
COMP .                        : COMPANY
WELL .                        : WELL
FLD  .                        : FIELD
LOC  .                        : LOCATION
PROV .                        : PROVINCE
CNTY .                        : COUNTY
STAT .                        : STATE
CTRY .                        : COUNTRY
SRVC .                        : SERVICE COMPANY
DATE .                        : DATE
UWI  .                        : UNIQUE WELL ID
API  .                        : API NUMBER
SLAT .WGS84 5.515475274736296 : SURFACE LATITUDE
SLON .WGS84 2.537779911560804 : SURFACE LONGITUDE
DATUM.F               1375.04 : DEPTH DATUM ELEV
~Curve Information -----------------------------------------
DEPT.F     : 
DTSM.US/F  : SHEAR-WAVE TRANSIT TIME
DTCO.US/F  : COMPRESSIONAL-WAVE INTERVAL TRANSIT TIME ACOUSTIC SLOWNESS
SPR .MV    : SPONTANEOUS POTENTIAL FROM RES. LOG
ILD .OHMM  : INDUCTION LOG DEEP
GRR .GAPI  : GAMMA RAY FROM RES. LOG
SFLU.OHMM  : SPHERICALLY FOCUSED LOG UNAVERAGED RESISTIVITY
CILD.MMHO  : CONDUCTIVITY INDUCTION LOG DEEP
ILM .OHMM  : INDUCTION LOG MEDIUM
NPHI.DEC   : NEUTRON POROSITY LIMESTONE
DPHI.DEC   : DENSITY POROSITY LIMESTONE
RHOB.G/C3  : BULK DENSITY
PEF .B/E   : PHOTOELECTRIC FACTOR
CORR.G/C3  : DENSITY CORRECTION
~Params ----------------------------------------------------
~Other -----------------------------------------------------
~ASCII -----------------------------------------------------
# ...
 7438.00000   -9999.25   -9999.25  -93.36280   83.14040   22.53980  125.96350    7.24410   70.11550    0.00570    0.02300    2.67410    5.48420    0.01200
 7438.50000   -9999.25   -9999.25  -94.47320   78.30800   22.35800  115.67570    7.52810   64.01550    0.00910    0.02510    2.67020    5.13450    0.01220
 7439.00000   -9999.25   -9999.25  -95.70140   73.75640   22.06490  109.65620    7.81220   58.44610    0.01250    0.02730    2.66560    4.95170    0.00920
 7439.50000   -9999.25   -9999.25  -97.06250   69.46940   21.83110  100.04550    8.09620   53.36130    0.01590    0.02950    2.66120    4.82280    0.00650
 7440.00000   -9999.25   -9999.25  -98.53240   65.43160   21.75540   87.19480    8.38020   48.71880    0.01840    0.03080    2.65680    4.77930    0.00380
 7440.50000   -9999.25   -9999.25  -99.85220   61.62850   21.77840   72.81400    8.66420   45.48760    0.01690    0.02950    2.65890    4.73830    0.00150
 7441.00000   -9999.25   -9999.25 -100.61350   59.64030   22.16070   61.83380    8.85830   46.84740    0.01520    0.02830    2.66120    4.68040    0.00150
 7441.50000   -9999.25   -9999.25 -100.58630   63.71560   23.69170   66.46590    7.54920   48.92360    0.01370    0.02710    2.66390    4.66240    0.00150
 7442.00000   -9999.25   -9999.25  -99.84710   65.27630   26.65090   79.74020    6.55510   54.05880    0.00910    0.02590    2.66630    4.87860    0.00150
 7442.50000   -9999.25   -9999.25  -98.51280   82.47530   29.68470   98.42120    5.56100   60.64310    0.00570    0.02470    2.66880    5.19910    0.00150
 7443.00000   -9999.25   -9999.25  -96.56470   96.71650   30.90530  129.65660    4.56690   68.38150    0.00460    0.02350    2.67170    5.27090    0.00150
 7443.50000   -9999.25   -9999.25  -94.10090  113.41670   30.45540  133.37580    3.57280   76.22640    0.00300    0.02250    2.66920    5.13300    0.00150
 7444.00000   -9999.25   -9999.25  -91.34540  125.93190   30.83570  138.95220    2.57870   85.05250    0.00140    0.02730    2.66310    4.94400    0.00150
 7444.50000   -9999.25   -9999.25  -88.20740  132.39670   33.80060  144.76160    1.58470   94.71680    0.00020    0.03130    2.65760    4.79810    0.00150
 7445.00000   -9999.25   -9999.25  -84.21390  139.19330   37.80420  152.53970    0.59060   97.16280    0.00020    0.03360    2.65260    4.83950    0.00140
 7445.50000   -9999.25   -9999.25  -79.19740  149.80960   39.61260  159.59170    0.00040   96.95430    0.00020    0.03430    2.65460    4.79230    0.00260
 7446.00000   -9999.25   -9999.25  -73.62230  137.64340   38.11750  169.89740    0.00040  100.68130    0.00020    0.03180    2.66150    4.72930    0.00460
 7446.50000   -9999.25   -9999.25  -68.01590  117.37590   35.46970  186.06190    0.00040   99.69300    0.00250    0.02640    2.66850    4.55810    0.00660
 7447.00000   -9999.25   -9999.25  -62.59410  100.09270   34.59040  162.90410    0.00040   81.67960    0.00580    0.02160    2.67610    4.54830    0.00710
 7447.50000   -9999.25   -9999.25  -57.60260   79.62140   36.61530  139.36930    3.29720   67.97890    0.01040    0.01920    2.67960    4.52840    0.00610
 7448.00000   -9999.25   -9999.25  -53.36900   71.65450   40.81070  100.25550    6.27950   58.74550    0.01750    0.01920    2.67600    4.43980    0.00520
 7448.50000   -9999.25   -9999.25  -49.73190   59.93450   45.66940   78.64960    9.26180   49.44210    0.02460    0.02200    2.67300    4.31810    0.00440
 7449.00000   -9999.25   -9999.25  -46.00910   48.88230   49.52680   61.70000   12.24410   41.97050    0.03180    0.02450    2.66990    4.35780    0.00350
 7449.50000   -9999.25   -9999.25  -41.88810   41.07210   51.18820   43.87390   15.22640   37.97180    0.03900    0.02690    2.66680    4.46610    0.00260
 7450.00000   -9999.25   -9999.25  -37.94480   40.12240   50.79220   42.69820   16.73230   33.45760    0.04540    0.02790    2.66450    4.54780    0.00180
 7450.50000   -9999.25   -9999.25  -35.01570   40.00740   49.43170   40.08580   14.50290   31.69790    0.04170    0.02690    2.66580    4.52930    0.00090
 7451.00000   -9999.25   -9999.25  -33.33580   39.26490   47.57820   42.88990   13.01180   34.07240    0.03280    0.02570    2.66790    4.45050    0.00000
 7451.50000   -9999.25   -9999.25  -32.45260   44.47020   44.78240   49.78610   11.52070   38.64050    0.02390    0.02450    2.67090    4.50780   -0.00050
 7452.00000   -9999.25   -9999.25  -31.75270   51.66270   41.20570   64.07620   10.02950   44.99730    0.01500    0.02320    2.67410    4.57520   -0.00040
 7452.50000   -9999.25   -9999.25  -30.92630   59.71180   38.05160   95.02630    8.53840   52.39990    0.00660    0.02200    2.67520    4.62770    0.00180
 7453.00000   -9999.25   -9999.25  -30.03020   69.67100   35.91890  140.92590    7.04720   61.02030    0.00500    0.02060    2.67740    4.68100    0.00330
 7453.50000   -9999.25   -9999.25  -29.24000   80.30290   34.17860  173.09520    4.92130   70.16620    0.00350    0.01910    2.68140    4.78520    0.00260
 7454.00000   -9999.25   -9999.25  -28.60250   93.82610   32.67050  183.11730    4.92130   74.33610    0.00180    0.01760    2.68410    4.91120    0.00210
 7454.50000   -9999.25   -9999.25  -28.00560  100.39670   32.53130  189.45260    5.79230   79.62140    0.00470    0.01780    2.68420    4.85180    0.00160
 7455.00000   -9999.25   -9999.25  -27.34560   88.37210   34.30810  149.80960    7.28350   79.62140    0.00800    0.01980    2.68060    4.81600    0.00330
 7455.50000   -9999.25   -9999.25  -26.63410   78.04780   36.84560  132.14930    8.77460   65.90920    0.01130    0.02180    2.67770    4.83490    0.00620
 7456.00000   -9999.25   -9999.25  -25.93320   69.39850   39.25260  104.09730   10.26570   57.09290    0.01460    0.02240    2.67710    5.00750    0.00890
 7456.50000   -9999.25   -9999.25  -25.23560   61.52890   42.50400   81.78010   11.75690   49.52830    0.01790    0.02240    2.67640    5.03460    0.01170
 7457.00000   -9999.25   -9999.25  -24.51100   54.57460   47.26000   63.57890   13.24800   42.69750    0.02000    0.02380    2.67050    5.04440    0.01500
 7457.50000   -9999.25   -9999.25  -23.83600   47.16060   51.35930   59.26230   14.73920   35.97240    0.01970    0.02780    2.66420    4.80160    0.01920
 7458.00000   -9999.25   -9999.25  -23.39600   46.32490   51.59500   52.41890   16.73230   32.19200    0.01940    0.03190    2.65950    4.48950    0.02360
 7458.50000   -9999.25   -9999.25  -23.29680   45.27860   47.54990   49.03650   16.73230   35.86050    0.01920    0.02930    2.65680    4.31020    0.02450
 7459.00000   -9999.25   -9999.25  -23.39030   44.67350   42.03650   53.48550   15.59960   40.03330    0.01530    0.02490    2.66300    4.35770    0.02210
 7459.50000   -9999.25   -9999.25  -23.41080   49.89410   38.13300   64.72500   13.91730   44.39640    0.01040    0.02050    2.67360    4.48900    0.01950
 7460.00000   -9999.25   -9999.25  -23.29890   53.95930   37.39750  132.45620   12.23500   51.83910    0.00570    0.01610    2.68340    4.62480    0.01950
 7460.50000   -9999.25   -9999.25  -23.29060   58.35570   39.96490  143.81630   10.55270   50.22670    0.01040    0.01420    2.67870    4.77940    0.00590
 7461.00000   -9999.25   -9999.25  -23.57650   63.11030   44.23220  110.76980    8.87040   49.50270    0.01490    0.01950    2.67410    4.88460    0.00330
 7461.50000   -9999.25   -9999.25  -24.09630   68.91040   46.98120  100.95630    7.18810   47.09670    0.02000    0.02550    2.66890    4.92300    0.00250
 7462.00000   -9999.25   -9999.25  -24.83910   78.23880   46.45590   77.03060    5.50580   46.83860    0.01780    0.02910    2.66390    4.91340    0.00290
 7462.50000   -9999.25   -9999.25  -26.09520   97.11910   45.09730  117.14380    3.82340   68.77970    0.01320    0.03350    2.65890    4.85430    0.00230
 7463.00000   -9999.25   -9999.25  -28.04810  114.17710   47.09370  212.36320    2.14110   98.28740    0.00860    0.03350    2.65400    4.76360    0.00210
 7463.50000   -9999.25   -9999.25  -30.34250  141.90910   53.69140  381.26370    0.45880  119.19900    0.00390    0.03350    2.65270    4.67470    0.00190
