~Version ---------------------------------------------------
VERS.   2.0 : CWLS log ASCII Standard -VERSION 2.0
WRAP.    NO : One line per depth step
DLM . SPACE : Column Data Section Delimiter
~Well ------------------------------------------------------
STRT .F                 990.0 : START DEPTH
STOP .F               10880.5 : STOP DEPTH
STEP .F                   0.5 : STEP
NULL .               -9999.25 : NULL VALUE
COMP .                        : COMPANY
WELL .                        : WELL
FLD  .                        : FIELD
LOC  .                        : LOCATION
PROV .                        : PROVINCE
CNTY .                        : COUNTY
STAT .                        : STATE
CTRY .                        : COUNTRY
SRVC .                        : SERVICE COMPANY
DATE .                        : DATE
UWI  .                        : UNIQUE WELL ID
API  .                        : API NUMBER
SLAT .WGS84 5.515475274736296 : SURFACE LATITUDE
SLON .WGS84 2.537779911560804 : SURFACE LONGITUDE
DATUM.F               1375.04 : DEPTH DATUM ELEV
~Curve Information -----------------------------------------
DEPT.F     : 
DTSM.US/F  : SHEAR-WAVE TRANSIT TIME
DTCO.US/F  : COMPRESSIONAL-WAVE INTERVAL TRANSIT TIME ACOUSTIC SLOWNESS
SPR .MV    : SPONTANEOUS POTENTIAL FROM RES. LOG
ILD .OHMM  : INDUCTION LOG DEEP
GRR .GAPI  : GAMMA RAY FROM RES. LOG
SFLU.OHMM  : SPHERICALLY FOCUSED LOG UNAVERAGED RESISTIVITY
CILD.MMHO  : CONDUCTIVITY INDUCTION LOG DEEP
ILM .OHMM  : INDUCTION LOG MEDIUM
NPHI.DEC   : NEUTRON POROSITY LIMESTONE
DPHI.DEC   : DENSITY POROSITY LIMESTONE
RHOB.G/C3  : BULK DENSITY
PEF .B/E   : PHOTOELECTRIC FACTOR
CORR.G/C3  : DENSITY CORRECTION
~Params ----------------------------------------------------
~Other -----------------------------------------------------
~ASCII -----------------------------------------------------
# ...
 7282.00000   -9999.25   -9999.25    0.84150    5.76180   99.99100    5.87030  169.35320    5.48920    0.28300    0.15820    2.44270    2.74260    0.02350
 7282.50000   -9999.25   -9999.25    0.40490    5.79700  104.87260    5.92480  168.22270    5.50110    0.28220    0.15470    2.44990    2.74260    0.01930
 7283.00000   -9999.25   -9999.25   -0.08840    5.83240  106.97430    5.96800  167.09220    5.53740    0.28140    0.15310    2.45450    2.77100    0.01480
 7283.50000   -9999.25   -9999.25   -0.62700    5.86800  106.16190    6.03460  166.33860    5.57750    0.28040    0.15240    2.46110    2.79590    0.01390
 7284.00000   -9999.25   -9999.25   -1.10500    5.91040  102.70650    6.06060  159.74410    5.60030    0.27590    0.14990    2.46420    2.79040    0.02000
 7284.50000   -9999.25   -9999.25   -1.56320    5.99390   97.83110    6.15020  154.79820    5.64180    0.27190    0.14760    2.46060    2.76790    0.02580
 7285.00000   -9999.25   -9999.25   -2.17810    6.09740   95.97790    6.06390  149.85240    5.66510    0.27060    0.14670    2.45670    2.74270    0.03200
 7285.50000   -9999.25   -9999.25   -3.03600    6.23950  101.79350    6.10300  144.90650    5.70400    0.27950    0.14870    2.45270    2.73080    0.03800
 7286.00000   -9999.25   -9999.25   -4.07420    6.85230  112.12500    5.98750  139.96060    5.95260    0.28850    0.15160    2.44690    2.71120    0.04410
 7286.50000   -9999.25   -9999.25   -5.24070    7.90390  116.96190    6.06930  136.81100    6.20250    0.29680    0.15620    2.44390    2.86770    0.04980
 7287.00000   -9999.25   -9999.25   -6.56220    9.11700  106.35030    6.86680  133.44000    6.46290    0.28520    0.16360    2.39330    2.82360    0.05540
 7287.50000   -9999.25   -9999.25   -8.03430    9.80000   88.28120    7.70260  130.96700    6.70690    0.26360    0.17630    2.31960    2.82040    0.06100
 7288.00000   -9999.25   -9999.25   -9.59010    9.80000   76.63990    8.71350  128.49410    6.72800    0.25530    0.20670    2.26980    2.79880    0.06590
 7288.50000   -9999.25   -9999.25  -11.19130    9.80000   75.09170    8.64900  126.96850    6.74720    0.25920    0.23700    2.26130    2.83290    0.07600
 7289.00000   -9999.25   -9999.25  -12.75490    9.16430   78.83000    8.09030  131.34650    6.76650    0.30550    0.26780    2.25260    2.89700    0.09000
 7289.50000   -9999.25   -9999.25  -13.99200    8.63270   83.71980    7.81790  134.51180    6.78580    0.30910    0.25840    2.35000    2.79420    0.10350
 7290.00000   -9999.25   -9999.25  -14.57080    8.13210   87.58520    7.34250  137.67720    6.80520    0.30710    0.21880    2.40470    2.69730    0.10660
 7290.50000   -9999.25   -9999.25  -14.48740    7.66040   88.92920    6.98370  140.84250    6.82910    0.29960    0.17920    2.39270    2.63470    0.10640
 7291.00000   -9999.25   -9999.25  -14.07490    7.20930   88.86680    6.93160  142.71650    6.78890    0.29110    0.18580    2.38270    2.55980    0.10660
 7291.50000   -9999.25   -9999.25  -13.64450    7.14490   90.55580    7.15690  130.64630    6.73740    0.28090    0.19510    2.38980    2.58820    0.10480
 7292.00000   -9999.25   -9999.25  -13.32950    7.03690   94.65040    7.48350  122.07350    6.68630    0.27120    0.19120    2.41130    2.67120    0.11200
 7292.50000   -9999.25   -9999.25  -13.24220    6.93060   98.50920    7.74180  113.50070    6.63560    0.27540    0.17210    2.43580    2.75660    0.12200
 7293.00000   -9999.25   -9999.25  -13.46890    6.82580  100.35440    7.93410  104.92780    6.58680    0.28370    0.14670    2.45650    2.79200    0.12230
 7293.50000   -9999.25   -9999.25  -13.91900    6.70690  100.06030    7.72700   96.35500    6.76010    0.28530    0.14890    2.45170    2.78760    0.11020
 7294.00000   -9999.25   -9999.25  -14.47990    7.50230   96.45590    7.57170   87.78220    7.05820    0.28240    0.15550    2.44780    2.75710    0.10000
 7294.50000   -9999.25   -9999.25  -15.34910    8.56530   89.78070    7.41950   79.20930    7.13160    0.27740    0.15170    2.45540    2.66150    0.08620
 7295.00000   -9999.25   -9999.25  -16.89490    9.77880   84.19450    7.34070   70.63650    7.53130    0.25660    0.14550    2.46120    2.56400    0.07300
 7295.50000   -9999.25   -9999.25  -19.14050   11.32320   82.07200    8.86440   62.06360    7.51820    0.22670    0.15390    2.45390    2.49100    0.06010
 7296.00000   -9999.25   -9999.25  -21.66470   14.04960   80.80730   10.07420   53.49080    8.91260    0.18320    0.14510    2.44710    2.49070    0.04670
 7296.50000   -9999.25   -9999.25  -24.13080   17.88740   79.06570   12.17150   44.91800   12.14930    0.13960    0.13050    2.47970    2.55490    0.04750
 7297.00000   -9999.25   -9999.25  -26.58150   22.08860   77.94290   12.17150   40.35430   12.79490    0.10470    0.11590    2.53790    2.60160    0.05500
 7297.50000   -9999.25   -9999.25  -29.09810   23.31830   75.68310   12.27640   40.35430   12.32980    0.10470    0.10240    2.52700    2.62310    0.05800
 7298.00000   -9999.25   -9999.25  -31.51960   17.82500   71.01790   12.39330   94.51850    9.40170    0.11270    0.11310    2.53940    2.57450    0.05340
 7298.50000   -9999.25   -9999.25  -33.78380   13.39710   68.40180    9.50770  131.29880    6.36820    0.17600    0.17480    2.35160    2.41320    0.04630
 7299.00000   -9999.25   -9999.25  -36.27850    9.45230   71.92190    6.69270  168.07920    4.74590    0.27510    0.23640    2.23250    2.24240    0.03350
 7299.50000   -9999.25   -9999.25  -39.36260    7.78860   79.50250    4.71110  204.85960    3.68450    0.29850    0.29800    2.03870    2.07490    0.02020
 7300.00000   -9999.25   -9999.25  -42.71930    6.07400   86.74860    3.31620  241.64000    2.87190    0.37700   -9999.25    1.82210    1.92400    0.01530
 7300.50000   -9999.25   -9999.25  -45.74560    4.73690   90.33270    2.03640  278.42030    2.25740    0.50970   -9999.25    1.60180    1.77210    0.01650
 7301.00000   -9999.25   -9999.25  -48.54430    3.69410   88.43840    2.27610  315.20070    1.81340    0.50260   -9999.25    1.55240    1.65900    0.01730
 7301.50000   -9999.25   -9999.25  -51.75770    3.17960   83.05540    2.92240  351.98110    1.67280    0.50420   -9999.25    1.50020    1.59960    0.01890
 7302.00000   -9999.25   -9999.25  -55.30170    3.11390   78.53840    2.62580  388.76150    1.53500    0.49150   -9999.25    1.51990    1.68040    0.02090
 7302.50000   -9999.25   -9999.25  -58.08720    3.02930   76.77350    2.22890  441.92910    1.40860    0.47640   -9999.25    1.58960    1.76200    0.02310
 7303.00000   -9999.25   -9999.25  -59.28310    2.98490   77.25250    2.28830  417.26380    1.32020    0.46110   -9999.25    1.65970    1.99880    0.02530
 7303.50000   -9999.25   -9999.25  -59.22930    2.91180   78.26300    2.34680  372.77800    1.39900    0.44550   -9999.25    1.73030    2.13800    0.03310
 7304.00000   -9999.25   -9999.25  -58.92140    3.31700   78.84940    2.40690  328.29230    1.49780    0.43240   -9999.25    1.82890    2.03850    0.04310
 7304.50000   -9999.25   -9999.25  -59.08760    4.26180   79.11140    2.43950  283.80660    1.55320    0.42630   -9999.25    1.79090    1.78330    0.04410
 7305.00000   -9999.25   -9999.25  -59.70710    4.84930   78.91550    2.63730  239.32090    2.62560    0.38020   -9999.25    1.69980    1.81700    0.03500
 7305.50000   -9999.25   -9999.25  -59.92690    5.87200   77.38750    2.76830  194.83510    4.19370    0.33870   -9999.25    1.62010    1.93590    0.02800
 7306.00000   -9999.25   -9999.25  -58.71530    7.07010   74.26640    4.86630  150.34940    4.19370    0.31150   -9999.25    1.85480    2.11830    0.02040
 7306.50000   -9999.25   -9999.25  -56.07730    8.62160   71.09830    7.74940   89.56690    4.67370    0.33340   -9999.25    1.94960    1.99170    0.03720
 7307.00000   -9999.25   -9999.25  -53.26380   10.47500   70.07460    8.03440  106.04180    4.33360    0.35660   -9999.25    1.94250    1.91080    0.04810
 7307.50000   -9999.25   -9999.25  -51.35190   11.23430   71.78100    6.91750  132.04120    3.89410    0.37970   -9999.25    1.94550    2.00090    0.04830
