~Version ---------------------------------------------------
VERS.   2.0 : CWLS log ASCII Standard -VERSION 2.0
WRAP.    NO : One line per depth step
DLM . SPACE : Column Data Section Delimiter
~Well ------------------------------------------------------
STRT .F                  48.0 : START DEPTH
STOP .F                9917.0 : STOP DEPTH
STEP .F                   0.5 : STEP
NULL .               -9999.25 : NULL VALUE
COMP .                        : COMPANY
WELL .                        : WELL
FLD  .                        : FIELD
LOC  .                        : LOCATION
PROV .                        : PROVINCE
CNTY .                        : COUNTY
STAT .                        : STATE
CTRY .                        : COUNTRY
SRVC .                        : SERVICE COMPANY
DATE .                        : DATE
UWI  .                        : UNIQUE WELL ID
API  .                        : API NUMBER
SLAT .WGS84 6.216307834407999 : SURFACE LATITUDE
SLON .WGS84 3.438105576243501 : SURFACE LONGITUDE
DATUM.F               1739.31 : DEPTH DATUM ELEV
~Curve Information -----------------------------------------
DEPT   .F     : 
DPHZ_LS.DEC   : HGRD STANDARD RESOLUTION DENSITY POROSITY
NPHI_LS.DEC   : NEUTRON POROSITY LIMESTONE
HCALD  .IN    : HRCC CALIPER CALIBRATED FROM DENSITY LOG
HDRA   .G/C3  : HRDD SPINE AND RIBS DENSITY CORRECTION
PEFZ   .B/E   : HRDD STANDARD RESOLUTION FORMATION PHOTOELECTRIC FACTOR
RHOZ   .G/C3  : HRDD STANDARD RESOLUTION FORMATION DENSITY
AHFCO60.MMHO  : ARRAY INDUCTION FOUR FOOT CONDUCTIVITY A60
AHT20  .OHMM  : ARRAY INDUCTION TWO FOOT RESISTIVITY A20
AHT60  .OHMM  : ARRAY INDUCTION TWO FOOT RESISTIVITY A60
GRR    .GAPI  : GAMMA RAY FROM RESISTIVITY LOG
SPR    .MV    : SPONTANEOUS POTENTIAL FROM RESISTIVITY LOG
AHT30  .OHMM  : ARRAY INDUCTION TWO FOOT RESISTIVITY A30
DTCO   .US/F  : DELTA-T COMPRESSIONAL
DTSM   .US/F  : DELTA-T SHEAR
AHT90  .OHMM  : ARRAY INDUCTION TWO FOOT RESISTIVITY A90
~Params ----------------------------------------------------
~Other -----------------------------------------------------
~ASCII -----------------------------------------------------
# ...
 9363.00000    0.11050    0.32140    8.93060    0.21610    4.40780    2.51830   -9999.25    2.83880    3.23970  117.68850  -21.08400    3.00350   80.20840  115.48990    3.37650
 9363.50000    0.11510    0.33650    8.62620    0.22530    4.42310    2.50950   -9999.25    2.70230    3.16860  115.86220  -21.03230    2.91460   82.27270  115.24410    3.76940
 9364.00000    0.14730    0.35160    9.04640    0.22530    4.46000    2.44830   -9999.25    2.43280    3.05760  111.88620  -21.19970    2.74240   87.07290  128.65140    3.43430
 9364.50000    0.19210    0.35520   10.55640    0.21590    4.47850    2.38380   -9999.25    2.79090    3.17430  110.68700  -20.85850    2.94700   91.50350  132.79130    3.09920
 9365.00000    0.20540    0.35350   10.20140    0.20600    4.42240    2.35610   -9999.25    2.90270    3.29060  111.39210  -20.78680    3.07390   90.73330  131.04540    2.96440
 9365.50000    0.18290    0.33420    9.02940    0.20310    4.34200    2.41030   -9999.25    2.88580    3.27750  112.23040  -20.71510    3.08940   89.17710  123.64300    3.09380
 9366.00000    0.14630    0.29830    9.03980    0.20140    4.29750    2.46580   -9999.25    2.83770    3.22860  112.80730  -20.64340    3.05210   89.04600  118.02180    3.18690
 9366.50000    0.12910    0.29340    9.41290    0.20360    4.26730    2.48820   -9999.25    2.79790    3.18490  113.73030  -20.57180    3.01250   89.82150  117.92640    3.15410
 9367.00000    0.13570    0.30740    9.02030    0.20800    4.23700    2.47580   -9999.25    2.79790    3.14410  114.74640  -20.50010    2.97090   90.91810  118.12540    3.11350
 9367.50000    0.13530    0.32140    9.35930    0.22990    4.30220    2.47800   -9999.25    2.83800    3.11230  114.53050  -20.42840    2.92980   91.26250  117.62460    3.09640
 9368.00000    0.12530    0.35380    9.25320    0.24450    4.36120    2.50020   -9999.25    2.91190    3.11230  111.58120  -20.35670    2.94660   91.40860  115.86840    3.11910
 9368.50000    0.10730    0.35360    8.57190    0.23260    4.42100    2.53020   -9999.25    2.98760    3.27070  103.62990  -20.28500    3.15290   89.42540  113.31550    3.23840
 9369.00000    0.08480    0.30920    8.36290    0.19440    4.48470    2.57260   -9999.25    3.25170    3.63950   95.06870  -20.22960    4.14610   84.90870  106.40250    4.46700
 9369.50000    0.05910    0.23390    8.17560    0.14780    4.63470    2.61590   -9999.25    5.08480    6.91200   79.74610  -20.33530    5.37980   82.36770  102.98380    6.68370
 9370.00000    0.04420    0.14190    8.15730    0.11670    4.79420    2.64140   -9999.25    4.65910    5.50360   68.45570  -20.44090    4.70160   82.50950  104.50670    7.10990
 9370.50000    0.04540    0.13010    8.26180    0.11300    4.82850    2.61490   -9999.25    3.64600    4.17130   75.94180  -20.56040    3.95680   83.40860  110.26270    4.81610
 9371.00000    0.09840    0.20180    8.83240    0.15380    4.71490    2.51140   -9999.25    2.85310    3.16150   90.03400  -20.97350    3.33000   84.46380  124.25950    2.95060
 9371.50000    0.15750    0.29690    8.57380    0.19650    4.60130    2.43060   -9999.25    2.56880    2.86920  103.91340  -21.38670    2.80240   86.17770  132.60700    2.79810
 9372.00000    0.19360    0.32050    8.57160    0.22960    4.49670    2.37100   -9999.25    2.49400    2.68300  112.61750  -21.79980    2.59930   89.55840  138.38350    2.64560
 9372.50000    0.19000    0.31810    9.15510    0.24710    4.45480    2.38640   -9999.25    2.42130    2.58760  114.01320  -22.21290    2.53240   92.13950  138.24420    2.55440
 9373.00000    0.16960    0.31410    8.83590    0.24820    4.45380    2.42230   -9999.25    2.38270    2.57890  114.24340  -22.62610    2.49560   91.34190  135.09050    2.53200
 9373.50000    0.15280    0.32110    8.74400    0.24960    4.46780    2.45550   -9999.25    2.36160    2.56940  114.34250  -22.99140    2.45930   89.33960  129.30350    2.50210
 9374.00000    0.13810    0.33240    9.03870    0.24960    4.52940    2.47590   -9999.25    2.34660    2.55680  115.23810  -23.08210    2.44010   87.83790  126.77460    2.46520
 9374.50000    0.13370    0.34130    8.80850    0.24920    4.66150    2.48340   -9999.25    2.33170    2.54420  116.18410  -23.17280    2.43120   88.84660  125.69160    2.44310
 9375.00000    0.15910    0.34070    9.08290    0.24480    4.71150    2.43180   -9999.25    2.31680    2.52930  116.46010  -23.26360    2.42240   88.90680  124.26790    2.39960
 9375.50000    0.17910    0.33720    9.24600    0.23830    4.67140    2.41120   -9999.25    2.30210    2.50740  116.84610  -23.35430    2.41360   87.31660  121.97710    2.37860
 9376.00000    0.19980    0.32780    9.79980    0.22380    4.60300    2.36960   -9999.25    2.26390    2.48580  116.50340  -23.44500    2.40480   85.55350  118.38160    2.39030
 9376.50000    0.19730    0.32140   10.00960    0.21640    4.50480    2.36830   -9999.25    2.22130    2.46440  116.06770  -23.67990    2.38850   85.53250  118.09080    2.44620
 9377.00000    0.18860    0.32280    8.78120    0.24010    4.40670    2.38260   -9999.25    2.17960    2.44310  115.99420  -23.95940    2.35920   87.43320  118.76960    2.47910
 9377.50000    0.17550    0.32760    9.77740    0.24960    4.33410    2.40850   -9999.25    2.13480    2.42050  115.63850  -24.00650    2.32360   88.76960  119.56820    2.43820
 9378.00000    0.16940    0.33010    9.47350    0.25110    4.27060    2.42270   -9999.25    2.08580    2.35000  113.93370  -23.79370    2.23970   89.95640  120.06400    2.30260
 9378.50000    0.19020    0.32510    9.30490    0.25060    4.23630    2.40410   -9999.25    2.03400    2.28160  110.94650  -23.64070    2.15880   91.17910  120.66770    2.16700
 9379.00000    0.20990    0.31060    9.74680    0.25010    4.26970    2.35880   -9999.25    1.98030    2.21510  108.90630  -24.07220    2.08220   92.26360  121.47950    2.03140
 9379.50000    0.21830    0.29960   10.21900    0.24950    4.35250    2.34110   -9999.25    1.95110    2.15050  107.36610  -23.94200    2.06430   92.61160  121.11690    1.98720
 9380.00000    0.22760    0.30120   10.08820    0.24250    4.42930    2.32680   -9999.25    1.97840    2.11570  106.67290  -23.78520    2.05280   92.08480  119.12920    2.08030
 9380.50000    0.24060    0.31090   10.08400    0.22990    4.50610    2.31100   -9999.25    1.97850    2.08850  108.11170  -23.71550    2.03270   89.90650  113.79540    2.03330
 9381.00000    0.26100    0.33360    9.77500    0.23020    4.56800    2.27260   -9999.25    1.97220    2.06130  110.24420  -23.93020    2.00900   89.04510  113.64790    2.00820
 9381.50000    0.25910    0.35390    9.71670    0.23780    4.56430    2.25940   -9999.25    1.96430    2.03370  111.11940  -23.93490    1.98560   90.02150  113.75360    1.98300
 9382.00000    0.23780    0.34620   10.03820    0.24710    4.52480    2.30920   -9999.25    1.91620    2.00650  110.24720  -24.14740    1.96250   90.43110  113.22850    1.93790
 9382.50000    0.18230    0.33040    9.80690    0.24980    4.48530    2.37280   -9999.25    1.86800    1.97230  109.05840  -24.30000    1.93880   90.09480  111.86490    1.93810
 9383.00000    0.15330    0.31170    9.25620    0.25060    4.44580    2.43370   -9999.25    1.82100    1.92820  110.18080  -24.28000    1.86980   89.16830  110.61890    1.93810
 9383.50000    0.14090    0.29750   10.08140    0.25060    4.41110    2.46670   -9999.25    1.77510    1.89790  113.58150  -24.25740    1.81850   88.30520  113.56350    1.94050
 9384.00000    0.15090    0.29610    9.96030    0.24930    4.40030    2.46650   -9999.25    1.74620    1.91270  115.74670  -24.23090    1.81850   87.44200  120.49670    1.94170
 9384.50000    0.16980    0.30500    9.88020    0.24620    4.40040    2.44320   -9999.25    1.76170    1.97040  109.47180  -24.20440    1.91720   87.19940  130.03000    2.05260
 9385.00000    0.19970    0.31380   10.30010    0.23570    4.42490    2.39050   -9999.25    1.95690    2.07200  100.29000  -24.17800    2.08210   87.84640  135.46140    2.12570
 9385.50000    0.21570    0.31490    9.71210    0.21970    4.47450    2.34180   -9999.25    2.17390    2.25030   92.37760  -24.15150    2.26110   88.70390  137.12890    2.20100
