~Version ---------------------------------------------------
VERS.   2.0 : CWLS log ASCII Standard -VERSION 2.0
WRAP.    NO : One line per depth step
DLM . SPACE : Column Data Section Delimiter
~Well ------------------------------------------------------
STRT .F                  48.0 : START DEPTH
STOP .F                9917.0 : STOP DEPTH
STEP .F                   0.5 : STEP
NULL .               -9999.25 : NULL VALUE
COMP .                        : COMPANY
WELL .                        : WELL
FLD  .                        : FIELD
LOC  .                        : LOCATION
PROV .                        : PROVINCE
CNTY .                        : COUNTY
STAT .                        : STATE
CTRY .                        : COUNTRY
SRVC .                        : SERVICE COMPANY
DATE .                        : DATE
UWI  .                        : UNIQUE WELL ID
API  .                        : API NUMBER
SLAT .WGS84 6.216307834407999 : SURFACE LATITUDE
SLON .WGS84 3.438105576243501 : SURFACE LONGITUDE
DATUM.F               1739.31 : DEPTH DATUM ELEV
~Curve Information -----------------------------------------
DEPT   .F     : 
DPHZ_LS.DEC   : HGRD STANDARD RESOLUTION DENSITY POROSITY
NPHI_LS.DEC   : NEUTRON POROSITY LIMESTONE
HCALD  .IN    : HRCC CALIPER CALIBRATED FROM DENSITY LOG
HDRA   .G/C3  : HRDD SPINE AND RIBS DENSITY CORRECTION
PEFZ   .B/E   : HRDD STANDARD RESOLUTION FORMATION PHOTOELECTRIC FACTOR
RHOZ   .G/C3  : HRDD STANDARD RESOLUTION FORMATION DENSITY
AHFCO60.MMHO  : ARRAY INDUCTION FOUR FOOT CONDUCTIVITY A60
AHT20  .OHMM  : ARRAY INDUCTION TWO FOOT RESISTIVITY A20
AHT60  .OHMM  : ARRAY INDUCTION TWO FOOT RESISTIVITY A60
GRR    .GAPI  : GAMMA RAY FROM RESISTIVITY LOG
SPR    .MV    : SPONTANEOUS POTENTIAL FROM RESISTIVITY LOG
AHT30  .OHMM  : ARRAY INDUCTION TWO FOOT RESISTIVITY A30
DTCO   .US/F  : DELTA-T COMPRESSIONAL
DTSM   .US/F  : DELTA-T SHEAR
AHT90  .OHMM  : ARRAY INDUCTION TWO FOOT RESISTIVITY A90
~Params ----------------------------------------------------
~Other -----------------------------------------------------
~ASCII -----------------------------------------------------
# ...
 7569.00000   -9999.25   -9999.25   -9999.25   -9999.25   -9999.25   -9999.25   -9999.25    1.58270    4.59660  113.86950  -26.90400    2.31090   74.50420  107.16220    1.30130
 7569.50000   -9999.25   -9999.25   -9999.25   -9999.25   -9999.25   -9999.25   -9999.25    3.26700    8.69330  115.72230  -26.18600    4.75240   98.75140  125.60700    1.30150
 7570.00000   -9999.25   -9999.25   -9999.25   -9999.25   -9999.25   -9999.25   -9999.25    6.74380   12.84750  119.22410  -25.55040    9.77330  123.62240  134.99030    5.38520
 7570.50000   -9999.25   -9999.25   -9999.25   -9999.25   -9999.25   -9999.25   -9999.25   11.35310   13.31710  123.22770  -24.93450   12.21260  121.96110  144.37360    9.46890
 7571.00000   -9999.25   -9999.25   -9999.25   -9999.25   -9999.25   -9999.25   -9999.25   11.74150   13.37070  124.42200  -24.43390   12.21340  102.82220  145.01340   11.96040
 7571.50000   -9999.25   -9999.25   -9999.25   -9999.25   -9999.25   -9999.25   -9999.25   11.56190   13.28010  123.18540  -23.99100   12.21430   92.84800  145.34740   10.49560
 7572.00000   -9999.25   -9999.25   -9999.25   -9999.25   -9999.25   -9999.25   -9999.25   10.75510   13.01280  118.22190  -23.63690   12.02550   87.23190  144.30660    8.14130
 7572.50000   -9999.25   -9999.25   -9999.25   -9999.25   -9999.25   -9999.25   -9999.25    9.22410   12.10100  112.30820  -23.28270   10.48720   81.43810  142.26430    7.20570
 7573.00000   -9999.25   -9999.25   -9999.25   -9999.25   -9999.25   -9999.25   -9999.25    8.12770   10.47760  108.15480  -22.65940    9.14560   78.32770  141.45640    7.24360
 7573.50000   -9999.25   -9999.25   -9999.25   -9999.25   -9999.25   -9999.25   -9999.25    7.45670    9.07190  110.41100  -22.37660    7.97570   77.01580  140.82970    7.08160
 7574.00000   -9999.25   -9999.25   -9999.25   -9999.25   -9999.25   -9999.25   -9999.25    6.44800    7.85480  117.03630  -22.17200    6.95550   76.88480  140.20300    6.37510
 7574.50000   -9999.25   -9999.25   -9999.25   -9999.25   -9999.25   -9999.25   -9999.25    5.57560    6.80110  127.93480  -21.62100    6.06570   76.69310  138.53920    5.34390
 7575.00000   -9999.25   -9999.25   -9999.25   -9999.25   -9999.25   -9999.25   -9999.25    5.00700    5.97530  134.89250  -21.44610    5.36920   76.50140  137.13850    4.92980
 7575.50000   -9999.25   -9999.25   -9999.25   -9999.25   -9999.25   -9999.25   -9999.25    5.00470    6.00320  139.77650  -21.27120    5.28350   77.84160  135.68820    4.96550
 7576.00000   -9999.25   -9999.25   -9999.25   -9999.25   -9999.25   -9999.25   -9999.25    5.14630    7.11210  143.26060  -21.09630    5.84770   80.74020  134.31350    5.46770
 7576.50000   -9999.25   -9999.25   -9999.25   -9999.25   -9999.25   -9999.25   -9999.25    5.19620    7.12520  143.73330  -20.92130    6.14080   84.31400  132.53600    6.08660
 7577.00000   -9999.25   -9999.25   -9999.25   -9999.25   -9999.25   -9999.25   -9999.25    5.16680    6.25950  143.05440  -20.75320    5.55760   81.51040  122.84750    6.39490
 7577.50000   -9999.25   -9999.25   -9999.25   -9999.25   -9999.25   -9999.25   -9999.25    3.46980    5.49890  140.86880  -20.65820    4.38020   71.74170  112.73570    5.13210
 7578.00000   -9999.25   -9999.25   -9999.25   -9999.25   -9999.25   -9999.25   -9999.25    2.89520    6.05440  136.01000  -20.56330    3.89680   68.98450  108.26730    3.23850
 7578.50000   -9999.25   -9999.25   -9999.25   -9999.25   -9999.25   -9999.25   -9999.25   12.74620    8.22510  135.40030  -20.46840    5.77400   79.45090  114.08760    4.09970
 7579.00000   -9999.25   -9999.25   -9999.25   -9999.25   -9999.25   -9999.25   -9999.25   11.97350    8.26200  136.99160  -20.37610    7.36320   93.26680  124.50800    6.12300
 7579.50000   -9999.25   -9999.25   -9999.25   -9999.25   -9999.25   -9999.25   -9999.25    9.46540    8.17560  137.26150  -20.28390    7.39220   94.30820  124.83920    8.14630
 7580.00000   -9999.25   -9999.25   -9999.25   -9999.25   -9999.25   -9999.25   -9999.25    7.42570    7.63230  135.00350  -20.19170    7.31020   82.26910  124.57430    8.24460
 7580.50000   -9999.25   -9999.25   -9999.25   -9999.25   -9999.25   -9999.25   -9999.25    5.82560    6.84790  131.15670  -20.09940    6.44370   75.75040   96.66400    7.32380
 7581.00000   -9999.25   -9999.25   -9999.25   -9999.25   -9999.25   -9999.25   -9999.25    4.83550    6.14410  129.00460  -20.01300    5.25360   69.14590   90.31260    5.83590
 7581.50000   -9999.25   -9999.25   -9999.25   -9999.25   -9999.25   -9999.25   -9999.25    4.21360    5.97440  129.87230  -19.97800    4.94610   68.91980   90.30770    4.49760
 7582.00000   -9999.25   -9999.25   -9999.25   -9999.25   -9999.25   -9999.25   -9999.25    6.57220    9.72620  133.17820  -19.91540    7.51560   69.42570   97.80430    5.81410
 7582.50000   -9999.25   -9999.25   -9999.25   -9999.25   -9999.25   -9999.25   -9999.25   15.79500   11.72980  135.47360  -19.85280    9.87380   70.03170  117.06050    8.71690
 7583.00000   -9999.25   -9999.25   -9999.25   -9999.25   -9999.25   -9999.25   -9999.25   12.82710   10.94170  135.05640  -19.79020    9.75680   70.58120  128.07020   10.06220
 7583.50000   -9999.25   -9999.25   -9999.25   -9999.25   -9999.25   -9999.25   -9999.25    9.36690    9.98670  135.78110  -19.72750    9.28740   70.91800  132.51060    9.07110
 7584.00000   -9999.25   -9999.25   -9999.25   -9999.25   -9999.25   -9999.25   -9999.25    8.15150    9.11520  138.03330  -19.66490    8.84050   71.28450  137.50110    8.08010
 7584.50000   -9999.25   -9999.25   -9999.25   -9999.25   -9999.25   -9999.25   -9999.25    8.02110    8.97340  140.42190  -19.60230    8.55450   71.78180  140.82270    7.78190
 7585.00000   -9999.25   -9999.25   -9999.25   -9999.25   -9999.25   -9999.25   -9999.25    7.96320    8.90630  139.55810  -19.53970    8.51190   73.52310  142.87690    8.50830
 7585.50000   -9999.25   -9999.25   -9999.25   -9999.25   -9999.25   -9999.25   -9999.25    7.98290    9.02430  137.00980  -19.47710    8.50880   77.21460  146.18490    8.98290
 7586.00000   -9999.25   -9999.25   -9999.25   -9999.25   -9999.25   -9999.25   -9999.25    8.38130    9.62140  136.45400  -19.41450    9.01220   79.38270  149.26830    8.45030
 7586.50000   -9999.25   -9999.25   -9999.25   -9999.25   -9999.25   -9999.25   -9999.25    8.79950   10.25790  143.63500  -19.35180    9.59890   80.75320  150.71840    8.72200
 7587.00000   -9999.25   -9999.25   -9999.25   -9999.25   -9999.25   -9999.25   -9999.25   10.55390   13.30860  163.97140  -19.33000   11.46720   83.45480  156.18750   10.20000
 7587.50000   -9999.25   -9999.25   -9999.25   -9999.25   -9999.25   -9999.25   -9999.25   13.22220   19.62990  201.26590  -19.32220   16.85400   84.79750  158.82890   13.83060
 7588.00000   -9999.25   -9999.25   -9999.25   -9999.25   -9999.25   -9999.25   -9999.25   36.01850   29.93850  223.51710  -19.41900   33.24600   87.56960  158.81870   20.69000
 7588.50000   -9999.25   -9999.25   -9999.25   -9999.25   -9999.25   -9999.25   -9999.25   50.29240   37.07380  254.34920  -19.55650   38.79410   91.77640  158.58730   27.54930
 7589.00000   -9999.25   -9999.25   -9999.25   -9999.25   -9999.25   -9999.25   -9999.25   49.86890   31.66890  274.15640  -19.57990   37.67540   93.90010  158.37000   34.39540
 7589.50000   -9999.25   -9999.25   -9999.25   -9999.25   -9999.25   -9999.25   -9999.25   45.64140   20.21340  286.14170  -19.58480   27.67280   93.95090  158.30340   31.59670
 7590.00000   -9999.25   -9999.25   -9999.25   -9999.25   -9999.25   -9999.25   -9999.25   23.07310   12.90160  267.84690  -19.58980   17.28380   91.43000  158.39210   20.87940
 7590.50000   -9999.25   -9999.25   -9999.25   -9999.25   -9999.25   -9999.25   -9999.25   11.66420    8.23470  208.12830  -19.59480   10.09370   87.18170  159.11900   10.16220
 7591.00000   -9999.25   -9999.25   -9999.25   -9999.25   -9999.25   -9999.25   -9999.25    7.74470    6.12730  154.29640  -19.59980    6.35670   84.59200  158.88140    5.87520
 7591.50000   -9999.25   -9999.25   -9999.25   -9999.25   -9999.25   -9999.25   -9999.25    8.96230    6.57130  127.59260  -19.60470    7.70000   82.60930  155.82700    5.87520
