~Version ---------------------------------------------------
VERS.   2.0 : CWLS log ASCII Standard -VERSION 2.0
WRAP.    NO : One line per depth step
DLM . SPACE : Column Data Section Delimiter
~Well ------------------------------------------------------
STRT .F                  48.0 : START DEPTH
STOP .F                9917.0 : STOP DEPTH
STEP .F                   0.5 : STEP
NULL .               -9999.25 : NULL VALUE
COMP .                        : COMPANY
WELL .                        : WELL
FLD  .                        : FIELD
LOC  .                        : LOCATION
PROV .                        : PROVINCE
CNTY .                        : COUNTY
STAT .                        : STATE
CTRY .                        : COUNTRY
SRVC .                        : SERVICE COMPANY
DATE .                        : DATE
UWI  .                        : UNIQUE WELL ID
API  .                        : API NUMBER
SLAT .WGS84 6.216307834407999 : SURFACE LATITUDE
SLON .WGS84 3.438105576243501 : SURFACE LONGITUDE
DATUM.F               1739.31 : DEPTH DATUM ELEV
~Curve Information -----------------------------------------
DEPT   .F     : 
DPHZ_LS.DEC   : HGRD STANDARD RESOLUTION DENSITY POROSITY
NPHI_LS.DEC   : NEUTRON POROSITY LIMESTONE
HCALD  .IN    : HRCC CALIPER CALIBRATED FROM DENSITY LOG
HDRA   .G/C3  : HRDD SPINE AND RIBS DENSITY CORRECTION
PEFZ   .B/E   : HRDD STANDARD RESOLUTION FORMATION PHOTOELECTRIC FACTOR
RHOZ   .G/C3  : HRDD STANDARD RESOLUTION FORMATION DENSITY
AHFCO60.MMHO  : ARRAY INDUCTION FOUR FOOT CONDUCTIVITY A60
AHT20  .OHMM  : ARRAY INDUCTION TWO FOOT RESISTIVITY A20
AHT60  .OHMM  : ARRAY INDUCTION TWO FOOT RESISTIVITY A60
GRR    .GAPI  : GAMMA RAY FROM RESISTIVITY LOG
SPR    .MV    : SPONTANEOUS POTENTIAL FROM RESISTIVITY LOG
AHT30  .OHMM  : ARRAY INDUCTION TWO FOOT RESISTIVITY A30
DTCO   .US/F  : DELTA-T COMPRESSIONAL
DTSM   .US/F  : DELTA-T SHEAR
AHT90  .OHMM  : ARRAY INDUCTION TWO FOOT RESISTIVITY A90
~Params ----------------------------------------------------
~Other -----------------------------------------------------
~ASCII -----------------------------------------------------
# ...
 6534.00000   -9999.25   -9999.25   -9999.25   -9999.25   -9999.25   -9999.25   -9999.25    3.68080    5.26340  141.14890  -32.23600    4.45200   93.27030  148.07650    6.85670
 6534.50000   -9999.25   -9999.25   -9999.25   -9999.25   -9999.25   -9999.25   -9999.25    2.99810    4.96370  119.94010  -31.96270    4.02810   92.96820  149.58410    4.74870
 6535.00000   -9999.25   -9999.25   -9999.25   -9999.25   -9999.25   -9999.25   -9999.25    4.07320    5.46170  113.34420  -31.68930    4.89290   92.66540  150.44490    6.47910
 6535.50000   -9999.25   -9999.25   -9999.25   -9999.25   -9999.25   -9999.25   -9999.25    5.28420    5.88420  112.91880  -31.41590    5.49960   91.88030  151.10170    7.25220
 6536.00000   -9999.25   -9999.25   -9999.25   -9999.25   -9999.25   -9999.25   -9999.25    5.16420    6.04090  114.73790  -31.14250    5.45030   89.65850  151.52780    6.58930
 6536.50000   -9999.25   -9999.25   -9999.25   -9999.25   -9999.25   -9999.25   -9999.25    5.17340    6.53380  119.67960  -31.10460    5.94010   88.16820  151.67950    5.92650
 6537.00000   -9999.25   -9999.25   -9999.25   -9999.25   -9999.25   -9999.25   -9999.25    5.79840    7.25700  127.46190  -31.26760    6.59220   87.67420  147.23530    6.02370
 6537.50000   -9999.25   -9999.25   -9999.25   -9999.25   -9999.25   -9999.25   -9999.25    6.52650    8.06030  134.50640  -31.39690    7.31590   87.31470  135.38690    7.27750
 6538.00000   -9999.25   -9999.25   -9999.25   -9999.25   -9999.25   -9999.25   -9999.25    7.38960    8.71900  137.39690  -31.53120    8.03400   87.04480  121.48800    8.53120
 6538.50000   -9999.25   -9999.25   -9999.25   -9999.25   -9999.25   -9999.25   -9999.25    8.36700    9.03090  135.15140  -31.44240    8.61150   86.77480  118.39110    9.78500
 6539.00000   -9999.25   -9999.25   -9999.25   -9999.25   -9999.25   -9999.25   -9999.25    8.67980    9.24030  127.00450  -31.23630    8.98830   85.43480  115.21010    9.97800
 6539.50000   -9999.25   -9999.25   -9999.25   -9999.25   -9999.25   -9999.25   -9999.25    8.77660    9.34800  120.28640  -31.14780    9.00150   82.55960  110.31190   10.17110
 6540.00000   -9999.25   -9999.25   -9999.25   -9999.25   -9999.25   -9999.25   -9999.25    8.69730    9.37170  117.92100  -30.91690    8.84860   79.73290  109.09330   10.36420
 6540.50000   -9999.25   -9999.25   -9999.25   -9999.25   -9999.25   -9999.25   -9999.25    8.49360    9.26270  123.09760  -30.79680    8.67680   84.09240  112.42790   10.23770
 6541.00000   -9999.25   -9999.25   -9999.25   -9999.25   -9999.25   -9999.25   -9999.25    8.27730    9.12000  132.72220  -30.79680    8.51980   93.59820  120.77070    9.02410
 6541.50000   -9999.25   -9999.25   -9999.25   -9999.25   -9999.25   -9999.25   -9999.25    8.17020    8.90640  138.75620  -30.79680    8.47720  102.36160  128.46600    8.07460
 6542.00000   -9999.25   -9999.25   -9999.25   -9999.25   -9999.25   -9999.25   -9999.25    8.12790    8.72890  141.33100  -30.86610    8.41660   97.78690  127.65750    8.18200
 6542.50000   -9999.25   -9999.25   -9999.25   -9999.25   -9999.25   -9999.25   -9999.25    8.10990    8.73290  143.19580  -30.97870    8.32620   87.58020  112.10810    8.28930
 6543.00000   -9999.25   -9999.25   -9999.25   -9999.25   -9999.25   -9999.25   -9999.25    8.11360    8.73690  143.81760  -31.37100    8.23430   80.61080  101.50620    8.39660
 6543.50000   -9999.25   -9999.25   -9999.25   -9999.25   -9999.25   -9999.25   -9999.25    7.97260    8.74080  146.20340  -31.80320    8.14340   78.44180   97.64550    8.50400
 6544.00000   -9999.25   -9999.25   -9999.25   -9999.25   -9999.25   -9999.25   -9999.25    7.83380    8.89790  150.32880  -32.23550    8.05350   72.94580   93.21680    8.71660
 6544.50000   -9999.25   -9999.25   -9999.25   -9999.25   -9999.25   -9999.25   -9999.25    7.71800    9.13240  161.37540  -32.64870    8.00910   71.17410   88.86310    9.49970
 6545.00000   -9999.25   -9999.25   -9999.25   -9999.25   -9999.25   -9999.25   -9999.25    7.64500    9.37320  169.87430  -33.10100    8.01530   78.95070   96.05710   10.37120
 6545.50000   -9999.25   -9999.25   -9999.25   -9999.25   -9999.25   -9999.25   -9999.25    7.57270    9.62030  172.84890  -33.71050    8.36310   88.97160  107.56150   11.24270
 6546.00000   -9999.25   -9999.25   -9999.25   -9999.25   -9999.25   -9999.25   -9999.25    8.38200    9.87390  187.10290  -34.15790    8.72600   95.03890  115.02690   10.03680
 6546.50000   -9999.25   -9999.25   -9999.25   -9999.25   -9999.25   -9999.25   -9999.25    9.87770   10.79730  219.30830  -35.61170    9.10460   95.70310  117.16900    9.10870
 6547.00000   -9999.25   -9999.25   -9999.25   -9999.25   -9999.25   -9999.25   -9999.25   11.64030   17.79730  266.20590  -37.10270    9.24860   91.68760  115.92330    9.29170
 6547.50000   -9999.25   -9999.25   -9999.25   -9999.25   -9999.25   -9999.25   -9999.25   16.11670   19.94990  295.78830  -38.59360    9.24530   85.67950  113.29020    9.47470
 6548.00000   -9999.25   -9999.25   -9999.25   -9999.25   -9999.25   -9999.25   -9999.25    9.44840   20.45900  299.25180  -40.08450    8.65730   72.40360  109.59990    9.65760
 6548.50000   -9999.25   -9999.25   -9999.25   -9999.25   -9999.25   -9999.25   -9999.25    5.78980   20.49680  278.58440  -41.57540    7.75820   62.50350  105.25890    9.84060
 6549.00000   -9999.25   -9999.25   -9999.25   -9999.25   -9999.25   -9999.25   -9999.25    5.72290   16.84840  229.46160  -43.06630    6.95250   56.44440  100.86500    9.49520
 6549.50000   -9999.25   -9999.25   -9999.25   -9999.25   -9999.25   -9999.25   -9999.25    5.70520   13.43770  179.06360  -44.24390    6.23050   52.76220   96.68240    8.79750
 6550.00000   -9999.25   -9999.25   -9999.25   -9999.25   -9999.25   -9999.25   -9999.25    7.02030   16.27550  102.22690  -45.37590   15.47380   47.87880   93.21300    9.13720
 6550.50000   -9999.25   -9999.25   -9999.25   -9999.25   -9999.25   -9999.25   -9999.25   16.89560   19.95530   94.55600  -46.50800   17.39630   42.99530   89.74360   13.62620
 6551.00000   -9999.25   -9999.25   -9999.25   -9999.25   -9999.25   -9999.25   -9999.25   16.40760   15.24210  103.28830  -47.64000   16.94330   43.33510   85.54680   15.76560
 6551.50000   -9999.25   -9999.25   -9999.25   -9999.25   -9999.25   -9999.25   -9999.25    4.01620    8.26200  110.81080  -48.45000    7.43010   49.61250   83.04170   13.41670
 6552.00000   -9999.25   -9999.25   -9999.25   -9999.25   -9999.25   -9999.25   -9999.25    1.35450    4.47840  113.32490  -49.23170    2.87370   59.89440   80.64160    7.21290
 6552.50000   -9999.25   -9999.25   -9999.25   -9999.25   -9999.25   -9999.25   -9999.25    1.37000    2.42750  107.89270  -50.01330    1.57880   64.40700   80.63660    2.28640
 6553.00000   -9999.25   -9999.25   -9999.25   -9999.25   -9999.25   -9999.25   -9999.25    1.47530    2.11240  104.05270  -50.79500    1.62040   66.75900   81.09440    2.45640
 6553.50000   -9999.25   -9999.25   -9999.25   -9999.25   -9999.25   -9999.25   -9999.25    1.58880    2.71850  105.29160  -51.74070    1.75890   70.49310   94.21820    3.50630
 6554.00000   -9999.25   -9999.25   -9999.25   -9999.25   -9999.25   -9999.25   -9999.25    1.67360    4.01480  110.40810  -51.39890    2.12480   82.20760  110.43410    4.55620
 6554.50000   -9999.25   -9999.25   -9999.25   -9999.25   -9999.25   -9999.25   -9999.25    1.89600    4.35130  112.34350  -50.64980    3.11630   89.29500  126.65010    4.46660
 6555.00000   -9999.25   -9999.25   -9999.25   -9999.25   -9999.25   -9999.25   -9999.25    3.29550    4.31080  111.92750  -49.90080    3.86320   82.78230  139.83290    3.82630
 6555.50000   -9999.25   -9999.25   -9999.25   -9999.25   -9999.25   -9999.25   -9999.25    3.87070    8.08530  110.33120  -49.15170    3.80590   65.55890  132.03500    3.86140
 6556.00000   -9999.25   -9999.25   -9999.25   -9999.25   -9999.25   -9999.25   -9999.25    3.36500    8.18080  108.06350  -48.97590    3.66950   57.30780  108.74580   11.84410
 6556.50000   -9999.25   -9999.25   -9999.25   -9999.25   -9999.25   -9999.25   -9999.25    2.87850    8.05960  106.04590  -49.06970    3.20190   57.45980  101.12390   19.82670
