~Version ---------------------------------------------------
VERS.   2.0 : CWLS log ASCII Standard -VERSION 2.0
WRAP.    NO : One line per depth step
DLM . SPACE : Column Data Section Delimiter
~Well ------------------------------------------------------
STRT .F                  48.0 : START DEPTH
STOP .F                9917.0 : STOP DEPTH
STEP .F                   0.5 : STEP
NULL .               -9999.25 : NULL VALUE
COMP .                        : COMPANY
WELL .                        : WELL
FLD  .                        : FIELD
LOC  .                        : LOCATION
PROV .                        : PROVINCE
CNTY .                        : COUNTY
STAT .                        : STATE
CTRY .                        : COUNTRY
SRVC .                        : SERVICE COMPANY
DATE .                        : DATE
UWI  .                        : UNIQUE WELL ID
API  .                        : API NUMBER
SLAT .WGS84 6.216307834407999 : SURFACE LATITUDE
SLON .WGS84 3.438105576243501 : SURFACE LONGITUDE
DATUM.F               1739.31 : DEPTH DATUM ELEV
~Curve Information -----------------------------------------
DEPT   .F     : 
DPHZ_LS.DEC   : HGRD STANDARD RESOLUTION DENSITY POROSITY
NPHI_LS.DEC   : NEUTRON POROSITY LIMESTONE
HCALD  .IN    : HRCC CALIPER CALIBRATED FROM DENSITY LOG
HDRA   .G/C3  : HRDD SPINE AND RIBS DENSITY CORRECTION
PEFZ   .B/E   : HRDD STANDARD RESOLUTION FORMATION PHOTOELECTRIC FACTOR
RHOZ   .G/C3  : HRDD STANDARD RESOLUTION FORMATION DENSITY
AHFCO60.MMHO  : ARRAY INDUCTION FOUR FOOT CONDUCTIVITY A60
AHT20  .OHMM  : ARRAY INDUCTION TWO FOOT RESISTIVITY A20
AHT60  .OHMM  : ARRAY INDUCTION TWO FOOT RESISTIVITY A60
GRR    .GAPI  : GAMMA RAY FROM RESISTIVITY LOG
SPR    .MV    : SPONTANEOUS POTENTIAL FROM RESISTIVITY LOG
AHT30  .OHMM  : ARRAY INDUCTION TWO FOOT RESISTIVITY A30
DTCO   .US/F  : DELTA-T COMPRESSIONAL
DTSM   .US/F  : DELTA-T SHEAR
AHT90  .OHMM  : ARRAY INDUCTION TWO FOOT RESISTIVITY A90
~Params ----------------------------------------------------
~Other -----------------------------------------------------
~ASCII -----------------------------------------------------
# ...
 6787.00000   -9999.25   -9999.25   -9999.25   -9999.25   -9999.25   -9999.25   -9999.25   13.01590   13.60470   85.32080  -43.58790   13.35330   61.25460  102.99390   13.04690
 6787.50000   -9999.25   -9999.25   -9999.25   -9999.25   -9999.25   -9999.25   -9999.25   12.35410   13.32900   87.08370  -43.33990   13.05630   62.87610  106.40440   12.58940
 6788.00000   -9999.25   -9999.25   -9999.25   -9999.25   -9999.25   -9999.25   -9999.25   12.06110   13.08760   89.19090  -43.15660   12.59770   65.86560  113.41860   12.95770
 6788.50000   -9999.25   -9999.25   -9999.25   -9999.25   -9999.25   -9999.25   -9999.25   12.20860   12.91070   91.75120  -43.16060   12.39700   68.21620  121.77600   13.10640
 6789.00000   -9999.25   -9999.25   -9999.25   -9999.25   -9999.25   -9999.25   -9999.25   11.80090   12.64350   91.75740  -43.16460   12.15240   67.75300  120.03740   13.10870
 6789.50000   -9999.25   -9999.25   -9999.25   -9999.25   -9999.25   -9999.25   -9999.25   11.38290   12.18160   89.34200  -43.30980   11.77470   66.38370  117.23370   12.39120
 6790.00000   -9999.25   -9999.25   -9999.25   -9999.25   -9999.25   -9999.25   -9999.25   10.97980   11.73660   85.50750  -43.51000   11.40870   65.65540  114.74970   11.67370
 6790.50000   -9999.25   -9999.25   -9999.25   -9999.25   -9999.25   -9999.25   -9999.25   10.59090   11.30780   82.51880  -43.71010   11.05410   65.12060  111.96880   10.95620
 6791.00000   -9999.25   -9999.25   -9999.25   -9999.25   -9999.25   -9999.25   -9999.25   10.21580   10.89780   81.41440  -43.91030   10.71060   64.51890  107.81170   10.23870
 6791.50000   -9999.25   -9999.25   -9999.25   -9999.25   -9999.25   -9999.25   -9999.25    9.85400   10.18540   79.53350  -44.11040   10.33440   64.18190  106.26110   10.13090
 6792.00000   -9999.25   -9999.25   -9999.25   -9999.25   -9999.25   -9999.25   -9999.25    8.61300    9.33060   75.18440  -44.31060    9.14220   65.75880  109.93020    9.86550
 6792.50000   -9999.25   -9999.25   -9999.25   -9999.25   -9999.25   -9999.25   -9999.25    7.38310    8.54760   76.44720  -44.57850    8.08760   68.37310  114.83160    8.51040
 6793.00000   -9999.25   -9999.25   -9999.25   -9999.25   -9999.25   -9999.25   -9999.25    6.88880    8.00630   78.78690  -45.02920    7.24600   69.72980  116.38380    7.42590
 6793.50000   -9999.25   -9999.25   -9999.25   -9999.25   -9999.25   -9999.25   -9999.25    6.95210    8.32470   78.86280  -45.25740    7.94180   69.21140  116.73950    7.35620
 6794.00000   -9999.25   -9999.25   -9999.25   -9999.25   -9999.25   -9999.25   -9999.25    7.82110    9.64330   75.65800  -45.66640    9.81220   68.13020  116.03970    8.81980
 6794.50000   -9999.25   -9999.25   -9999.25   -9999.25   -9999.25   -9999.25   -9999.25    9.64210   11.17070   72.56840  -46.07550   11.00820   67.59930  115.39850   11.26590
 6795.00000   -9999.25   -9999.25   -9999.25   -9999.25   -9999.25   -9999.25   -9999.25   11.88710   12.94010   71.27670  -46.43430   12.63560   67.06250  114.75730   13.71210
 6795.50000   -9999.25   -9999.25   -9999.25   -9999.25   -9999.25   -9999.25   -9999.25   15.99320   17.12200   69.15150  -46.56080   17.67890   65.97290  113.13140   16.12880
 6796.00000   -9999.25   -9999.25   -9999.25   -9999.25   -9999.25   -9999.25   -9999.25   22.40160   23.80070   62.39930  -47.04860   24.73510   63.30100  109.34620   23.80180
 6796.50000   -9999.25   -9999.25   -9999.25   -9999.25   -9999.25   -9999.25   -9999.25   31.37800   33.08440   52.68420  -47.60140   34.60780   61.71660  106.50990   31.47480
 6797.00000   -9999.25   -9999.25   -9999.25   -9999.25   -9999.25   -9999.25   -9999.25   39.12280   45.96670   43.91950  -48.15430   43.92890   60.17140  104.01490   39.84370
 6797.50000   -9999.25   -9999.25   -9999.25   -9999.25   -9999.25   -9999.25   -9999.25   45.28680   62.82560   37.90470  -48.62510   53.96180   57.89210  100.08970   49.25630
 6798.00000   -9999.25   -9999.25   -9999.25   -9999.25   -9999.25   -9999.25   -9999.25   58.42340   81.42420   33.30080  -49.00910   64.29780   56.85120   97.29010   58.66900
 6798.50000   -9999.25   -9999.25   -9999.25   -9999.25   -9999.25   -9999.25   -9999.25   63.34290   73.25720   34.69630  -49.33180   64.27990   56.73850   97.97630   61.97380
 6799.00000   -9999.25   -9999.25   -9999.25   -9999.25   -9999.25   -9999.25   -9999.25   54.54110   54.54270   38.95170  -49.67270   51.96550   56.85030   99.90560   54.53660
 6799.50000   -9999.25   -9999.25   -9999.25   -9999.25   -9999.25   -9999.25   -9999.25   26.51670   37.58520   43.60830  -50.14930   29.95050   56.89710  101.33100   37.66050
 6800.00000   -9999.25   -9999.25   -9999.25   -9999.25   -9999.25   -9999.25   -9999.25   15.78350   23.18250   48.82910  -50.59250   17.26210   58.44520  103.97410   20.78440
 6800.50000   -9999.25   -9999.25   -9999.25   -9999.25   -9999.25   -9999.25   -9999.25   12.94980   14.49930   52.47070  -50.97590   13.69550   61.04810  106.91220   13.16850
 6801.00000   -9999.25   -9999.25   -9999.25   -9999.25   -9999.25   -9999.25   -9999.25   10.64910   12.27450   55.83680  -50.78660   11.28760   62.12270  107.91930   11.72600
 6801.50000   -9999.25   -9999.25   -9999.25   -9999.25   -9999.25   -9999.25   -9999.25   10.42890   11.15630   59.57570  -50.59220   10.67510   62.39220  107.49380   10.86050
 6802.00000   -9999.25   -9999.25   -9999.25   -9999.25   -9999.25   -9999.25   -9999.25   11.36770   16.89220   60.23280  -50.40180   14.47280   62.43390  106.90880   12.45140
 6802.50000   -9999.25   -9999.25   -9999.25   -9999.25   -9999.25   -9999.25   -9999.25   20.75490   21.21450   58.96770  -49.21930   20.72730   62.50470  106.33350   16.81560
 6803.00000   -9999.25   -9999.25   -9999.25   -9999.25   -9999.25   -9999.25   -9999.25   20.74540   21.22120   56.70750  -48.94220   21.24820   62.57550  106.09840   21.37470
 6803.50000   -9999.25   -9999.25   -9999.25   -9999.25   -9999.25   -9999.25   -9999.25   18.80610   21.21150   54.94490  -48.83330   19.30230   62.96910  106.50330   20.79480
 6804.00000   -9999.25   -9999.25   -9999.25   -9999.25   -9999.25   -9999.25   -9999.25   14.20900   16.97210   55.76850  -48.57370   15.39110   63.63780  107.20270   16.82480
 6804.50000   -9999.25   -9999.25   -9999.25   -9999.25   -9999.25   -9999.25   -9999.25   13.62630   14.38390   58.82340  -48.54200   14.49420   63.93040  107.82530   13.77430
 6805.00000   -9999.25   -9999.25   -9999.25   -9999.25   -9999.25   -9999.25   -9999.25   14.40280   14.72460   60.75950  -48.13680   14.57770   63.64980  108.44790   14.42150
 6805.50000   -9999.25   -9999.25   -9999.25   -9999.25   -9999.25   -9999.25   -9999.25   15.55050   16.18250   60.93280  -48.14860   15.82290   62.75470  107.46920   15.92700
 6806.00000   -9999.25   -9999.25   -9999.25   -9999.25   -9999.25   -9999.25   -9999.25   16.78970   17.78480   58.74500  -47.82790   17.26050   62.33220  106.75620   17.77270
 6806.50000   -9999.25   -9999.25   -9999.25   -9999.25   -9999.25   -9999.25   -9999.25   18.12760   19.54580   56.11710  -47.82040   18.82860   62.20170  107.26210   19.61830
 6807.00000   -9999.25   -9999.25   -9999.25   -9999.25   -9999.25   -9999.25   -9999.25   19.57220   23.45680   54.09240  -48.10290   21.90160   62.32710  107.88700   21.46400
 6807.50000   -9999.25   -9999.25   -9999.25   -9999.25   -9999.25   -9999.25   -9999.25   23.54510   28.75400   53.39530  -47.97730   25.99030   62.46090  108.51190   25.27830
 6808.00000   -9999.25   -9999.25   -9999.25   -9999.25   -9999.25   -9999.25   -9999.25   28.48030   35.24760   49.08910  -47.80610   33.54360   62.41640  108.58520   32.04560
 6808.50000   -9999.25   -9999.25   -9999.25   -9999.25   -9999.25   -9999.25   -9999.25   42.73300   46.84390   44.69740  -47.68140   50.62940   62.27240  108.00940   38.81290
 6809.00000   -9999.25   -9999.25   -9999.25   -9999.25   -9999.25   -9999.25   -9999.25   50.52480   57.72310   40.19700  -47.44760   51.27960   62.11620  107.47150   60.85330
 6809.50000   -9999.25   -9999.25   -9999.25   -9999.25   -9999.25   -9999.25   -9999.25   44.68690   57.33910   38.75660  -46.98010   47.56730   62.41450  106.93800   58.84430
