~Version ---------------------------------------------------
VERS.   2.0 : CWLS log ASCII Standard -VERSION 2.0
WRAP.    NO : One line per depth step
DLM . SPACE : Column Data Section Delimiter
~Well ------------------------------------------------------
STRT .F                  48.0 : START DEPTH
STOP .F                9917.0 : STOP DEPTH
STEP .F                   0.5 : STEP
NULL .               -9999.25 : NULL VALUE
COMP .                        : COMPANY
WELL .                        : WELL
FLD  .                        : FIELD
LOC  .                        : LOCATION
PROV .                        : PROVINCE
CNTY .                        : COUNTY
STAT .                        : STATE
CTRY .                        : COUNTRY
SRVC .                        : SERVICE COMPANY
DATE .                        : DATE
UWI  .                        : UNIQUE WELL ID
API  .                        : API NUMBER
SLAT .WGS84 6.216307834407999 : SURFACE LATITUDE
SLON .WGS84 3.438105576243501 : SURFACE LONGITUDE
DATUM.F               1739.31 : DEPTH DATUM ELEV
~Curve Information -----------------------------------------
DEPT   .F     : 
DPHZ_LS.DEC   : HGRD STANDARD RESOLUTION DENSITY POROSITY
NPHI_LS.DEC   : NEUTRON POROSITY LIMESTONE
HCALD  .IN    : HRCC CALIPER CALIBRATED FROM DENSITY LOG
HDRA   .G/C3  : HRDD SPINE AND RIBS DENSITY CORRECTION
PEFZ   .B/E   : HRDD STANDARD RESOLUTION FORMATION PHOTOELECTRIC FACTOR
RHOZ   .G/C3  : HRDD STANDARD RESOLUTION FORMATION DENSITY
AHFCO60.MMHO  : ARRAY INDUCTION FOUR FOOT CONDUCTIVITY A60
AHT20  .OHMM  : ARRAY INDUCTION TWO FOOT RESISTIVITY A20
AHT60  .OHMM  : ARRAY INDUCTION TWO FOOT RESISTIVITY A60
GRR    .GAPI  : GAMMA RAY FROM RESISTIVITY LOG
SPR    .MV    : SPONTANEOUS POTENTIAL FROM RESISTIVITY LOG
AHT30  .OHMM  : ARRAY INDUCTION TWO FOOT RESISTIVITY A30
DTCO   .US/F  : DELTA-T COMPRESSIONAL
DTSM   .US/F  : DELTA-T SHEAR
AHT90  .OHMM  : ARRAY INDUCTION TWO FOOT RESISTIVITY A90
~Params ----------------------------------------------------
~Other -----------------------------------------------------
~ASCII -----------------------------------------------------
# ...
 7822.00000    0.02740    0.20770    9.31790    0.00390    3.72060    2.66810   -9999.25   11.60250   10.66100  120.85240  -20.07820   11.12390   75.72570  139.88340   10.64650
 7822.50000    0.02610    0.20900    9.31790    0.01010    3.71090    2.66630   -9999.25   11.59210   10.69070  123.66540  -20.09820   11.11400   75.44800  141.10370   10.64240
 7823.00000    0.02220    0.22390    9.31790    0.01620    3.70130    2.67420   -9999.25   11.58180   10.66020  124.82670  -20.11820   11.07070   75.25800  142.02260   10.58550
 7823.50000    0.01470    0.22510    9.31850    0.01410    3.68950    2.68830   -9999.25   11.57150   10.61160  125.80950  -20.13810   11.02100   75.06790  142.08660   10.45350
 7824.00000    0.01290    0.22200    9.32150    0.00640    3.68280    2.68300   -9999.25   11.56110   10.47120  126.35990  -20.11350   10.91980   74.90770  141.44900   10.32140
 7824.50000    0.02120    0.21240    9.32330    0.00110    3.66070    2.67390   -9999.25   11.55080   10.33130  126.82530  -20.03690   10.81790   74.90870  141.09760   10.18940
 7825.00000    0.02880    0.20040    9.32820    0.00120    3.63850    2.66340   -9999.25   11.43690    9.99280  126.38050  -20.04120   10.71700   74.95950  140.86680   10.05740
 7825.50000    0.03710    0.19230    9.33710    0.00120    3.61630    2.64910   -9999.25   11.16560    9.64440  124.39920  -20.07100   10.33750   75.10460  140.76430    9.92540
 7826.00000    0.04060    0.19300    9.34600    0.01190    3.63450    2.64480   -9999.25   10.65460    9.30810  122.86840  -20.11610    9.92120   75.28120  140.87590    9.79330
 7826.50000    0.03260    0.20240    9.36130    0.02250    3.66560    2.65710   -9999.25   10.16700    8.98350  123.37670  -20.16120    9.52160   75.45790  142.60360    9.51450
 7827.00000    0.02970    0.20870    9.37090    0.03000    3.78050    2.66120   -9999.25    9.70170    8.67030  125.33710  -20.20640    9.13820   75.63450  146.56320    9.19890
 7827.50000    0.03080    0.21610    9.37460    0.03370    3.84890    2.66010   -9999.25    9.36760    8.36800  128.28590  -20.25150    8.77020   75.83660  149.11810    8.88330
 7828.00000    0.03400    0.21970    9.41360    0.03960    3.88550    2.65230   -9999.25    9.24710    8.24410  129.09180  -20.29660    8.51420   76.27720  151.86740    8.56770
 7828.50000    0.02770    0.22110    9.59240    0.06410    3.90570    2.66940   -9999.25    9.25680    8.17750  125.89410  -20.34180    8.63880   77.98580  155.33630    8.25220
 7829.00000    0.01510    0.23220    9.52700    0.06910    3.87360    2.68480   -9999.25    9.53680    8.38810  121.41200  -20.38690    9.09020   79.08620  158.97480    8.26120
 7829.50000    0.01390    0.24370    9.52580    0.06580    3.84090    2.68990   -9999.25   10.30090    9.59190  119.05890  -20.43200   10.12550   79.30840  159.71540    9.45050
 7830.00000    0.00750    0.23270    9.47540    0.05160    3.79570    2.69230   -9999.25   11.66930   10.96840  118.59980  -20.47720   11.27870   78.47360  158.12320   10.74750
 7830.50000    0.00930    0.21130    9.44240    0.03030    3.75330    2.69450   -9999.25   12.28230   11.24760  121.40790  -20.52230   11.62370   77.49880  156.09510   11.73090
 7831.00000    0.00930    0.19870    9.43850    0.00900    3.77260    2.69450   -9999.25   11.66660   10.59370  124.45550  -20.56740   10.84220   76.88850  154.21550   11.27110
 7831.50000    0.01240    0.20340    9.43320    0.00310    3.82520    2.69070   -9999.25   10.73600    9.46420  127.99500  -20.61260    9.93020   75.59050  151.81820   10.31450
 7832.00000    0.01770    0.22040    9.42570    0.00370    3.86110    2.68040   -9999.25    9.87960    8.45520  129.13980  -20.65770    9.09480   73.32390  146.69000    9.35800
 7832.50000    0.02940    0.23410    9.42390    0.01850    3.90750    2.66470   -9999.25    9.09160    7.69810  129.05080  -20.70280    8.32970   71.10000  142.27900    8.40140
 7833.00000    0.03270    0.24040    9.60210    0.04360    3.90870    2.65310   -9999.25    8.36640    7.69810  126.95620  -20.74800    7.93280   72.34560  142.76330    7.44480
 7833.50000    0.03200    0.25290    9.45320    0.06910    3.90910    2.65450   -9999.25    8.24480    7.42210  125.76040  -20.79310    7.84740   76.72130  149.96340    7.30720
 7834.00000    0.03190    0.26610    9.48280    0.09840    3.90890    2.65160   -9999.25    8.15060    7.16400  127.52910  -20.83820    7.81720   78.99360  152.10100    7.17220
 7834.50000    0.04320    0.26670    9.54350    0.10640    3.91320    2.63790   -9999.25    8.33980    7.35530  129.45390  -20.88340    7.95060   78.06830  153.90560    7.36920
 7835.00000    0.05200    0.26360    9.49260    0.10240    3.93030    2.62320   -9999.25    8.56100    7.79890  128.82830  -20.92850    8.10670   75.45440  153.89320    7.56130
 7835.50000    0.04720    0.25700    9.43400    0.09310    3.98210    2.62760   -9999.25    8.74700    7.96500  127.00370  -21.15450    8.25250   73.56670  153.88090    7.75350
 7836.00000    0.03390    0.25080    9.48110    0.08280    4.04620    2.65220   -9999.25    8.79710    8.05660  125.42600  -21.11470    8.29190   73.65620  152.65100    7.94560
 7836.50000    0.02340    0.24580    9.50410    0.07190    4.10430    2.67400   -9999.25    8.72300    8.04300  128.21410  -21.05270    8.25840   74.54170  150.32930    8.13780
 7837.00000    0.02520    0.23190    9.45250    0.06220    4.13730    2.67110   -9999.25    8.58720    7.84890  130.54840  -21.06040    8.19790   75.20760  148.96880    8.06080
 7837.50000    0.02650    0.22170    9.45110    0.05640    4.11170    2.66370   -9999.25    8.37340    7.65940  130.37570  -21.06810    8.02280   75.20760  148.43740    7.91180
 7838.00000    0.01330    0.22510    9.46870    0.05690    4.06640    2.69190   -9999.25    8.15510    7.47460  127.56990  -21.07360    7.83560   75.20760  149.93140    7.74520
 7838.50000    0.01030    0.23960    9.47900    0.06770    4.05130    2.69210   -9999.25    7.93240    7.29410  124.64680  -21.06740    7.65290   75.22640  153.31710    7.57850
 7839.00000    0.02150    0.24980    9.49320    0.09080    4.10350    2.67340   -9999.25    7.85350    7.25230  125.01170  -21.04420    7.50200   75.34620  156.23160    7.41190
 7839.50000    0.04470    0.25720    9.50650    0.11300    4.16900    2.63360   -9999.25    7.82320    7.25170  126.63330  -20.95410    7.50460   75.95240  156.96790    7.34370
 7840.00000    0.04720    0.25570    9.49980    0.13240    4.22170    2.63030   -9999.25    7.82250    7.25110  126.95170  -21.01110    7.54500   77.96590  157.77010    7.34110
 7840.50000    0.04850    0.25230    9.49610    0.12430    4.21480    2.62790   -9999.25    8.08890    7.57570  126.38470  -21.08370    7.79860   79.02110  158.67790    7.47360
 7841.00000    0.04310    0.24370    9.58660    0.10170    4.14630    2.63650   -9999.25    8.38910    7.92530  122.63030  -21.06780    8.09980   78.27370  158.53170    7.69910
 7841.50000    0.03960    0.23640    9.63430    0.07640    4.04870    2.64110   -9999.25    8.70050    7.98750  119.54630  -20.87340    8.24310   76.34810  157.85910    7.92460
 7842.00000    0.03760    0.23220    9.50140    0.05840    3.98300    2.64360   -9999.25    8.71250    7.98390  120.27770  -21.05440    8.28190   75.41490  156.62260    8.10440
 7842.50000    0.03720    0.23260    9.48260    0.05760    3.91720    2.64490   -9999.25    8.65770    7.98020  124.04920  -20.99960    8.27570   74.91050  155.59370    8.02890
 7843.00000    0.03930    0.23510    9.47830    0.06100    3.90450    2.64300   -9999.25    8.47800    7.78890  126.35510  -20.94470    8.11720   74.40600  154.38270    7.95190
 7843.50000    0.03630    0.23380    9.47390    0.06330    3.90010    2.64410   -9999.25    8.30200    7.46550  126.31450  -20.88980    7.96180   74.13220  153.94230    7.84480
 7844.00000    0.04340    0.22790    9.46730    0.03080    3.87640    2.63760   -9999.25    8.12960    7.27220  123.52710  -20.83500    7.80930   73.75960  152.74660    7.73770
 7844.50000    0.04430    0.23050    9.46010    0.03120    3.93450    2.63430   -9999.25    7.98290    7.28740  118.52590  -20.84640    7.63400   73.27120  150.64930    7.63070
