~Version ---------------------------------------------------
VERS.   2.0 : CWLS log ASCII Standard -VERSION 2.0
WRAP.    NO : One line per depth step
DLM . SPACE : Column Data Section Delimiter
~Well ------------------------------------------------------
STRT .F                  48.0 : START DEPTH
STOP .F                9917.0 : STOP DEPTH
STEP .F                   0.5 : STEP
NULL .               -9999.25 : NULL VALUE
COMP .                        : COMPANY
WELL .                        : WELL
FLD  .                        : FIELD
LOC  .                        : LOCATION
PROV .                        : PROVINCE
CNTY .                        : COUNTY
STAT .                        : STATE
CTRY .                        : COUNTRY
SRVC .                        : SERVICE COMPANY
DATE .                        : DATE
UWI  .                        : UNIQUE WELL ID
API  .                        : API NUMBER
SLAT .WGS84 6.216307834407999 : SURFACE LATITUDE
SLON .WGS84 3.438105576243501 : SURFACE LONGITUDE
DATUM.F               1739.31 : DEPTH DATUM ELEV
~Curve Information -----------------------------------------
DEPT   .F     : 
DPHZ_LS.DEC   : HGRD STANDARD RESOLUTION DENSITY POROSITY
NPHI_LS.DEC   : NEUTRON POROSITY LIMESTONE
HCALD  .IN    : HRCC CALIPER CALIBRATED FROM DENSITY LOG
HDRA   .G/C3  : HRDD SPINE AND RIBS DENSITY CORRECTION
PEFZ   .B/E   : HRDD STANDARD RESOLUTION FORMATION PHOTOELECTRIC FACTOR
RHOZ   .G/C3  : HRDD STANDARD RESOLUTION FORMATION DENSITY
AHFCO60.MMHO  : ARRAY INDUCTION FOUR FOOT CONDUCTIVITY A60
AHT20  .OHMM  : ARRAY INDUCTION TWO FOOT RESISTIVITY A20
AHT60  .OHMM  : ARRAY INDUCTION TWO FOOT RESISTIVITY A60
GRR    .GAPI  : GAMMA RAY FROM RESISTIVITY LOG
SPR    .MV    : SPONTANEOUS POTENTIAL FROM RESISTIVITY LOG
AHT30  .OHMM  : ARRAY INDUCTION TWO FOOT RESISTIVITY A30
DTCO   .US/F  : DELTA-T COMPRESSIONAL
DTSM   .US/F  : DELTA-T SHEAR
AHT90  .OHMM  : ARRAY INDUCTION TWO FOOT RESISTIVITY A90
~Params ----------------------------------------------------
~Other -----------------------------------------------------
~ASCII -----------------------------------------------------
# ...
 8604.00000    0.00740    0.00380    8.57810   -0.00060    4.98530    2.69940   -9999.25   78.57410  165.50900   32.75320  -37.25480  113.77920   49.69240  101.25580  145.21270
 8604.50000    0.01110    0.00720    8.58710   -0.00060    5.09370    2.69110   -9999.25   44.29470   92.12940   32.50490  -36.66850   59.35980   53.90540  106.63280  100.82210
 8605.00000    0.00670    0.02190    8.59330   -0.00050    5.08940    2.69980   -9999.25   24.97030   54.29790   35.53580  -36.08210   30.96870   59.10190  115.46200   52.70160
 8605.50000   -0.00350    0.04970    8.61060    0.00940    4.87780    2.71440   -9999.25   14.07650   32.00130   45.76200  -35.66670   18.62970   63.71150  122.10130   21.80160
 8606.00000   -0.00320    0.12230    8.62780    0.03090    4.61210    2.71910   -9999.25    7.93540   18.86050   65.00340  -35.61600   11.94250   62.85520  122.32300    9.08150
 8606.50000    0.00750    0.16470    8.64510    0.05250    4.33920    2.70000   -9999.25    5.97910   11.11570   97.34610  -35.52820    7.65570   59.08290  113.30010    7.00860
 8607.00000    0.03110    0.22490    8.65520    0.07450    4.17490    2.66930   -9999.25    5.91970    6.81310  143.77230  -35.62570    6.23510   56.26090  107.45040    5.49440
 8607.50000    0.05370    0.25390    8.67670    0.08230    4.11790    2.62240   -9999.25    5.94620    7.05390  182.25270  -35.76220    6.92240   54.55190  103.59510    7.13920
 8608.00000    0.07800    0.19930    8.67490    0.07880    4.18730    2.57600   -9999.25    9.48710   21.80350  184.23400  -35.82450   13.19600   53.39890  103.04940   10.69410
 8608.50000    0.08500    0.12340    8.64280    0.05310    4.33140    2.56110   -9999.25   23.87770   50.33240  121.52420  -35.90110   34.34470   52.76420  103.39190   24.74570
 8609.00000    0.06350    0.06250    8.63080    0.03080    4.47550    2.59410   -9999.25   72.46110   98.50230   82.68170  -35.97780   89.38740   52.30460  103.73440   66.92110
 8609.50000    0.01830    0.01820    8.63850    0.01670    4.53530    2.66090   -9999.25   95.59920  100.81390   55.99300  -36.05440   93.37620   51.73820  103.86790   67.52270
 8610.00000   -0.00010    0.01130    8.63700    0.00820    4.54370    2.70280   -9999.25   73.91400   84.30920   44.61020  -36.13100   76.72000   51.38510  102.61150   60.29250
 8610.50000   -0.01060    0.00880    8.63420    0.00300    4.56740    2.72940   -9999.25   56.94470   70.50650   42.10140  -36.20770   63.03490   51.07700  100.78380   54.26020
 8611.00000   -0.01060    0.00770    8.63140   -0.00050    4.59110    2.73120   -9999.25   50.08330   68.05690   40.66950  -36.28430   53.70070   51.41130   97.76550   49.43230
 8611.50000   -0.00770    0.00570    8.62950   -0.00170    4.63370    2.72440   -9999.25   58.15010   86.57010   37.13490  -36.36090   63.30100   51.34160   96.95910   49.87610
 8612.00000   -0.00690    0.00210    8.63220    0.00240    4.66350    2.71750   -9999.25   74.29340  110.28230   32.79120  -36.43760   85.79110   51.35430   97.25980   63.78940
 8612.50000   -0.00710   -0.00160    8.65290    0.01310    4.82280    2.71230   -9999.25   98.31320  192.14280   29.50670  -36.53050  126.17590   51.46260   97.73120  106.99760
 8613.00000   -0.00820   -0.00320    8.67920    0.03760    5.01630    2.71990   -9999.25  144.72430  348.97440   28.65090  -36.39210  185.57140   52.12050  100.98490  150.20580
 8613.50000   -0.01080   -0.00290    8.70650    0.05750    5.18260    2.72800   -9999.25  213.04490  633.81510   29.16530  -36.67950  275.90810   53.82340  105.49240  193.41390
 8614.00000   -0.01330   -0.00210    8.69150    0.05700    5.19070    2.73120   -9999.25  313.61790 1270.14610   31.13010  -36.85870 1234.53630   54.86500  108.40160  237.76170
 8614.50000   -0.01430   -0.00140    8.66860    0.03740    5.16550    2.73050   -9999.25  461.66880 1668.97020   35.72060  -37.01410 1652.72800   55.80860  109.75870  397.72910
 8615.00000   -0.00170   -0.00170    8.66230    0.01590    5.14040    2.71330   -9999.25  502.00270 1593.31360   37.54720  -37.14770 1526.04310   56.57370  110.02490  557.69650
 8615.50000   -0.00120   -0.00220    8.66950    0.00370    5.11530    2.71300   -9999.25  494.96890 1490.40100   37.16660  -37.19360 1251.38550   56.01670  109.03760  567.93190
 8616.00000   -0.00320   -0.00250    8.67670   -0.00030    5.11610    2.71480   -9999.25  450.12510 1394.13620   35.54660  -37.23950 1026.16140   55.16860  106.73740  509.85080
 8616.50000   -0.00940   -0.00120    8.68400   -0.00020    5.07930    2.72440   -9999.25  383.32980 1363.57360   30.82410  -37.80420  961.43710   54.39160  105.66800  413.09230
 8617.00000   -0.00850   -0.00100    8.69120    0.00000    5.07840    2.72510   -9999.25  377.20930 1535.13050   27.35960  -38.74580 1071.91280   54.52620  107.13690  393.70010
 8617.50000   -0.00450   -0.00100    8.69840    0.00020    5.10370    2.71810   -9999.25  410.75990 1705.01920   25.90830  -38.88450 1195.08360   53.86140  107.55170  393.67970
 8618.00000   -0.00430   -0.00140    8.70570    0.00160    5.11140    2.71810   -9999.25  454.86190 1679.77080   26.09740  -39.14080 1306.35420   52.19970  107.60240  412.03010
 8618.50000   -0.00600   -0.00180    8.71290    0.00300    5.09940    2.72000   -9999.25  599.63550 1630.62350   26.88250  -39.55380 1313.31920   51.31780  107.64710  530.25030
 8619.00000   -0.00900   -0.00220    8.72010    0.00440    5.06320    2.72690   -9999.25  790.48770 1561.76230   28.74440  -39.57320 1292.38960   51.65700  107.91010  695.16470
 8619.50000   -0.00080   -0.00200    8.72740    0.00450    5.03960    2.71770   -9999.25  791.14540 1442.69080   28.33950  -39.40720 1174.73160   53.21440  108.40360  809.73980
 8620.00000   -0.00050    0.00030    8.73460    0.00320    5.01590    2.70680   -9999.25  415.35610  869.83600   27.71140  -39.16000  670.91140   54.63570  109.19630  777.49640
 8620.50000   -0.00190    0.00260    8.74180    0.00160    4.99230    2.70990   -9999.25  218.06450  524.44660   27.37040  -39.01470  351.12630   56.05700  111.78110  588.53460
 8621.00000   -0.00870    0.00510    8.74900    0.00040    4.96860    2.72430   -9999.25  114.48510  316.20260   27.43260  -38.86940  183.76430   57.42210  114.70810  360.39320
 8621.50000   -0.01750    0.00780    8.75630    0.00060    4.94500    2.73990   -9999.25   60.10540  162.79850   27.45680  -38.72410   96.17440   59.95800  118.04990  132.25180
 8622.00000   -0.01920    0.01160    8.76350    0.00070    4.84390    2.74460   -9999.25   47.67590   81.57660   31.69080  -38.53660   53.13710   61.05010  119.20940   40.25010
 8622.50000   -0.01710    0.01460    8.77070    0.00010    4.80210    2.74060   -9999.25   44.10350   52.25210   40.84030  -37.69510   48.82690   61.83160  120.38350   39.40310
 8623.00000   -0.01350    0.02750    8.77800   -0.00790    4.82610    2.73600   -9999.25   34.26650   47.29800   56.71620  -36.85350   42.54340   63.86810  121.54000   32.19970
 8623.50000   -0.01220    0.04890    8.78520   -0.01690    4.76560    2.73150   -9999.25   24.18100   30.75740   67.43060  -36.01200   27.69950   65.05810  122.91310   21.78870
 8624.00000   -0.00940    0.07050    8.78690   -0.01740    4.44440    2.72580   -9999.25   20.72440   26.09680   83.15710  -35.40720   22.76160   65.93450  124.92340   19.70570
 8624.50000   -0.00320    0.08740    8.78170   -0.01050    3.98350    2.71950   -9999.25   26.64650   27.85820   91.89130  -34.92050   27.02360   66.81100  127.67110   21.61610
 8625.00000    0.00520    0.09720    8.77650   -0.00270    3.52090    2.70440   -9999.25   23.91500   24.56130   96.70820  -34.63230   25.37930   69.70810  132.28690   22.39770
 8625.50000    0.01150    0.10850    8.79120   -0.00040    3.29900    2.69180   -9999.25   18.02190   19.45590  105.02860  -34.34410   20.24300   70.77860  135.33650   18.34470
 8626.00000    0.01190    0.13760    8.79190    0.00160    3.17440    2.69070   -9999.25   13.58100   15.41160  112.65660  -34.05590   15.83170   71.64250  134.99250   14.53120
 8626.50000    0.00730    0.16810    8.80150    0.00200    3.17540    2.69840   -9999.25   10.23450   12.20810  117.83690  -33.76770   12.07020   72.55420  134.64840   10.89730
