~Version ---------------------------------------------------
VERS.   2.0 : CWLS log ASCII Standard -VERSION 2.0
WRAP.    NO : One line per depth step
DLM . SPACE : Column Data Section Delimiter
~Well ------------------------------------------------------
STRT .F                  48.0 : START DEPTH
STOP .F                9917.0 : STOP DEPTH
STEP .F                   0.5 : STEP
NULL .               -9999.25 : NULL VALUE
COMP .                        : COMPANY
WELL .                        : WELL
FLD  .                        : FIELD
LOC  .                        : LOCATION
PROV .                        : PROVINCE
CNTY .                        : COUNTY
STAT .                        : STATE
CTRY .                        : COUNTRY
SRVC .                        : SERVICE COMPANY
DATE .                        : DATE
UWI  .                        : UNIQUE WELL ID
API  .                        : API NUMBER
SLAT .WGS84 6.216307834407999 : SURFACE LATITUDE
SLON .WGS84 3.438105576243501 : SURFACE LONGITUDE
DATUM.F               1739.31 : DEPTH DATUM ELEV
~Curve Information -----------------------------------------
DEPT   .F     : 
DPHZ_LS.DEC   : HGRD STANDARD RESOLUTION DENSITY POROSITY
NPHI_LS.DEC   : NEUTRON POROSITY LIMESTONE
HCALD  .IN    : HRCC CALIPER CALIBRATED FROM DENSITY LOG
HDRA   .G/C3  : HRDD SPINE AND RIBS DENSITY CORRECTION
PEFZ   .B/E   : HRDD STANDARD RESOLUTION FORMATION PHOTOELECTRIC FACTOR
RHOZ   .G/C3  : HRDD STANDARD RESOLUTION FORMATION DENSITY
AHFCO60.MMHO  : ARRAY INDUCTION FOUR FOOT CONDUCTIVITY A60
AHT20  .OHMM  : ARRAY INDUCTION TWO FOOT RESISTIVITY A20
AHT60  .OHMM  : ARRAY INDUCTION TWO FOOT RESISTIVITY A60
GRR    .GAPI  : GAMMA RAY FROM RESISTIVITY LOG
SPR    .MV    : SPONTANEOUS POTENTIAL FROM RESISTIVITY LOG
AHT30  .OHMM  : ARRAY INDUCTION TWO FOOT RESISTIVITY A30
DTCO   .US/F  : DELTA-T COMPRESSIONAL
DTSM   .US/F  : DELTA-T SHEAR
AHT90  .OHMM  : ARRAY INDUCTION TWO FOOT RESISTIVITY A90
~Params ----------------------------------------------------
~Other -----------------------------------------------------
~ASCII -----------------------------------------------------
# ...
 6005.00000   -9999.25   -9999.25   -9999.25   -9999.25   -9999.25   -9999.25   -9999.25    4.54180    4.87230  116.08190  -38.39600    4.81200   81.88210   -9999.25    4.95930
 6005.50000   -9999.25   -9999.25   -9999.25   -9999.25   -9999.25   -9999.25   -9999.25    4.55040    4.90810  118.93130  -38.38820    4.82390   79.34740   -9999.25    4.95930
 6006.00000   -9999.25   -9999.25   -9999.25   -9999.25   -9999.25   -9999.25   -9999.25    4.57470    4.94430  121.61680  -38.39470    4.84780   77.88200   -9999.25    4.95930
 6006.50000   -9999.25   -9999.25   -9999.25   -9999.25   -9999.25   -9999.25   -9999.25    4.57820    4.96250  121.47450  -38.40130    4.85110   77.55370   -9999.25    4.95930
 6007.00000   -9999.25   -9999.25   -9999.25   -9999.25   -9999.25   -9999.25   -9999.25    4.56180    4.98070  119.29270  -38.31440    4.83270   77.74630   -9999.25    4.95930
 6007.50000   -9999.25   -9999.25   -9999.25   -9999.25   -9999.25   -9999.25   -9999.25    4.55680    4.99900  116.75050  -38.13010    4.82880   77.93880   -9999.25    4.95930
 6008.00000   -9999.25   -9999.25   -9999.25   -9999.25   -9999.25   -9999.25   -9999.25    4.59070    5.02980  115.49760  -37.94570    4.88510   79.07230   -9999.25    4.95590
 6008.50000   -9999.25   -9999.25   -9999.25   -9999.25   -9999.25   -9999.25   -9999.25    4.67910    5.08680  115.31480  -37.76130    4.98270   80.83670   -9999.25    4.95100
 6009.00000   -9999.25   -9999.25   -9999.25   -9999.25   -9999.25   -9999.25   -9999.25    4.72550    5.12260  116.60300  -37.57690    5.00610   81.99520   -9999.25    4.94480
 6009.50000   -9999.25   -9999.25   -9999.25   -9999.25   -9999.25   -9999.25   -9999.25    4.51280    5.12160  121.00250  -37.39260    4.90550   82.28770   -9999.25    4.93870
 6010.00000   -9999.25   -9999.25   -9999.25   -9999.25   -9999.25   -9999.25   -9999.25    4.48550    4.97110  125.54210  -37.20820    4.84650   82.36050   -9999.25    4.93260
 6010.50000   -9999.25   -9999.25   -9999.25   -9999.25   -9999.25   -9999.25   -9999.25    4.66190    5.04970  129.59310  -37.02380    4.95190   82.43330   -9999.25    4.92650
 6011.00000   -9999.25   -9999.25   -9999.25   -9999.25   -9999.25   -9999.25   -9999.25    4.68790    5.04740  129.89640  -36.83940    4.96780   82.59160   -9999.25    4.92040
 6011.50000   -9999.25   -9999.25   -9999.25   -9999.25   -9999.25   -9999.25   -9999.25    4.59060    4.99860  128.77790  -36.65510    4.89820   82.83680   -9999.25    4.91430
 6012.00000   -9999.25   -9999.25   -9999.25   -9999.25   -9999.25   -9999.25   -9999.25    4.54270    4.97290  125.18610  -36.49200    4.81460   83.05130   -9999.25    4.90940
 6012.50000   -9999.25   -9999.25   -9999.25   -9999.25   -9999.25   -9999.25   -9999.25    4.56120    4.94730  120.57060  -36.28610    4.83410   83.26230  100.11640    4.90970
 6013.00000   -9999.25   -9999.25   -9999.25   -9999.25   -9999.25   -9999.25   -9999.25    4.55980    4.92180  115.45350  -35.88660    4.83090   83.05550  100.07180    4.82080
 6013.50000   -9999.25   -9999.25   -9999.25   -9999.25   -9999.25   -9999.25   -9999.25    4.54310    4.91250  113.22850  -35.85550    4.81310   82.84510  100.08390    4.80420
 6014.00000   -9999.25   -9999.25   -9999.25   -9999.25   -9999.25   -9999.25   -9999.25    4.52640    4.90400  110.18080  -35.83740    4.79540   82.71290  100.32670    4.78750
 6014.50000   -9999.25   -9999.25   -9999.25   -9999.25   -9999.25   -9999.25   -9999.25    4.51330    4.89540  106.45340  -35.86620    4.78100   83.14110  100.58340    4.77760
 6015.00000   -9999.25   -9999.25   -9999.25   -9999.25   -9999.25   -9999.25   -9999.25    4.50490    4.88690  104.60010  -35.91840    4.77210   84.08330  101.51130    4.77790
 6015.50000   -9999.25   -9999.25   -9999.25   -9999.25   -9999.25   -9999.25   -9999.25    4.50120    4.88800  105.82780  -36.22670    4.77030   84.58760  102.39290    4.80750
 6016.00000   -9999.25   -9999.25   -9999.25   -9999.25   -9999.25   -9999.25   -9999.25    4.55510    4.98960  111.33380  -36.26560    4.83170   84.68600  102.58310    4.84450
 6016.50000   -9999.25   -9999.25   -9999.25   -9999.25   -9999.25   -9999.25   -9999.25    4.65560    5.09330  116.13550  -36.26500    4.88870   84.58230  102.47870    4.86690
 6017.00000   -9999.25   -9999.25   -9999.25   -9999.25   -9999.25   -9999.25   -9999.25    4.75980    5.09670  120.08060  -36.26430    4.94640   84.47860  102.27180    4.91190
 6017.50000   -9999.25   -9999.25   -9999.25   -9999.25   -9999.25   -9999.25   -9999.25    4.82630    5.07620  122.86580  -36.26370    4.97410   83.98440  101.33730    4.95730
 6018.00000   -9999.25   -9999.25   -9999.25   -9999.25   -9999.25   -9999.25   -9999.25    4.71200    5.03920  122.73570  -36.22540    4.97390   82.17330   99.76760    4.92830
 6018.50000   -9999.25   -9999.25   -9999.25   -9999.25   -9999.25   -9999.25   -9999.25    4.72250    4.97640  120.25310  -36.20170    4.89920   81.04360   98.21810    4.89940
 6019.00000   -9999.25   -9999.25   -9999.25   -9999.25   -9999.25   -9999.25   -9999.25    4.71140    4.91460  119.34340  -36.25310    4.81930   80.50910   97.49880    4.87040
 6019.50000   -9999.25   -9999.25   -9999.25   -9999.25   -9999.25   -9999.25   -9999.25    4.59170    4.89730  119.20850  -36.07920    4.80910   80.42700   97.38170    4.84140
 6020.00000   -9999.25   -9999.25   -9999.25   -9999.25   -9999.25   -9999.25   -9999.25    4.49520    4.88010  118.32330  -35.93560    4.79890   80.14250   96.96410    4.82280
 6020.50000   -9999.25   -9999.25   -9999.25   -9999.25   -9999.25   -9999.25   -9999.25    4.49760    4.87400  117.03020  -35.82450    4.78870   79.77450   96.54650    4.81660
 6021.00000   -9999.25   -9999.25   -9999.25   -9999.25   -9999.25   -9999.25   -9999.25    4.53190    4.87030  115.75540  -36.02670    4.80380   80.10280   96.45930    4.81040
 6021.50000   -9999.25   -9999.25   -9999.25   -9999.25   -9999.25   -9999.25   -9999.25    4.47850    4.86670  114.83730  -35.97480    4.77260   81.65530   98.12460    4.80420
 6022.00000   -9999.25   -9999.25   -9999.25   -9999.25   -9999.25   -9999.25   -9999.25    4.41980    4.86310  114.91870  -35.84590    4.68240   82.70650   99.81500    4.79790
 6022.50000   -9999.25   -9999.25   -9999.25   -9999.25   -9999.25   -9999.25   -9999.25    4.43090    4.85940  116.71690  -35.81240    4.69790   83.17050  100.62910    4.79170
 6023.00000   -9999.25   -9999.25   -9999.25   -9999.25   -9999.25   -9999.25   -9999.25    4.45570    4.85580  117.06020  -35.68520    4.72160   82.81410  100.24420    4.78550
 6023.50000   -9999.25   -9999.25   -9999.25   -9999.25   -9999.25   -9999.25   -9999.25    4.39280    4.85210  116.37800  -35.52520    4.68880   82.57670   99.82860    4.77920
 6024.00000   -9999.25   -9999.25   -9999.25   -9999.25   -9999.25   -9999.25   -9999.25    4.24620    4.79590  115.60000  -35.71070    4.56070   81.92800   99.28080    4.77300
 6024.50000   -9999.25   -9999.25   -9999.25   -9999.25   -9999.25   -9999.25   -9999.25    4.11880    4.71850  115.28620  -35.82110    4.40830   80.76080   97.78140    4.76680
 6025.00000   -9999.25   -9999.25   -9999.25   -9999.25   -9999.25   -9999.25   -9999.25    4.07500    4.67950  115.74250  -35.75080    4.33820   79.00380   96.03680    4.76060
 6025.50000   -9999.25   -9999.25   -9999.25   -9999.25   -9999.25   -9999.25   -9999.25    4.16800    4.70940  115.49600  -35.55420    4.52490   78.73370   95.60950    4.75430
 6026.00000   -9999.25   -9999.25   -9999.25   -9999.25   -9999.25   -9999.25   -9999.25    4.35800    4.74400  114.55680  -35.63610    4.68560   78.87970   95.48620    4.74810
 6026.50000   -9999.25   -9999.25   -9999.25   -9999.25   -9999.25   -9999.25   -9999.25    4.46680    4.77890  114.15590  -35.62850    4.74290   79.13410   95.71980    4.74190
 6027.00000   -9999.25   -9999.25   -9999.25   -9999.25   -9999.25   -9999.25   -9999.25    4.48300    4.81410  114.48320  -35.38140    4.74910   79.25450   95.95330    4.73560
 6027.50000   -9999.25   -9999.25   -9999.25   -9999.25   -9999.25   -9999.25   -9999.25    4.45010    4.84950  115.46880  -35.22430    4.73040   79.30590   96.18690    4.73060
