~Version ---------------------------------------------------
VERS.   2.0 : CWLS log ASCII Standard -VERSION 2.0
WRAP.    NO : One line per depth step
DLM . SPACE : Column Data Section Delimiter
~Well ------------------------------------------------------
STRT .F                  48.0 : START DEPTH
STOP .F                9917.0 : STOP DEPTH
STEP .F                   0.5 : STEP
NULL .               -9999.25 : NULL VALUE
COMP .                        : COMPANY
WELL .                        : WELL
FLD  .                        : FIELD
LOC  .                        : LOCATION
PROV .                        : PROVINCE
CNTY .                        : COUNTY
STAT .                        : STATE
CTRY .                        : COUNTRY
SRVC .                        : SERVICE COMPANY
DATE .                        : DATE
UWI  .                        : UNIQUE WELL ID
API  .                        : API NUMBER
SLAT .WGS84 6.216307834407999 : SURFACE LATITUDE
SLON .WGS84 3.438105576243501 : SURFACE LONGITUDE
DATUM.F               1739.31 : DEPTH DATUM ELEV
~Curve Information -----------------------------------------
DEPT   .F     : 
DPHZ_LS.DEC   : HGRD STANDARD RESOLUTION DENSITY POROSITY
NPHI_LS.DEC   : NEUTRON POROSITY LIMESTONE
HCALD  .IN    : HRCC CALIPER CALIBRATED FROM DENSITY LOG
HDRA   .G/C3  : HRDD SPINE AND RIBS DENSITY CORRECTION
PEFZ   .B/E   : HRDD STANDARD RESOLUTION FORMATION PHOTOELECTRIC FACTOR
RHOZ   .G/C3  : HRDD STANDARD RESOLUTION FORMATION DENSITY
AHFCO60.MMHO  : ARRAY INDUCTION FOUR FOOT CONDUCTIVITY A60
AHT20  .OHMM  : ARRAY INDUCTION TWO FOOT RESISTIVITY A20
AHT60  .OHMM  : ARRAY INDUCTION TWO FOOT RESISTIVITY A60
GRR    .GAPI  : GAMMA RAY FROM RESISTIVITY LOG
SPR    .MV    : SPONTANEOUS POTENTIAL FROM RESISTIVITY LOG
AHT30  .OHMM  : ARRAY INDUCTION TWO FOOT RESISTIVITY A30
DTCO   .US/F  : DELTA-T COMPRESSIONAL
DTSM   .US/F  : DELTA-T SHEAR
AHT90  .OHMM  : ARRAY INDUCTION TWO FOOT RESISTIVITY A90
~Params ----------------------------------------------------
~Other -----------------------------------------------------
~ASCII -----------------------------------------------------
# ...
 9110.00000    0.18010    0.25970    9.10970    0.21960    4.44440    2.40030   -9999.25    4.00470    5.05220  105.16840  -30.19690    4.71580   76.44100  143.68980    4.84930
 9110.50000    0.17410    0.26520    9.05600    0.21850    4.42080    2.41460   -9999.25    4.49780    5.15480  111.17380  -30.29120    4.84990   77.53100  147.60800    5.20670
 9111.00000    0.13110    0.26610    9.16650    0.20640    4.39720    2.49000   -9999.25    4.57730    5.09540  116.30070  -30.46650    4.86850   77.22840  147.34920    5.42200
 9111.50000    0.06500    0.27250    9.53850    0.18740    4.37360    2.58140   -9999.25    4.55530    4.92330  119.11420  -30.68380    4.69620   76.10690  146.51550    5.25860
 9112.00000    0.04890    0.28410    8.99760    0.16910    4.34990    2.62830   -9999.25    4.35540    4.75700  116.52220  -30.87300    4.52990   76.00110  146.05970    5.05390
 9112.50000    0.06170    0.28680    8.88730    0.17060    4.36570    2.59720   -9999.25    4.16430    4.59630  113.24740  -30.99330    4.36960   76.95920  146.76530    4.84920
 9113.00000    0.11660    0.28060    9.14570    0.18240    4.41730    2.50650   -9999.25    4.09600    4.48000  112.42200  -30.35850    4.21490   78.35520  147.64370    4.64450
 9113.50000    0.13770    0.27130    8.81270    0.19990    4.48690    2.47590   -9999.25    4.06010    4.51970  114.07950  -30.26580    4.21060   80.17410  147.89870    4.56340
 9114.00000    0.16510    0.28230    9.22950    0.20670    4.55280    2.43180   -9999.25    4.06020    4.76250  118.66550  -30.22810    4.46100   81.77960  147.15480    4.69780
 9114.50000    0.21580    0.29510    9.22160    0.19230    4.61030    2.34910   -9999.25    4.37850    5.01830  120.95180  -30.22830    4.72620   83.30780  144.50320    5.03010
 9115.00000    0.24530    0.29940    8.60680    0.16900    4.61240    2.29000   -9999.25    4.72190    5.28790  120.30280  -30.17390    5.00710   84.52140  136.50800    5.36250
 9115.50000    0.16700    0.29370    8.68200    0.16980    4.59080    2.38750   -9999.25    4.97690    5.38700  119.24010  -30.26260    5.26380   85.24670  131.06390    5.69480
 9116.00000    0.08210    0.26990    8.68410    0.16470    4.56040    2.56150   -9999.25    4.98110    5.44870  117.32550  -30.34290    5.26560   86.06400  125.61970    5.69690
 9116.50000    0.01960    0.26380    8.61540    0.14720    4.54200    2.67570   -9999.25    4.89000    5.41850  117.32120  -30.15730    5.12300   86.20830  121.14070    5.65560
 9117.00000    0.04250    0.28910    8.60980    0.14130    4.56970    2.64350   -9999.25    4.68920    5.29050  118.36680  -30.26850    4.98430   84.76040  119.34500    5.44070
 9117.50000    0.09160    0.30250    8.65990    0.16180    4.59740    2.57550   -9999.25    4.49660    5.15760  117.09210  -30.37960    4.84940   83.94200  120.29030    5.22570
 9118.00000    0.11320    0.30450    8.74860    0.21110    4.58830    2.51870   -9999.25    4.32230    5.02800  116.10620  -30.49080    4.71810   83.37790  122.99010    5.01080
 9118.50000    0.10760    0.29550    8.89680    0.24900    4.55310    2.52370   -9999.25    4.24750    4.90170  116.01350  -30.60190    4.59030   83.04500  125.46880    4.79590
 9119.00000    0.07620    0.29260    8.88530    0.24860    4.51180    2.57460   -9999.25    4.17120    4.77850  116.64020  -30.71300    4.46600   82.87120  128.32620    4.66800
 9119.50000    0.07570    0.29700    8.83220    0.23850    4.45620    2.58680   -9999.25    4.09370    4.65850  117.14810  -30.82420    4.34510   82.58420  130.74010    4.66990
 9120.00000    0.06810    0.30870    8.84170    0.19770    4.39710    2.59450   -9999.25    3.99750    4.49370  118.76950  -30.93530    4.22740   82.29920  133.51890    4.67100
 9120.50000    0.06260    0.30840    8.86600    0.17020    4.39090    2.60250   -9999.25    3.86410    4.23040  121.52020  -31.04640    4.05340   82.26790  135.34670    4.67480
 9121.00000    0.05860    0.30740    8.90010    0.15330    4.40910    2.60910   -9999.25    3.73510    3.98260  130.91190  -31.15760    3.82660   83.32790  134.96000    4.45100
 9121.50000    0.07170    0.30940    9.18400    0.14540    4.47840    2.59280   -9999.25    3.44190    3.76270  130.75750  -31.26870    3.61250   85.33870  130.79440    4.17110
 9122.00000    0.10320    0.29840    9.25310    0.15890    4.52160    2.53830   -9999.25    3.14120    3.78920  123.54770  -31.37980    3.45260   82.67710  125.90770    3.98520
 9122.50000    0.10920    0.25720    9.21150    0.19700    4.50170    2.52420   -9999.25    3.19440    4.28490  109.56520  -31.49100    3.77870   75.89000  112.29430    3.96760
 9123.00000    0.09440    0.20480    9.02330    0.19730    4.48180    2.54110   -9999.25    3.75830    4.92920  100.10900  -31.50800    4.67200   70.55400  106.03040    4.04150
 9123.50000    0.05580    0.18480    8.74980    0.18160    4.46710    2.60340   -9999.25    4.36480    5.33700   86.52460  -31.47900    4.78670   69.95190  103.01830    5.58070
 9124.00000    0.02120    0.20010    8.54790    0.11850    4.51310    2.66790   -9999.25    4.25970    4.85440   85.26550  -31.45000    4.81420   69.63420  100.48390    6.56680
 9124.50000    0.02260    0.24390    8.64470    0.09820    4.51270    2.68000   -9999.25    3.59670    4.19520  108.22900  -31.42100    4.08770   71.28200   99.07170    5.63970
 9125.00000    0.05440    0.27020    8.85550    0.12240    4.41900    2.62510   -9999.25    3.03680    3.62550  110.06760  -31.39200    3.47090   77.54610   99.96360    3.32000
 9125.50000    0.10320    0.29220    9.50960    0.16170    4.30190    2.55310   -9999.25    2.62240    3.13320  111.05220  -31.36300    2.95190   79.47360  101.02780    2.85640
 9126.00000    0.14630    0.30220    9.75810    0.19080    4.22390    2.47780   -9999.25    2.74210    3.11690  111.55000  -31.35250    3.00540   79.83260  102.30120    2.94530
 9126.50000    0.15680    0.31880    9.63390    0.20180    4.26200    2.44030   -9999.25    2.98940    3.20410  111.57180  -31.34450    3.14980   80.19160  103.46180    3.12430
 9127.00000    0.15690    0.32310    9.80340    0.20460    4.36210    2.44110   -9999.25    3.02530    3.29350  114.20860  -31.33650    3.22140   81.22560  105.15110    3.18950
 9127.50000    0.15770    0.33360    9.59030    0.20420    4.41890    2.42610   -9999.25    3.03820    3.29350  117.25220  -31.32850    3.23370   84.21140  110.06180    3.20340
 9128.00000    0.16090    0.34580    9.72340    0.20180    4.46750    2.40860   -9999.25    3.02160    3.29350  115.54330  -31.32040    3.23740   84.59190  113.26280    3.17730
 9128.50000    0.19660    0.36570    9.94980    0.20180    4.51790    2.39420   -9999.25    3.00500    3.31190  112.55460  -31.31240    3.24230   83.86400  114.13760    3.13300
 9129.00000    0.23940    0.37290   10.04060    0.19640    4.59290    2.35110   -9999.25    2.98850    3.49290  109.79480  -31.30440    3.27960   82.09180  115.26020    3.10490
 9129.50000    0.26760    0.37870   10.18920    0.19100    4.66780    2.27610   -9999.25    3.05910    3.80220  107.74390  -31.29640    3.47280   80.73680  116.06370    3.10550
 9130.00000    0.26440    0.37490    9.28630    0.19640    4.74280    2.23220   -9999.25    3.27670    3.98210  107.94640  -31.28840    3.69870   80.37820  116.10370    3.44740
 9130.50000    0.22050    0.37010    9.38050    0.23190    4.74170    2.30310   -9999.25    3.49360    4.01330  108.64520  -31.28040    3.89750   80.37200  115.93300    3.87260
 9131.00000    0.17010    0.36080    9.53000    0.24750    4.68630    2.40310   -9999.25    3.54020    4.01430  108.02050  -31.13740    3.91700   80.76860  114.70020    3.87420
 9131.50000    0.14350    0.35020    9.43760    0.24790    4.55170    2.46480   -9999.25    3.54020    3.91050  107.66020  -31.32050    3.77560   80.92270  114.82200    3.81210
 9132.00000    0.14070    0.33470    8.96540    0.24830    4.43490    2.47590   -9999.25    3.35760    3.74060  109.52650  -31.61390    3.59310   80.67370  116.22410    3.70760
 9132.50000    0.11880    0.31360    8.99360    0.24130    4.32770    2.50370   -9999.25    3.14620    3.57810  112.77580  -31.83560    3.41940   80.34180  120.37500    3.60310
