~Version ---------------------------------------------------
VERS.   2.0 : CWLS log ASCII Standard -VERSION 2.0
WRAP.    NO : One line per depth step
DLM . SPACE : Column Data Section Delimiter
~Well ------------------------------------------------------
STRT .F                  48.0 : START DEPTH
STOP .F                9917.0 : STOP DEPTH
STEP .F                   0.5 : STEP
NULL .               -9999.25 : NULL VALUE
COMP .                        : COMPANY
WELL .                        : WELL
FLD  .                        : FIELD
LOC  .                        : LOCATION
PROV .                        : PROVINCE
CNTY .                        : COUNTY
STAT .                        : STATE
CTRY .                        : COUNTRY
SRVC .                        : SERVICE COMPANY
DATE .                        : DATE
UWI  .                        : UNIQUE WELL ID
API  .                        : API NUMBER
SLAT .WGS84 6.216307834407999 : SURFACE LATITUDE
SLON .WGS84 3.438105576243501 : SURFACE LONGITUDE
DATUM.F               1739.31 : DEPTH DATUM ELEV
~Curve Information -----------------------------------------
DEPT   .F     : 
DPHZ_LS.DEC   : HGRD STANDARD RESOLUTION DENSITY POROSITY
NPHI_LS.DEC   : NEUTRON POROSITY LIMESTONE
HCALD  .IN    : HRCC CALIPER CALIBRATED FROM DENSITY LOG
HDRA   .G/C3  : HRDD SPINE AND RIBS DENSITY CORRECTION
PEFZ   .B/E   : HRDD STANDARD RESOLUTION FORMATION PHOTOELECTRIC FACTOR
RHOZ   .G/C3  : HRDD STANDARD RESOLUTION FORMATION DENSITY
AHFCO60.MMHO  : ARRAY INDUCTION FOUR FOOT CONDUCTIVITY A60
AHT20  .OHMM  : ARRAY INDUCTION TWO FOOT RESISTIVITY A20
AHT60  .OHMM  : ARRAY INDUCTION TWO FOOT RESISTIVITY A60
GRR    .GAPI  : GAMMA RAY FROM RESISTIVITY LOG
SPR    .MV    : SPONTANEOUS POTENTIAL FROM RESISTIVITY LOG
AHT30  .OHMM  : ARRAY INDUCTION TWO FOOT RESISTIVITY A30
DTCO   .US/F  : DELTA-T COMPRESSIONAL
DTSM   .US/F  : DELTA-T SHEAR
AHT90  .OHMM  : ARRAY INDUCTION TWO FOOT RESISTIVITY A90
~Params ----------------------------------------------------
~Other -----------------------------------------------------
~ASCII -----------------------------------------------------
# ...
 8857.00000    0.05200    0.25270    8.42030    0.03180    3.63830    2.62030   -9999.25    6.71760    7.95600  151.43750  -20.90110    7.53290   76.98680  157.58830    7.08090
 8857.50000    0.04690    0.27260    8.41510    0.05920    3.75960    2.63140   -9999.25    6.30010    7.40540  163.19490  -21.29590    6.99840   79.42180  155.57920    6.47870
 8858.00000    0.03750    0.28140    8.45540    0.08830    3.84290    2.65330   -9999.25    6.04210    6.89300  174.58620  -22.15170    6.50180   79.47690  153.21990    5.87650
 8858.50000    0.03580    0.27580    8.49210    0.08590    3.86380    2.64540   -9999.25    5.92890    6.70690  174.37510  -22.88000    6.31180   79.21490  151.53260    5.87280
 8859.00000    0.03630    0.26140    8.43340    0.07450    3.85180    2.64760   -9999.25    5.92350    6.67390  171.35370  -22.73270    6.30260   78.55970  150.88260    5.94990
 8859.50000    0.03220    0.25560    8.40170    0.06300    3.82890    2.65470   -9999.25    5.91800    6.74500  162.74350  -22.58540    6.34050   78.29660  150.89320    6.08320
 8860.00000    0.02950    0.25180    8.41170    0.05520    3.80290    2.66070   -9999.25    6.03300    6.86370  154.13330  -22.43810    6.46260   78.08080  150.75000    6.24790
 8860.50000    0.02540    0.24810    8.43770    0.05110    3.77690    2.66790   -9999.25    6.17360    6.98450  147.75160  -22.29080    6.58700   77.76860  150.49430    6.30150
 8861.00000    0.02470    0.24480    8.44190    0.04220    3.75080    2.66810   -9999.25    6.31750    7.10750  142.76930  -22.14350    6.71380   77.06060  149.28930    6.35500
 8861.50000    0.02570    0.25200    8.44890    0.02640    3.72220    2.66620   -9999.25    6.46470    7.23270  137.78690  -21.99630    6.84310   76.15420  147.32570    6.40860
 8862.00000    0.02520    0.25990    8.46010   -0.00050    3.68550    2.66810   -9999.25    6.61530    7.36000  133.45300  -21.84900    6.97490   75.53650  144.60320    6.43220
 8862.50000    0.02370    0.26140    8.47140   -0.00340    3.64880    2.67270   -9999.25    6.76940    7.48960  129.22020  -21.70170    7.10910   75.15560  143.05830    6.49440
 8863.00000    0.01740    0.24700    8.48270   -0.00400    3.62320    2.68220   -9999.25    6.92720    7.62140  125.77150  -21.55440    7.24600   74.79720  142.43080    6.81880
 8863.50000    0.01750    0.22890    8.49400   -0.00390    3.63410    2.67910   -9999.25    7.08860    7.77520  124.71690  -21.40710    7.38550   74.56410  141.76280    7.14860
 8864.00000    0.02120    0.23500    8.50520   -0.00210    3.63360    2.67320   -9999.25    7.34060    8.14420  124.95000  -21.48460    7.73670   74.33110  140.67830    7.47840
 8864.50000    0.02320    0.23820    8.51650   -0.00040    3.62900    2.67240   -9999.25    7.69030    8.97240  125.18310  -21.66060    8.33500   73.20530  136.34870    8.00960
 8865.00000    0.01660    0.23690    8.52780    0.00020    3.59160    2.68440   -9999.25    8.10820    9.88490  124.87740  -22.21730    8.97950   72.41370  134.03350    8.84320
 8865.50000    0.01270    0.22640    8.53910   -0.00030    3.59180    2.68830   -9999.25    8.90500   10.87990  123.01420  -22.61560    9.67390   71.82300  134.28760    9.67670
 8866.00000    0.01800    0.21240    8.55030   -0.00260    3.60570    2.67380   -9999.25    9.78020   11.12730  121.32650  -22.67230   10.16180   71.69040  134.51570   10.51030
 8866.50000    0.02780    0.20420    8.56160   -0.00540    3.61960    2.65930   -9999.25    9.87130   11.05880  123.42320  -22.74320   10.34120   71.87960  134.56000   10.51720
 8867.00000    0.03110    0.20500    8.57240   -0.00490    3.62110    2.65740   -9999.25    9.89990   11.05450  126.89940  -22.86150   10.37900   72.63410  134.60430   10.30550
 8867.50000    0.02920    0.21380    8.57150   -0.00320    3.57390    2.66360   -9999.25    9.91680   11.14000  129.41060  -23.02020   10.78910   72.79460  134.19470   10.17690
 8868.00000    0.02810    0.21700    8.56890   -0.00250    3.56600    2.66030   -9999.25   10.36470   12.23080  129.79860  -22.36300   11.93270   71.87160  133.58950   10.94870
 8868.50000    0.03800    0.21460    8.56640   -0.00250    3.55630    2.64570   -9999.25   11.42280   13.45360  128.69840  -21.61910   12.74950   71.12330  133.12290   12.11950
 8869.00000    0.04010    0.20160    8.56570   -0.00290    3.49630    2.64020   -9999.25   12.58880   13.90070  126.50830  -21.50470   13.25060   70.80830  132.65630   13.29040
 8869.50000    0.04200    0.19090    8.57980   -0.00380    3.44940    2.63900   -9999.25   13.04530   14.01310  123.20120  -21.49670   13.44700   70.72570  132.68500   13.91030
 8870.00000    0.04100    0.19050    8.57980   -0.00370    3.43830    2.64010   -9999.25   13.05250   14.01600  119.58550  -21.14670   13.59420   71.24750  134.79650   13.67020
 8870.50000    0.03810    0.19620    8.57740   -0.00420    3.44730    2.64130   -9999.25   12.87830   13.94020  116.22300  -20.96900   13.61240   71.86310  138.06300   12.94460
 8871.00000    0.04000    0.20210    8.57940   -0.00490    3.47760    2.64100   -9999.25   12.50890   13.31990  115.17330  -21.31570   13.63790   73.52500  142.75960   12.07540
 8871.50000    0.03980    0.21050    8.57910   -0.00510    3.54700    2.64160   -9999.25   12.15010   12.72720  118.61860  -20.92530   12.50790   76.39920  147.55490   11.13500
 8872.00000    0.03530    0.22090    8.57870   -0.00520    3.54750    2.64970   -9999.25   10.71380   11.48730  123.21830  -20.87040   11.09270   78.28650  147.95880   10.19460
 8872.50000    0.02620    0.23220    8.57880   -0.00300    3.51900    2.66720   -9999.25    9.41980   10.36110  126.74980  -20.82250    9.83760   79.16930  146.57900    9.25420
 8873.00000    0.01530    0.24050    8.57910    0.00160    3.45980    2.68600   -9999.25    8.28210    9.34540  130.07230  -20.77470    8.72450   79.16490  144.39300    8.31380
 8873.50000    0.00880    0.23660    8.57940    0.00510    3.45220    2.69510   -9999.25    8.01990    8.63430  132.10130  -20.72680    8.24190   79.12810  145.55110    8.12970
 8874.00000    0.00660    0.22640    8.57860    0.00550    3.44470    2.70080   -9999.25    7.97380    8.60730  132.45760  -20.67890    8.19780   79.02610  148.51050    8.05740
 8874.50000    0.00600    0.21700    8.57460    0.00510    3.43710    2.70060   -9999.25    8.09510    8.82200  131.81460  -20.63110    8.38530   78.69410  151.17640    8.40690
 8875.00000    0.00710    0.21360    8.57060    0.00410    3.44830    2.69750   -9999.25    8.22970    9.16900  130.34080  -20.58320    8.72240   78.06340  155.03470    8.60510
 8875.50000    0.01270    0.21630    8.56660    0.00370    3.52810    2.68680   -9999.25    8.36650    9.52950  126.90800  -20.53540    9.07300   77.33720  154.58690    8.51240
 8876.00000    0.01030    0.22420    8.56260    0.00390    3.64150    2.69250   -9999.25    8.50560    9.87560  121.12560  -20.48750    9.36440   76.28040  151.09910    8.56480
 8876.50000   -0.00950    0.23210    8.55860    0.00810    3.79270    2.73710   -9999.25    8.84060    9.98020  114.26810  -20.43960    9.53270   75.66410  147.82640    8.83480
 8877.00000   -0.03620    0.23910    8.55780    0.01010    3.93640    2.78340   -9999.25    9.22320   10.08590  115.69360  -20.39180    9.67260   75.29280  146.26760    9.10490
 8877.50000   -0.03790    0.23480    8.55760    0.00970    3.89960    2.78680   -9999.25    9.43260   10.12430  119.34100  -20.34390    9.74560   74.93760  143.85520    9.37490
 8878.00000   -0.02020    0.22810    8.55730    0.00740    3.71840    2.73710   -9999.25    9.43950   10.13170  124.02490  -20.35760    9.80220   75.12090  140.80460    9.43980
 8878.50000    0.00910    0.22380    8.55700    0.00120    3.55040    2.69660   -9999.25    9.21530    9.99560  127.74740  -20.60130    9.70700   75.88690  137.75400    9.25440
 8879.00000    0.02110    0.22340    8.55670   -0.00310    3.54240    2.67400   -9999.25    8.98500    9.77020  128.80720  -20.84510    9.37880   76.92060  132.41920    9.06910
 8879.50000    0.02640    0.22340    8.55640   -0.00530    3.60940    2.66550   -9999.25    8.71670    9.45320  128.46450  -21.08880    9.09930   78.22390  128.07730    8.88370
