~Version ---------------------------------------------------
VERS.   2.0 : CWLS log ASCII Standard -VERSION 2.0
WRAP.    NO : One line per depth step
DLM . SPACE : Column Data Section Delimiter
~Well ------------------------------------------------------
STRT .F                  48.0 : START DEPTH
STOP .F                9917.0 : STOP DEPTH
STEP .F                   0.5 : STEP
NULL .               -9999.25 : NULL VALUE
COMP .                        : COMPANY
WELL .                        : WELL
FLD  .                        : FIELD
LOC  .                        : LOCATION
PROV .                        : PROVINCE
CNTY .                        : COUNTY
STAT .                        : STATE
CTRY .                        : COUNTRY
SRVC .                        : SERVICE COMPANY
DATE .                        : DATE
UWI  .                        : UNIQUE WELL ID
API  .                        : API NUMBER
SLAT .WGS84 6.216307834407999 : SURFACE LATITUDE
SLON .WGS84 3.438105576243501 : SURFACE LONGITUDE
DATUM.F               1739.31 : DEPTH DATUM ELEV
~Curve Information -----------------------------------------
DEPT   .F     : 
DPHZ_LS.DEC   : HGRD STANDARD RESOLUTION DENSITY POROSITY
NPHI_LS.DEC   : NEUTRON POROSITY LIMESTONE
HCALD  .IN    : HRCC CALIPER CALIBRATED FROM DENSITY LOG
HDRA   .G/C3  : HRDD SPINE AND RIBS DENSITY CORRECTION
PEFZ   .B/E   : HRDD STANDARD RESOLUTION FORMATION PHOTOELECTRIC FACTOR
RHOZ   .G/C3  : HRDD STANDARD RESOLUTION FORMATION DENSITY
AHFCO60.MMHO  : ARRAY INDUCTION FOUR FOOT CONDUCTIVITY A60
AHT20  .OHMM  : ARRAY INDUCTION TWO FOOT RESISTIVITY A20
AHT60  .OHMM  : ARRAY INDUCTION TWO FOOT RESISTIVITY A60
GRR    .GAPI  : GAMMA RAY FROM RESISTIVITY LOG
SPR    .MV    : SPONTANEOUS POTENTIAL FROM RESISTIVITY LOG
AHT30  .OHMM  : ARRAY INDUCTION TWO FOOT RESISTIVITY A30
DTCO   .US/F  : DELTA-T COMPRESSIONAL
DTSM   .US/F  : DELTA-T SHEAR
AHT90  .OHMM  : ARRAY INDUCTION TWO FOOT RESISTIVITY A90
~Params ----------------------------------------------------
~Other -----------------------------------------------------
~ASCII -----------------------------------------------------
# ...
 8075.00000    0.04020    0.27170    9.82000    0.14180    3.96770    2.64130   -9999.25    9.15550    6.85240  132.49510  -25.33410    7.93600   83.54900  154.22210    6.03660
 8075.50000    0.03940    0.27270    9.82000    0.13700    3.91910    2.64380   -9999.25    9.33850    7.59520  134.09320  -25.31130    8.35040   82.29620  153.35140    6.82790
 8076.00000    0.04930    0.27110    9.82000    0.11820    3.88140    2.62680   -9999.25   10.26000    8.41850  134.63120  -25.30170    9.44340   80.08150  150.52190    7.74850
 8076.50000    0.04120    0.26010    9.76480    0.09040    3.83130    2.64010   -9999.25   11.02740    9.33090  132.15900  -25.31660   10.43830   78.06790  147.62010    8.66900
 8077.00000    0.02820    0.24130    9.75040    0.06790    3.77240    2.66120   -9999.25   12.66240   10.34240  128.91250  -25.34050   10.98880   76.44080  146.24060    9.58960
 8077.50000    0.00700    0.23270    9.74500    0.05050    3.71360    2.69880   -9999.25   12.84900   10.35750  126.92800  -25.36440   10.86080   75.87740  145.51260   10.14050
 8078.00000    0.00800    0.22940    9.74070    0.03210    3.65470    2.70050   -9999.25   11.92460   10.19200  127.14250  -25.38830   10.52780   75.43790  144.78470    9.99080
 8078.50000    0.01460    0.23160    9.73470    0.01930    3.64860    2.68780   -9999.25   11.06660    9.85280  128.86350  -25.41550   10.20500   75.02600  144.00470    9.74380
 8079.00000    0.02010    0.23550    9.71850    0.01890    3.66120    2.67670   -9999.25   10.51070    9.52500  130.50480  -25.45910    9.89210   75.20460  143.11120    9.49680
 8079.50000    0.02310    0.23750    9.70240    0.01900    3.66940    2.67230   -9999.25   10.36090    9.20800  131.77760  -25.40800    9.55970   75.55960  142.00910    9.24980
 8080.00000    0.02110    0.22830    9.71580    0.02100    3.67760    2.67580   -9999.25   10.35360    8.90160  132.01720  -25.35500    9.22420   75.39650  140.54270    9.00280
 8080.50000    0.01350    0.22670    9.73110    0.01870    3.67820    2.68200   -9999.25   10.26420    8.60540  131.86440  -25.30200    8.90050   74.94960  139.78120    8.75580
 8081.00000    0.00740    0.23060    9.74640    0.02040    3.66480    2.69720   -9999.25   10.02870    8.38200  131.57660  -25.39930    8.62290   74.77770  139.01980    8.50880
 8081.50000    0.01410    0.23950    9.76170    0.03250    3.69690    2.68640   -9999.25    9.95660    8.32460  131.30600  -25.49810    8.44070   74.79270  137.58260    8.26180
 8082.00000    0.02920    0.24280    9.77700    0.06050    3.73740    2.66470   -9999.25   10.13110    8.26760  131.37740  -25.50310    8.42720   74.81780  135.68710    8.25740
 8082.50000    0.03700    0.24230    9.79220    0.09030    3.88820    2.64950   -9999.25   10.66320    8.23490  131.48110  -25.47410    8.63450   74.66930  133.79170    8.32910
 8083.00000    0.03650    0.24070    9.80750    0.09680    3.88810    2.64800   -9999.25   10.85970    8.25750  131.91440  -25.47510    8.62920   74.52070  131.89620    8.47790
 8083.50000    0.03770    0.23850    9.82280    0.08580    3.88800    2.64520   -9999.25   10.40180    8.32490  131.95970  -25.47610    8.58100   73.81650  131.01190    8.41200
 8084.00000    0.04050    0.23510    9.83290    0.07590    3.88730    2.64060   -9999.25    9.84220    8.07280  131.84940  -25.50380    8.31070   72.40400  133.33680    8.23990
 8084.50000    0.03990    0.23160    9.83580    0.08410    3.88090    2.64170   -9999.25    9.29090    7.43700  132.06230  -25.51700    7.67120   71.67430  136.98220    7.65730
 8085.00000    0.03560    0.24280    9.81980    0.09420    3.88890    2.65000   -9999.25    8.74490    6.74540  133.72860  -25.44500    7.08090   72.75850  139.18840    7.07470
 8085.50000    0.04020    0.26740    9.78980    0.10600    3.94980    2.64470   -9999.25    8.44410    6.58150  133.79160  -25.37290    6.73400   75.01550  142.30200    6.60790
 8086.00000    0.04470    0.28390    9.91190    0.13150    4.03990    2.63460   -9999.25    9.80080    6.73140  132.07560  -25.42730    7.03210   77.74060  145.41560    6.74300
 8086.50000    0.04960    0.28510   10.28320    0.15540    4.12800    2.62820   -9999.25   10.83360    7.34080  130.48840  -25.50140    7.75330   79.87160  147.09930    7.08610
 8087.00000    0.05140    0.27690    9.96310    0.15640    4.12240    2.62320   -9999.25   13.39620    7.85050  129.73280  -25.53140    8.07140   79.86870  145.79080    7.42920
 8087.50000    0.05070    0.26430    9.92890    0.14570    4.06580    2.62420   -9999.25   10.46340    7.70470  130.26320  -25.86230    8.06900   77.63070  140.88460    7.77230
 8088.00000    0.04720    0.25610    9.96090    0.13310    3.98180    2.63110   -9999.25    9.49830    7.53320  132.58350  -25.66790    7.81780   75.49660  140.98370    7.55820
 8088.50000    0.04440    0.25700    9.95190    0.13160    3.92580    2.63590   -9999.25    8.77520    7.36700  134.42880  -25.51220    7.57160   75.82510  143.40250    7.42700
 8089.00000    0.04260    0.26080    9.96490    0.13620    3.89040    2.63730   -9999.25    8.35980    7.20450  133.69590  -25.52200    7.43910   77.70520  145.63430    7.13010
 8089.50000    0.03920    0.25850    9.98200    0.14040    3.89050    2.64020   -9999.25    7.96410    7.04560  130.81200  -25.53180    7.30880   78.28360  146.93680    6.83320
 8090.00000    0.04000    0.25480    9.99830    0.14020    3.90730    2.65220   -9999.25    7.39130    6.89020  130.47720  -25.54160    7.18080   78.08230  147.15190    6.53630
 8090.50000    0.04710    0.25580   10.00600    0.13820    3.95360    2.63600   -9999.25    7.09990    6.73820  132.66670  -25.55140    7.05510   77.95880  146.44150    6.23940
 8091.00000    0.05770    0.26670   10.02450    0.13880    4.05770    2.61990   -9999.25    7.03280    6.60540  134.31070  -25.56130    6.93160   78.67410  143.97170    5.94250
 8091.50000    0.06360    0.28380   10.05450    0.14500    4.19030    2.60080   -9999.25    7.11380    6.53600  133.69300  -25.57080    6.81020   79.22250  142.31280    5.94190
 8092.00000    0.06080    0.30050   10.14820    0.16780    4.23690    2.60130   -9999.25    7.08760    6.48470  131.36500  -25.52490    6.78720   80.24630  141.69080    5.94130
 8092.50000    0.06160    0.31230   10.16050    0.17250    4.22740    2.60430   -9999.25    7.15860    6.60290  129.45770  -25.61970    6.82140   81.32340  144.49730    6.05040
 8093.00000    0.06040    0.31310   10.21900    0.16600    4.21790    2.60700   -9999.25    7.55940    6.87940  129.88200  -25.40280    7.26220   81.99610  146.03490    6.61430
 8093.50000    0.05220    0.29830   10.17910    0.15510    4.20840    2.61660   -9999.25    8.34430    7.25650  133.41490  -25.63240    7.86630   80.98330  143.63570    7.17890
 8094.00000    0.05080    0.28480    9.95870    0.14710    4.16380    2.62710   -9999.25    9.13200    7.65420  137.27460  -25.42320    8.26520   80.16410  138.02630    7.74350
 8094.50000    0.04840    0.27840    9.91620    0.14050    4.09240    2.62500   -9999.25    8.53750    7.03590  139.40670  -25.41350    7.82340   79.67220  132.57860    7.28640
 8095.00000    0.04990    0.27640    9.89110    0.13920    4.04490    2.62830   -9999.25    7.98160    6.49770  139.44810  -25.52950    7.18160   79.18030  128.30930    6.89070
 8095.50000    0.04650    0.26940    9.89110    0.13790    3.99810    2.62940   -9999.25    8.17760    6.79900  138.91310  -25.85140    7.29770   77.77450  127.59460    7.10990
 8096.00000    0.03110    0.25590    9.89440    0.13000    3.95140    2.66030   -9999.25    8.21180    7.21830  138.01120  -25.62580    7.50950   76.82950  126.91860    7.46380
 8096.50000    0.02710    0.24320    9.89880    0.09660    3.90460    2.66920   -9999.25    7.73440    7.05390  136.52110  -25.44380    7.30840   75.91730  126.23600    7.32220
 8097.00000    0.03200    0.24490    9.91230    0.08170    3.89270    2.66140   -9999.25    7.56690    6.74660  136.52740  -25.26180    7.16830   75.61970  125.50840    6.95610
 8097.50000    0.04490    0.25020   10.03110    0.08130    3.91530    2.63380   -9999.25    7.98980    6.74270  136.53860  -25.26330    7.51130   76.17300  124.78070    6.80930
