~Version ---------------------------------------------------
VERS.   2.0 : CWLS log ASCII Standard -VERSION 2.0
WRAP.    NO : One line per depth step
DLM . SPACE : Column Data Section Delimiter
~Well ------------------------------------------------------
STRT .F                  48.0 : START DEPTH
STOP .F                9917.0 : STOP DEPTH
STEP .F                   0.5 : STEP
NULL .               -9999.25 : NULL VALUE
COMP .                        : COMPANY
WELL .                        : WELL
FLD  .                        : FIELD
LOC  .                        : LOCATION
PROV .                        : PROVINCE
CNTY .                        : COUNTY
STAT .                        : STATE
CTRY .                        : COUNTRY
SRVC .                        : SERVICE COMPANY
DATE .                        : DATE
UWI  .                        : UNIQUE WELL ID
API  .                        : API NUMBER
SLAT .WGS84 6.216307834407999 : SURFACE LATITUDE
SLON .WGS84 3.438105576243501 : SURFACE LONGITUDE
DATUM.F               1739.31 : DEPTH DATUM ELEV
~Curve Information -----------------------------------------
DEPT   .F     : 
DPHZ_LS.DEC   : HGRD STANDARD RESOLUTION DENSITY POROSITY
NPHI_LS.DEC   : NEUTRON POROSITY LIMESTONE
HCALD  .IN    : HRCC CALIPER CALIBRATED FROM DENSITY LOG
HDRA   .G/C3  : HRDD SPINE AND RIBS DENSITY CORRECTION
PEFZ   .B/E   : HRDD STANDARD RESOLUTION FORMATION PHOTOELECTRIC FACTOR
RHOZ   .G/C3  : HRDD STANDARD RESOLUTION FORMATION DENSITY
AHFCO60.MMHO  : ARRAY INDUCTION FOUR FOOT CONDUCTIVITY A60
AHT20  .OHMM  : ARRAY INDUCTION TWO FOOT RESISTIVITY A20
AHT60  .OHMM  : ARRAY INDUCTION TWO FOOT RESISTIVITY A60
GRR    .GAPI  : GAMMA RAY FROM RESISTIVITY LOG
SPR    .MV    : SPONTANEOUS POTENTIAL FROM RESISTIVITY LOG
AHT30  .OHMM  : ARRAY INDUCTION TWO FOOT RESISTIVITY A30
DTCO   .US/F  : DELTA-T COMPRESSIONAL
DTSM   .US/F  : DELTA-T SHEAR
AHT90  .OHMM  : ARRAY INDUCTION TWO FOOT RESISTIVITY A90
~Params ----------------------------------------------------
~Other -----------------------------------------------------
~ASCII -----------------------------------------------------
# ...
 9892.00000    0.11270    0.02670    5.53910   -9999.25    5.77730   -9999.25   -9999.25   19.30080    8.30250   -9999.25   -4.82940   15.21970   78.06670  121.13100    5.67120
 9892.50000    0.11960    0.02460    5.74750   -9999.25    5.64090   -9999.25   -9999.25   13.86860    8.18420   -9999.25   -4.41550   10.30010   60.67060   99.30750    7.63300
 9893.00000    0.12640    0.02230    5.92620   -9999.25    5.50640   -9999.25   -9999.25   11.75520    8.85650   -9999.25   -4.73120    9.38520   51.08390   96.89290    9.59490
 9893.50000    0.13130    0.02020    6.08360   -9999.25    5.36970   -9999.25   -9999.25   11.66240   10.10220   -9999.25   -4.78260   15.75770   51.68220   96.30870   11.55680
 9894.00000    0.13450    0.01820    6.19960    0.18820    5.23020   -9999.25   -9999.25   11.96810   11.65510   -9999.25   -4.97760   26.45690   51.93700   98.73180   13.51870
 9894.50000    0.13450   -9999.25    6.21970    0.16220    5.09060   -9999.25   -9999.25   12.42430   28.34770   -9999.25   -5.20010   26.52340   51.72000  102.27490   14.83200
 9895.00000    0.13050   -9999.25    6.23630    0.14000    4.95110   -9999.25   -9999.25   12.89790   27.67900   -9999.25   -5.20010   24.73740   51.44730  103.47950   14.83390
 9895.50000    0.07480   -9999.25    6.24960    0.13470    4.81150   -9999.25   -9999.25   13.38460   20.93200   -9999.25   -5.20010   22.80410   51.40140  102.25770   13.27800
 9896.00000   -0.05210   -9999.25    7.59590    0.12240    4.69570   -9999.25   -9999.25   13.64380   14.74610   -9999.25   -5.25410   15.32510   51.23930  100.58160   10.38420
 9896.50000   -0.06820   -9999.25    7.71300    0.08880    4.58540   -9999.25   -9999.25   13.55800   10.38820   -9999.25   -5.22860    8.66430   50.99070   98.85040    8.97830
 9897.00000   -0.07090   -9999.25    7.71690    0.05370    4.47510   -9999.25   -9999.25   11.84770    7.31820   -9999.25   -5.10660    8.51860   51.83160   98.29220    8.81690
 9897.50000   -0.07280   -9999.25    7.71240    0.01630    4.37360   -9999.25   -9999.25   11.13530    6.49590   -9999.25   -4.98470    8.77930   53.29610   97.34600    9.14350
 9898.00000   -0.07420   -9999.25    7.70800    0.00620    4.33500   -9999.25   -9999.25   11.92700    6.74000   -9999.25   -4.73430    9.12540   52.72990   98.50530   10.11820
 9898.50000   -0.07550   -9999.25    7.70350    0.00000    4.29650   -9999.25   -9999.25   13.10870    6.94320   -9999.25   -4.42020    8.99640   51.67950  100.28520    9.84640
 9899.00000   -0.07680   -9999.25    7.69900   -0.00210    4.25790   -9999.25   -9999.25   13.51460    6.67290   -9999.25   -4.43420    8.74800   51.68520  102.67610    8.43090
 9899.50000   -0.07710   -9999.25    7.69460   -0.00210    4.25740   -9999.25   -9999.25   12.93810    6.18860   -9999.25   -4.44820    7.68600   52.28940  102.92790    7.25870
 9900.00000   -0.07750   -9999.25    7.69010    0.00100    4.29190   -9999.25   -9999.25   11.26530    5.73940   -9999.25   -4.60290    6.75290   52.74810  102.55700    6.08650
 9900.50000   -0.07800   -9999.25    7.68560    0.00260    4.32640   -9999.25   -9999.25   11.32310    5.32290   -9999.25   -4.85230    6.18530   53.00590  101.79970    5.14870
 9901.00000   -0.07820   -9999.25    7.68120    0.00520    4.36100   -9999.25   -9999.25   11.98590    5.13300   -9999.25   -4.56320    6.00070   53.11810  102.49020    5.14710
 9901.50000   -0.07800   -9999.25    7.67670    0.01170    4.39550   -9999.25   -9999.25   12.75160    5.14680   -9999.25   -4.48960    5.96740   53.28560  103.42780    5.13710
 9902.00000   -0.07720   -9999.25    7.67220    0.01480    4.42010   -9999.25   -9999.25   13.56620    5.16070   -9999.25   -4.59830    5.94320   53.37500  103.44050    5.12490
 9902.50000   -0.07490   -9999.25    7.66780    0.01630    4.42650   -9999.25   -9999.25   14.35340    5.16710   -9999.25   -4.81860    6.03040   53.35220  103.39260    5.11270
 9903.00000   -0.06990   -9999.25    7.66330    0.01790    4.43280   -9999.25   -9999.25   14.94460    5.16100   -9999.25   -4.79700    6.11900   53.03870  103.07390    5.10050
 9903.50000   -0.05760   -9999.25    7.65880    0.02040    4.43910   -9999.25   -9999.25   15.56020    5.15490   -9999.25   -4.78420    6.20890   52.53090  101.02980    5.08830
 9904.00000   -0.04310   -9999.25    7.65440    0.02160    4.44540   -9999.25   -9999.25   16.33630    5.14880   -9999.25   -4.77150    6.30000   52.96070  100.40780    5.07620
 9904.50000   -0.03990   -9999.25    7.64710    0.02140    4.45180   -9999.25   -9999.25   16.47430    5.12640   -9999.25   -4.75880    6.37840   53.99390  104.64680    5.06400
 9905.00000   -0.03770   -9999.25    7.63770    0.02110    4.45890   -9999.25   -9999.25   16.21490    5.07580   -9999.25   -4.74600    6.25390   55.56250  104.65470    5.05180
 9905.50000   -0.03640   -9999.25    7.62830    0.02140    4.47480   -9999.25   -9999.25   14.62820    5.02570   -9999.25   -4.73330    6.13180   55.68450  104.66260    5.03960
 9906.00000   -0.03590   -9999.25    7.61890    0.02170    4.49060   -9999.25   -9999.25   13.26470    4.97610   -9999.25   -4.72050    6.01210   55.53990  104.97040    5.02740
 9906.50000   -9999.25   -9999.25   -9999.25   -9999.25   -9999.25   -9999.25   -9999.25   -9999.25   -9999.25   -9999.25   -4.70780   -9999.25   55.30410  105.56170    5.01530
 9907.00000   -9999.25   -9999.25   -9999.25   -9999.25   -9999.25   -9999.25   -9999.25   -9999.25   -9999.25   -9999.25   -4.69500   -9999.25   55.06830  106.44890    5.00310
 9907.50000   -9999.25   -9999.25   -9999.25   -9999.25   -9999.25   -9999.25   -9999.25   -9999.25   -9999.25   -9999.25   -4.68230   -9999.25   54.83260  106.88810    4.99090
 9908.00000   -9999.25   -9999.25   -9999.25   -9999.25   -9999.25   -9999.25   -9999.25   -9999.25   -9999.25   -9999.25   -4.66960   -9999.25   54.78100  106.89420    4.98960
 9908.50000   -9999.25   -9999.25   -9999.25   -9999.25   -9999.25   -9999.25   -9999.25   -9999.25   -9999.25   -9999.25   -4.65680   -9999.25   54.77360  106.88800    4.98860
 9909.00000   -9999.25   -9999.25   -9999.25   -9999.25   -9999.25   -9999.25   -9999.25   -9999.25   -9999.25   -9999.25   -4.43760   -9999.25   54.77690  106.90470    4.98860
 9909.50000   -9999.25   -9999.25   -9999.25   -9999.25   -9999.25   -9999.25   -9999.25   -9999.25   -9999.25   -9999.25   -4.14000   -9999.25   54.76280  106.92140    4.98860
 9910.00000   -9999.25   -9999.25   -9999.25   -9999.25   -9999.25   -9999.25   -9999.25   -9999.25   -9999.25   -9999.25   -3.84230   -9999.25   54.74730  106.91110    4.98860
 9910.50000   -9999.25   -9999.25   -9999.25   -9999.25   -9999.25   -9999.25   -9999.25   -9999.25   -9999.25   -9999.25   -3.61700   -9999.25   54.74050  106.89720    4.98860
 9911.00000   -9999.25   -9999.25   -9999.25   -9999.25   -9999.25   -9999.25   -9999.25   -9999.25   -9999.25   -9999.25   -3.84870   -9999.25   54.73360  106.88340    4.98860
 9911.50000   -9999.25   -9999.25   -9999.25   -9999.25   -9999.25   -9999.25   -9999.25   -9999.25   -9999.25   -9999.25   -4.08030   -9999.25   -9999.25   -9999.25    4.98860
 9912.00000   -9999.25   -9999.25   -9999.25   -9999.25   -9999.25   -9999.25   -9999.25   -9999.25   -9999.25   -9999.25   -4.31190   -9999.25   -9999.25   -9999.25    4.98860
 9912.50000   -9999.25   -9999.25   -9999.25   -9999.25   -9999.25   -9999.25   -9999.25   -9999.25   -9999.25   -9999.25   -4.54350   -9999.25   -9999.25   -9999.25    4.98860
 9913.00000   -9999.25   -9999.25   -9999.25   -9999.25   -9999.25   -9999.25   -9999.25   -9999.25   -9999.25   -9999.25   -4.77510   -9999.25   -9999.25   -9999.25    4.98860
 9913.50000   -9999.25   -9999.25   -9999.25   -9999.25   -9999.25   -9999.25   -9999.25   -9999.25   -9999.25   -9999.25   -4.03200   -9999.25   -9999.25   -9999.25    4.98860
 9914.00000   -9999.25   -9999.25   -9999.25   -9999.25   -9999.25   -9999.25   -9999.25   -9999.25   -9999.25   -9999.25   -2.41520   -9999.25   -9999.25   -9999.25    4.98860
 9914.50000   -9999.25   -9999.25   -9999.25   -9999.25   -9999.25   -9999.25   -9999.25   -9999.25   -9999.25   -9999.25   -0.79850   -9999.25   -9999.25   -9999.25    4.98860
