~Version ---------------------------------------------------
VERS.   2.0 : CWLS log ASCII Standard -VERSION 2.0
WRAP.    NO : One line per depth step
DLM . SPACE : Column Data Section Delimiter
~Well ------------------------------------------------------
STRT .F                  48.0 : START DEPTH
STOP .F                9917.0 : STOP DEPTH
STEP .F                   0.5 : STEP
NULL .               -9999.25 : NULL VALUE
COMP .                        : COMPANY
WELL .                        : WELL
FLD  .                        : FIELD
LOC  .                        : LOCATION
PROV .                        : PROVINCE
CNTY .                        : COUNTY
STAT .                        : STATE
CTRY .                        : COUNTRY
SRVC .                        : SERVICE COMPANY
DATE .                        : DATE
UWI  .                        : UNIQUE WELL ID
API  .                        : API NUMBER
SLAT .WGS84 6.216307834407999 : SURFACE LATITUDE
SLON .WGS84 3.438105576243501 : SURFACE LONGITUDE
DATUM.F               1739.31 : DEPTH DATUM ELEV
~Curve Information -----------------------------------------
DEPT   .F     : 
DPHZ_LS.DEC   : HGRD STANDARD RESOLUTION DENSITY POROSITY
NPHI_LS.DEC   : NEUTRON POROSITY LIMESTONE
HCALD  .IN    : HRCC CALIPER CALIBRATED FROM DENSITY LOG
HDRA   .G/C3  : HRDD SPINE AND RIBS DENSITY CORRECTION
PEFZ   .B/E   : HRDD STANDARD RESOLUTION FORMATION PHOTOELECTRIC FACTOR
RHOZ   .G/C3  : HRDD STANDARD RESOLUTION FORMATION DENSITY
AHFCO60.MMHO  : ARRAY INDUCTION FOUR FOOT CONDUCTIVITY A60
AHT20  .OHMM  : ARRAY INDUCTION TWO FOOT RESISTIVITY A20
AHT60  .OHMM  : ARRAY INDUCTION TWO FOOT RESISTIVITY A60
GRR    .GAPI  : GAMMA RAY FROM RESISTIVITY LOG
SPR    .MV    : SPONTANEOUS POTENTIAL FROM RESISTIVITY LOG
AHT30  .OHMM  : ARRAY INDUCTION TWO FOOT RESISTIVITY A30
DTCO   .US/F  : DELTA-T COMPRESSIONAL
DTSM   .US/F  : DELTA-T SHEAR
AHT90  .OHMM  : ARRAY INDUCTION TWO FOOT RESISTIVITY A90
~Params ----------------------------------------------------
~Other -----------------------------------------------------
~ASCII -----------------------------------------------------
# ...
 7293.00000   -9999.25   -9999.25   -9999.25   -9999.25   -9999.25   -9999.25   -9999.25    7.37090    7.73730  127.53990  -24.79230    7.59130   76.85400  151.91680    7.90180
 7293.50000   -9999.25   -9999.25   -9999.25   -9999.25   -9999.25   -9999.25   -9999.25    7.37400    7.73140  128.64430  -24.82390    7.59080   78.96850  152.95100    7.89800
 7294.00000   -9999.25   -9999.25   -9999.25   -9999.25   -9999.25   -9999.25   -9999.25    7.37710    7.72550  130.56700  -24.80230    7.59030   77.71310  152.59920    7.89420
 7294.50000   -9999.25   -9999.25   -9999.25   -9999.25   -9999.25   -9999.25   -9999.25    7.38020    7.71970  131.16710  -24.66150    7.59090   75.64950  151.60600    7.89050
 7295.00000   -9999.25   -9999.25   -9999.25   -9999.25   -9999.25   -9999.25   -9999.25    7.38330    7.71380  128.20680  -24.76590    7.59260   73.92360  150.53780    7.88670
 7295.50000   -9999.25   -9999.25   -9999.25   -9999.25   -9999.25   -9999.25   -9999.25    7.38640    7.71080  123.21080  -24.44830    7.59430   74.07160  148.69920    7.88300
 7296.00000   -9999.25   -9999.25   -9999.25   -9999.25   -9999.25   -9999.25   -9999.25    7.38950    7.71290  119.21610  -24.40270    7.59600   74.73630  146.20510    7.77460
 7296.50000   -9999.25   -9999.25   -9999.25   -9999.25   -9999.25   -9999.25   -9999.25    7.25210    7.67670  119.81290  -24.40510    7.47650   75.35870  144.79520    7.59210
 7297.00000   -9999.25   -9999.25   -9999.25   -9999.25   -9999.25   -9999.25   -9999.25    7.10330    7.62090  123.29680  -24.30100    7.35080   75.36280  146.35870    7.40820
 7297.50000   -9999.25   -9999.25   -9999.25   -9999.25   -9999.25   -9999.25   -9999.25    6.97960    7.60060  127.84030  -24.19690    7.31790   75.00020  149.02900    7.26120
 7298.00000   -9999.25   -9999.25   -9999.25   -9999.25   -9999.25   -9999.25   -9999.25    6.90720    7.60290  133.96130  -24.09280    7.29200   74.94240  150.67320    7.26150
 7298.50000   -9999.25   -9999.25   -9999.25   -9999.25   -9999.25   -9999.25   -9999.25    6.94920    7.60750  134.98550  -23.98870    7.27000   75.31910  151.15040    7.29540
 7299.00000   -9999.25   -9999.25   -9999.25   -9999.25   -9999.25   -9999.25   -9999.25    7.01720    7.61210  134.01140  -23.88450    7.29960   76.13330  151.14430    7.37950
 7299.50000   -9999.25   -9999.25   -9999.25   -9999.25   -9999.25   -9999.25   -9999.25    7.08590    7.61680  132.64230  -23.78040    7.36040   78.27290  150.87950    7.46440
 7300.00000   -9999.25   -9999.25   -9999.25   -9999.25   -9999.25   -9999.25   -9999.25    7.15530    7.62140  131.18640  -23.67630    7.42180   80.15000  150.56610    7.46470
 7300.50000   -9999.25   -9999.25   -9999.25   -9999.25   -9999.25   -9999.25   -9999.25    7.22260    7.62600  128.61780  -23.57220    7.48370   79.31370  150.03170    7.46470
 7301.00000   -9999.25   -9999.25   -9999.25   -9999.25   -9999.25   -9999.25   -9999.25    7.26760    7.63070  126.58000  -23.30830    7.54610   77.27990  149.48810    7.47660
 7301.50000   -9999.25   -9999.25   -9999.25   -9999.25   -9999.25   -9999.25   -9999.25    7.30650    7.63530  125.42160  -23.26170    7.60860   75.99250  149.09170    7.50760
 7302.00000   -9999.25   -9999.25   -9999.25   -9999.25   -9999.25   -9999.25   -9999.25    7.28730    7.64000  124.77400  -23.61120    7.58510   75.12950  148.77670    7.53860
 7302.50000   -9999.25   -9999.25   -9999.25   -9999.25   -9999.25   -9999.25   -9999.25    7.26830    7.64460  125.81700  -23.97480    7.56170   75.22040  148.46170    7.56960
 7303.00000   -9999.25   -9999.25   -9999.25   -9999.25   -9999.25   -9999.25   -9999.25    7.19800    7.64930  129.02240  -24.24370    7.52410   75.23460  148.14670    7.60060
 7303.50000   -9999.25   -9999.25   -9999.25   -9999.25   -9999.25   -9999.25   -9999.25    7.07910    7.65390  130.37200  -24.28760    7.48170   75.00780  148.02570    7.63160
 7304.00000   -9999.25   -9999.25   -9999.25   -9999.25   -9999.25   -9999.25   -9999.25    6.97930    7.65860  129.12360  -24.13710    7.43530   74.75790  148.31540    7.66260
 7304.50000   -9999.25   -9999.25   -9999.25   -9999.25   -9999.25   -9999.25   -9999.25    6.95630    7.82920  126.17870  -23.97260    7.35950   74.52150  148.57320    7.69360
 7305.00000   -9999.25   -9999.25   -9999.25   -9999.25   -9999.25   -9999.25   -9999.25    6.94070    8.06350  125.25360  -23.67040    7.55610   75.47850  148.77280    7.83800
 7305.50000   -9999.25   -9999.25   -9999.25   -9999.25   -9999.25   -9999.25   -9999.25    7.26840    8.30480  125.40550  -23.62340    7.88050   77.34740  150.06460    8.15990
 7306.00000   -9999.25   -9999.25   -9999.25   -9999.25   -9999.25   -9999.25   -9999.25    7.86800    8.49340  126.23650  -23.60040    8.17130   78.53400  150.20530    8.38180
 7306.50000   -9999.25   -9999.25   -9999.25   -9999.25   -9999.25   -9999.25   -9999.25    8.09320    8.52340  127.74060  -23.59460    8.27710   78.97420  150.14090    8.51590
 7307.00000   -9999.25   -9999.25   -9999.25   -9999.25   -9999.25   -9999.25   -9999.25    8.00320    8.39470  128.68700  -23.56270    8.24850   78.60670  149.90550    8.35610
 7307.50000   -9999.25   -9999.25   -9999.25   -9999.25   -9999.25   -9999.25   -9999.25    7.82090    8.26810  128.76400  -23.54560    8.12400   77.38190  149.10970    8.15580
 7308.00000   -9999.25   -9999.25   -9999.25   -9999.25   -9999.25   -9999.25   -9999.25    7.64270    8.14330  127.57720  -23.52840    7.96470   76.52820  148.36790    7.99600
 7308.50000   -9999.25   -9999.25   -9999.25   -9999.25   -9999.25   -9999.25   -9999.25    7.46860    8.02040  126.14770  -23.51130    7.80860   76.56800  148.14940    7.99790
 7309.00000   -9999.25   -9999.25   -9999.25   -9999.25   -9999.25   -9999.25   -9999.25    7.31430    7.97550  125.92820  -23.49410    7.65540   76.64050  148.04120    7.99840
 7309.50000   -9999.25   -9999.25   -9999.25   -9999.25   -9999.25   -9999.25   -9999.25    7.31140    7.97700  127.44430  -23.47700    7.61650   76.88910  148.21290    7.99840
 7310.00000   -9999.25   -9999.25   -9999.25   -9999.25   -9999.25   -9999.25   -9999.25    7.30850    7.96960  128.26860  -23.45980    7.61780   76.72840  147.75800    7.96940
 7310.50000   -9999.25   -9999.25   -9999.25   -9999.25   -9999.25   -9999.25   -9999.25    7.30560    7.94150  125.79610  -23.44270    7.61900   76.39260  147.26770    7.93450
 7311.00000   -9999.25   -9999.25   -9999.25   -9999.25   -9999.25   -9999.25   -9999.25    7.30270    7.91340  123.34960  -23.42550    7.62030   76.16960  146.89460    7.93500
 7311.50000   -9999.25   -9999.25   -9999.25   -9999.25   -9999.25   -9999.25   -9999.25    7.29980    7.88550  121.87510  -23.40840    7.62160   76.50510  147.25310    7.94090
 7312.00000   -9999.25   -9999.25   -9999.25   -9999.25   -9999.25   -9999.25   -9999.25    7.29690    7.85760  121.26370  -23.39120    7.62280   77.62410  148.28270    7.94800
 7312.50000   -9999.25   -9999.25   -9999.25   -9999.25   -9999.25   -9999.25   -9999.25    7.29410    7.82980  121.04900  -23.37410    7.62410   78.51320  148.64360    7.95520
 7313.00000   -9999.25   -9999.25   -9999.25   -9999.25   -9999.25   -9999.25   -9999.25    7.29120    7.80500  124.61870  -23.35700    7.62540   78.08770  148.77170    7.96230
 7313.50000   -9999.25   -9999.25   -9999.25   -9999.25   -9999.25   -9999.25   -9999.25    7.28830    7.87890  130.21410  -23.33980    7.62670   76.79410  148.30950    7.96950
 7314.00000   -9999.25   -9999.25   -9999.25   -9999.25   -9999.25   -9999.25   -9999.25    7.28540    7.95340  137.49320  -23.33610    7.62790   75.86310  147.44340    7.97660
 7314.50000   -9999.25   -9999.25   -9999.25   -9999.25   -9999.25   -9999.25   -9999.25    7.30260    8.06550  138.69840  -23.35060    7.69450   75.78330  147.03550    7.98380
 7315.00000   -9999.25   -9999.25   -9999.25   -9999.25   -9999.25   -9999.25   -9999.25    7.46750    8.21390  136.30260  -22.97030    7.77330   76.11390  146.62760    7.99090
 7315.50000   -9999.25   -9999.25   -9999.25   -9999.25   -9999.25   -9999.25   -9999.25    7.63620    8.30750  132.59970  -22.55010    7.86410   76.96330  146.21970    7.99810
