~Version ---------------------------------------------------
VERS.   2.0 : CWLS log ASCII Standard -VERSION 2.0
WRAP.    NO : One line per depth step
DLM . SPACE : Column Data Section Delimiter
~Well ------------------------------------------------------
STRT .F                  48.0 : START DEPTH
STOP .F                9917.0 : STOP DEPTH
STEP .F                   0.5 : STEP
NULL .               -9999.25 : NULL VALUE
COMP .                        : COMPANY
WELL .                        : WELL
FLD  .                        : FIELD
LOC  .                        : LOCATION
PROV .                        : PROVINCE
CNTY .                        : COUNTY
STAT .                        : STATE
CTRY .                        : COUNTRY
SRVC .                        : SERVICE COMPANY
DATE .                        : DATE
UWI  .                        : UNIQUE WELL ID
API  .                        : API NUMBER
SLAT .WGS84 6.216307834407999 : SURFACE LATITUDE
SLON .WGS84 3.438105576243501 : SURFACE LONGITUDE
DATUM.F               1739.31 : DEPTH DATUM ELEV
~Curve Information -----------------------------------------
DEPT   .F     : 
DPHZ_LS.DEC   : HGRD STANDARD RESOLUTION DENSITY POROSITY
NPHI_LS.DEC   : NEUTRON POROSITY LIMESTONE
HCALD  .IN    : HRCC CALIPER CALIBRATED FROM DENSITY LOG
HDRA   .G/C3  : HRDD SPINE AND RIBS DENSITY CORRECTION
PEFZ   .B/E   : HRDD STANDARD RESOLUTION FORMATION PHOTOELECTRIC FACTOR
RHOZ   .G/C3  : HRDD STANDARD RESOLUTION FORMATION DENSITY
AHFCO60.MMHO  : ARRAY INDUCTION FOUR FOOT CONDUCTIVITY A60
AHT20  .OHMM  : ARRAY INDUCTION TWO FOOT RESISTIVITY A20
AHT60  .OHMM  : ARRAY INDUCTION TWO FOOT RESISTIVITY A60
GRR    .GAPI  : GAMMA RAY FROM RESISTIVITY LOG
SPR    .MV    : SPONTANEOUS POTENTIAL FROM RESISTIVITY LOG
AHT30  .OHMM  : ARRAY INDUCTION TWO FOOT RESISTIVITY A30
DTCO   .US/F  : DELTA-T COMPRESSIONAL
DTSM   .US/F  : DELTA-T SHEAR
AHT90  .OHMM  : ARRAY INDUCTION TWO FOOT RESISTIVITY A90
~Params ----------------------------------------------------
~Other -----------------------------------------------------
~ASCII -----------------------------------------------------
# ...
 7040.00000   -9999.25   -9999.25   -9999.25   -9999.25   -9999.25   -9999.25   -9999.25   16.19350    7.99470  150.01190  -28.50710    7.10760   87.51920  125.11720    7.57010
 7040.50000   -9999.25   -9999.25   -9999.25   -9999.25   -9999.25   -9999.25   -9999.25   16.87500    7.99800  169.05420  -28.13820    7.37350   88.44220  130.66800    9.07610
 7041.00000   -9999.25   -9999.25   -9999.25   -9999.25   -9999.25   -9999.25   -9999.25   12.62140    8.08790  182.91320  -27.96190    7.29160   88.74560  136.21890    7.87430
 7041.50000   -9999.25   -9999.25   -9999.25   -9999.25   -9999.25   -9999.25   -9999.25    8.28950    9.14510  178.95980  -27.78910    7.14910   87.86490  142.82180    6.67260
 7042.00000   -9999.25   -9999.25   -9999.25   -9999.25   -9999.25   -9999.25   -9999.25    6.52940   10.98150  160.61410  -27.61630    9.70060   84.64800  144.58300    5.76340
 7042.50000   -9999.25   -9999.25   -9999.25   -9999.25   -9999.25   -9999.25   -9999.25    7.19710   13.94710  142.58290  -27.44350   13.32600   82.92960  146.08650   11.08230
 7043.00000   -9999.25   -9999.25   -9999.25   -9999.25   -9999.25   -9999.25   -9999.25   13.96930   17.71360  104.66000  -27.27070   14.71480   82.71100  146.83190   17.66500
 7043.50000   -9999.25   -9999.25   -9999.25   -9999.25   -9999.25   -9999.25   -9999.25   14.09150   17.71360   84.37250  -27.09790   14.70830   80.12370  146.23200   24.24770
 7044.00000   -9999.25   -9999.25   -9999.25   -9999.25   -9999.25   -9999.25   -9999.25   13.10060   14.99910   73.26860  -26.92510   13.49130   75.66360  145.44680   23.22700
 7044.50000   -9999.25   -9999.25   -9999.25   -9999.25   -9999.25   -9999.25   -9999.25   10.98580   12.68600   78.93400  -26.75230   11.80950   72.02620  144.66170   13.88340
 7045.00000   -9999.25   -9999.25   -9999.25   -9999.25   -9999.25   -9999.25   -9999.25    9.21240   10.72960   89.99650  -26.55590   10.33720   71.32530  143.76210    9.57190
 7045.50000   -9999.25   -9999.25   -9999.25   -9999.25   -9999.25   -9999.25   -9999.25    7.72520    9.07490  100.11190  -26.35700    9.04860   70.52870  141.69930    8.61510
 7046.00000   -9999.25   -9999.25   -9999.25   -9999.25   -9999.25   -9999.25   -9999.25    7.43880    8.56860  106.55380  -26.15810    8.14030   70.35870  141.12700    7.77780
 7046.50000   -9999.25   -9999.25   -9999.25   -9999.25   -9999.25   -9999.25   -9999.25    7.25070    8.15020  111.97190  -25.95930    7.74140   72.09290  143.96180    7.77660
 7047.00000   -9999.25   -9999.25   -9999.25   -9999.25   -9999.25   -9999.25   -9999.25    7.09530    7.75640  113.57100  -25.76040    7.54950   76.41240  148.48590    7.70300
 7047.50000   -9999.25   -9999.25   -9999.25   -9999.25   -9999.25   -9999.25   -9999.25    6.90300    7.58270  116.21690  -25.56150    7.41220   79.38990  152.48050    7.39070
 7048.00000   -9999.25   -9999.25   -9999.25   -9999.25   -9999.25   -9999.25   -9999.25    6.63900    7.41290  123.82170  -25.36260    7.16050   79.43960  154.72440    7.26650
 7048.50000   -9999.25   -9999.25   -9999.25   -9999.25   -9999.25   -9999.25   -9999.25    6.38740    7.20310  130.06600  -25.20140    6.88660   79.18360  156.86940    7.08950
 7049.00000   -9999.25   -9999.25   -9999.25   -9999.25   -9999.25   -9999.25   -9999.25    6.19670    6.99890  128.94850  -25.16660    6.63120   78.82140  158.13140    6.87080
 7049.50000   -9999.25   -9999.25   -9999.25   -9999.25   -9999.25   -9999.25   -9999.25    6.08780    6.80040  122.53770  -25.21460    6.49750   76.99320  157.31970    6.61500
 7050.00000   -9999.25   -9999.25   -9999.25   -9999.25   -9999.25   -9999.25   -9999.25    5.81680    6.60820  115.28790  -25.14530    6.30750   73.24930  147.09770    6.35920
 7050.50000   -9999.25   -9999.25   -9999.25   -9999.25   -9999.25   -9999.25   -9999.25    5.55790    6.42310  115.71780  -25.05010    6.02550   68.79180   -9999.25    6.10340
 7051.00000   -9999.25   -9999.25   -9999.25   -9999.25   -9999.25   -9999.25   -9999.25    5.31050    6.24310  119.79990  -25.02390    5.75610   68.42700   -9999.25    5.84760
 7051.50000   -9999.25   -9999.25   -9999.25   -9999.25   -9999.25   -9999.25   -9999.25    5.13730    6.09550  124.64050  -25.32690    5.49870   69.84760   -9999.25    5.64320
 7052.00000   -9999.25   -9999.25   -9999.25   -9999.25   -9999.25   -9999.25   -9999.25    5.07680    6.02430  126.61860  -25.36470    5.38640   73.74820   -9999.25    5.89010
 7052.50000   -9999.25   -9999.25   -9999.25   -9999.25   -9999.25   -9999.25   -9999.25    5.06470    5.96730  127.52660  -25.29150    5.36530   76.21620   -9999.25    6.13690
 7053.00000   -9999.25   -9999.25   -9999.25   -9999.25   -9999.25   -9999.25   -9999.25    5.06470    5.79690  128.70360  -25.21830    5.36530   77.26160   -9999.25    5.99240
 7053.50000   -9999.25   -9999.25   -9999.25   -9999.25   -9999.25   -9999.25   -9999.25    5.01280    5.39710  131.18340  -25.14510    5.35500   77.11390   -9999.25    5.50620
 7054.00000   -9999.25   -9999.25   -9999.25   -9999.25   -9999.25   -9999.25   -9999.25    4.81150    4.97800  133.17760  -25.30900    5.21510   76.79440   -9999.25    5.02000
 7054.50000   -9999.25   -9999.25   -9999.25   -9999.25   -9999.25   -9999.25   -9999.25    4.40750    4.57070  130.55550  -25.59660    4.76780   76.47490   -9999.25    4.53370
 7055.00000   -9999.25   -9999.25   -9999.25   -9999.25   -9999.25   -9999.25   -9999.25    4.03730    4.19670  125.39500  -25.64640    4.26980   75.84480   -9999.25    4.04750
 7055.50000   -9999.25   -9999.25   -9999.25   -9999.25   -9999.25   -9999.25   -9999.25    3.69830    3.86600  120.59680  -25.63810    3.82390   75.00280   -9999.25    3.86790
 7056.00000   -9999.25   -9999.25   -9999.25   -9999.25   -9999.25   -9999.25   -9999.25    3.95970    4.70050  120.24940  -25.77570    4.66870   75.69830   -9999.25    3.92570
 7056.50000   -9999.25   -9999.25   -9999.25   -9999.25   -9999.25   -9999.25   -9999.25    4.66980    4.89650  123.20290  -26.01200    4.81210   77.27370   -9999.25    4.97870
 7057.00000   -9999.25   -9999.25   -9999.25   -9999.25   -9999.25   -9999.25   -9999.25    4.53140    4.87470  125.79840  -26.31530    4.68610   78.68960   -9999.25    4.87720
 7057.50000   -9999.25   -9999.25   -9999.25   -9999.25   -9999.25   -9999.25   -9999.25    4.60570    5.20390  128.49040  -26.38180    4.96580   78.19850   -9999.25    4.79280
 7058.00000   -9999.25   -9999.25   -9999.25   -9999.25   -9999.25   -9999.25   -9999.25    5.35520    5.60060  129.09950  -26.43900    5.39950   75.86200   -9999.25    5.39310
 7058.50000   -9999.25   -9999.25   -9999.25   -9999.25   -9999.25   -9999.25   -9999.25    5.39320    5.68570  126.82030  -26.52070    5.61990   74.73200   -9999.25    5.82310
 7059.00000   -9999.25   -9999.25   -9999.25   -9999.25   -9999.25   -9999.25   -9999.25    5.04600    5.62560  123.54440  -26.60240    5.42760   75.59950   -9999.25    5.57180
 7059.50000   -9999.25   -9999.25   -9999.25   -9999.25   -9999.25   -9999.25   -9999.25    5.21880    5.72200  121.21890  -26.68200    5.55590   77.09810   -9999.25    5.32040
 7060.00000   -9999.25   -9999.25   -9999.25   -9999.25   -9999.25   -9999.25   -9999.25    5.77740    6.40970  120.45130  -26.71850    6.12920   81.61930  125.59580    5.43410
 7060.50000   -9999.25   -9999.25   -9999.25   -9999.25   -9999.25   -9999.25   -9999.25    6.39570    7.18000  119.68370  -26.76100    6.76170   85.04940  123.62300    6.26370
 7061.00000   -9999.25   -9999.25   -9999.25   -9999.25   -9999.25   -9999.25   -9999.25    7.08030    8.04290  118.99150  -26.82290    7.45950   83.81560  121.68450    7.09330
 7061.50000   -9999.25   -9999.25   -9999.25   -9999.25   -9999.25   -9999.25   -9999.25    7.83810    8.79300  118.93930  -27.01730    8.00870   81.34930  120.23680    7.92290
 7062.00000   -9999.25   -9999.25   -9999.25   -9999.25   -9999.25   -9999.25   -9999.25    8.22590    8.98670  119.28340  -27.35990    8.37160   79.80290  118.55330    8.75250
 7062.50000   -9999.25   -9999.25   -9999.25   -9999.25   -9999.25   -9999.25   -9999.25    8.27120    9.02990  120.46070  -27.59650    8.61450   78.16050  122.32130    8.89520
