~Version ---------------------------------------------------
VERS.   2.0 : CWLS log ASCII Standard -VERSION 2.0
WRAP.    NO : One line per depth step
DLM . SPACE : Column Data Section Delimiter
~Well ------------------------------------------------------
STRT .F                  48.0 : START DEPTH
STOP .F                9917.0 : STOP DEPTH
STEP .F                   0.5 : STEP
NULL .               -9999.25 : NULL VALUE
COMP .                        : COMPANY
WELL .                        : WELL
FLD  .                        : FIELD
LOC  .                        : LOCATION
PROV .                        : PROVINCE
CNTY .                        : COUNTY
STAT .                        : STATE
CTRY .                        : COUNTRY
SRVC .                        : SERVICE COMPANY
DATE .                        : DATE
UWI  .                        : UNIQUE WELL ID
API  .                        : API NUMBER
SLAT .WGS84 6.216307834407999 : SURFACE LATITUDE
SLON .WGS84 3.438105576243501 : SURFACE LONGITUDE
DATUM.F               1739.31 : DEPTH DATUM ELEV
~Curve Information -----------------------------------------
DEPT   .F     : 
DPHZ_LS.DEC   : HGRD STANDARD RESOLUTION DENSITY POROSITY
NPHI_LS.DEC   : NEUTRON POROSITY LIMESTONE
HCALD  .IN    : HRCC CALIPER CALIBRATED FROM DENSITY LOG
HDRA   .G/C3  : HRDD SPINE AND RIBS DENSITY CORRECTION
PEFZ   .B/E   : HRDD STANDARD RESOLUTION FORMATION PHOTOELECTRIC FACTOR
RHOZ   .G/C3  : HRDD STANDARD RESOLUTION FORMATION DENSITY
AHFCO60.MMHO  : ARRAY INDUCTION FOUR FOOT CONDUCTIVITY A60
AHT20  .OHMM  : ARRAY INDUCTION TWO FOOT RESISTIVITY A20
AHT60  .OHMM  : ARRAY INDUCTION TWO FOOT RESISTIVITY A60
GRR    .GAPI  : GAMMA RAY FROM RESISTIVITY LOG
SPR    .MV    : SPONTANEOUS POTENTIAL FROM RESISTIVITY LOG
AHT30  .OHMM  : ARRAY INDUCTION TWO FOOT RESISTIVITY A30
DTCO   .US/F  : DELTA-T COMPRESSIONAL
DTSM   .US/F  : DELTA-T SHEAR
AHT90  .OHMM  : ARRAY INDUCTION TWO FOOT RESISTIVITY A90
~Params ----------------------------------------------------
~Other -----------------------------------------------------
~ASCII -----------------------------------------------------
# ...
 9639.00000    0.06940    0.11960    7.95100    0.01950    3.58140    2.59480   -9999.25   34.31280   31.50290   41.43450  -26.69730   25.98570   64.40260  112.20610   24.24910
 9639.50000    0.06480    0.12650    7.94580    0.03100    3.63490    2.59560   -9999.25   27.79340   20.91600   42.44860  -26.64880   18.15540   63.72810  113.12580   22.12920
 9640.00000    0.08140    0.12600    7.94590    0.02550    3.46110    2.56330   -9999.25   14.73040   13.88700   45.21430  -26.73980   12.14090   64.60560  114.27540   18.95310
 9640.50000    0.10890    0.14300    7.94580    0.02250    3.26100    2.51890   -9999.25    7.80700    9.22010   51.00360  -26.71420    8.11890   66.93590  115.46910   15.07910
 9641.00000    0.13070    0.18240    8.00180    0.03550    3.29100    2.47880   -9999.25    4.13770    6.12160   62.41900  -26.44240    5.42930   75.83390  117.32720    9.55630
 9641.50000    0.13990    0.24030    8.36050    0.05830    3.44560    2.46870   -9999.25    3.13590    4.60360   75.64800  -26.46950    3.93510   81.52390  125.71460    4.03350
 9642.00000    0.15370    0.28120    8.34780    0.08780    3.41750    2.45580   -9999.25    4.64860    7.10730   80.63280  -26.20280    6.66520   85.18180  130.73260    3.54450
 9642.50000    0.16800    0.28820    8.18350    0.08700    3.20020    2.42290   -9999.25    6.29930    7.23750   84.22000  -25.99990    6.39160   84.45400  131.32350    6.48960
 9643.00000    0.18610    0.28940    8.00610    0.05250    2.93920    2.39160   -9999.25    5.73650    6.68550   85.01580  -25.99990    5.81500   84.42770  130.53430    5.98400
 9643.50000    0.20940    0.28750    7.90150    0.03840    2.73780    2.35210   -9999.25    4.90000    6.29210   83.38010  -25.99990    5.29050   84.11550  129.81700    5.24090
 9644.00000    0.21460    0.27830    7.86870    0.02800    2.72360    2.35170   -9999.25    4.63120    8.76040   72.21180  -25.98420    6.54300   82.81950  128.56020    4.49780
 9644.50000    0.21270    0.21040    7.87460    0.05210    2.84620    2.40200   -9999.25    8.55300   13.81830   58.55090  -25.98270   13.22980   80.47080  122.92860    7.95940
 9645.00000    0.14220    0.13870    7.91540    0.04800    2.94410    2.46680   -9999.25   17.10380   25.67160   42.90550  -26.35350   24.86350   75.07610  112.55260   24.00250
 9645.50000    0.09510    0.06630    7.91040    0.03620    3.00640    2.55010   -9999.25   34.14430   47.69280   33.92320  -26.24780   41.09280   68.61830  103.39840   40.04560
 9646.00000    0.07750    0.04760    7.88550    0.01820    2.94140    2.58110   -9999.25   50.90060   85.65110   28.47470  -26.33120   63.81980   66.01090   99.45760   56.08870
 9646.50000    0.07630    0.04300    7.87220    0.00100    2.85960    2.58180   -9999.25   75.88000  112.46050   28.12750  -26.76540   99.11630   63.93600   98.71320   92.12170
 9647.00000    0.08860    0.04270    7.87240   -0.00260    2.65160    2.56440   -9999.25  110.14550  147.66130   28.15730  -26.79890  131.94440   63.12030   98.03950  133.15220
 9647.50000    0.09990    0.04550    7.87290   -0.00110    2.46200    2.54040   -9999.25  148.75180  193.88020   28.81290  -26.66730  172.02130   62.90320   97.94130  174.18270
 9648.00000    0.10140    0.05150    7.87400    0.00740    2.36840    2.53720   -9999.25  196.07100  222.04880   29.47420  -26.53580  207.82670   62.91100   97.94130  215.21320
 9648.50000    0.09810    0.05910    7.87520    0.01540    2.31120    2.53810   -9999.25  192.16420  207.08530   29.32140  -26.84920  203.12330   62.95550   98.14950  209.31800
 9649.00000    0.09690    0.06670    7.87550    0.01940    2.27290    2.54470   -9999.25  160.78040  175.77420   28.48610  -27.14280  176.76980   63.86020   99.60350  173.85130
 9649.50000    0.10340    0.07400    7.87880    0.01680    2.26990    2.53530   -9999.25  134.52200  149.19730   28.32150  -27.22520  149.42820   64.17800  101.65440  138.38460
 9650.00000    0.11390    0.07730    7.88590    0.01100    2.29500    2.51710   -9999.25  122.51480  135.66680   29.75490  -27.75230  131.42910   64.11630  104.59950  123.63000
 9650.50000    0.12100    0.07880    7.89300    0.00930    2.32020    2.50030   -9999.25  124.06670  132.82840   32.74890  -28.27940  129.43460   64.03890  105.73870  125.69200
 9651.00000    0.11830    0.07860    7.90030    0.01020    2.35920    2.50610   -9999.25  126.33680  131.70920   33.93600  -28.46160  128.55690   64.15350  105.35490  132.23820
 9651.50000    0.11200    0.07540    7.90820    0.00970    2.39150    2.51540   -9999.25  118.74870  129.28150   34.45100  -28.78060  121.18000   64.21890  103.73560  133.70380
 9652.00000    0.10550    0.07350    7.91600    0.00860    2.35330    2.52350   -9999.25  106.67230  119.04790   34.31990  -29.03670  111.57840   63.81310  102.37450  122.28510
 9652.50000    0.10890    0.07100    7.92040    0.00260    2.29280    2.52410   -9999.25   95.82420  109.62440   33.95950  -30.21310  102.73760   63.14210  101.41840  107.27290
 9653.00000    0.11100    0.06730    7.91370   -0.00040    2.22790    2.52130   -9999.25   93.28690  102.77900   33.12440  -31.23380   95.40080   62.59870  100.46230   92.26060
 9653.50000    0.10870    0.06080    7.87680   -0.00220    2.19140    2.52290   -9999.25   84.93090  102.12780   30.86840  -32.24270   93.07780   62.23640   99.43160   86.25570
 9654.00000    0.10740    0.05430    7.81490   -0.00110    2.11040    2.52320   -9999.25   87.88980  112.90540   28.87690  -33.25170  101.59410   62.22170   98.92290   93.22770
 9654.50000    0.10930    0.04790    7.77310    0.00270    2.04310    2.52330   -9999.25  101.84230  125.16770   26.98820  -34.26060  116.09340   62.20910   98.64120  104.82060
 9655.00000    0.11140    0.04280    7.73760    0.00670    1.97580    2.51990   -9999.25  118.00980  138.76180   24.76130  -35.03120  130.67590   61.77330   98.35950  116.41350
 9655.50000    0.11010    0.03910    7.70190    0.00930    1.97360    2.52930   -9999.25  129.61940  151.40040   22.15210  -35.40890  137.89700   60.12870   97.85080  128.00640
 9656.00000    0.09490    0.03670    7.67450    0.00850    1.98090    2.54910   -9999.25  138.01770  161.23180   19.81790  -35.54810  147.94170   58.34790   97.09450  131.54740
 9656.50000    0.08680    0.03930    7.66780    0.00630    1.99540    2.56120   -9999.25  145.37270  185.36520   20.18610  -35.57560  162.35310   57.95530   97.26610  134.41850
 9657.00000    0.08900    0.04630    7.76560    0.00290    2.00990    2.55820   -9999.25  155.09770  237.81460   21.63280  -35.60590  178.16840   59.19430   97.95800  136.51450
 9657.50000    0.09920    0.04940    7.82600    0.00070    2.10530    2.54030   -9999.25  199.06920  320.81570   23.10560  -35.63630  270.94810   60.70490   98.66710  187.63030
 9658.00000    0.10780    0.04980    7.85070   -0.00060    2.17500    2.52990   -9999.25  301.01450  406.97810   24.17710  -35.73660  370.78980   61.18660   99.43920  237.49160
 9658.50000    0.11050    0.05000    7.87630   -0.00030    2.23200    2.52030   -9999.25  332.00210  396.86870   25.16320  -35.83490  365.75450   61.57200  100.21130  287.35300
 9659.00000    0.11390    0.04970    7.92010    0.00000    2.21560    2.51340   -9999.25  322.11920  366.81470   25.75370  -35.84430  334.35780   61.97740  100.98330  300.11490
 9659.50000    0.12150    0.05160    7.99470    0.00040    2.16950    2.50150   -9999.25  275.18260  337.33240   26.60790  -35.85370  305.65610   62.37440  101.90130  257.83610
 9660.00000    0.13310    0.05850    8.03140    0.00080    2.15790    2.48040   -9999.25  243.24190  310.81280   26.70870  -35.86320  279.41820   63.10130  102.16920  228.16590
 9660.50000    0.13560    0.06520    8.03310    0.00110    2.14640    2.47700   -9999.25  265.93420  299.45680   26.80950  -36.71170  288.58500   63.82530  102.03780  272.59080
 9661.00000    0.13990    0.06660    8.01240    0.00150    2.13490    2.46970   -9999.25  269.17820  300.93530   26.70210  -37.24300  280.35200   64.09700  101.11720  286.73160
 9661.50000    0.14820    0.06460    7.98040    0.00220    2.04730    2.45620   -9999.25  249.94730  329.88890   26.08680  -37.21000  266.76590   64.20880   99.96000  246.40610
