~Version ---------------------------------------------------
VERS.   2.0 : CWLS log ASCII Standard -VERSION 2.0
WRAP.    NO : One line per depth step
DLM . SPACE : Column Data Section Delimiter
~Well ------------------------------------------------------
STRT .F                  48.0 : START DEPTH
STOP .F                9917.0 : STOP DEPTH
STEP .F                   0.5 : STEP
NULL .               -9999.25 : NULL VALUE
COMP .                        : COMPANY
WELL .                        : WELL
FLD  .                        : FIELD
LOC  .                        : LOCATION
PROV .                        : PROVINCE
CNTY .                        : COUNTY
STAT .                        : STATE
CTRY .                        : COUNTRY
SRVC .                        : SERVICE COMPANY
DATE .                        : DATE
UWI  .                        : UNIQUE WELL ID
API  .                        : API NUMBER
SLAT .WGS84 6.216307834407999 : SURFACE LATITUDE
SLON .WGS84 3.438105576243501 : SURFACE LONGITUDE
DATUM.F               1739.31 : DEPTH DATUM ELEV
~Curve Information -----------------------------------------
DEPT   .F     : 
DPHZ_LS.DEC   : HGRD STANDARD RESOLUTION DENSITY POROSITY
NPHI_LS.DEC   : NEUTRON POROSITY LIMESTONE
HCALD  .IN    : HRCC CALIPER CALIBRATED FROM DENSITY LOG
HDRA   .G/C3  : HRDD SPINE AND RIBS DENSITY CORRECTION
PEFZ   .B/E   : HRDD STANDARD RESOLUTION FORMATION PHOTOELECTRIC FACTOR
RHOZ   .G/C3  : HRDD STANDARD RESOLUTION FORMATION DENSITY
AHFCO60.MMHO  : ARRAY INDUCTION FOUR FOOT CONDUCTIVITY A60
AHT20  .OHMM  : ARRAY INDUCTION TWO FOOT RESISTIVITY A20
AHT60  .OHMM  : ARRAY INDUCTION TWO FOOT RESISTIVITY A60
GRR    .GAPI  : GAMMA RAY FROM RESISTIVITY LOG
SPR    .MV    : SPONTANEOUS POTENTIAL FROM RESISTIVITY LOG
AHT30  .OHMM  : ARRAY INDUCTION TWO FOOT RESISTIVITY A30
DTCO   .US/F  : DELTA-T COMPRESSIONAL
DTSM   .US/F  : DELTA-T SHEAR
AHT90  .OHMM  : ARRAY INDUCTION TWO FOOT RESISTIVITY A90
~Params ----------------------------------------------------
~Other -----------------------------------------------------
~ASCII -----------------------------------------------------
# ...
 6258.00000   -9999.25   -9999.25   -9999.25   -9999.25   -9999.25   -9999.25   -9999.25    7.91770    9.23550   97.77860  -52.04380    8.82040   71.90170  133.41700    7.89450
 6258.50000   -9999.25   -9999.25   -9999.25   -9999.25   -9999.25   -9999.25   -9999.25    8.48390    9.71250   96.65080  -50.24320    9.12910   72.33920  133.73970    8.60730
 6259.00000   -9999.25   -9999.25   -9999.25   -9999.25   -9999.25   -9999.25   -9999.25    8.71890    9.71250   95.23340  -48.17450    9.24370   72.57570  129.60830    9.55500
 6259.50000   -9999.25   -9999.25   -9999.25   -9999.25   -9999.25   -9999.25   -9999.25    8.76110    9.71250   96.91790  -45.74130    9.28030   72.78840  117.93290    8.98680
 6260.00000   -9999.25   -9999.25   -9999.25   -9999.25   -9999.25   -9999.25   -9999.25    8.74520    9.58620  104.09560  -42.91170    9.26340   72.95520  109.42880    8.41860
 6260.50000   -9999.25   -9999.25   -9999.25   -9999.25   -9999.25   -9999.25   -9999.25    8.69680    9.44120  116.43420  -41.16060    9.22690   72.99100  107.88440    8.19120
 6261.00000   -9999.25   -9999.25   -9999.25   -9999.25   -9999.25   -9999.25   -9999.25    8.59490    9.29850  122.31020  -39.40960    9.11880   73.58150  110.80040    8.55970
 6261.50000   -9999.25   -9999.25   -9999.25   -9999.25   -9999.25   -9999.25   -9999.25    8.49420    9.15800  123.36010  -37.65850    9.01200   74.49290  115.93450    9.07790
 6262.00000   -9999.25   -9999.25   -9999.25   -9999.25   -9999.25   -9999.25   -9999.25    8.33320    9.01950  120.13380  -35.93030    8.88460   74.69320  124.96330    9.52720
 6262.50000   -9999.25   -9999.25   -9999.25   -9999.25   -9999.25   -9999.25   -9999.25    8.14320    8.88320  117.56580  -34.57980    8.68210   74.54770  132.10410    9.10690
 6263.00000   -9999.25   -9999.25   -9999.25   -9999.25   -9999.25   -9999.25   -9999.25    7.95750    8.74890  119.50730  -33.54310    8.48420   74.30660  137.26210    8.52360
 6263.50000   -9999.25   -9999.25   -9999.25   -9999.25   -9999.25   -9999.25   -9999.25    7.77610    8.61660  122.58670  -32.58310    8.29080   73.87720  141.64260    7.94020
 6264.00000   -9999.25   -9999.25   -9999.25   -9999.25   -9999.25   -9999.25   -9999.25    7.59880    8.43310  127.24040  -32.04630    8.10180   76.01820  146.02310    7.35690
 6264.50000   -9999.25   -9999.25   -9999.25   -9999.25   -9999.25   -9999.25   -9999.25    7.42550    8.19010  130.85500  -31.94980    7.91720   78.87040  151.43960    7.00680
 6265.00000   -9999.25   -9999.25   -9999.25   -9999.25   -9999.25   -9999.25   -9999.25    7.25620    7.97650  131.57170  -31.64030    7.73670   81.43040  156.96470    7.42880
 6265.50000   -9999.25   -9999.25   -9999.25   -9999.25   -9999.25   -9999.25   -9999.25    7.11800    7.92060  130.03620  -31.47730    7.56890   80.18120  154.83720    7.76350
 6266.00000   -9999.25   -9999.25   -9999.25   -9999.25   -9999.25   -9999.25   -9999.25    7.04920    7.86520  123.72760  -31.32390    7.46700   77.69180  144.94830    8.03120
 6266.50000   -9999.25   -9999.25   -9999.25   -9999.25   -9999.25   -9999.25   -9999.25    7.03640    7.86480  117.24810  -31.10280    7.45710   73.67060  136.78860    7.27660
 6267.00000   -9999.25   -9999.25   -9999.25   -9999.25   -9999.25   -9999.25   -9999.25    7.07260    7.86480  114.43790  -30.88170    7.49540   74.62680  136.76690    6.73820
 6267.50000   -9999.25   -9999.25   -9999.25   -9999.25   -9999.25   -9999.25   -9999.25    7.10890    7.86480  114.83320  -30.66550    7.53400   76.46320  142.58870    7.13670
 6268.00000   -9999.25   -9999.25   -9999.25   -9999.25   -9999.25   -9999.25   -9999.25    7.14540    7.86480  116.92810  -30.56220    7.57270   77.49410  146.53800    7.63320
 6268.50000   -9999.25   -9999.25   -9999.25   -9999.25   -9999.25   -9999.25   -9999.25    7.18210    7.86480  118.19450  -30.42680    7.61060   78.03620  147.70190    8.18860
 6269.00000   -9999.25   -9999.25   -9999.25   -9999.25   -9999.25   -9999.25   -9999.25    7.21000    7.86100  117.83910  -30.28720    7.63950   78.61450  148.03190    7.86550
 6269.50000   -9999.25   -9999.25   -9999.25   -9999.25   -9999.25   -9999.25   -9999.25    7.24170    7.89350  118.49950  -29.97420    7.68410   79.84110  148.36190    7.54250
 6270.00000   -9999.25   -9999.25   -9999.25   -9999.25   -9999.25   -9999.25   -9999.25    7.31820    7.95660  119.10990  -29.94760    7.76280   80.57780  148.40490    7.35530
 6270.50000   -9999.25   -9999.25   -9999.25   -9999.25   -9999.25   -9999.25   -9999.25    7.47420    8.26440  119.71520  -29.92950    8.04390   79.76140  148.42050    7.42930
 6271.00000   -9999.25   -9999.25   -9999.25   -9999.25   -9999.25   -9999.25   -9999.25    7.74720    9.04650  120.35830  -29.92950    8.79640   77.01860  148.14910    7.85420
 6271.50000   -9999.25   -9999.25   -9999.25   -9999.25   -9999.25   -9999.25   -9999.25    8.43940    9.92240  121.41460  -29.92950    9.88370   75.27640  147.68980    9.58620
 6272.00000   -9999.25   -9999.25   -9999.25   -9999.25   -9999.25   -9999.25   -9999.25    9.48240   10.65240  121.56210  -30.13460   10.19060   74.08180  144.81960   10.91410
 6272.50000   -9999.25   -9999.25   -9999.25   -9999.25   -9999.25   -9999.25   -9999.25    9.36340   10.53960  121.48120  -30.58350   10.24330   72.70470  136.58940   10.24180
 6273.00000   -9999.25   -9999.25   -9999.25   -9999.25   -9999.25   -9999.25   -9999.25    8.86070   10.08650  120.98520  -31.03230    9.54740   71.63100  132.21620    9.12140
 6273.50000   -9999.25   -9999.25   -9999.25   -9999.25   -9999.25   -9999.25   -9999.25    8.50640    9.52270  120.48910  -31.11080    8.96970   71.81100  132.24980    8.44920
 6274.00000   -9999.25   -9999.25   -9999.25   -9999.25   -9999.25   -9999.25   -9999.25    8.93660    9.59320  119.99310  -31.11610    9.27980   72.19100  132.95010    9.28060
 6274.50000   -9999.25   -9999.25   -9999.25   -9999.25   -9999.25   -9999.25   -9999.25    9.08940    9.55590  119.49830  -31.12910    9.16940   72.59640  133.70300    9.86910
 6275.00000   -9999.25   -9999.25   -9999.25   -9999.25   -9999.25   -9999.25   -9999.25    8.24540    9.00230  119.63120  -31.16830    8.53980   72.26820  135.83080   10.05100
 6275.50000   -9999.25   -9999.25   -9999.25   -9999.25   -9999.25   -9999.25   -9999.25    7.44150    8.72380  123.48050  -31.50280    7.95350   71.67210  139.78620    8.67490
 6276.00000   -9999.25   -9999.25   -9999.25   -9999.25   -9999.25   -9999.25   -9999.25    7.69420    9.06860  127.12530  -31.52780    8.34250   71.33130  142.24750    7.18860
 6276.50000   -9999.25   -9999.25   -9999.25   -9999.25   -9999.25   -9999.25   -9999.25    9.93420    9.84150  127.51230  -31.73270    9.81420   71.16230  143.33650    8.42500
 6277.00000   -9999.25   -9999.25   -9999.25   -9999.25   -9999.25   -9999.25   -9999.25   12.84410   10.75170  122.91240  -32.27630   11.54540   70.98710  140.68370    9.99800
 6277.50000   -9999.25   -9999.25   -9999.25   -9999.25   -9999.25   -9999.25   -9999.25   15.70970   11.60370  115.51330  -32.48240   12.41860   70.75950  129.20750   11.57100
 6278.00000   -9999.25   -9999.25   -9999.25   -9999.25   -9999.25   -9999.25   -9999.25   14.97850   12.45750  107.14140  -32.91850   12.17120   70.26820  124.67380   12.51460
 6278.50000   -9999.25   -9999.25   -9999.25   -9999.25   -9999.25   -9999.25   -9999.25   11.88760   12.38530  102.44390  -33.31190   11.33080   69.69280  123.88560   12.51440
 6279.00000   -9999.25   -9999.25   -9999.25   -9999.25   -9999.25   -9999.25   -9999.25    9.43460   11.77980  104.13300  -33.53080   10.11980   67.14160  123.44430   10.48300
 6279.50000   -9999.25   -9999.25   -9999.25   -9999.25   -9999.25   -9999.25   -9999.25    8.14280   10.14160  107.31490  -33.38450    8.90290   66.22530  123.42000    8.45170
 6280.00000   -9999.25   -9999.25   -9999.25   -9999.25   -9999.25   -9999.25   -9999.25    7.73800    8.73110  113.30340  -33.61230    8.21370   67.20860  125.23690    7.63900
 6280.50000   -9999.25   -9999.25   -9999.25   -9999.25   -9999.25   -9999.25   -9999.25    8.01120    8.47180  118.39510  -33.91520    8.18900   72.77120  135.06420    7.91930
