~Version ---------------------------------------------------
VERS.   2.0 : CWLS log ASCII Standard -VERSION 2.0
WRAP.    NO : One line per depth step
DLM . SPACE : Column Data Section Delimiter
~Well ------------------------------------------------------
STRT .F                  48.0 : START DEPTH
STOP .F                9917.0 : STOP DEPTH
STEP .F                   0.5 : STEP
NULL .               -9999.25 : NULL VALUE
COMP .                        : COMPANY
WELL .                        : WELL
FLD  .                        : FIELD
LOC  .                        : LOCATION
PROV .                        : PROVINCE
CNTY .                        : COUNTY
STAT .                        : STATE
CTRY .                        : COUNTRY
SRVC .                        : SERVICE COMPANY
DATE .                        : DATE
UWI  .                        : UNIQUE WELL ID
API  .                        : API NUMBER
SLAT .WGS84 6.216307834407999 : SURFACE LATITUDE
SLON .WGS84 3.438105576243501 : SURFACE LONGITUDE
DATUM.F               1739.31 : DEPTH DATUM ELEV
~Curve Information -----------------------------------------
DEPT   .F     : 
DPHZ_LS.DEC   : HGRD STANDARD RESOLUTION DENSITY POROSITY
NPHI_LS.DEC   : NEUTRON POROSITY LIMESTONE
HCALD  .IN    : HRCC CALIPER CALIBRATED FROM DENSITY LOG
HDRA   .G/C3  : HRDD SPINE AND RIBS DENSITY CORRECTION
PEFZ   .B/E   : HRDD STANDARD RESOLUTION FORMATION PHOTOELECTRIC FACTOR
RHOZ   .G/C3  : HRDD STANDARD RESOLUTION FORMATION DENSITY
AHFCO60.MMHO  : ARRAY INDUCTION FOUR FOOT CONDUCTIVITY A60
AHT20  .OHMM  : ARRAY INDUCTION TWO FOOT RESISTIVITY A20
AHT60  .OHMM  : ARRAY INDUCTION TWO FOOT RESISTIVITY A60
GRR    .GAPI  : GAMMA RAY FROM RESISTIVITY LOG
SPR    .MV    : SPONTANEOUS POTENTIAL FROM RESISTIVITY LOG
AHT30  .OHMM  : ARRAY INDUCTION TWO FOOT RESISTIVITY A30
DTCO   .US/F  : DELTA-T COMPRESSIONAL
DTSM   .US/F  : DELTA-T SHEAR
AHT90  .OHMM  : ARRAY INDUCTION TWO FOOT RESISTIVITY A90
~Params ----------------------------------------------------
~Other -----------------------------------------------------
~ASCII -----------------------------------------------------
# ...
 8328.00000    0.01290    0.01500    9.02210   -0.00070    5.22310    2.70030   -9999.25  751.16820  579.60500   35.38430  -31.73080  591.64100   53.80110  104.59640  219.11700
 8328.50000    0.02620    0.01680    9.03950   -0.00060    5.26590    2.66620   -9999.25  884.44440  744.13690   35.34400  -32.32390  818.44430   53.45170  104.42460  260.80430
 8329.00000    0.03580    0.01600    9.05330   -0.00070    5.26070    2.64800   -9999.25  887.59880  769.75040   38.38490  -32.91700  816.33800   52.45470  103.18830  296.52820
 8329.50000    0.03490    0.01260    9.05890   -0.00070    5.20710    2.65050   -9999.25  800.13130  551.72970   37.72790  -33.51010  653.41970   51.69520  101.94910  295.84470
 8330.00000    0.02230    0.00980    9.06460    0.00010    5.11690    2.67490   -9999.25  567.56920  324.76810   36.05620  -34.11790  429.81420   51.21150  101.37830  293.98590
 8330.50000    0.01420    0.00780    9.07020    0.00210    5.06740    2.68630   -9999.25  402.60230  208.86490   34.57070  -34.86250  282.72830   51.05500  101.27080  259.53710
 8331.00000    0.01370    0.00630    9.07470    0.00410    5.08890    2.68740   -9999.25  285.58390  172.42770   33.92830  -35.60700  202.67100   51.23770  101.16320  219.92200
 8331.50000    0.01610    0.00730    9.07880    0.01320    5.15250    2.68140   -9999.25  202.57740  150.40620   34.66340  -36.24900  160.27250   51.94240  102.09580  180.30690
 8332.00000    0.01890    0.01020    9.10940    0.04030    5.22760    2.68230   -9999.25  143.69740   94.68230   37.35950  -36.76820  123.29110   53.05710  103.09920  140.69170
 8332.50000    0.01560    0.01220    9.62160    0.06790    5.30270    2.68780   -9999.25  113.27400   70.89690   44.11700  -37.12470   90.91840   54.23880  104.10260  115.80310
 8333.00000    0.00330    0.01210    9.41310    0.08020    5.34830    2.70110   -9999.25  262.07040  156.37930   43.58080  -37.38660  219.22580   54.09640  103.95040  267.84600
 8333.50000    0.00340    0.01190    9.13910    0.04980    5.35320    2.69780   -9999.25  596.53500  406.45130   40.67390  -37.86290  616.18110   52.97370  102.49740  515.95930
 8334.00000    0.01430    0.00980    9.15110    0.02580    5.35220    2.68580   -9999.25  961.57330  788.45890   37.76690  -38.45490  831.04100   51.88530  100.78110  714.25950
 8334.50000    0.01790    0.00550    9.21060    0.00560    5.32310    2.67980   -9999.25  901.68480  772.09920   36.46000  -39.12340  818.74490   51.44990  100.62050  719.87000
 8335.00000    0.01770    0.00520    9.17160   -0.00160    5.29410    2.68230   -9999.25  801.52280  674.89880   35.90910  -39.13900  769.67100   51.25660  101.27010  605.98290
 8335.50000    0.01180    0.00540    9.11550   -0.00200    5.27220    2.69100   -9999.25  711.72950  589.93500   35.77130  -39.13900  667.49440   51.67540  102.01380  418.90650
 8336.00000    0.00840    0.00570    9.05930   -0.03200    5.25480    2.69950   -9999.25  619.68100  549.05720   36.04300  -38.92860  578.88250   53.48350  102.58050  265.68310
 8336.50000    0.00020    0.00590    9.02550   -0.04220    5.24520    2.70740   -9999.25  539.06050  516.43400   36.26700  -38.70000  502.03410   54.68420  103.14720  247.87170
 8337.00000    0.00150    0.00620    9.01650   -0.04470    5.25970    2.70660   -9999.25  470.19850  490.89520   38.03680  -38.47130  452.27880   54.76300  103.68910  239.14870
 8337.50000    0.00210    0.00650    9.00550   -0.04240    5.21790    2.70740   -9999.25  426.75910  471.44720   41.82090  -38.24260  440.17870   54.55050  104.15500  233.42000
 8338.00000   -0.00120    0.00680    8.98540   -0.03150    5.19010    2.71720   -9999.25  419.44930  457.34350   45.49910  -37.34480  432.34070   53.61970  103.16900  227.50420
 8338.50000   -0.01010    0.00700    8.96150   -0.02160    5.18000    2.72760   -9999.25  412.26470  449.52520   48.49360  -36.83400  427.07920   52.37340  101.53400  222.72920
 8339.00000   -0.01570    0.00720    8.94280   -0.01080    5.11180    2.73700   -9999.25  405.43050  442.24020   48.34460  -38.39480  421.88200   51.62170  101.21640  217.95420
 8339.50000   -0.01880    0.00740    8.94280   -0.00180    5.05850    2.74310   -9999.25  399.17480  437.69340   46.38340  -35.83780  414.55290   51.87310  101.52990  213.17920
 8340.00000   -0.02160    0.00610    8.93920    0.00240    5.02000    2.74680   -9999.25  392.06130  433.19310   44.38030  -35.63730  407.60720   52.69420  102.43140  208.29840
 8340.50000   -0.02280    0.00580    8.91780    0.00210    4.99170    2.75030   -9999.25  384.30540  425.93750   42.36170  -35.40350  400.86510   53.54780  103.25380  190.86730
 8341.00000   -0.01590    0.00550    8.89650    0.00040    5.05120    2.73900   -9999.25  325.75320  365.07470   40.17340  -35.10110  369.62950   54.18510  103.87130  150.49530
 8341.50000   -0.00940    0.00640    8.89350   -0.00280    5.11360    2.73020   -9999.25  233.27700  259.32040   37.98510  -34.60080  278.86240   54.69260  105.24910  110.12320
 8342.00000   -0.01050    0.00860    8.89110   -0.00430    5.19610    2.73490   -9999.25  147.19720  176.22470   38.26540  -34.03850  170.10230   55.65370  107.76610   87.99800
 8342.50000   -0.02360    0.01100    8.88880   -0.00390    5.19610    2.74760   -9999.25   85.81400  104.50740   43.22110  -33.54650  103.76010   56.60960  109.58520   70.43460
 8343.00000   -0.02870    0.01810    8.88640   -0.00330    5.02960    2.75840   -9999.25   65.76390   55.41180   51.50470  -32.89820   63.29230   57.66680  110.56420   52.87120
 8343.50000   -0.02360    0.02990    8.88230   -0.00230    4.82820    2.75430   -9999.25   52.55420   41.25600   59.16170  -32.85210   44.68990   58.07080  110.11580   35.30770
 8344.00000   -0.00710    0.04040    8.87540   -0.00130    4.47390    2.72980   -9999.25   41.99790   34.00370   63.56560  -32.67610   36.01210   58.07100  109.58390   32.28360
 8344.50000    0.00690    0.05060    8.86850   -0.00070    4.26500    2.70040   -9999.25   33.72690   28.73280   64.68840  -32.52010   30.86440   57.89010  109.10020   29.25940
 8345.00000    0.01530    0.05520    8.86580   -0.00100    4.15580    2.68660   -9999.25   30.96490   27.05790   64.29820  -32.44420   27.12080   57.51640  107.91320   26.23520
 8345.50000    0.02230    0.05530    8.86560   -0.00530    4.16580    2.67390   -9999.25   36.78790   29.52400   63.16610  -32.36840   31.69020   56.92710  105.74440   25.63100
 8346.00000    0.03100    0.04310    8.86770   -0.00820    4.18570    2.65280   -9999.25   53.71780   39.61730   60.74300  -32.29250   45.10870   56.74230  104.51200   28.09030
 8346.50000    0.03030    0.02850    8.86710   -0.00710    4.20290    2.65380   -9999.25   76.57430   53.16120   58.14270  -32.21670   62.00940   57.01090  104.10160   42.48290
 8347.00000    0.02100    0.01600    8.86910   -0.00400    4.21100    2.67400   -9999.25   73.58000   57.73230   55.55430  -32.14080   61.98060   57.33390  104.98710   56.87560
 8347.50000    0.01240    0.01740    8.86920   -0.00070    4.20370    2.68800   -9999.25   65.88760   54.33890   53.88180  -32.06490   59.71030   57.46800  107.18990   55.33960
 8348.00000    0.01270    0.02220    8.86910    0.00090    4.16270    2.68860   -9999.25   57.74430   48.20210   54.56930  -31.81350   51.92070   57.65980  108.34530   47.38720
 8348.50000    0.01420    0.02640    8.86890    0.00080    4.07140    2.68620   -9999.25   50.60750   42.75830   58.61110  -31.52210   45.14720   57.96870  108.73940   39.43480
 8349.00000    0.01750    0.03060    8.86880   -0.00030    3.86350    2.68170   -9999.25   44.35280   39.75400   63.65140  -31.23070   41.46650   58.62890  108.25460   39.43710
 8349.50000    0.01900    0.03710    8.86860   -0.00030    3.77480    2.68010   -9999.25   38.87110   36.12090   71.27270  -30.93930   38.10370   58.89000  108.08450   39.43870
 8350.00000    0.01720    0.04200    8.86810   -0.00030    3.73730    2.68190   -9999.25   34.06690   30.65900   74.80890  -30.64790   32.19540   58.71700  108.63330   34.38790
 8350.50000    0.01700    0.04170    8.86730   -0.00040    3.69860    2.68290   -9999.25   33.39740   28.59500   73.63320  -30.35650   30.43160   58.51560  108.75280   28.07240
