~Version ---------------------------------------------------
VERS.   2.0 : CWLS log ASCII Standard -VERSION 2.0
WRAP.    NO : One line per depth step
DLM . SPACE : Column Data Section Delimiter
~Well ------------------------------------------------------
STRT .FT                124.0 : START DEPTH
STOP .FT               8459.0 : STOP DEPTH
STEP .FT                  0.5 : STEP
NULL .               -9999.25 : NULL VALUE
COMP .                        : COMPANY
WELL .                        : WELL
FLD  .                        : FIELD
LOC  .                        : LOCATION
PROV .                        : PROVINCE
CNTY .                        : COUNTY
STAT .                        : STATE
CTRY .                        : COUNTRY
SRVC .                        : SERVICE COMPANY
DATE .                        : DATE
UWI  .                        : UNIQUE WELL ID
API  .                        : API NUMBER
SLAT .WGS84 2.824751013335998 : SURFACE LATITUDE
SLON .WGS84 8.884745930231006 : SURFACE LONGITUDE
DATUM.F                   nan : DEPTH DATUM ELEV
~Curve Information -----------------------------------------
DEPT   .FT    : 
CALD   .IN    : CALIPER FROM DENSITY LOG
DPHZ_LS.DEC   : HGRD STANDARD RESOLUTION DENSITY POROSITY
DT4P   .US/F  : DELTA-T COMPRESSIONAL - MONOPOLE P & S
DTSM   .US/F  : DELTA-T SHEAR
GRD    .GAPI  : GAMMA RAY FROM DENSITY LOG
HDRA   .G/C3  : HRDD SPINE AND RIBS DENSITY CORRECTION
PEFZ   .B/E   : HRDD STANDARD RESOLUTION FORMATION PHOTOELECTRIC FACTOR
RHOZ   .G/C3  : HRDD STANDARD RESOLUTION FORMATION DENSITY
RLA3   .OHMM  : APPARENT RESISTIVITY FROM COMPUTED FOCUSING MODE 3
RLA5   .OHMM  : APPARENT RESISTIVITY FROM COMPUTED FOCUSING MODE 5
RXOZ   .OHMM  : INVADED FORMATION RESISTIVITY FILTERED AT 18 INCHES
TNPH_LS.DEC   : THERMAL NEUTRON POROSITY [LIMESTONE]
~Params ----------------------------------------------------
~Other -----------------------------------------------------
~ASCII -----------------------------------------------------
# ...
 5444.00000    8.79040    0.03030   56.08170   94.24640   18.20680    0.01070    3.49140    2.66430  963.79530 1136.56960  636.95580    0.02080
 5444.50000    8.79040    0.03400   57.11620   94.46910   21.02300    0.01030    3.42510    2.65000  573.95170  761.44710  392.17510    0.02070
 5445.00000    8.79040    0.04010   56.53740   96.18070   22.75440    0.00650    3.37120    2.64640  633.96640  707.93040  328.22340    0.02040
 5445.50000    8.79040    0.03540   56.72930   95.25360   20.99790    0.00260    3.37220    2.64180  757.19140 1077.02550  405.11300    0.01990
 5446.00000    8.79040    0.04240   57.44640   95.38750   21.20340    0.00110    3.44050    2.63460  836.27380 1023.29430  590.38640    0.01950
 5446.50000    8.79040    0.04950   57.00440   95.80660   24.85900    0.00110    3.47050    2.62650  756.93480  820.67790  590.38640    0.01910
 5447.00000    8.78350    0.04750   57.50690   96.40980   27.41290    0.00110    3.51410    2.63100  584.22630  618.06160  468.71320    0.01860
 5447.50000    8.77820    0.04120   57.31240   96.16840   26.84980    0.00110    3.56740    2.64120  622.99280  911.57060  403.91330    0.01820
 5448.00000    8.77290    0.03510   56.99200   95.85320   20.99390    0.00240    3.62840    2.64510 1006.42610 1387.95240  489.27900    0.01780
 5448.50000    8.76750    0.04170   56.99200   95.51950   17.57240    0.00070    3.72870    2.63710 1159.79940 1864.33420  639.89600    0.01730
 5449.00000    8.76220    0.04850   57.44290   95.27210   16.69900   -0.00100    3.78650    2.62790  879.54200 1554.32530  614.40440    0.01690
 5449.50000    8.76030    0.05350   56.48710   95.86750   18.77320   -0.00270    3.74890    2.61900  595.60140  878.84990  521.71270    0.01720
 5450.00000    8.76370    0.05480   56.66520   96.64650   21.67380   -0.00250    3.63840    2.61130  668.32940  855.01320  484.63610    0.01950
 5450.50000    8.76700    0.05640   56.91990   96.24410   24.66340   -0.00200    3.46500    2.60360  717.99620 1174.20960  560.87490    0.02180
 5451.00000    8.76540    0.06320   57.79280   95.90370   27.47580   -0.00140    3.32590    2.59420  679.85290  786.23150  477.13020    0.02490
 5451.50000    8.76260    0.07000   58.71830   96.31560   28.28150   -0.00090    3.06540    2.58230  649.33820  808.12100  286.98940    0.03080
 5452.00000    8.75980    0.07550   60.09020   96.72750   26.94910   -0.00070    3.01480    2.58330  625.66630  830.01060  293.63790    0.03410
 5452.50000    8.75850    0.06950   61.55350   97.13940   25.56890   -0.00060    3.01790    2.60180  629.61050  851.90010  541.71370    0.03470
 5453.00000    8.76310    0.05650   62.69160   96.06390   27.05890   -0.00050    3.07820    2.62040  557.60740  721.15860  438.10370    0.03200
 5453.50000    8.76770    0.04470   62.00010   94.66370   25.02430    0.00200    3.10160    2.64230  615.14020  848.76450  370.99810    0.02950
 5454.00000    8.76860    0.03060   60.87600   93.91220   22.69270    0.00350    3.17870    2.66930  699.24890 1077.02550  347.75320    0.03100
 5454.50000    8.76980    0.01240   58.45340   93.27630   17.94190    0.00500    3.20970    2.69640  690.67370  895.77750  330.90280    0.03280
 5455.00000    8.77100   -0.00510   57.27130   92.64050   15.07990    0.00620    3.16460    2.72370  476.46730  634.08680  279.74260    0.03530
 5455.50000    8.77050   -0.02030   56.37970   92.13170   11.98090    0.00590    3.08060    2.74120  258.84240  416.40730  208.06190    0.04090
 5456.00000    8.76750   -0.01870   55.50890   93.63550    9.69740    0.00560    3.02870    2.73450   84.74250  104.52520  192.92120    0.04540
 5456.50000    8.76440   -0.01050   54.13020   94.95140    8.51860    0.00530    3.03850    2.71850  126.80200  253.90580  283.29630    0.04280
 5457.00000    8.76130    0.01130   53.99500   94.19470   10.97430    0.00290    3.04840    2.67580  331.83490  625.74150  491.84280    0.03650
 5457.50000    8.75820    0.03300   56.52690   94.26200   17.60120    0.00160    3.04000    2.65170  414.55750  618.52600  530.85730    0.03020
 5458.00000    8.76060    0.04640   58.18970   94.58260   24.29350    0.00020    2.99690    2.62770  401.27120  606.50020  381.34080    0.02920
 5458.50000    8.76570    0.04960   59.54130   94.90310   29.20470    0.00120    2.97760    2.62440  456.48170  648.75910  190.51290    0.03210
 5459.00000    8.77550    0.04640   60.08120   95.62380   29.98620    0.00090    3.06850    2.62820  507.31220  846.65660  201.91210    0.03440
 5459.50000    8.79020    0.05010   61.38420   95.75990   29.43750    0.00060    3.12270    2.63210  458.18810  805.87570  320.02110    0.03620
 5460.00000    8.79140    0.07410   62.03010   96.10990   29.85830    0.00030    3.04920    2.58570  388.99070  741.35470  517.59580    0.04260
 5460.50000    8.79250    0.09800   63.27320   97.32750   35.50010   -0.00040    2.87960    2.53940  306.18300  557.68890  457.34810    0.05620
 5461.00000    8.79370    0.11940   65.14540   99.75140   44.88410    0.00030    2.64380    2.49300  241.92870  445.65400  382.03860    0.06980
 5461.50000    8.79480    0.13270   67.35410  101.85290   53.98510    0.00100    2.49510    2.48190  205.97560  392.67100  316.11410    0.08560
 5462.00000    8.79540    0.14430   69.70480  104.28140   59.93980    0.00230    2.45610    2.46330  184.40370  337.60020  274.86550    0.10300
 5462.50000    8.78790    0.15420   71.70230  106.70980   61.50250    0.00760    2.50100    2.44480  191.40540  335.52220  159.78740    0.11410
 5463.00000    8.78040    0.15540   71.95840  109.28360   61.05230    0.01460    2.54590    2.44370  198.40720  368.06310   50.47070    0.11800
 5463.50000    8.77290    0.15110   70.71740  110.74360   57.64660    0.02170    2.55950    2.46190  204.79980  366.36400   18.32980    0.11800
 5464.00000    8.76820    0.14640   73.68330  110.19170   52.65920    0.01600    2.56010    2.47800  215.16350  379.59570   17.08200    0.10580
 5464.50000    8.77460    0.13860   71.86390  106.77940   49.92770    0.00880    2.57830    2.49640  269.42460  494.50810   32.64110    0.09130
 5465.00000    8.79060    0.12430   71.78020  108.80610   49.92990    0.00160    2.59830    2.51630  397.37520  676.83520   72.11290    0.07810
 5465.50000    8.78610    0.11180   73.84470  110.28440   54.62770    0.00160    2.59260    2.51850  459.61780  795.99300  212.14720    0.07220
 5466.00000    8.78160    0.11650   70.25520  111.28970   58.43320    0.00160    2.51710    2.50220  336.41920  528.25860  323.27830    0.07590
 5466.50000    8.77710    0.12780   69.30040  112.15430   58.84010    0.00160    2.44160    2.48590  213.22050  260.52420  308.51770    0.08540
 5467.00000    8.78380    0.13770   71.70830  111.98910   58.36760    0.00160    2.39210    2.46960  113.95690  177.70230  251.00070    0.09010
 5467.50000    8.79390    0.14360   71.48640  111.60620   57.54360    0.00110    2.38150    2.45920  118.06180  174.44270  249.73300    0.09340
 5468.00000    8.80520    0.14670   70.33940  110.37950   57.24720    0.00060    2.41490    2.46060  131.51200  186.84050  265.74880    0.09630
 5468.50000    8.79530    0.14390   70.12320  108.73400   54.26540    0.00010    2.44840    2.46710  144.96220  219.18400  307.32270    0.10110
 5469.00000    8.79950    0.14280   70.11850  110.14960   47.55870   -0.00040    2.48530    2.47360  146.76200  221.76890  293.82340    0.10470
 5469.50000    8.80380    0.13980   70.92550  111.21650   40.16120   -0.00090    2.49790    2.48020  146.76200  221.08700  273.55330    0.10380
 5470.00000    8.80300    0.13630   71.74140  112.61480   36.45730   -0.00140    2.47900    2.48670  150.63200  220.54150  111.34090    0.10240
 5470.50000    8.79870    0.13110   71.54480  114.72930   40.45480   -0.00190    2.42810    2.49320  158.03470  221.90530  107.25380    0.10630
 5471.00000    8.80290    0.12610   70.66100  118.02550   46.29320   -0.00140    2.38710    2.49970  182.21800  266.83970  113.39390    0.11180
 5471.50000    8.81040    0.12750   71.30530  121.61710   47.96720   -0.00080    2.36920    2.49980  217.58840  354.68420  303.08800    0.11000
