~Version ---------------------------------------------------
VERS.   2.0 : CWLS log ASCII Standard -VERSION 2.0
WRAP.    NO : One line per depth step
DLM . SPACE : Column Data Section Delimiter
~Well ------------------------------------------------------
STRT .FT                124.0 : START DEPTH
STOP .FT               8459.0 : STOP DEPTH
STEP .FT                  0.5 : STEP
NULL .               -9999.25 : NULL VALUE
COMP .                        : COMPANY
WELL .                        : WELL
FLD  .                        : FIELD
LOC  .                        : LOCATION
PROV .                        : PROVINCE
CNTY .                        : COUNTY
STAT .                        : STATE
CTRY .                        : COUNTRY
SRVC .                        : SERVICE COMPANY
DATE .                        : DATE
UWI  .                        : UNIQUE WELL ID
API  .                        : API NUMBER
SLAT .WGS84 2.824751013335998 : SURFACE LATITUDE
SLON .WGS84 8.884745930231006 : SURFACE LONGITUDE
DATUM.F                   nan : DEPTH DATUM ELEV
~Curve Information -----------------------------------------
DEPT   .FT    : 
CALD   .IN    : CALIPER FROM DENSITY LOG
DPHZ_LS.DEC   : HGRD STANDARD RESOLUTION DENSITY POROSITY
DT4P   .US/F  : DELTA-T COMPRESSIONAL - MONOPOLE P & S
DTSM   .US/F  : DELTA-T SHEAR
GRD    .GAPI  : GAMMA RAY FROM DENSITY LOG
HDRA   .G/C3  : HRDD SPINE AND RIBS DENSITY CORRECTION
PEFZ   .B/E   : HRDD STANDARD RESOLUTION FORMATION PHOTOELECTRIC FACTOR
RHOZ   .G/C3  : HRDD STANDARD RESOLUTION FORMATION DENSITY
RLA3   .OHMM  : APPARENT RESISTIVITY FROM COMPUTED FOCUSING MODE 3
RLA5   .OHMM  : APPARENT RESISTIVITY FROM COMPUTED FOCUSING MODE 5
RXOZ   .OHMM  : INVADED FORMATION RESISTIVITY FILTERED AT 18 INCHES
TNPH_LS.DEC   : THERMAL NEUTRON POROSITY [LIMESTONE]
~Params ----------------------------------------------------
~Other -----------------------------------------------------
~ASCII -----------------------------------------------------
# ...
 3764.00000    9.24870    0.12150   72.00770  123.07660   88.26640   -0.00180    2.49770    2.50420    4.98170    5.60890    5.73470    0.13510
 3764.50000    9.23960    0.11400   71.12090  123.44830   82.10130   -0.00290    2.48240    2.51620    6.52560    8.34030    7.53490    0.12840
 3765.00000    9.23050    0.10390   70.08850  122.94100   79.75440   -0.00390    2.51870    2.52820    8.33910   11.07170    9.51480    0.11240
 3765.50000    9.23010    0.09800   69.05610  121.37920   78.20290   -0.00270    2.55780    2.53860    8.14390   11.47540   10.18030    0.10560
 3766.00000    9.23540    0.10230   68.49780  120.21520   79.63400   -0.00150    2.58720    2.53710    6.60950    7.64660    8.26500    0.10150
 3766.50000    9.24100    0.10850   68.27450  119.94240   80.98980   -0.00040    2.58030    2.52710    6.10770    6.22930    6.73280    0.10860
 3767.00000    9.24570    0.11280   68.56270  120.30900   85.70550    0.00050    2.56700    2.51920    6.88600    7.02310    7.22280    0.11570
 3767.50000    9.24570    0.10730   69.22460  120.73580   92.57880    0.00110    2.54320    2.52210    7.81150    7.96700    8.03940    0.11680
 3768.00000    9.24560    0.10100   69.90260  121.40300   97.59650    0.00170    2.54250    2.53190    8.41870    8.58630    8.87630    0.11670
 3768.50000    9.24560    0.09750   69.68420  121.78380   97.62160    0.00050    2.54180    2.53990    7.97130    8.13000    8.95980    0.11450
 3769.00000    9.24430    0.10350   69.24220  121.85550   93.26330    0.00070    2.54930    2.53740    7.63250    7.78440    8.67390    0.11660
 3769.50000    9.23710    0.10660   69.29930  121.00510   90.61340    0.00140    2.57690    2.52970    8.11270    8.27420    9.11000    0.12410
 3770.00000    9.24300    0.11210   69.64690  120.70860   89.00720    0.00220    2.60870    2.52180    6.64210    6.77430    6.87320    0.13110
 3770.50000    9.24410    0.11590   70.14110  121.30370   89.99070    0.00210    2.62580    2.51360    5.53350    5.64360    5.19550    0.13170
 3771.00000    9.24530    0.11330   70.52330  122.28380   94.25560    0.00270    2.64490    2.51770    7.12320    7.26500    6.34810    0.13260
 3771.50000    9.23890    0.09660   70.54490  123.13270   98.36610    0.00320    2.69170    2.54340   15.15770   15.45940   11.22690    0.12660
 3772.00000    9.23700    0.07580   70.41840  123.52080   99.87920    0.00380    2.77130    2.56910   32.26330   32.90550   21.50080    0.12520
 3772.50000    9.22760    0.06340   70.00790  122.71340  103.92480    0.00250    2.85120    2.59480   46.17240   47.09230   38.08680    0.12270
 3773.00000    9.22290    0.06580   69.46000  121.34540  106.33700   -0.00100    2.89300    2.59900   47.29560   48.24160   50.73850    0.12170
 3773.50000    9.21820    0.06900   68.92340  119.72850  107.58100   -0.00450    2.87050    2.59080   47.38130   48.93120   55.56230    0.12170
 3774.00000    9.21350    0.07520   68.43370  117.96430  109.99430   -0.00630    2.84790    2.58160   38.86620   47.44440   48.82610    0.12310
 3774.50000    9.22320    0.08800   67.98930  116.27360  112.67160   -0.00580    2.84650    2.56410   29.40050   35.35140   28.89840    0.12450
 3775.00000    9.22310    0.09870   67.58460  115.28130  110.28300   -0.00540    2.79600    2.55390   19.93480   23.25840   15.30740    0.12340
 3775.50000    9.22050    0.09810   67.68660  114.98660  101.83470   -0.00490    2.72040    2.54360   10.46910   11.16530    8.88770    0.11800
 3776.00000    9.21790    0.09580   68.24260  115.08930   89.21780   -0.00380    2.62810    2.54210    7.48000    8.00540    7.90450    0.11260
 3776.50000    9.21540    0.10120   68.99270  115.76540   87.62010   -0.00450    2.54460    2.52910    6.53590    7.07880   10.04570    0.11150
 3777.00000    9.21280    0.11020   69.38720  116.98050   88.93560   -0.00520    2.51210    2.52150    6.37650    6.46430    8.10080    0.11570
 3777.50000    9.20390    0.10400   69.43680  118.11580   88.75960   -0.00560    2.50320    2.53590    6.53590    9.38390    9.24390    0.11880
 3778.00000    9.21210    0.09060   69.10000  118.53470   85.09200   -0.00450    2.49900    2.55980   11.37340   13.98080   18.07210    0.11090
 3778.50000    9.20650    0.08000   68.80830  118.02440   81.02120   -0.00330    2.49480    2.57070   10.58320   12.79810   17.03810    0.10190
 3779.00000    9.21960    0.09350   68.86180  118.18560   76.92860   -0.00220    2.51190    2.54920    6.18890    6.88470   11.86820    0.10190
 3779.50000    9.23230    0.11460   69.19560  118.82440   78.89720   -0.00160    2.52890    2.51450    4.34990    4.43640    6.69830    0.12020
 3780.00000    9.24500    0.13600   70.15830  119.90820   80.88450   -0.00070    2.53390    2.47990    4.27670    4.36180    4.77590    0.13840
 3780.50000    9.25470    0.14240   71.40790  121.47200   81.17810    0.00020    2.49590    2.47160    4.27010    4.35510    4.05910    0.15030
 3781.00000    9.26120    0.13930   72.46200  123.32800   79.84610    0.00110    2.49640    2.47000    4.69160    4.98670    4.34420    0.14870
 3781.50000    9.27980    0.14230   73.30730  125.25720   77.29460   -0.00080    2.53120    2.47020    4.83110    4.97490    4.38460    0.14460
 3782.00000    9.28530    0.14010   73.26940  126.38550   82.01600   -0.00120    2.58790    2.47670    4.84140    4.93780    4.66640    0.14120
 3782.50000    9.23190    0.13240   72.60850  125.72950   84.10490   -0.00160    2.59280    2.49240    6.03200    6.81390    5.00180    0.13320
 3783.00000    9.20450    0.11570   71.82240  124.51760   81.96450   -0.00160    2.60880    2.51000    8.27450    8.93380    7.32550    0.12170
 3783.50000    9.19410    0.10280   71.04970  123.01000   83.17830    0.00010    2.59010    2.52770   10.11520   10.39970   10.14630    0.11030
 3784.00000    9.18230    0.09550   70.30240  121.50240   86.85180    0.00180    2.59620    2.54200   10.25520   10.99030   12.87070    0.10110
 3784.50000    9.18640    0.09190   69.61440  120.34760   90.59360    0.00350    2.55560    2.55150    9.08840   10.04660   11.55700    0.10600
 3785.00000    9.18110    0.08880   69.10270  119.19280   93.45130    0.00460    2.54060    2.55810    7.48620    8.69840    9.74950    0.11430
 3785.50000    9.18240    0.08520   68.72690  118.07980   92.30060    0.00260    2.52560    2.56390    7.48620    8.32540    8.88790    0.11620
 3786.00000    9.18370    0.08420   68.66050  117.19300   89.15690    0.00070    2.53260    2.56590    9.62490   12.35750   11.49390    0.10890
 3786.50000    9.18440    0.08740   68.29110  116.54100   83.31840   -0.00090    2.55980    2.55910   10.65270   12.30230   12.87070    0.09360
 3787.00000    9.18280    0.09210   67.91110  115.96670   78.97580   -0.00110    2.59210    2.55080    9.37600   11.64400   11.84840    0.09030
 3787.50000    9.18470    0.09680   67.95930  116.00660   87.09730   -0.00120    2.60880    2.54250   10.51160   10.98570   11.03060    0.09870
 3788.00000    9.17570    0.10140   68.06400  116.19990   97.45880   -0.00140    2.58370    2.53550   10.25910   10.43680   11.44670    0.10050
 3788.50000    9.17100    0.10390   68.39550  116.41020   98.61810   -0.00130    2.55860    2.53270    9.71610   10.10550   10.82830    0.11410
 3789.00000    9.17310    0.10390   69.07030  116.68780   94.46510   -0.00230    2.52490    2.52630    8.98960    9.60370    9.30320    0.12520
 3789.50000    9.17510    0.10930   69.43620  117.40710   86.10100   -0.00330    2.52690    2.51670    8.31430    9.10190    8.56530    0.12120
 3790.00000    9.17710    0.11910   69.32340  118.01010   80.30420   -0.00430    2.57110    2.50710    8.08660    8.70660    8.02410    0.11030
 3790.50000    9.17910    0.11880   68.76590  117.34430   78.50230   -0.00490    2.61490    2.50760    8.26310    8.58630    8.15360    0.10290
 3791.00000    9.18570    0.11020   68.00900  116.21420   75.66120   -0.00490    2.68000    2.51970    9.32100    9.92530   10.12410    0.09660
 3791.50000    9.18780    0.10120   67.62200  115.08400   71.15310   -0.00490    2.73140    2.53190   10.06710   10.46080   11.23670    0.08750
