~Version ---------------------------------------------------
VERS.   2.0 : CWLS log ASCII Standard -VERSION 2.0
WRAP.    NO : One line per depth step
DLM . SPACE : Column Data Section Delimiter
~Well ------------------------------------------------------
STRT .FT                124.0 : START DEPTH
STOP .FT               8459.0 : STOP DEPTH
STEP .FT                  0.5 : STEP
NULL .               -9999.25 : NULL VALUE
COMP .                        : COMPANY
WELL .                        : WELL
FLD  .                        : FIELD
LOC  .                        : LOCATION
PROV .                        : PROVINCE
CNTY .                        : COUNTY
STAT .                        : STATE
CTRY .                        : COUNTRY
SRVC .                        : SERVICE COMPANY
DATE .                        : DATE
UWI  .                        : UNIQUE WELL ID
API  .                        : API NUMBER
SLAT .WGS84 2.824751013335998 : SURFACE LATITUDE
SLON .WGS84 8.884745930231006 : SURFACE LONGITUDE
DATUM.F                   nan : DEPTH DATUM ELEV
~Curve Information -----------------------------------------
DEPT   .FT    : 
CALD   .IN    : CALIPER FROM DENSITY LOG
DPHZ_LS.DEC   : HGRD STANDARD RESOLUTION DENSITY POROSITY
DT4P   .US/F  : DELTA-T COMPRESSIONAL - MONOPOLE P & S
DTSM   .US/F  : DELTA-T SHEAR
GRD    .GAPI  : GAMMA RAY FROM DENSITY LOG
HDRA   .G/C3  : HRDD SPINE AND RIBS DENSITY CORRECTION
PEFZ   .B/E   : HRDD STANDARD RESOLUTION FORMATION PHOTOELECTRIC FACTOR
RHOZ   .G/C3  : HRDD STANDARD RESOLUTION FORMATION DENSITY
RLA3   .OHMM  : APPARENT RESISTIVITY FROM COMPUTED FOCUSING MODE 3
RLA5   .OHMM  : APPARENT RESISTIVITY FROM COMPUTED FOCUSING MODE 5
RXOZ   .OHMM  : INVADED FORMATION RESISTIVITY FILTERED AT 18 INCHES
TNPH_LS.DEC   : THERMAL NEUTRON POROSITY [LIMESTONE]
~Params ----------------------------------------------------
~Other -----------------------------------------------------
~ASCII -----------------------------------------------------
# ...
 2056.00000    9.04290   -0.08440   -9999.25   -9999.25   12.33080    0.00080    3.61540    2.84580  465.79540  450.00100  679.87300    0.03440
 2056.50000    9.03480   -0.07750   -9999.25   -9999.25   11.43240   -0.00300    3.70300    2.83970  506.18120  400.54760  459.28750    0.03220
 2057.00000    9.02670   -0.07500   -9999.25   -9999.25   12.27260   -0.00400    3.80570    2.84180  807.55120  775.97800  521.40940    0.02590
 2057.50000    9.01860   -0.08140   -9999.25   -9999.25   13.70260   -0.00500    3.89070    2.84850 1108.92120 1220.61970  668.82860    0.01620
 2058.00000    9.01050   -0.08460   -9999.25   -9999.25   13.67180   -0.00610    3.97560    2.85540 1410.29110 1772.80020  783.96560    0.01140
 2058.50000    9.00240   -0.08880   -9999.25   -9999.25   13.99110   -0.00680    3.91030    2.86020 1700.30810 2832.19500 1015.30110    0.00700
 2059.00000    8.99430   -0.08630   -9999.25   -9999.25   14.77770   -0.00610    3.92070    2.86190 1927.50720 3065.71400 1178.19230    0.00660
 2059.50000    8.98620   -0.09110   -9999.25   -9999.25   15.69760   -0.00540    3.90420    2.86350 2002.99950 3515.83980 1024.92690    0.00840
 2060.00000    8.97820   -0.09090   -9999.25   -9999.25   16.61750   -0.00470    3.86790    2.86510 1632.91100 2887.58050  783.81870    0.01030
 2060.50000    8.97010   -0.09120   -9999.25   -9999.25   17.53740   -0.00400    3.82010    2.86640 1262.82260 2041.92560  674.95920    0.01180
 2061.00000    8.94620   -0.09200   -9999.25   -9999.25   18.45730   -0.00340    3.73050    2.86730  949.00650 1124.30750  667.31460    0.01230
 2061.50000    8.94910   -0.09080   -9999.25   -9999.25   18.73360   -0.00270    3.67360    2.86910  931.59680 1395.66280  694.57360    0.01280
 2062.00000    8.94770   -0.09370   -9999.25   -9999.25   18.18730   -0.00030    3.64960    2.87750 1204.51040 1404.34920  762.79150    0.01170
 2062.50000    8.94460   -0.09670   -9999.25   -9999.25   17.33090    0.00200    3.71230    2.89480 1471.44360 1841.75200  860.00160    0.00980
 2063.00000    8.94160   -0.09960   -9999.25   -9999.25   16.67610    0.00440    3.78680    2.91540 1775.68090 1996.79500  922.70900    0.00760
 2063.50000    8.93860   -0.12110   -9999.25   -9999.25   18.46830    0.00680    3.86130    2.92540 2003.85780 2005.89610  912.61840    0.00740
 2064.00000    8.93560   -0.12500   -9999.25   -9999.25   20.44200    0.00720    3.92380    2.91120 3328.88610 5571.06850  965.06370    0.00830
 2064.50000    8.93260   -0.11210   -9999.25   -9999.25   21.82050    0.00590    3.98450    2.88820 2803.79990 3848.97090 1100.78190    0.00930
 2065.00000    8.92950   -0.10130   -9999.25   -9999.25   21.40480    0.00420    3.95850    2.86940 2299.13710 3023.95030 1182.53590    0.01090
 2065.50000    8.92650   -0.09330   -9999.25   -9999.25   19.67140    0.00140    3.87460    2.87220 2784.90520 3573.35150 1143.61700    0.01270
 2066.00000    8.92350   -0.09930   -9999.25   -9999.25   20.28720    0.00040    3.75150    2.88390 2322.96110 3166.42820 1163.11490    0.01350
 2066.50000    8.92050   -0.10030   -9999.25   -9999.25   19.70840    0.00110    3.67380    2.88010 2045.79460 2525.84340 1135.24620    0.01480
 2067.00000    8.91750   -0.09630   -9999.25   -9999.25   19.95530    0.00010    3.70870    2.86600 1669.52690 2013.37550 1042.09450    0.01680
 2067.50000    8.91440   -0.08980   -9999.25   -9999.25   16.74430   -0.00130    3.72020    2.85200 1700.75490 1764.18930  989.17470    0.01820
 2068.00000    8.91140   -0.08200   -9999.25   -9999.25   14.40710   -0.00260    3.71610    2.83720 1492.66830 2008.45460  900.91820    0.02030
 2068.50000    8.90840   -0.07150   -9999.25   -9999.25   13.80230   -0.00390    3.71200    2.82680 1170.24690 1312.35340  806.90080    0.02190
 2069.00000    8.90540   -0.06980   -9999.25   -9999.25   14.58930   -0.00320    3.67440    2.83490  945.40210 1040.12370  733.96090    0.02340
 2069.50000    8.90240   -0.07960   -9999.25   -9999.25   15.18450   -0.00100    3.60580    2.85090  951.39810 1041.61140  744.17770    0.02300
 2070.00000    8.89930   -0.09160   -9999.25   -9999.25   15.59860    0.00110    3.54750    2.86700 1036.33590 1145.16790  768.36510    0.02220
 2070.50000    8.89630   -0.09300   -9999.25   -9999.25   15.84320    0.00290    3.55770    2.86830 1121.27370 1210.27610  817.60340    0.02140
 2071.00000    8.89330   -0.09230   -9999.25   -9999.25   14.84710    0.00290    3.59100    2.87080 1629.93020 1970.71410  872.68060    0.01820
 2071.50000    8.89030   -0.09350   -9999.25   -9999.25   14.49270    0.00290    3.63160    2.87320 1582.97040 2098.47690  916.65480    0.01440
 2072.00000    8.88730   -0.09490   -9999.25   -9999.25   15.75230    0.00160    3.64080    2.86830  840.54300 1343.98280  756.91530    0.01330
 2072.50000    8.88420   -0.08920   -9999.25   -9999.25   18.87710   -0.00150    3.66480    2.86040  850.81500 1026.18180  757.32890    0.01220
 2073.00000    8.88120   -0.08330   -9999.25   -9999.25   19.80580   -0.00470    3.70520    2.85390 1333.26580 1605.91990  836.82370    0.01210
 2073.50000    8.87820   -0.08340   -9999.25   -9999.25   18.79900   -0.00690    3.74170    2.85470 1437.32700 1772.29140  922.46980    0.01270
 2074.00000    8.88110   -0.09200   -9999.25   -9999.25   18.04230   -0.00450    3.77830    2.86560 1222.50070 1540.27370  888.73400    0.01340
 2074.50000    8.88040   -0.09770   -9999.25   -9999.25   20.97040   -0.00220    3.67910    2.87650  980.17020 1153.84120  829.29240    0.01470
 2075.00000    8.86910   -0.09950   -9999.25   -9999.25   24.75840    0.00020    3.58940    2.88050  737.83970  767.40870  703.89960    0.01780
 2075.50000    8.87120   -0.09530   -9999.25   -9999.25   29.45510    0.00050    3.54720    2.86980  495.50920  442.44520  578.50670    0.02210
 2076.00000    8.87330   -0.08850   -9999.25   -9999.25   33.47800    0.00050    3.53260    2.85360  389.74530  363.35730  453.11380    0.02480
 2076.50000    8.87540   -0.08030   -9999.25   -9999.25   38.74790    0.00080    3.52520    2.83080  318.12300  284.26950  335.99040    0.02540
 2077.00000    8.87750   -0.06900   -9999.25   -9999.25   41.05800    0.00110    3.51520    2.79930  246.50070  221.67700  241.01480    0.02640
 2077.50000    8.87970   -0.05330   -9999.25   -9999.25   43.29760   -0.00030    3.52190    2.79800  264.64530  253.14430  227.86810    0.02770
 2078.00000    8.88180   -0.05620   -9999.25   -9999.25   36.68470    0.00120    3.51630    2.81940  470.37770  291.63920  275.63230    0.02900
 2078.50000    8.88390   -0.07240   -9999.25   -9999.25   34.31960    0.00270    3.50650    2.84090  585.80280  561.02250  355.26190    0.02830
 2079.00000    8.88600   -0.08260   -9999.25   -9999.25   30.97790    0.00380    3.47950    2.85470  496.87400  457.70480  389.53690    0.03020
 2079.50000    8.88810   -0.08440   -9999.25   -9999.25   28.87220    0.00250    3.45240    2.85180  439.39490  427.34730  416.95690    0.03130
 2080.00000    8.89020   -0.08080   -9999.25   -9999.25   25.90240    0.00120    3.39160    2.84480  397.77080  359.42960  337.90500    0.03170
 2080.50000    8.89230   -0.07770   -9999.25   -9999.25   23.05670   -0.00010    3.37410    2.83780  405.16780  389.31260  326.74860    0.03190
 2081.00000    8.88070   -0.07180   -9999.25   -9999.25   22.00240   -0.00110    3.38810    2.83090  422.16690  377.10520  298.76320    0.03370
 2081.50000    8.87050   -0.06650   -9999.25   -9999.25   19.97500   -0.00180    3.41210    2.82390  260.14070  277.48030  263.82400    0.03380
 2082.00000    8.87610   -0.06570   -9999.25   -9999.25   19.98450   -0.00240    3.37970    2.82260  364.80960  415.99000  261.56020    0.03270
 2082.50000    8.87630   -0.06670   -9999.25   -9999.25   21.43590   -0.00380    3.39180    2.82470  593.24880  646.81780  304.51180    0.02640
 2083.00000    8.87270   -0.06810   -9999.25   -9999.25   23.58520   -0.00330    3.43480    2.82980  651.56170  764.31660  450.22840    0.02020
 2083.50000    8.86920   -0.07380   -9999.25   -9999.25   23.88880   -0.00160    3.49720    2.83620  701.14780  864.98110  511.91540    0.01610
