~Version ---------------------------------------------------
VERS.   2.0 : CWLS log ASCII Standard -VERSION 2.0
WRAP.    NO : One line per depth step
DLM . SPACE : Column Data Section Delimiter
~Well ------------------------------------------------------
STRT .FT                124.0 : START DEPTH
STOP .FT               8459.0 : STOP DEPTH
STEP .FT                  0.5 : STEP
NULL .               -9999.25 : NULL VALUE
COMP .                        : COMPANY
WELL .                        : WELL
FLD  .                        : FIELD
LOC  .                        : LOCATION
PROV .                        : PROVINCE
CNTY .                        : COUNTY
STAT .                        : STATE
CTRY .                        : COUNTRY
SRVC .                        : SERVICE COMPANY
DATE .                        : DATE
UWI  .                        : UNIQUE WELL ID
API  .                        : API NUMBER
SLAT .WGS84 2.824751013335998 : SURFACE LATITUDE
SLON .WGS84 8.884745930231006 : SURFACE LONGITUDE
DATUM.F                   nan : DEPTH DATUM ELEV
~Curve Information -----------------------------------------
DEPT   .FT    : 
CALD   .IN    : CALIPER FROM DENSITY LOG
DPHZ_LS.DEC   : HGRD STANDARD RESOLUTION DENSITY POROSITY
DT4P   .US/F  : DELTA-T COMPRESSIONAL - MONOPOLE P & S
DTSM   .US/F  : DELTA-T SHEAR
GRD    .GAPI  : GAMMA RAY FROM DENSITY LOG
HDRA   .G/C3  : HRDD SPINE AND RIBS DENSITY CORRECTION
PEFZ   .B/E   : HRDD STANDARD RESOLUTION FORMATION PHOTOELECTRIC FACTOR
RHOZ   .G/C3  : HRDD STANDARD RESOLUTION FORMATION DENSITY
RLA3   .OHMM  : APPARENT RESISTIVITY FROM COMPUTED FOCUSING MODE 3
RLA5   .OHMM  : APPARENT RESISTIVITY FROM COMPUTED FOCUSING MODE 5
RXOZ   .OHMM  : INVADED FORMATION RESISTIVITY FILTERED AT 18 INCHES
TNPH_LS.DEC   : THERMAL NEUTRON POROSITY [LIMESTONE]
~Params ----------------------------------------------------
~Other -----------------------------------------------------
~ASCII -----------------------------------------------------
# ...
 5024.00000    8.78000    0.01820   54.77270   93.92810   20.98420    0.00380    4.05900    2.67940 2054.49950 2618.04160 1148.80310    0.00960
 5024.50000    8.77770    0.01650   54.70740   93.35520   21.27770    0.00580    3.99150    2.68480 2951.21240 5458.97120 1079.51890    0.01090
 5025.00000    8.77770    0.01170   54.30300   92.67050   19.89300    0.00750    3.92180    2.69030 3169.84200 5060.81840 1170.73220    0.01050
 5025.50000    8.76970    0.01020   54.88150   93.33980   18.53610    0.00920    3.89530    2.69300 2581.46150 5445.64540 1327.82410    0.01020
 5026.00000    8.78750    0.01510   54.94470   94.20090   21.54010    0.00740    3.94360    2.67950 3054.95980 7553.53460 1095.27390    0.00980
 5026.50000    8.78370    0.02560   54.96110   94.03330   24.50640    0.00380    3.93180    2.66310 2004.40030 2202.58720  886.59320    0.00950
 5027.00000    8.78370    0.03170   55.16180   93.90900   25.10980    0.00030    3.90590    2.65370 2403.26210 4148.19080  961.08730    0.00940
 5027.50000    8.78370    0.03210   55.65500   93.58900   21.53100   -0.00190    3.92360    2.65870 3693.67490 7114.79540  860.38320    0.00820
 5028.00000    8.78370    0.02680   54.14320   96.08260   15.78280   -0.00100    3.97090    2.66690 3139.27640 7114.54930  998.79710    0.00620
 5028.50000    8.78370    0.02380   54.49970  103.68500   12.90510   -0.00020    4.02560    2.66970 2004.40030 4023.44900  917.68860    0.00560
 5029.00000    8.78370    0.02640   54.68090  106.86410   20.06390    0.00070    4.08020    2.66360 1426.63620 2024.47080  836.58000    0.00930
 5029.50000    8.79110    0.03270   54.67770   97.67610   21.03460    0.00010    4.19330    2.65700 1844.27430 1829.81050  864.19190    0.01160
 5030.00000    8.79850    0.03540   54.53290   94.08970   19.73010    0.00160    4.36440    2.64550 3512.25490 6688.75320  702.84330    0.00990
 5030.50000    8.79140    0.03380   54.52850   93.87540   16.45590    0.00300    4.30350    2.65270 3533.99700 5734.46990  586.12300    0.00850
 5031.00000    8.78000    0.02310   54.76740   93.81910   19.22710    0.00400    4.13610    2.66750 2490.59990 3020.85470  632.12810    0.00850
 5031.50000    8.77100    0.02310   54.89450   93.86410   22.79910    0.00310    3.95080    2.68150 1939.13870 2299.80470  807.34680    0.00860
 5032.00000    8.78780    0.01160   54.68630   93.70550   21.62210    0.00220    3.81800    2.68790 1982.89980 4926.31690 1046.31910    0.00870
 5032.50000    8.79910    0.01910   55.12700   93.69440   18.38710    0.00130    3.94330    2.67580 3087.17420 5839.59040 1257.75400    0.00890
 5033.00000    8.80210    0.02790   54.91130   93.55390   18.14800    0.00110    4.12850    2.65040 2009.93540 2867.58080 1180.45660    0.01100
 5033.50000    8.80520    0.04140   55.31610   93.27020   21.21640    0.00120    4.21230    2.63860 1662.03530 2058.02080  858.97180    0.01340
 5034.00000    8.80830    0.03790   55.75010   93.81930   24.49590    0.00120    4.25980    2.65140 1922.64980 5290.59090  879.99470    0.01470
 5034.50000    8.82600    0.02140   55.54410   94.55080   24.13940    0.00210    4.32010    2.67180 2104.07770 2257.61950  987.55710    0.01430
 5035.00000    8.82810    0.00990   55.74470   94.71200   23.24880    0.00090    4.35510    2.69220 1936.06260 4059.35590 1133.65990    0.01200
 5035.50000    8.81070    0.01330   54.78300   94.71190   22.17020   -0.00020    4.34850    2.69080 2797.46250 4478.60100 1053.66440    0.00970
 5036.00000    8.81860    0.02840   55.03950   94.82010   18.87070   -0.00140    4.35480    2.66590 2104.07770 2801.91990 1301.60010    0.00880
 5036.50000    8.80460    0.03510   55.50490   94.95540   18.01530   -0.00060    4.36100    2.65390 1845.61760 3050.58410 1203.26370    0.01030
 5037.00000    8.79060    0.02860   55.15110   94.55580   18.76490    0.00140    4.36280    2.66580 1318.67490 1778.35700  952.65140    0.01180
 5037.50000    8.78340    0.01590   54.49140   94.76100   19.36540    0.00350    4.27810    2.68700 1503.17540 1435.41080  961.62830    0.01300
 5038.00000    8.78540    0.00520   54.75830   95.01720   17.05020    0.00300    4.19340    2.69710 1981.62810 6941.05640  962.49150    0.01220
 5038.50000    8.79320    0.01230   55.67540   94.65140   16.29390    0.00090    4.10880    2.68580 1713.70280 3674.37400 1264.19410    0.01080
 5039.00000    8.79840    0.02530   54.71970   94.33540   17.27600   -0.00130    4.05360    2.66700 2018.65620 2083.59110  874.75180    0.00950
 5039.50000    8.79960    0.03690   54.46360   94.21890   18.19970   -0.00350    4.09980    2.64820 2689.69260 5274.05620  837.80230    0.00810
 5040.00000    8.80090    0.04410   53.95230   94.01290   17.10420   -0.00390    4.21290    2.63620 2743.05220 5253.94120  877.27210    0.00680
 5040.50000    8.80380    0.04200   54.25560   93.67230   14.60930   -0.00390    4.29650    2.63750 2743.05220 4242.52400  895.65850    0.00600
 5041.00000    8.80790    0.03910   53.94740   93.33170   14.56980   -0.00390    4.25590    2.64340 2611.59450 4213.66620  840.22350    0.00630
 5041.50000    8.80070    0.03610   53.69790   93.13420   16.80750   -0.00300    4.21530    2.64920 2063.14200 2750.52450  926.93510    0.00750
 5042.00000    8.79090    0.03350   54.19820   93.50870   21.58310   -0.00200    4.14530    2.65280 2163.74860 2750.52450  956.56940    0.00890
 5042.50000    8.79700    0.03350   56.09950   93.73300   22.69680   -0.00090    4.16810    2.65320 2462.13280 4146.12910 1136.99540    0.01020
 5043.00000    8.80310    0.03390   54.41100   93.61690   20.83620    0.00010    4.22690    2.65940 2063.14200 3003.40440 1062.37490    0.01140
 5043.50000    8.80810    0.02930   54.90060   94.06930   16.90820    0.00070    4.28610    2.66570 1955.17150 2784.67390 1273.87450    0.01100
 5044.00000    8.80920    0.02180   55.07950   94.46370   14.53240    0.00200    4.26270    2.67450 2560.79210 4744.71780 1318.40520    0.00900
 5044.50000    8.81020    0.01790   54.35960   94.50160   14.01680    0.00330    4.18670    2.67980 2146.08370 3231.66450 1514.98320    0.00710
 5045.00000    8.81120    0.02030   53.90270   94.53170   15.39850    0.00250    4.11060    2.67640 1737.78800 4440.05490 1302.01420    0.00520
 5045.50000    8.81710    0.02280   54.69280   94.42590   16.90820    0.00200    4.10150    2.67200 1974.46900 5712.04330 1294.31540    0.00540
 5046.00000    8.81550    0.02100   55.04650   94.29380   17.53970    0.00230    4.05970    2.67680 2145.81110 2522.87730 1159.55110    0.00630
 5046.50000    8.81400    0.01620   55.48290   94.30300   17.80260    0.00270    4.01800    2.68200 1580.41800 2182.39680 1207.62190    0.00860
 5047.00000    8.81250    0.01350   56.10580   94.40620   17.05880    0.00210    3.97620    2.69210 1406.94920 1714.31540  930.62680    0.01090
 5047.50000    8.81100    0.01080   56.04100   94.29840   15.45960    0.00210    3.99550    2.70000 1871.95030 1990.76250 1052.59130    0.00940
 5048.00000    8.80940    0.00850   54.48130   93.91680   15.80570    0.00210    4.09380    2.70710 2294.74160 4082.64260 1042.34580    0.00560
 5048.50000    8.80790    0.00700   54.92140   94.30570   14.75210    0.00210    4.18650    2.70580 2013.60910 4943.34110 1326.66180    0.00180
 5049.00000    8.80870    0.00640   54.89410   94.16190   16.20370    0.00250    4.18920    2.68250 1472.38570 2831.79850 1141.34120    0.00320
 5049.50000    8.80940    0.01860   54.61340   94.06970   17.68690    0.00300    4.13520    2.66720 1224.55110 1371.92270  818.83390    0.00790
 5050.00000    8.81020    0.02550   54.33950   94.71710   20.43790    0.00360    4.05660    2.67520 1539.99990 1978.51590  749.51830    0.01260
 5050.50000    8.81090    0.01780   53.86870   94.81370   21.46540    0.00420    4.09810    2.68860 1855.44860 2416.20680  880.19100    0.01390
 5051.00000    8.81170    0.00820   54.35600   94.07200   18.85650    0.00420    4.25160    2.70190 2783.79900 5422.77500 1106.21560    0.01110
 5051.50000    8.81250    0.00050   54.56700   94.54510   14.50520    0.00630    4.42650    2.70820 2378.73560 4289.24000 1289.47840    0.00790
