~Version ---------------------------------------------------
VERS.   2.0 : CWLS log ASCII Standard -VERSION 2.0
WRAP.    NO : One line per depth step
DLM . SPACE : Column Data Section Delimiter
~Well ------------------------------------------------------
STRT .FT                124.0 : START DEPTH
STOP .FT               8459.0 : STOP DEPTH
STEP .FT                  0.5 : STEP
NULL .               -9999.25 : NULL VALUE
COMP .                        : COMPANY
WELL .                        : WELL
FLD  .                        : FIELD
LOC  .                        : LOCATION
PROV .                        : PROVINCE
CNTY .                        : COUNTY
STAT .                        : STATE
CTRY .                        : COUNTRY
SRVC .                        : SERVICE COMPANY
DATE .                        : DATE
UWI  .                        : UNIQUE WELL ID
API  .                        : API NUMBER
SLAT .WGS84 2.824751013335998 : SURFACE LATITUDE
SLON .WGS84 8.884745930231006 : SURFACE LONGITUDE
DATUM.F                   nan : DEPTH DATUM ELEV
~Curve Information -----------------------------------------
DEPT   .FT    : 
CALD   .IN    : CALIPER FROM DENSITY LOG
DPHZ_LS.DEC   : HGRD STANDARD RESOLUTION DENSITY POROSITY
DT4P   .US/F  : DELTA-T COMPRESSIONAL - MONOPOLE P & S
DTSM   .US/F  : DELTA-T SHEAR
GRD    .GAPI  : GAMMA RAY FROM DENSITY LOG
HDRA   .G/C3  : HRDD SPINE AND RIBS DENSITY CORRECTION
PEFZ   .B/E   : HRDD STANDARD RESOLUTION FORMATION PHOTOELECTRIC FACTOR
RHOZ   .G/C3  : HRDD STANDARD RESOLUTION FORMATION DENSITY
RLA3   .OHMM  : APPARENT RESISTIVITY FROM COMPUTED FOCUSING MODE 3
RLA5   .OHMM  : APPARENT RESISTIVITY FROM COMPUTED FOCUSING MODE 5
RXOZ   .OHMM  : INVADED FORMATION RESISTIVITY FILTERED AT 18 INCHES
TNPH_LS.DEC   : THERMAL NEUTRON POROSITY [LIMESTONE]
~Params ----------------------------------------------------
~Other -----------------------------------------------------
~ASCII -----------------------------------------------------
# ...
 3316.00000   10.55360    0.13420   -9999.25   -9999.25   87.69760   -0.00110    2.38100    2.49310    4.98450    5.86810    7.25550    0.19730
 3316.50000   10.57940    0.12610   -9999.25   -9999.25   75.93970    0.00060    2.32870    2.48930    4.78730    5.16060    6.18910    0.18940
 3317.00000   10.59550    0.13060   -9999.25   -9999.25   63.41270    0.00240    2.31010    2.46900    4.87540    5.28950    6.57090    0.18040
 3317.50000   10.59150    0.14390   -9999.25   -9999.25   63.89660    0.00310    2.31400    2.44860    4.26700    4.72780    5.29370    0.17410
 3318.00000   10.58760    0.16300   -9999.25   -9999.25   67.49730    0.00250    2.31790    2.42830    3.65860    4.02560    4.45780    0.17240
 3318.50000   10.58370    0.17480   -9999.25   -9999.25   72.22220    0.00200    2.33360    2.41030    3.45860    3.61120    4.11200    0.17040
 3319.00000   10.55910    0.18160   -9999.25   -9999.25   67.57600    0.00140    2.35680    2.40170    3.38790    3.45530    4.01360    0.16950
 3319.50000   10.54900    0.18080   -9999.25   -9999.25   66.73440    0.00210    2.35930    2.39830    3.52490    3.59510    4.21290    0.17260
 3320.00000   10.53230    0.17720   -9999.25   -9999.25   66.05540    0.00440    2.33740    2.41170    3.64360    3.71610    4.33380    0.17690
 3320.50000   10.50150    0.16880   -9999.25   -9999.25   68.35660    0.00680    2.31380    2.42680    3.76220    3.83710    4.43500    0.18190
 3321.00000   10.41480    0.16370   -9999.25   -9999.25   71.25610    0.00920    2.30960    2.44190    3.97250    4.05160    4.68000    0.18070
 3321.50000   10.32810    0.15340   -9999.25   -9999.25   76.71250    0.01280    2.34660    2.45780    5.45830    5.97050    6.85910    0.16990
 3322.00000   10.23630    0.14250   -9999.25   -9999.25   83.77650    0.01650    2.41920    2.47400    7.24750    8.29970   10.47230    0.15930
 3322.50000   10.12890    0.13520   -9999.25   -9999.25   94.49030    0.02020    2.49180    2.47810    9.03660    9.60430   11.77170    0.14570
 3323.00000   10.02880    0.13930   -9999.25   -9999.25   93.80510    0.01650    2.54110    2.46090    7.22110    8.24200   11.17670    0.15270
 3323.50000    9.99380    0.15150   -9999.25   -9999.25   95.86060    0.01180    2.53350    2.44020    4.10220    4.18380    5.82440    0.15330
 3324.00000    9.95890    0.15910   -9999.25   -9999.25   90.56040    0.00700    2.48350    2.44050    3.68670    3.76000    4.41530    0.16530
 3324.50000    9.95140    0.15590   -9999.25   -9999.25   87.45980    0.00560    2.44500    2.45980    3.81290    3.88880    4.34620    0.16340
 3325.00000    9.92050    0.14430   -9999.25   -9999.25   81.80540    0.00630    2.42910    2.47900    4.65470    4.73920    5.58480    0.15960
 3325.50000    9.93160    0.13460   -9999.25   -9999.25   77.29470    0.00700    2.44710    2.48150    6.22420    6.31960    9.02250    0.15360
 3326.00000    9.91690    0.13360   -9999.25   -9999.25   80.63180    0.00390    2.45720    2.46750    7.79370    7.94880    9.90480    0.14940
 3326.50000    9.92300    0.14460   -9999.25   -9999.25   83.12570    0.00180    2.47950    2.45340    7.79370    7.94880    9.90480    0.14570
 3327.00000    9.92900    0.15490   -9999.25   -9999.25   86.85610    0.00020    2.47340    2.43940    6.63010    6.79960    8.07740    0.14600
 3327.50000    9.91760    0.16070   -9999.25   -9999.25   83.06720   -0.00150    2.44830    2.43210    5.16300    5.36570    5.82680    0.15160
 3328.00000    9.92600    0.16220   -9999.25   -9999.25   84.23830   -0.00090    2.42330    2.44340    4.26510    4.55050    5.63170    0.15820
 3328.50000    9.91460    0.15400   -9999.25   -9999.25   94.34740    0.00110    2.39860    2.46170    5.33260    5.67570    6.81880    0.16390
 3329.00000    9.91370    0.14180   -9999.25   -9999.25  100.41280    0.00310    2.40080    2.48000    7.32630    7.73550    9.54470    0.16590
 3329.50000    9.89870    0.12900   -9999.25   -9999.25  106.59170    0.00510    2.43660    2.48850    6.81520    7.58810    8.64690    0.15840
 3330.00000    9.88950    0.13150   -9999.25   -9999.25  102.13800    0.00450    2.50870    2.47960    4.93200    5.53870    6.44820    0.14940
 3330.50000    9.88030    0.13690   -9999.25   -9999.25   81.92910    0.00360    2.55970    2.46970    4.61590    5.11320    5.31080    0.14000
 3331.00000    9.87110    0.14240   -9999.25   -9999.25   79.71050    0.00280    2.56670    2.46070    5.05910    5.24390    6.00840    0.13590
 3331.50000    9.86890    0.14630   -9999.25   -9999.25   82.89060    0.00200    2.55680    2.45530    5.15370    5.32230    5.61060    0.14130
 3332.00000    9.86620    0.14850   -9999.25   -9999.25   85.60630    0.00120    2.50480    2.45000    4.96900    5.03470    6.02910    0.14600
 3332.50000    9.85530    0.15230   -9999.25   -9999.25   80.63360    0.00030    2.47620    2.44600    4.48390    4.63940    5.27510    0.15100
 3333.00000    9.85830    0.15580   -9999.25   -9999.25   82.21390   -0.00050    2.46980    2.44660    3.88060    3.95780    4.57460    0.15810
 3333.50000    9.86130    0.15290   -9999.25   -9999.25   84.40880    0.00170    2.46350    2.45030    3.92570    4.00390    4.49570    0.16320
 3334.00000    9.86640    0.15010   -9999.25   -9999.25   87.63900    0.00300    2.45710    2.45240    3.97750    4.05670    4.42520    0.17010
 3334.50000    9.87280    0.15030   -9999.25   -9999.25   82.71750    0.00430    2.45080    2.44850    3.85470    3.95140    4.24910    0.17440
 3335.00000    9.86060    0.15350   -9999.25   -9999.25   78.57240    0.00430    2.43820    2.44430    3.70110    3.81980    4.07300    0.18290
 3335.50000    9.87390    0.15670   -9999.25   -9999.25   77.55010    0.00230    2.45910    2.44310    3.67040    3.78380    4.27730    0.18490
 3336.00000    9.88080    0.15470   -9999.25   -9999.25   82.16460    0.00100    2.47390    2.45010    3.74410    3.86690    4.35910    0.18200
 3336.50000    9.88460    0.15140   -9999.25   -9999.25   82.87830   -0.00030    2.48300    2.45850    3.89910    4.03170    4.38610    0.17710
 3337.00000    9.91390    0.14660   -9999.25   -9999.25   80.39530   -0.00100    2.48950    2.46170    4.05130    4.30170    5.34360    0.17440
 3337.50000    9.93380    0.14750   -9999.25   -9999.25   78.10420   -0.00130    2.49220    2.45760    3.77250    3.92380    4.57970    0.17170
 3338.00000    9.94740    0.15270   -9999.25   -9999.25   77.23750   -0.00150    2.49490    2.44670    3.42390    3.56360    4.26870    0.16810
 3338.50000    9.98010    0.16030   -9999.25   -9999.25   80.93820   -0.00170    2.50700    2.43580    3.28450    3.50690    3.75900    0.16500
 3339.00000   10.01270    0.16440   -9999.25   -9999.25   81.42420   -0.00180    2.51850    2.42890    3.28450    3.54560    3.82740    0.16450
 3339.50000   10.07210    0.16460   -9999.25   -9999.25   80.92840   -0.00170    2.51850    2.43440    3.42540    3.67390    3.91280    0.16470
 3340.00000   10.09950    0.15850   -9999.25   -9999.25   76.84300   -0.00160    2.51850    2.44130    3.54600    3.80210    3.99830    0.16700
 3340.50000   10.09440    0.15380   -9999.25   -9999.25   77.62550   -0.00120    2.51850    2.44830    3.66660    3.93040    4.32460    0.17110
 3341.00000   10.08730    0.15540   -9999.25   -9999.25   81.03520   -0.00060    2.53600    2.44210    3.78720    4.05870    4.42920    0.17440
 3341.50000   10.07250    0.16060   -9999.25   -9999.25   81.14700   -0.00030    2.56890    2.43170    3.76150    4.11000    4.44360    0.18340
 3342.00000   10.05780    0.16440   -9999.25   -9999.25   74.29220    0.00000    2.58390    2.43020    3.69580    3.90620    4.21230    0.17140
 3342.50000   10.07290    0.16180   -9999.25   -9999.25   68.43810    0.00110    2.55990    2.43420    3.63020    3.70240    4.12830    0.17470
 3343.00000   10.08460    0.16210   -9999.25   -9999.25   69.93800    0.00070    2.53160    2.43370    3.51570    3.64650    3.97280    0.16740
 3343.50000   10.09620    0.16510   -9999.25   -9999.25   76.18750    0.00040    2.53710    2.43090    3.36170    3.63600    3.78840    0.16590
