~Version ---------------------------------------------------
VERS.   2.0 : CWLS log ASCII Standard -VERSION 2.0
WRAP.    NO : One line per depth step
DLM . SPACE : Column Data Section Delimiter
~Well ------------------------------------------------------
STRT .FT                124.0 : START DEPTH
STOP .FT               8459.0 : STOP DEPTH
STEP .FT                  0.5 : STEP
NULL .               -9999.25 : NULL VALUE
COMP .                        : COMPANY
WELL .                        : WELL
FLD  .                        : FIELD
LOC  .                        : LOCATION
PROV .                        : PROVINCE
CNTY .                        : COUNTY
STAT .                        : STATE
CTRY .                        : COUNTRY
SRVC .                        : SERVICE COMPANY
DATE .                        : DATE
UWI  .                        : UNIQUE WELL ID
API  .                        : API NUMBER
SLAT .WGS84 2.824751013335998 : SURFACE LATITUDE
SLON .WGS84 8.884745930231006 : SURFACE LONGITUDE
DATUM.F                   nan : DEPTH DATUM ELEV
~Curve Information -----------------------------------------
DEPT   .FT    : 
CALD   .IN    : CALIPER FROM DENSITY LOG
DPHZ_LS.DEC   : HGRD STANDARD RESOLUTION DENSITY POROSITY
DT4P   .US/F  : DELTA-T COMPRESSIONAL - MONOPOLE P & S
DTSM   .US/F  : DELTA-T SHEAR
GRD    .GAPI  : GAMMA RAY FROM DENSITY LOG
HDRA   .G/C3  : HRDD SPINE AND RIBS DENSITY CORRECTION
PEFZ   .B/E   : HRDD STANDARD RESOLUTION FORMATION PHOTOELECTRIC FACTOR
RHOZ   .G/C3  : HRDD STANDARD RESOLUTION FORMATION DENSITY
RLA3   .OHMM  : APPARENT RESISTIVITY FROM COMPUTED FOCUSING MODE 3
RLA5   .OHMM  : APPARENT RESISTIVITY FROM COMPUTED FOCUSING MODE 5
RXOZ   .OHMM  : INVADED FORMATION RESISTIVITY FILTERED AT 18 INCHES
TNPH_LS.DEC   : THERMAL NEUTRON POROSITY [LIMESTONE]
~Params ----------------------------------------------------
~Other -----------------------------------------------------
~ASCII -----------------------------------------------------
# ...
 4184.00000    8.86830    0.01400   54.07770   97.63010   22.18920    0.00360    4.77200    2.68340 1415.82460 1970.91590  880.99630    0.01740
 4184.50000    8.86830    0.01560   54.01150   96.94140   19.27650    0.00200    4.74720    2.67900 1594.20940 2088.58820 1025.32920    0.01580
 4185.00000    8.86830    0.02040   54.10710   96.45540   17.59260    0.00060    4.76840    2.67270 1537.82130 1899.27430 1055.94920    0.01410
 4185.50000    8.87660    0.02550   54.12450   96.27330   20.56420   -0.00070    4.79880    2.66200 1421.34190 1754.99250  928.37470    0.01310
 4186.00000    8.90160    0.03180   54.04080   95.82080   23.40480   -0.00190    4.82250    2.65010 1316.19170 1582.07220  857.26580    0.01430
 4186.50000    8.87560    0.03770   54.26640   95.70340   24.40100   -0.00380    4.89760    2.64250 1149.48450 1403.66860  810.74590    0.01550
 4187.00000    8.88820    0.03850   54.51770   96.20490   24.59840   -0.00410    4.92220    2.64610 1293.17940 1582.60800  866.99110    0.01450
 4187.50000    8.88470    0.03260   54.63440   96.49440   21.72170   -0.00340    4.90960    2.65390 1342.86540 1742.07400  952.51470    0.01350
 4188.00000    8.87840    0.03100   54.89420   96.56070   22.46930   -0.00270    4.87960    2.65440 1267.73680 1456.61570  973.06380    0.01440
 4188.50000    8.87210    0.03480   54.86790   97.17290   22.40840   -0.00300    4.85250    2.64770 1215.13280 1483.83350  967.07450    0.01460
 4189.00000    8.86980    0.04010   54.61420   97.06760   23.24170   -0.00530    4.89510    2.64270 1316.48630 1641.59470  569.57180    0.01420
 4189.50000    8.87340    0.03750   54.59070   96.72620   23.06420   -0.00770    4.98670    2.64840 1396.67560 1752.85900  572.23820    0.01390
 4190.00000    8.88100    0.03180   54.67840   96.62550   22.98110   -0.00540    4.98530    2.65840 1247.02180 1540.68590  973.06380    0.01610
 4190.50000    8.88030    0.02970   54.84680   97.41460   24.02790   -0.00520    4.95100    2.66050 1097.36790 1333.77050  981.30580    0.01720
 4191.00000    8.87750    0.02790   54.68980   97.42030   24.68500   -0.00510    4.86400    2.66160 1163.11290 1416.95760  973.06380    0.01770
 4191.50000    8.87480    0.02950   54.54540   97.19510   22.22470   -0.00500    4.82130    2.66150 1278.44430 1720.70640  933.63600    0.01880
 4192.00000    8.88050    0.02830   54.52960   96.59980   18.96140   -0.00460    4.83620    2.66590 1121.45420 1502.41020  929.63620    0.01790
 4192.50000    8.87110    0.02540   54.48870   96.87820   17.07980   -0.00300    4.82380    2.67120 1137.06730 1411.33090  923.37480    0.01510
 4193.00000    8.87650    0.02110   54.25610   97.28300   19.21990   -0.00140    4.81120    2.67910 1176.10000 1520.91620  857.00550    0.01360
 4193.50000    8.88180    0.01710   54.10010   96.62190   20.61940    0.00020    4.79530    2.68880 1215.13280 1573.29820  623.98830    0.01260
 4194.00000    8.88720    0.01290   54.08300   95.95140   20.35310    0.00100    4.77450    2.69060 1341.54340 1835.20850  602.22970    0.01130
 4194.50000    8.89160    0.01410   54.26300   95.71100   18.37350    0.00070    4.75370    2.68470 1170.22700 1564.52720  548.70840    0.01360
 4195.00000    8.88650    0.01930   54.30070   95.94880   15.40720    0.00030    4.78860    2.67340 1060.86700 1315.70680  718.33410    0.01710
 4195.50000    8.88840    0.02440   54.29040   94.35410   16.33580   -0.00030    4.82360    2.66880 1067.43720 1456.79680  758.30800    0.01940
 4196.00000    8.88770    0.02290   54.46590   90.87310   17.16590   -0.00040    4.85070    2.67070 1268.77900 1607.77730  901.15360    0.01690
 4196.50000    8.89280    0.02110   54.58250   95.54150   18.74450    0.00050    4.86610    2.67440 1211.93620 1551.43410  945.01810    0.01430
 4197.00000    8.89260    0.01820   54.57840   97.01660   20.72040    0.00130    4.86470    2.67760 1117.19810 1407.20260  931.49030    0.01550
 4197.50000    8.88770    0.02090   54.47490   97.21360   21.26700    0.00110    4.83700    2.68260 1041.40760 1249.47670  902.63940    0.01850
 4198.00000    8.89800    0.01320   54.34670   97.32190   20.46850    0.00550    4.84470    2.69800 1143.05350 1279.56860  837.66870    0.01850
 4198.50000    8.89520    0.00770   54.22480   96.43540   19.55960    0.00980    4.91050    2.71340 1397.16830 1702.31580  838.18630    0.01610
 4199.00000    8.90330   -0.00460   54.22610   96.53100   19.21700    0.01460    4.93420    2.72330 1489.61650 2007.74380  894.92580    0.01360
 4199.50000    8.90320   -0.00500   54.37190   96.66780   20.42740    0.01410    4.90910    2.71130 1154.30370 1447.65330  928.29810    0.01320
 4200.00000    8.90030    0.00700   54.43220   96.66730   19.65520    0.01140    4.86940    2.68730  979.09130 1076.52610  887.70460    0.01450
 4200.50000    8.89740    0.01540   54.51090   96.69860   19.65990    0.00670    4.82970    2.68080 1023.72210 1131.26480  838.25470    0.01740
 4201.00000    8.89460    0.01480   54.49720   96.64100   19.37960   -0.00070    4.82970    2.68870 1135.02600 1330.55540  911.99690    0.01790
 4201.50000    8.89680    0.00610   54.38870   96.58340   19.96180   -0.00800    4.80970    2.69950 1246.32990 1529.84600 1006.02030    0.01600
 4202.00000    8.89750    0.00120   54.45790   96.98890   19.93780   -0.01350    4.83540    2.71020 1246.58120 1589.52420 1049.64170    0.01370
 4202.50000    8.90500   -0.00110   54.09970   97.57800   21.12790   -0.01050    4.87240    2.72090 1191.85030 1532.05580 1068.39490    0.01270
 4203.00000    8.90160   -0.00330   53.99390   96.72180   22.93510   -0.00980    4.91200    2.71760 1123.34810 1374.32040 1006.39580    0.01180
 4203.50000    8.89820   -0.00100   54.12400   96.39140   21.89780   -0.00910    4.93280    2.70750 1082.30850 1234.90690  964.02740    0.01120
 4204.00000    8.91000    0.00360   54.22090   96.70010   21.41410   -0.00660    4.96310    2.70150 1134.56070 1427.52070  974.50970    0.01180
 4204.50000    8.89730    0.00620   54.03340   97.43780   20.41080   -0.00380    4.99600    2.70220 1159.92680 1466.21560 1005.32300    0.01390
 4205.00000    8.89760    0.00090   54.02550   96.55930   20.60390   -0.00090    5.01680    2.71070 1151.97210 1412.25140 1031.10900    0.01560
 4205.50000    8.89800   -0.00320   54.01760   96.21570   21.87060    0.00250    5.05920    2.71770 1262.09850 1568.82290 1018.42620    0.01470
 4206.00000    8.91150   -0.00490   54.00970   96.91610   23.08720    0.00360    5.05050    2.71500 1353.13740 1746.87900 1136.43130    0.01390
 4206.50000    8.91150    0.00020   54.00170   96.45970   25.21590    0.00470    5.05050    2.70860 1395.88730 1768.94910 1128.43370    0.01410
 4207.00000    8.91160    0.00520   53.94200   96.50390   21.75460    0.00360    5.00730    2.70220 1353.72490 1747.60880 1122.80140    0.01570
 4207.50000    8.90240    0.01070   53.80950   97.31940   19.15610    0.00310    4.95320    2.69210 1379.40030 1882.49700 1128.29460    0.01620
 4208.00000    8.90670    0.00970   53.90560   97.22570   16.31870    0.00250    4.91000    2.69410 1293.89910 1812.26930 1088.87030    0.01530
 4208.50000    8.89330    0.00750   53.86630   96.60460   17.70430    0.00190    4.67470    2.71210 1182.59360 1575.23710  937.62690    0.01520
 4209.00000    8.88530   -0.00390   53.18820   95.41890   19.52730   -0.00050    4.38070    2.73010 1493.66740 1685.00390  812.80890    0.01560
 4209.50000    8.87730   -0.01890   52.54620   94.25820   20.69070   -0.00270    4.02050    2.74810 2011.95550 2016.42290  828.74680    0.01600
 4210.00000    8.86930   -0.02950   52.06100   93.16250   18.54390   -0.00450    3.56110    2.76250 4112.99580 12515.10400  921.38260    0.01600
 4210.50000    8.86130   -0.03130   51.77120   91.86200   16.57970   -0.00010    3.49040    2.75150 3690.71260 9430.33110 1026.49690    0.01330
 4211.00000    8.86660   -0.00030   52.04630   91.04360   15.25430   -0.00010    3.82040    2.70680 2001.77330 4131.90220  949.16410    0.00940
 4211.50000    8.86100    0.01680   52.51070   91.83720   22.13100   -0.00150    4.24570    2.67060 1128.47400 1978.71250  813.98200    0.00740
