~Version ---------------------------------------------------
VERS.   2.0 : CWLS log ASCII Standard -VERSION 2.0
WRAP.    NO : One line per depth step
DLM . SPACE : Column Data Section Delimiter
~Well ------------------------------------------------------
STRT .FT                124.0 : START DEPTH
STOP .FT               8459.0 : STOP DEPTH
STEP .FT                  0.5 : STEP
NULL .               -9999.25 : NULL VALUE
COMP .                        : COMPANY
WELL .                        : WELL
FLD  .                        : FIELD
LOC  .                        : LOCATION
PROV .                        : PROVINCE
CNTY .                        : COUNTY
STAT .                        : STATE
CTRY .                        : COUNTRY
SRVC .                        : SERVICE COMPANY
DATE .                        : DATE
UWI  .                        : UNIQUE WELL ID
API  .                        : API NUMBER
SLAT .WGS84 2.824751013335998 : SURFACE LATITUDE
SLON .WGS84 8.884745930231006 : SURFACE LONGITUDE
DATUM.F                   nan : DEPTH DATUM ELEV
~Curve Information -----------------------------------------
DEPT   .FT    : 
CALD   .IN    : CALIPER FROM DENSITY LOG
DPHZ_LS.DEC   : HGRD STANDARD RESOLUTION DENSITY POROSITY
DT4P   .US/F  : DELTA-T COMPRESSIONAL - MONOPOLE P & S
DTSM   .US/F  : DELTA-T SHEAR
GRD    .GAPI  : GAMMA RAY FROM DENSITY LOG
HDRA   .G/C3  : HRDD SPINE AND RIBS DENSITY CORRECTION
PEFZ   .B/E   : HRDD STANDARD RESOLUTION FORMATION PHOTOELECTRIC FACTOR
RHOZ   .G/C3  : HRDD STANDARD RESOLUTION FORMATION DENSITY
RLA3   .OHMM  : APPARENT RESISTIVITY FROM COMPUTED FOCUSING MODE 3
RLA5   .OHMM  : APPARENT RESISTIVITY FROM COMPUTED FOCUSING MODE 5
RXOZ   .OHMM  : INVADED FORMATION RESISTIVITY FILTERED AT 18 INCHES
TNPH_LS.DEC   : THERMAL NEUTRON POROSITY [LIMESTONE]
~Params ----------------------------------------------------
~Other -----------------------------------------------------
~ASCII -----------------------------------------------------
# ...
 6284.00000    8.74250    0.01770   55.90220   94.65690   24.06260    0.00420    3.97410    2.68070  913.40420 1020.20150  459.02220    0.02130
 6284.50000    8.74130    0.01260   56.20580   94.69380   27.93610    0.00610    3.95870    2.69290  757.65240  805.87570  490.07240    0.02160
 6285.00000    8.74020    0.00490   55.75640   94.62710   31.71070    0.00790    4.04820    2.70320  748.36110  791.09360  488.49180    0.02140
 6285.50000    8.73910    0.00600   55.24710   94.49770   31.63380    0.00920    4.10230    2.69790  743.75490  786.23150  518.55000    0.01860
 6286.00000    8.73800    0.01380   55.45210   94.76670   28.31820    0.00490    4.19080    2.68370  655.90140  714.36730  410.27780    0.01850
 6286.50000    8.73690    0.02360   55.48360   94.99200   27.54140    0.00060    4.22220    2.66960  635.98880  681.85600  434.36460    0.01890
 6287.00000    8.73580    0.02400   54.79180   95.48990   29.00960   -0.00290    4.25340    2.66670  725.62490  742.71540  398.00860    0.01920
 6287.50000    8.73470    0.02030   55.17930   95.70690   28.53980   -0.00220    4.25190    2.67400  663.55940  735.62900  448.80890    0.01940
 6288.00000    8.73360    0.01770   55.16930   95.73640   27.95250   -0.00140    4.18290    2.67900  645.34800  757.00430  451.79450    0.01990
 6288.50000    8.73250    0.01970   55.45780   95.76600   28.77100   -0.00060    4.11390    2.67560  810.86670  954.50330  472.71630    0.02080
 6289.00000    8.73130    0.02380   55.12660   95.85090   30.33110    0.00030    4.07460    2.66970  776.15710  903.62280  510.91230    0.02160
 6289.50000    8.73020    0.02170   55.45850   95.71060   28.66320   -0.00060    4.04100    2.66920  716.71980  752.98900  544.21130    0.02240
 6290.00000    8.72910    0.01970   55.77750   95.71120   26.89350   -0.00060    4.05620    2.67320  852.93980  927.30870  500.52040    0.02270
 6290.50000    8.72800    0.01780   55.94890   95.64810   25.47000   -0.00060    4.07300    2.67820 1023.21470 1145.20820  505.63950    0.02270
 6291.00000    8.72690    0.01670   55.72520   95.52140   25.53000    0.00230    4.07630    2.68860 1005.28290 1140.26660  558.67160    0.02210
 6291.50000    8.72580    0.01220   55.71890   95.44300   26.43670    0.00420    4.07950    2.69570  745.34880  897.65910  474.60760    0.02140
 6292.00000    8.72470    0.00800   55.48050   95.36470   28.42220    0.00620    4.08270    2.70270  636.44820  690.67370  528.42040    0.02060
 6292.50000    8.72360    0.00140   55.65910   95.28640   27.68810    0.00810    4.09270    2.70980  621.52100  667.62610  438.26160    0.02000
 6293.00000    8.72250    0.00060   55.94800   95.20800   28.33540    0.00690    4.06670    2.70940  561.57340  624.70300  467.03920    0.02000
 6293.50000    8.72130    0.00910   56.11600   95.12970   26.52960    0.00560    3.93290    2.69790  513.61540  542.94360  456.34930    0.02030
 6294.00000    8.72020    0.01830   56.20320   95.05130   25.67710    0.00430    3.80790    2.68640  567.70500  683.83350  488.70050    0.02210
 6294.50000    8.71910    0.02520   56.29460   94.97300   24.77610    0.00110    3.74540    2.67490  822.27180  918.65010  527.82900    0.02430
 6295.00000    8.71800    0.02870   55.69040   94.82290   23.49030   -0.00250    3.83890    2.66340  805.16200  968.28930  477.79420    0.02430
 6295.50000    8.73750    0.03410   56.06060   95.00630   24.34720   -0.00610    3.95340    2.65190  648.52090  778.01440  504.12410    0.02410
 6296.00000    8.74210    0.03490   55.80970   95.35450   24.35900   -0.00790    3.97180    2.65120  523.20790  587.73960  414.57680    0.02360
 6296.50000    8.74120    0.03140   55.90500   95.11040   25.27090   -0.00600    3.99010    2.65360  548.94660  563.01250  450.60270    0.02310
 6297.00000    8.74030    0.02940   55.89010   95.67050   27.36680   -0.00410    3.97220    2.66050  559.95580  602.99620  391.41800    0.02270
 6297.50000    8.73950    0.02530   56.26280   96.23060   29.51780   -0.00220    3.95470    2.66490  529.37260  579.47960  380.86850    0.02330
 6298.00000    8.72680    0.02420   56.77840   96.52550   32.54150   -0.00120    3.97440    2.66910  498.78930  540.28520  398.00860    0.02510
 6298.50000    8.74130    0.02290   56.64020   96.66610   35.52730   -0.00170    3.97130    2.67260  468.20610  501.09090  361.51920    0.02750
 6299.00000    8.74520    0.02510   56.71000   96.74780   33.99090   -0.00230    3.96810    2.67610  494.94580  523.20790  380.28520    0.03000
 6299.50000    8.75270    0.02140   57.21060   96.77990   34.72970   -0.00280    3.96200    2.67960  416.40730  460.94360  295.26220    0.03030
 6300.00000    8.74400    0.01140   56.89380   96.61370   29.15650   -0.00080    4.00800    2.68490  460.19230  574.05960  320.16940    0.02780
 6300.50000    8.74360    0.00470   57.05010   96.69600   28.27880    0.00170    4.09670    2.69730  529.70870  712.31480  296.76100    0.02530
 6301.00000    8.74330    0.00000   56.46850   96.84050   27.40120    0.00430    4.17070    2.70750  328.35560  389.08000  302.70320    0.02540
 6301.50000    8.74300    0.00070   56.86000   96.98490   28.81790    0.00710    4.22040    2.70790  383.98980  414.82770  269.55400    0.02950
 6302.00000    8.74260    0.00900   57.34930   97.13890   30.56840    0.00560    4.27010    2.69690  380.80980  471.10580  292.28990    0.03390
 6302.50000    8.74230    0.01580   57.31570   97.29280   30.65410    0.00410    4.21510    2.68430  289.33670  337.60020  261.49310    0.03450
 6303.00000    8.74190    0.02200   57.39340   97.30920   27.94140    0.00120    4.14600    2.67170  402.42930  611.44080  258.89920    0.03490
 6303.50000    8.74160    0.02090   57.46060   97.23370   26.69550    0.00060    4.11490    2.67230  610.48270  715.54930  246.36040    0.03710
 6304.00000    8.76360    0.01780   57.75690   96.85320   24.88740    0.00000    4.13800    2.67850  459.61780  551.49060  261.54450    0.04000
 6304.50000    8.74980    0.01520   57.77320   97.59770   25.24960   -0.00060    4.16810    2.68460  470.02000  482.87650  289.46150    0.04130
 6305.00000    8.75990    0.01360   57.73540   98.19060   26.15620    0.00150    4.20520    2.68710  476.95480  496.20010  406.13940    0.03700
 6305.50000    8.75730    0.01760   57.88820   98.55610   26.19350    0.00060    4.23010    2.68450  415.92590  482.82960  527.39440    0.03650
 6306.00000    8.75460    0.02000   57.76700   99.03760   26.77190   -0.00030    4.21710    2.67820  346.95100  429.41800  433.91010    0.03660
 6306.50000    8.75190    0.02340   58.31200   99.12530   27.09310    0.00050    4.18930    2.67370  330.53710  384.30860  361.51920    0.03740
 6307.00000    8.74930    0.03230   58.27370   99.22640   27.27540    0.00000    4.15210    2.66320  386.41720  411.62620  313.71610    0.03930
 6307.50000    8.74660    0.04220   58.45390   99.30680   27.45770   -0.00150    4.11480    2.63860  399.75500  437.47940  290.34680    0.04110
 6308.00000    8.74390    0.04680   58.97730   99.08910   27.16270   -0.00300    4.07310    2.62880  354.68420  407.22980  274.10700    0.04110
 6308.50000    8.74130    0.03870   59.00970   98.87130   26.12210   -0.00130    3.99400    2.64160  365.97170  389.08000  276.61290    0.03950
 6309.00000    8.73860    0.02770   58.62100   98.65360   24.80620    0.00250    3.92160    2.65430  374.78350  406.16930  302.83000    0.03700
 6309.50000    8.73590    0.02300   58.32960   98.14700   23.18140    0.00640    3.91330    2.66710  362.40440  418.98620  390.03220    0.03510
 6310.00000    8.73330    0.02140   58.57660   98.05190   21.86000    0.01020    3.96320    2.67400  352.50110  386.68870  321.93480    0.03470
 6310.50000    8.73060    0.01830   59.37530   97.57940   23.03640    0.01350    4.03910    2.68180  359.12090  392.52170  259.42760    0.03500
 6311.00000    8.72790    0.01400   57.96870   97.57510   25.32280    0.01770    4.08460    2.69110  375.67030  399.81290  281.00030    0.03310
 6311.50000    8.73420    0.01540   57.54900   97.61430   26.45450    0.01920    4.09430    2.69040  392.21980  414.23080  277.86370    0.03050
