~Version ---------------------------------------------------
VERS.   2.0 : CWLS log ASCII Standard -VERSION 2.0
WRAP.    NO : One line per depth step
DLM . SPACE : Column Data Section Delimiter
~Well ------------------------------------------------------
STRT .FT                124.0 : START DEPTH
STOP .FT               8459.0 : STOP DEPTH
STEP .FT                  0.5 : STEP
NULL .               -9999.25 : NULL VALUE
COMP .                        : COMPANY
WELL .                        : WELL
FLD  .                        : FIELD
LOC  .                        : LOCATION
PROV .                        : PROVINCE
CNTY .                        : COUNTY
STAT .                        : STATE
CTRY .                        : COUNTRY
SRVC .                        : SERVICE COMPANY
DATE .                        : DATE
UWI  .                        : UNIQUE WELL ID
API  .                        : API NUMBER
SLAT .WGS84 2.824751013335998 : SURFACE LATITUDE
SLON .WGS84 8.884745930231006 : SURFACE LONGITUDE
DATUM.F                   nan : DEPTH DATUM ELEV
~Curve Information -----------------------------------------
DEPT   .FT    : 
CALD   .IN    : CALIPER FROM DENSITY LOG
DPHZ_LS.DEC   : HGRD STANDARD RESOLUTION DENSITY POROSITY
DT4P   .US/F  : DELTA-T COMPRESSIONAL - MONOPOLE P & S
DTSM   .US/F  : DELTA-T SHEAR
GRD    .GAPI  : GAMMA RAY FROM DENSITY LOG
HDRA   .G/C3  : HRDD SPINE AND RIBS DENSITY CORRECTION
PEFZ   .B/E   : HRDD STANDARD RESOLUTION FORMATION PHOTOELECTRIC FACTOR
RHOZ   .G/C3  : HRDD STANDARD RESOLUTION FORMATION DENSITY
RLA3   .OHMM  : APPARENT RESISTIVITY FROM COMPUTED FOCUSING MODE 3
RLA5   .OHMM  : APPARENT RESISTIVITY FROM COMPUTED FOCUSING MODE 5
RXOZ   .OHMM  : INVADED FORMATION RESISTIVITY FILTERED AT 18 INCHES
TNPH_LS.DEC   : THERMAL NEUTRON POROSITY [LIMESTONE]
~Params ----------------------------------------------------
~Other -----------------------------------------------------
~ASCII -----------------------------------------------------
# ...
 6704.00000    8.74140    0.05850   63.61710  103.46570   85.88460   -0.00310    3.01760    2.61240  195.68090  231.70180  164.05120    0.07460
 6704.50000    8.73890    0.05640   64.25030  104.82530   85.65680   -0.00180    3.14730    2.61570  202.28820  208.62660  175.28450    0.08050
 6705.00000    8.74670    0.05600   64.81270  105.55580   86.02810   -0.00220    3.18080    2.62040  186.57850  201.04310  162.82600    0.08350
 6705.50000    8.75450    0.05210   65.17470  105.88600   90.90270   -0.00140    3.17610    2.61930  168.49760  189.47180  150.69380    0.08480
 6706.00000    8.74830    0.05650   64.90410  105.59160   96.61540   -0.00070    3.11850    2.61120  150.41680  177.05380  142.22250    0.08600
 6706.50000    8.75350    0.06230   64.46550  105.01760   98.45710    0.00000    3.03860    2.60320  137.99030  162.77960  131.55890    0.08690
 6707.00000    8.75810    0.06570   63.95160  104.49360   87.79650    0.00070    2.92340    2.60120  133.78780  152.29790  117.80950    0.08180
 6707.50000    8.75890    0.06190   63.75740  103.79050   77.46830    0.00140    2.83990    2.59910  132.96430  149.96730  116.91770    0.08690
 6708.00000    8.75960    0.06450   63.60820  103.46410   69.49230    0.00210    2.76710    2.58990  126.37560  149.50440  115.14630    0.08330
 6708.50000    8.76040    0.07290   63.45570  103.38870   71.57240    0.00160    2.74980    2.57610  116.75620  140.79860  110.34140    0.08300
 6709.00000    8.76120    0.08370   63.47160  103.86370   78.81990   -0.00080    2.75010    2.56780  107.13680  124.44160  101.86740    0.08400
 6709.50000    8.77070    0.07950   63.92590  103.82550   88.33420   -0.00330    2.75350    2.56950  107.81680  108.08460   93.39340    0.08550
 6710.00000    8.77380    0.07030   64.29670  104.41260   90.85560   -0.00350    2.74830    2.58660  110.04750   97.66550   83.27350    0.08500
 6710.50000    8.76880    0.06330   64.50240  105.56790   88.97130   -0.00160    2.70880    2.60050  105.60970  113.28590   82.63560    0.08430
 6711.00000    8.76370    0.06320   64.87930  105.94000   93.80020    0.00030    2.66920    2.60460  101.46670  125.78210   87.83210    0.08450
 6711.50000    8.75870    0.05990   65.43760  106.73140   98.79890    0.00220    2.63340    2.60880  105.17160  117.91040   90.34000    0.08470
 6712.00000    8.77670    0.05760   65.99590  107.67310   99.63870    0.00180    2.67780    2.61300   90.40620  106.08120   79.66950    0.08560
 6712.50000    8.77700    0.05650   66.41320  108.69240  120.89160   -0.00020    2.75060    2.60640   88.50610  109.45630   72.20530    0.09650
 6713.00000    8.77740    0.06670   66.48970  110.02740  117.07810   -0.00220    2.82340    2.59240  104.70030  129.72330   79.29520    0.10550
 6713.50000    8.77860    0.07670   67.45450  110.60960  113.16560   -0.00420    2.85980    2.57840  110.83590  120.27400   93.59760    0.10690
 6714.00000    8.78320    0.08480   68.41930  110.93750  117.52360   -0.00480    2.87600    2.56440  101.67580  104.52520   90.40340    0.11080
 6714.50000    8.78780    0.08560   68.83650  111.07010  122.62800   -0.00550    2.90490    2.56560   93.53700  110.30300   82.41770    0.11810
 6715.00000    8.79230    0.07970   68.67120  110.72730  118.75450   -0.00610    2.90080    2.57950  109.81460  124.74750   83.76240    0.12420
 6715.50000    8.79670    0.07220   68.58690  110.53330  110.01800   -0.00570    2.82000    2.59340  111.86660  132.42080   91.11680    0.12290
 6716.00000    8.80090    0.06290   68.32450  109.21400  103.28480   -0.00390    2.70030    2.60090  111.86660  135.04740   94.07830    0.11640
 6716.50000    8.79550    0.06450   68.02650  108.65180  100.86570   -0.00200    2.65830    2.59480  111.86660  136.57340   90.54930    0.10980
 6717.00000    8.79450    0.06900   67.53990  108.33160  102.81120   -0.00060    2.69240    2.59120  111.86660  135.18060   93.64270    0.10700
 6717.50000    8.79340    0.06910   66.86800  107.97880   95.22700    0.00060    2.77360    2.59730  111.86660  133.78780   92.03450    0.10610
 6718.00000    8.79230    0.06650   66.59440  107.99310   95.37380    0.00200    2.83960    2.60390  111.86660  133.78780   89.78640    0.10770
 6718.50000    8.77560    0.06160   66.48150  107.83590   99.92540    0.00350    2.81180    2.60110  111.86660  133.78780   83.85520    0.10530
 6719.00000    8.76410    0.06810   66.20980  107.89210  109.28360    0.00150    2.79310    2.58830  111.86660  133.78780   79.52290    0.09640
 6719.50000    8.76430    0.07800   66.09710  108.26810  107.66490   -0.00180    2.78040    2.57550  111.86660  129.37320   77.13390    0.08950
 6720.00000    8.77080    0.08510   65.94750  107.95820  105.85790   -0.00260    2.76760    2.56560  111.86660  125.00790   74.53390    0.08400
 6720.50000    8.77370    0.08710   65.74550  107.59860  104.66310   -0.00040    2.75490    2.56730  113.25550  125.78210   75.85850    0.08640
 6721.00000    8.76590    0.08280   65.57330  107.26000  108.57480    0.00190    2.76100    2.56740  118.63400  129.72330   78.50750    0.08820
 6721.50000    8.76150    0.08450   65.54710  106.97170  112.27850    0.00330    2.79190    2.56030  131.36080  137.94950   78.90600    0.08880
 6722.00000    8.75710    0.08690   65.58410  107.20580  111.40170    0.00170    2.84910    2.55510  144.98180  158.75790   86.87650    0.09060
 6722.50000    8.73700    0.08780   65.97650  107.38630  107.46500    0.00010    2.82940    2.55860  150.43030  169.14290   97.47110    0.08790
 6723.00000    8.73500    0.08520   66.81560  108.71650  102.48060   -0.00150    2.78790    2.56300  124.08380  140.12540   96.01020    0.08940
 6723.50000    8.73340    0.08670   67.72230  110.22910  111.15660   -0.00300    2.80630    2.55950  106.47830  122.71490   78.11100    0.10040
 6724.00000    8.73400    0.08980   68.17300  110.59830  119.83250   -0.00460    2.91910    2.55300  129.63920  200.33840   77.32470    0.11150
 6724.50000    8.73540    0.09320   68.89470  111.32740  124.39610   -0.00620    3.03960    2.55160  242.15120  319.36110  113.32540    0.12040
 6725.00000    8.73190    0.08630   68.46250  111.47210  113.75470   -0.00800    3.27130    2.57170  313.51590  327.34340  166.42300    0.11190
 6725.50000    8.72840    0.07730   67.46570  110.51470  104.29830   -0.00620    3.42570    2.59190  327.34340  394.16360  245.16580    0.10150
 6726.00000    8.71870    0.06210   65.89190  108.95730   99.69090   -0.00440    3.60030    2.61200  442.91500  491.89940  327.45070    0.08980
 6726.50000    8.72430    0.05110   64.33740  107.39990   76.62380   -0.00270    3.72870    2.62730  425.82230  437.52250  319.65860    0.07800
 6727.00000    8.72960    0.04700   63.54560  106.75700   68.99190   -0.00150    3.77330    2.62030  367.53670  388.71210  305.86070    0.07010
 6727.50000    8.74030    0.05310   64.17320  106.53870   78.08150    0.00060    3.65060    2.60300  309.25110  339.69680  258.44150    0.07820
 6728.00000    8.75090    0.06510   65.28790  106.94900   89.10140    0.00270    3.39170    2.58560  250.96550  274.44480  208.48890    0.09570
 6728.50000    8.74360    0.07140   66.82490  108.04250  100.12120    0.00410    3.15760    2.58590  192.67990  209.19280  158.53620    0.11320
 6729.00000    8.73620    0.07050   67.40830  109.22240  102.15030    0.00460    3.03260    2.60880  215.88260  259.76310  148.54570    0.12370
 6729.50000    8.72890    0.05460   67.21520  109.00870   97.47570    0.00510    3.12320    2.63170  305.81760  365.79760  195.53330    0.10420
 6730.00000    8.72770    0.03850   66.27330  108.54200   87.19560    0.00560    3.26490    2.65450  336.13880  351.03540  241.01030    0.08720
 6730.50000    8.72810    0.02690   65.07110  107.33950   80.45780    0.00600    3.34280    2.66840  307.87460  319.75850  233.95500    0.08190
 6731.00000    8.72840    0.02250   63.97700  105.66210   81.12400    0.00650    3.30960    2.67630  307.08040  329.69350  234.25090    0.07600
 6731.50000    8.72880    0.01990   63.41840  104.15230   78.47110    0.00700    3.22860    2.67710  341.79170  386.68870  257.89440    0.07050
