~Version ---------------------------------------------------
VERS.   2.0 : CWLS log ASCII Standard -VERSION 2.0
WRAP.    NO : One line per depth step
DLM . SPACE : Column Data Section Delimiter
~Well ------------------------------------------------------
STRT .FT                124.0 : START DEPTH
STOP .FT               8459.0 : STOP DEPTH
STEP .FT                  0.5 : STEP
NULL .               -9999.25 : NULL VALUE
COMP .                        : COMPANY
WELL .                        : WELL
FLD  .                        : FIELD
LOC  .                        : LOCATION
PROV .                        : PROVINCE
CNTY .                        : COUNTY
STAT .                        : STATE
CTRY .                        : COUNTRY
SRVC .                        : SERVICE COMPANY
DATE .                        : DATE
UWI  .                        : UNIQUE WELL ID
API  .                        : API NUMBER
SLAT .WGS84 2.824751013335998 : SURFACE LATITUDE
SLON .WGS84 8.884745930231006 : SURFACE LONGITUDE
DATUM.F                   nan : DEPTH DATUM ELEV
~Curve Information -----------------------------------------
DEPT   .FT    : 
CALD   .IN    : CALIPER FROM DENSITY LOG
DPHZ_LS.DEC   : HGRD STANDARD RESOLUTION DENSITY POROSITY
DT4P   .US/F  : DELTA-T COMPRESSIONAL - MONOPOLE P & S
DTSM   .US/F  : DELTA-T SHEAR
GRD    .GAPI  : GAMMA RAY FROM DENSITY LOG
HDRA   .G/C3  : HRDD SPINE AND RIBS DENSITY CORRECTION
PEFZ   .B/E   : HRDD STANDARD RESOLUTION FORMATION PHOTOELECTRIC FACTOR
RHOZ   .G/C3  : HRDD STANDARD RESOLUTION FORMATION DENSITY
RLA3   .OHMM  : APPARENT RESISTIVITY FROM COMPUTED FOCUSING MODE 3
RLA5   .OHMM  : APPARENT RESISTIVITY FROM COMPUTED FOCUSING MODE 5
RXOZ   .OHMM  : INVADED FORMATION RESISTIVITY FILTERED AT 18 INCHES
TNPH_LS.DEC   : THERMAL NEUTRON POROSITY [LIMESTONE]
~Params ----------------------------------------------------
~Other -----------------------------------------------------
~ASCII -----------------------------------------------------
# ...
 7572.00000    8.76440    0.00920   55.53820   97.49330   33.04250    0.00580    4.61700    2.69870 1141.45570 1672.46720  607.96900    0.02010
 7572.50000    8.76180    0.00320   55.62860   98.02170   31.49530    0.00920    4.63080    2.70490 1026.74120 1401.01300  627.84960    0.02070
 7573.00000    8.76380    0.00470   55.59830   96.62180   29.77550    0.00960    4.61710    2.69970 1108.61870 1589.87270  570.83690    0.01970
 7573.50000    8.76060    0.01010   55.58910   94.19370   30.92900    0.00710    4.63720    2.69140 1024.73500 1457.99480  581.18570    0.01890
 7574.00000    8.75450    0.01410   55.78480   98.46160   31.41190    0.00460    4.68940    2.68320  936.30500 1270.95980  529.64540    0.01890
 7574.50000    8.74840    0.01710   55.71270   98.65610   29.59600    0.00240    4.74150    2.67380  882.95930 1144.52510  499.93390    0.01920
 7575.00000    8.76200    0.02200   55.70480   98.00170   29.09750    0.00640    4.77780    2.67900  970.98870 1338.39630  504.74440    0.02030
 7575.50000    8.74670    0.01510   55.44500   97.68910   29.82140    0.01040    4.79050    2.70680 1330.73350 1772.13660  554.35480    0.01960
 7576.00000    8.74580   -0.00180   55.08720   97.11760   30.03150    0.01440    4.83790    2.73460 1756.80930 2775.17770  693.24680    0.01690
 7576.50000    8.74970   -0.02050   54.64230   96.54610   25.01120    0.01710    4.81390    2.74660 2184.39300 3766.46430  807.05320    0.01300
 7577.00000    8.75260   -0.01330   54.33770   96.18360   21.72110    0.02030    4.74530    2.74100 2003.42890 2925.19900  704.05080    0.00980
 7577.50000    8.74600   -0.00130   53.89450   96.65700   22.56550    0.01430    4.63230    2.71420 1586.71570 2288.88260  657.11020    0.01200
 7578.00000    8.74850    0.01320   54.34200   96.76920   28.15670    0.00740    4.50960    2.68920 1681.41170 2289.35430  587.65300    0.01850
 7578.50000    8.75100    0.02480   55.32900   96.79110   36.29720    0.00050    4.39160    2.65740 1107.75140 1420.92100  426.64300    0.02780
 7579.00000    8.75980    0.03030   56.54070   96.84800   45.29720   -0.00050    4.28080    2.65660  867.15780 1239.99380  383.83020    0.03710
 7579.50000    8.77020    0.02910   57.54730   96.65230   50.42950    0.00040    4.24130    2.65660 1200.24060 1472.97720  430.84680    0.04170
 7580.00000    8.78800    0.02690   58.21330   97.62440   49.30960    0.00140    4.33370    2.66290 1380.49540 1957.63060  641.37640    0.03760
 7580.50000    8.77850    0.02030   57.70170   97.95720   43.00900    0.00230    4.49470    2.67870 2017.66140 4815.95770  792.41580    0.03270
 7581.00000    8.76900    0.00830   57.22480   97.67370   39.52030    0.00670    4.65410    2.69440 3169.92850 6710.69020  781.37790    0.02700
 7581.50000    8.77490   -0.00100   56.13960   97.26110   30.68800    0.01110    4.78860    2.71010 3909.50310 14731.26300  730.13420    0.02120
 7582.00000    8.77450    0.00180   54.92840   96.84850   32.16320    0.01550    4.95920    2.71590 4024.61530 17859.34930  642.18390    0.01860
 7582.50000    8.77410    0.01130   54.04710   96.46910   27.47590    0.01200    4.80660    2.68160 4360.83260 20389.57580  770.39330    0.01450
 7583.00000    8.77380    0.01680   53.32850   96.22220   28.65760    0.00610    4.72450    2.68190 4099.69910 21004.78780  884.56540    0.01060
 7583.50000    8.77340    0.00560   53.25840   95.14440   28.97360    0.00210    4.63350    2.70080 4310.56360 30687.95400  925.74450    0.00780
 7584.00000    8.77300   -0.00850   53.26610   95.10010   28.27420    0.00160    4.58370    2.71320 4662.05080 60028.30130  932.86380    0.00450
 7584.50000    8.77270   -0.00600   53.15110   95.48980   25.55030    0.00100    4.56420    2.71270 4872.89940 90651.26780 1033.56860    0.00130
 7585.00000    8.77230    0.00280   53.04460   95.68260   23.46030    0.00040    4.54250    2.70360 4823.41800 63735.14710 1056.70420    0.00060
 7585.50000    8.77190    0.01040   53.03830   95.45290   24.91170    0.00050    4.53730    2.69450 4741.04480 57609.30800  912.34220    0.00030
 7586.00000    8.77160    0.01220   52.55730   95.80660   27.23140    0.00530    4.48200    2.69070 4074.03330 43509.50910  899.90320    0.00150
 7586.50000    8.77120    0.01030   52.54700   95.57700   27.93160    0.01000    4.39410    2.69640 4414.30410 20846.95730 1017.82630    0.00320
 7587.00000    8.77080    0.00540   53.09400   94.64920   29.72340    0.01450    4.27500    2.70750 3029.38320 6387.50590  954.48590    0.00500
 7587.50000    8.77040   -0.00130   53.72150   95.29720   35.48210    0.01840    4.24600    2.71970 2765.61190 5268.24430  923.63870    0.00680
 7588.00000    8.77010   -0.00700   54.22360   95.88200   41.24090    0.02220    4.28490    2.71530 2501.84060 4339.05750 1068.73620    0.00750
 7588.50000    8.76970    0.00430   54.64190   95.87080   42.42260    0.01720    4.33720    2.69500 3027.17390 6802.97310 1084.88230    0.00810
 7589.00000    8.76930    0.01590   55.02540   96.67860   37.77290    0.01060    4.38950    2.67470 3036.52890 7986.37310 1254.33640    0.01040
 7589.50000    8.76310    0.02860   55.27280   94.14490   38.32680    0.00400    4.41330    2.65440 2710.76450 5353.10010 1345.05710    0.01330
 7590.00000    8.76380    0.03700   55.48110   97.15350   43.33730   -0.00120    4.43160    2.63820 2517.27050 4270.92030 1498.88200    0.01620
 7590.50000    8.76820    0.04220   55.62360   97.38650   46.22320   -0.00120    4.43200    2.63820 2425.77330 4556.15920 1444.09550    0.01680
 7591.00000    8.77250    0.03600   55.39620   97.03850   42.90440   -0.00040    4.42780    2.65400 2316.87220 4046.10580 1283.36920    0.01800
 7591.50000    8.77690    0.01860   55.69660   96.75280   36.15370    0.00210    4.47340    2.67380 2117.83600 3266.34790 1238.98980    0.01710
 7592.00000    8.77270    0.00690   55.34660   96.84060   32.04660    0.00240    4.53140    2.69360 3782.71610 14698.75110 1128.96460    0.01500
 7592.50000    8.77000    0.00770   54.72460   97.07560   31.80580    0.00260    4.54210    2.69210 3090.11830 9533.54460 1468.84480    0.01280
 7593.00000    8.76930    0.01760   54.12650   97.98230   31.93200    0.00280    4.53110    2.67990 2747.00250 6958.40540 1334.18140    0.01060
 7593.50000    8.77550    0.02300   54.40920   96.27280   31.83760   -0.00200    4.52770    2.66760 3420.92130 13622.66100 1553.78700    0.00960
 7594.00000    8.78220    0.02220   54.84220   95.82110   30.29810   -0.00560    4.53970    2.66710 3624.98650 15243.84790 1773.39260    0.00890
 7594.50000    8.78900    0.02460   55.21990   96.14190   31.02610   -0.00630    4.55170    2.67450 3448.29930 11065.78690 1846.95880    0.00820
 7595.00000    8.79580    0.01840   54.99310   95.99290   30.44380   -0.00020    4.54710    2.68190 3556.35180 19083.17120 1711.33100    0.00780
 7595.50000    8.80250    0.01810   55.94530   96.61850   27.58300    0.00150    4.48990    2.68830 3878.72150 34035.18680 1599.68640    0.01080
 7596.00000    8.80790    0.01560   55.33010   96.72380   26.39390    0.00210    4.25140    2.67430 4201.09120 26276.76030 1348.21020    0.01590
 7596.50000    8.79900    0.02630   56.53010   97.04460   37.46990    0.00260    4.04440    2.66040 2066.20170 6880.69420 1135.84050    0.02350
 7597.00000    8.78780    0.03900   57.22480  100.25910   51.40670    0.00210    3.82640    2.64440 1097.15050 2451.55280  925.78390    0.03510
 7597.50000    8.77270    0.05170   58.68660   97.84820   65.34350    0.00080    3.50600    2.62210  802.51990 2039.10670  673.79430    0.04660
 7598.00000    8.74770    0.05990   60.08770   99.82840   78.87140   -0.00040    3.39300    2.60800  557.44570  831.43140  448.15370    0.05380
 7598.50000    8.76950    0.06300   61.39280  101.88070   84.86860   -0.00160    3.19990    2.60450  386.70620  463.32420  253.83270    0.05820
 7599.00000    8.78380    0.05800   62.09380  102.10190   84.49850   -0.00080    3.07330    2.61160  215.96670  241.00100  137.87700    0.05910
 7599.50000    8.80760    0.04950   62.66170  101.76530   71.34170    0.00010    2.97370    2.62070  128.68420  260.68830   90.42870    0.05950
