~Version ---------------------------------------------------
VERS.   2.0 : CWLS log ASCII Standard -VERSION 2.0
WRAP.    NO : One line per depth step
DLM . SPACE : Column Data Section Delimiter
~Well ------------------------------------------------------
STRT .FT                124.0 : START DEPTH
STOP .FT               8459.0 : STOP DEPTH
STEP .FT                  0.5 : STEP
NULL .               -9999.25 : NULL VALUE
COMP .                        : COMPANY
WELL .                        : WELL
FLD  .                        : FIELD
LOC  .                        : LOCATION
PROV .                        : PROVINCE
CNTY .                        : COUNTY
STAT .                        : STATE
CTRY .                        : COUNTRY
SRVC .                        : SERVICE COMPANY
DATE .                        : DATE
UWI  .                        : UNIQUE WELL ID
API  .                        : API NUMBER
SLAT .WGS84 2.824751013335998 : SURFACE LATITUDE
SLON .WGS84 8.884745930231006 : SURFACE LONGITUDE
DATUM.F                   nan : DEPTH DATUM ELEV
~Curve Information -----------------------------------------
DEPT   .FT    : 
CALD   .IN    : CALIPER FROM DENSITY LOG
DPHZ_LS.DEC   : HGRD STANDARD RESOLUTION DENSITY POROSITY
DT4P   .US/F  : DELTA-T COMPRESSIONAL - MONOPOLE P & S
DTSM   .US/F  : DELTA-T SHEAR
GRD    .GAPI  : GAMMA RAY FROM DENSITY LOG
HDRA   .G/C3  : HRDD SPINE AND RIBS DENSITY CORRECTION
PEFZ   .B/E   : HRDD STANDARD RESOLUTION FORMATION PHOTOELECTRIC FACTOR
RHOZ   .G/C3  : HRDD STANDARD RESOLUTION FORMATION DENSITY
RLA3   .OHMM  : APPARENT RESISTIVITY FROM COMPUTED FOCUSING MODE 3
RLA5   .OHMM  : APPARENT RESISTIVITY FROM COMPUTED FOCUSING MODE 5
RXOZ   .OHMM  : INVADED FORMATION RESISTIVITY FILTERED AT 18 INCHES
TNPH_LS.DEC   : THERMAL NEUTRON POROSITY [LIMESTONE]
~Params ----------------------------------------------------
~Other -----------------------------------------------------
~ASCII -----------------------------------------------------
# ...
 2476.00000    9.26440    0.10670   -9999.25   -9999.25   48.55570   -0.00360    2.52150    2.52410   11.73780   15.39580   10.69580    0.14320
 2476.50000    9.26270    0.09890   -9999.25   -9999.25   49.82590   -0.00220    2.50930    2.53630   11.37130   15.01120   10.51640    0.13570
 2477.00000    9.26100    0.09750   -9999.25   -9999.25   49.05240   -0.00090    2.51030    2.54220   11.59330   15.41730   10.82170    0.13080
 2477.50000    9.23870    0.09890   -9999.25   -9999.25   48.22290   -0.00170    2.55540    2.54620   11.96320   15.93940   11.36670    0.12810
 2478.00000    9.24720    0.09300   -9999.25   -9999.25   51.24310   -0.00270    2.56230    2.55050   12.33320   16.46150   11.91170    0.12760
 2478.50000    9.25570    0.09180   -9999.25   -9999.25   53.05440   -0.00370    2.54620    2.55070   12.62920   16.77470   12.02070    0.12440
 2479.00000    9.25740    0.09530   -9999.25   -9999.25   52.61190   -0.00470    2.55120    2.54550   12.46740   16.77470   11.86470    0.12780
 2479.50000    9.26030    0.10030   -9999.25   -9999.25   47.62670   -0.00390    2.55610    2.54180   12.26520   16.77470   11.72770    0.13200
 2480.00000    9.26860    0.10030   -9999.25   -9999.25   46.90420   -0.00260    2.56110    2.53850   12.06310   16.56900   11.83740    0.13540
 2480.50000    9.27130    0.10190   -9999.25   -9999.25   48.56900   -0.00140    2.56040    2.53520   11.86090   15.44450   11.48190    0.13730
 2481.00000    9.27220    0.10380   -9999.25   -9999.25   51.43300   -0.00120    2.55420    2.53200   11.65870   14.29190   10.81780    0.14120
 2481.50000    9.27310    0.10540   -9999.25   -9999.25   52.79290   -0.00180    2.55280    2.53220   11.92250   14.90400   10.62930    0.14290
 2482.00000    9.27410    0.10220   -9999.25   -9999.25   52.29740   -0.00240    2.54530    2.53420   12.25190   15.77890   11.08450    0.14610
 2482.50000    9.27930    0.09960   -9999.25   -9999.25   49.71830   -0.00290    2.52420    2.53850   11.45710   14.74660   10.83160    0.14690
 2483.00000    9.28960    0.09580   -9999.25   -9999.25   47.37830   -0.00160    2.50760    2.54560   10.66240   13.18710    9.58860    0.15870
 2483.50000    9.28340    0.09220   -9999.25   -9999.25   45.85890   -0.00030    2.48040    2.55140   10.78720   12.94990    8.88460    0.15820
 2484.00000    9.27720    0.08900   -9999.25   -9999.25   48.20290    0.00100    2.45540    2.55730   11.25970   13.53000    9.04010    0.14930
 2484.50000    9.27100    0.09080   -9999.25   -9999.25   51.37140    0.00110    2.43820    2.55540   11.73230   13.32580    9.37710    0.14100
 2485.00000    9.26910    0.09570   -9999.25   -9999.25   53.66650    0.00060    2.45540    2.54910   12.11070   13.80280    9.79470    0.14750
 2485.50000    9.27010    0.09800   -9999.25   -9999.25   51.98530    0.00000    2.47260    2.54290   12.03900   14.23450    9.81900    0.16510
 2486.00000    9.27110    0.10060   -9999.25   -9999.25   52.15730   -0.00050    2.48970    2.53950   11.85540   13.38500   10.15080    0.16730
 2486.50000    9.26540    0.09780   -9999.25   -9999.25   53.75070   -0.00060    2.50680    2.54290   11.74630   12.88620    9.89030    0.15630
 2487.00000    9.24960    0.09330   -9999.25   -9999.25   53.90320    0.00020    2.52360    2.54820   11.96830   13.14640    9.82090    0.15200
 2487.50000    9.23380    0.08990   -9999.25   -9999.25   49.87710    0.00100    2.54050    2.55550   12.23220   13.40650    9.94340    0.14180
 2488.00000    9.20650    0.08640   -9999.25   -9999.25   46.09510    0.00100    2.55590    2.55890   12.42360   13.97640   10.33060    0.14130
 2488.50000    9.19040    0.08930   -9999.25   -9999.25   44.81130   -0.00030    2.61250    2.56740   12.73450   14.87910   10.82610    0.13060
 2489.00000    9.15010    0.07510   -9999.25   -9999.25   42.65940   -0.00160    2.66900    2.58830   13.70910   15.78180   11.72420    0.12920
 2489.50000    9.12500    0.05520   -9999.25   -9999.25   38.48450   -0.00290    2.70080    2.60920   15.34820   16.91670   12.81550    0.11600
 2490.00000    9.09980    0.03750   -9999.25   -9999.25   36.59920   -0.00220    2.71790    2.63800   19.06850   21.21910   14.74260    0.10370
 2490.50000    9.07130    0.02340   -9999.25   -9999.25   34.49570   -0.00230    2.73140    2.66300   24.01060   25.52150   18.16700    0.09540
 2491.00000    9.07040    0.01750   -9999.25   -9999.25   31.05890   -0.00240    2.78200    2.68190   28.95270   29.82390   23.47210    0.08780
 2491.50000    9.07610    0.00670   -9999.25   -9999.25   26.24640   -0.00250    2.83260    2.70090   54.35290   63.10580   28.41970    0.07680
 2492.00000    9.08170   -0.00750   -9999.25   -9999.25   21.43390   -0.00260    2.88320    2.72230   93.39180  115.70730   46.30210    0.05880
 2492.50000    9.05230   -0.02050   -9999.25   -9999.25   17.76100   -0.00270    2.90280    2.74000  132.43070  168.14670   72.80770    0.04510
 2493.00000    8.99740   -0.02610   -9999.25   -9999.25   14.09010   -0.00280    2.97670    2.75410  156.81900  186.39140  126.39240    0.03540
 2493.50000    8.94240   -0.03000   -9999.25   -9999.25   12.88240   -0.00240    3.09530    2.76480  147.83830  175.12290  129.76610    0.03320
 2494.00000    8.91850   -0.04040   -9999.25   -9999.25   12.16230   -0.00110    3.15910    2.78510  125.38630  141.19480  106.67580    0.02980
 2494.50000    8.91240   -0.05280   -9999.25   -9999.25   13.00400    0.00010    3.14570    2.80540  102.93440  112.99230   89.98130    0.02900
 2495.00000    8.88550   -0.05140   -9999.25   -9999.25   14.49270    0.00110    3.09290    2.80570   80.48250   89.01980   70.38500    0.03280
 2495.50000    8.85850   -0.03550   -9999.25   -9999.25   15.77170   -0.00220    3.06860    2.77630   58.03060   69.24530   58.16990    0.03960
 2496.00000    8.84640   -0.01550   -9999.25   -9999.25   17.63120   -0.00560    3.03390    2.74700   42.88440   53.62130   45.95480    0.04650
 2496.50000    8.83810   -0.00090   -9999.25   -9999.25   17.79410   -0.00890    2.97980    2.71940   39.63160   46.52520   44.83480    0.05330
 2497.00000    8.83620    0.00820   -9999.25   -9999.25   15.07650   -0.00780    2.92560    2.70060   43.50960   46.70110   45.20810    0.05900
 2497.50000    8.83440    0.01430   -9999.25   -9999.25   13.23540   -0.00520    2.83480    2.68920   44.28520   47.27860   45.95480    0.05230
 2498.00000    8.83250    0.01760   -9999.25   -9999.25   14.31990   -0.00250    2.73040    2.68060   40.90330   44.18390   45.11230    0.05280
 2498.50000    8.83070    0.02080   -9999.25   -9999.25   17.79050   -0.00090    2.66360    2.66770   32.03840   36.88690   39.87700    0.05530
 2499.00000    8.82880    0.03090   -9999.25   -9999.25   19.69650    0.00040    2.63600    2.65130   23.17360   29.59000   31.64490    0.06580
 2499.50000    8.83440    0.04020   -9999.25   -9999.25   20.98540    0.00200    2.62280    2.64210   23.17360   23.75240   25.72120    0.07640
 2500.00000    8.84500    0.03680   -9999.25   -9999.25   23.21300    0.00360    2.62980    2.66190   25.27310   27.40580   23.75250    0.08690
 2500.50000    8.85560    0.01980   -9999.25   -9999.25   25.19430    0.00350    2.66260    2.67430   27.37270   29.84150   24.95380    0.08970
 2501.00000    8.86620    0.01980   -9999.25   -9999.25   27.67310    0.00080    2.71760    2.66430   25.36540   27.06940   24.47330    0.08740
 2501.50000    8.87680    0.04200   -9999.25   -9999.25   30.50860   -0.00180    2.73000    2.64020   22.01970   24.29730   23.09710    0.08790
 2502.00000    8.88000    0.06000   -9999.25   -9999.25   34.18400   -0.00310    2.73030    2.61620   18.67410   21.52530   20.55070    0.09720
 2502.50000    8.87220    0.06030   -9999.25   -9999.25   32.75080   -0.00420    2.73060    2.60690   18.33170   19.61860   18.78950    0.10460
 2503.00000    8.86740    0.05300   -9999.25   -9999.25   30.00940   -0.00250    2.74330    2.61820   20.58530   22.30400   20.52590    0.10390
 2503.50000    8.86720    0.04570   -9999.25   -9999.25   28.94430   -0.00080    2.76430    2.63520   25.07500   27.16840   23.03100    0.10220
