~Version ---------------------------------------------------
VERS.   2.0 : CWLS log ASCII Standard -VERSION 2.0
WRAP.    NO : One line per depth step
DLM . SPACE : Column Data Section Delimiter
~Well ------------------------------------------------------
STRT .FT                124.0 : START DEPTH
STOP .FT               8459.0 : STOP DEPTH
STEP .FT                  0.5 : STEP
NULL .               -9999.25 : NULL VALUE
COMP .                        : COMPANY
WELL .                        : WELL
FLD  .                        : FIELD
LOC  .                        : LOCATION
PROV .                        : PROVINCE
CNTY .                        : COUNTY
STAT .                        : STATE
CTRY .                        : COUNTRY
SRVC .                        : SERVICE COMPANY
DATE .                        : DATE
UWI  .                        : UNIQUE WELL ID
API  .                        : API NUMBER
SLAT .WGS84 2.824751013335998 : SURFACE LATITUDE
SLON .WGS84 8.884745930231006 : SURFACE LONGITUDE
DATUM.F                   nan : DEPTH DATUM ELEV
~Curve Information -----------------------------------------
DEPT   .FT    : 
CALD   .IN    : CALIPER FROM DENSITY LOG
DPHZ_LS.DEC   : HGRD STANDARD RESOLUTION DENSITY POROSITY
DT4P   .US/F  : DELTA-T COMPRESSIONAL - MONOPOLE P & S
DTSM   .US/F  : DELTA-T SHEAR
GRD    .GAPI  : GAMMA RAY FROM DENSITY LOG
HDRA   .G/C3  : HRDD SPINE AND RIBS DENSITY CORRECTION
PEFZ   .B/E   : HRDD STANDARD RESOLUTION FORMATION PHOTOELECTRIC FACTOR
RHOZ   .G/C3  : HRDD STANDARD RESOLUTION FORMATION DENSITY
RLA3   .OHMM  : APPARENT RESISTIVITY FROM COMPUTED FOCUSING MODE 3
RLA5   .OHMM  : APPARENT RESISTIVITY FROM COMPUTED FOCUSING MODE 5
RXOZ   .OHMM  : INVADED FORMATION RESISTIVITY FILTERED AT 18 INCHES
TNPH_LS.DEC   : THERMAL NEUTRON POROSITY [LIMESTONE]
~Params ----------------------------------------------------
~Other -----------------------------------------------------
~ASCII -----------------------------------------------------
# ...
 7992.00000    8.78470    0.05500   65.08340  109.79230   92.20410   -0.00040    2.61520    2.63240   12.58670   14.34640   13.46010    0.07780
 7992.50000    8.78290    0.07090   65.44720  109.97570   99.23680   -0.00210    2.65380    2.60610   13.88030   16.48090   12.94820    0.08170
 7993.00000    8.79010    0.07900   65.88920  110.59860  100.18590   -0.00320    2.66010    2.57990   15.32170   16.28330   13.98180    0.08910
 7993.50000    8.80800    0.07550   66.12300  110.97850  104.00690   -0.00380    2.66150    2.57570   16.06010   17.49270   15.01550    0.09270
 7994.00000    8.80800    0.07350   66.17320  111.81470  103.37650   -0.00440    2.66290    2.58230   16.79860   19.34410   16.67220    0.10040
 7994.50000    8.80800    0.07400   66.00870  112.58430  103.82450   -0.00430    2.66420    2.58260   17.53700   20.48870   18.74420    0.10140
 7995.00000    8.80800    0.07470   66.12790  111.54580  108.41760   -0.00170    2.66560    2.58710   16.88070   21.17550   19.18190    0.09700
 7995.50000    8.80400    0.06950   66.34740  111.79260  105.02770    0.00090    2.66170    2.59350   13.59930   19.03610   16.61200    0.08820
 7996.00000    8.79890    0.06460   66.16510  111.31600  102.09470    0.00350    2.63920    2.60280   11.79010   16.36200   14.04220    0.07860
 7996.50000    8.80420    0.05940   65.98000  110.90460  100.03910    0.00430    2.61850    2.60940   10.96230   13.97440   12.19490    0.07570
 7997.00000    8.80160    0.06290   66.25760  110.75690   97.58860    0.00230    2.57710    2.60710   10.76010   13.22970   12.27870    0.07560
 7997.50000    8.80610    0.06410   66.48720  110.79540   99.57440    0.00030    2.53570    2.60240   11.59800   13.63800   12.29010    0.07800
 7998.00000    8.80120    0.06830   66.47030  111.37710   99.70290   -0.00100    2.50290    2.59770   12.43590   14.65880   12.51280    0.07980
 7998.50000    8.78380    0.06870   66.91740  110.97740   98.08760   -0.00070    2.49090    2.59190   12.03250   15.47550   12.78700    0.08030
 7999.00000    8.76770    0.07070   67.19060  111.85080   96.47230   -0.00030    2.49090    2.59070   11.36020   13.81710   11.86760    0.07970
 7999.50000    8.77400    0.06990   66.62850  112.90260   95.41960    0.00010    2.49390    2.58990   11.45080   12.15870   10.33530    0.07910
 8000.00000    8.78030    0.06870   65.98200  111.54820   95.26410   -0.00070    2.50050    2.58480   11.90340   13.01220   10.44420    0.07850
 8000.50000    8.78650    0.07150   65.80570  111.48660   93.79370   -0.00220    2.50700    2.57650   11.70180   14.05210   10.71650    0.07890
 8001.00000    8.78020    0.08090   65.89410  112.16020   97.13510   -0.00370    2.52550    2.56820   10.97140   11.96810   10.93440    0.08080
 8001.50000    8.78380    0.08590   66.08480  111.96530   97.29270   -0.00490    2.54010    2.56150   10.24100   12.01290   10.54230    0.08270
 8002.00000    8.79140    0.08430   66.34600  111.47070   95.10200   -0.00430    2.52220    2.56450    9.58010   11.30990   10.05230    0.08420
 8002.50000    8.79890    0.08040   66.42070  111.74700   94.00140   -0.00370    2.50480    2.57210    9.19870   11.51760   10.05980    0.08450
 8003.00000    8.80650    0.07930   66.40620  111.87670   95.25450   -0.00310    2.50440    2.57920    9.25850   11.54070   10.27080    0.08330
 8003.50000    8.80770    0.08110   66.30640  112.03530   97.84880   -0.00250    2.51960    2.56980    9.53270   11.30990   10.82300    0.08540
 8004.00000    8.79350    0.07360   66.13680  112.50930  100.02620   -0.00190    2.53760    2.57480   12.02720   14.09160   11.95100    0.08570
 8004.50000    8.78890    0.06040   65.72290  112.46560  104.95740   -0.00120    2.53370    2.59590   14.52170   16.80500   13.61160    0.08420
 8005.00000    8.79640    0.05050   65.41170  111.64560  104.89260   -0.00090    2.53770    2.61710   17.01620   19.26250   16.07090    0.08030
 8005.50000    8.80540    0.04930   65.50260  110.93010  102.21830   -0.00240    2.56460    2.62600   19.54790   20.92160   18.05260    0.07650
 8006.00000    8.81440    0.05570   65.86450  110.25310  100.18590   -0.00240    2.55670    2.61920   16.98050   19.53790   17.92080    0.07570
 8006.50000    8.81330    0.06060   66.18730  109.52970   96.09130   -0.00250    2.54880    2.60910   13.77130   17.23180   15.59870    0.07860
 8007.00000    8.80560    0.06400   65.95430  108.80620   95.91510   -0.00080    2.50870    2.60170   12.42080   14.92560   13.27650    0.08090
 8007.50000    8.79790    0.06580   66.51840  108.75570  102.97560   -0.00050    2.47860    2.59800   12.47610   15.04640   13.78470    0.08100
 8008.00000    8.79690    0.06750   66.60340  109.58110  100.77320   -0.00030    2.51610    2.59180   12.62240   15.10680   13.61750    0.08050
 8008.50000    8.79600    0.07080   66.26310  110.48100  102.38830    0.00000    2.55460    2.58910   12.32990   14.56240   14.31230    0.08060
 8009.00000    8.79510    0.07090   66.01070  111.16750  101.83560    0.00060    2.58870    2.58700   12.21290   14.01800   13.71700    0.08060
 8009.50000    8.79420    0.07110   66.17320  111.67860  106.92250    0.00170    2.60830    2.59040   12.61850   14.54020   13.35980    0.08280
 8010.00000    8.78560    0.06470   66.10660  112.05910  110.69340    0.00280    2.61570    2.59910   13.12560   15.63450   13.79340    0.08500
 8010.50000    8.78840    0.05650   65.90290  111.79600  111.47080    0.00380    2.61820    2.60780   13.53130   15.36610   14.37610    0.08660
 8011.00000    8.79130    0.05290   65.87100  111.53290  109.77640    0.00360    2.60790    2.61640   12.46530   13.90820   14.12510    0.08540
 8011.50000    8.79940    0.05260   65.82820  111.26980  106.36770    0.00340    2.58120    2.61820   10.95910   12.45030   13.20600    0.08320
 8012.00000    8.80130    0.05590   65.90510  110.86360  103.92510    0.00320    2.55450    2.62070   11.30360   12.86370   12.47080    0.08100
 8012.50000    8.79160    0.05000   65.75870  110.64940  102.57930    0.00250    2.52780    2.62660   12.36100   14.80900   13.11120    0.07880
 8013.00000    8.78770    0.04620   65.64180  110.64040  100.50320    0.00110    2.52930    2.63040   13.57280   17.35470   16.05340    0.07760
 8013.50000    8.78760    0.05160   65.46530  110.21150   96.33390   -0.00030    2.56500    2.62240   14.78460   18.43300   17.81860    0.07630
 8014.00000    8.77520    0.06200   65.13580  109.70360   94.42810    0.00020    2.60190    2.60550   15.26930   17.43640   16.12030    0.07500
 8014.50000    8.79810    0.06510   64.32410  108.45950   93.00400    0.00040    2.61360    2.59850   13.94440   16.43970   15.71910    0.07360
 8015.00000    8.82090    0.06210   64.03720  106.64310   91.60390    0.00030    2.60450    2.60380   12.61940   14.86410   14.21660    0.07360
 8015.50000    8.80860    0.05970   64.26940  107.84350   89.81870    0.00010    2.59380    2.60730   11.29450   13.14370   12.71420    0.07910
 8016.00000    8.79980    0.06290   64.87840  108.79860   87.14070    0.00060    2.60010    2.60240   11.55240   12.45560   11.21170    0.07900
 8016.50000    8.80790    0.06520   65.41350  108.82650   85.46700    0.00140    2.59200    2.59640   12.14220   13.47130   11.86160    0.07850
 8017.00000    8.79590    0.06690   65.65320  109.69430   90.47910    0.00220    2.58490    2.59980   10.97330   12.08560   11.12810    0.07930
 8017.50000    8.78380    0.05750   65.89300  111.26310   98.84400    0.00310    2.57050    2.61590   10.91300   13.24170   11.66660    0.08140
 8018.00000    8.77730    0.04860   65.99670  109.22480  104.05060    0.00270    2.55320    2.63200   13.43770   15.94930   15.66860    0.08350
 8018.50000    8.78720    0.03720   65.66110  110.97790  103.49370    0.00280    2.53600    2.64520   15.92760   18.54440   17.37780    0.08390
 8019.00000    8.78340    0.03880   65.36090  112.85510  100.83390    0.00300    2.52430    2.63950   14.46740   15.81310   16.74910    0.08210
 8019.50000    8.78620    0.04820   65.20070  110.21260   92.75270    0.00200    2.50560    2.61320   13.13480   13.61940   16.12030    0.08040
