~Version ---------------------------------------------------
VERS.   2.0 : CWLS log ASCII Standard -VERSION 2.0
WRAP.    NO : One line per depth step
DLM . SPACE : Column Data Section Delimiter
~Well ------------------------------------------------------
STRT .FT                124.0 : START DEPTH
STOP .FT               8459.0 : STOP DEPTH
STEP .FT                  0.5 : STEP
NULL .               -9999.25 : NULL VALUE
COMP .                        : COMPANY
WELL .                        : WELL
FLD  .                        : FIELD
LOC  .                        : LOCATION
PROV .                        : PROVINCE
CNTY .                        : COUNTY
STAT .                        : STATE
CTRY .                        : COUNTRY
SRVC .                        : SERVICE COMPANY
DATE .                        : DATE
UWI  .                        : UNIQUE WELL ID
API  .                        : API NUMBER
SLAT .WGS84 2.824751013335998 : SURFACE LATITUDE
SLON .WGS84 8.884745930231006 : SURFACE LONGITUDE
DATUM.F                   nan : DEPTH DATUM ELEV
~Curve Information -----------------------------------------
DEPT   .FT    : 
CALD   .IN    : CALIPER FROM DENSITY LOG
DPHZ_LS.DEC   : HGRD STANDARD RESOLUTION DENSITY POROSITY
DT4P   .US/F  : DELTA-T COMPRESSIONAL - MONOPOLE P & S
DTSM   .US/F  : DELTA-T SHEAR
GRD    .GAPI  : GAMMA RAY FROM DENSITY LOG
HDRA   .G/C3  : HRDD SPINE AND RIBS DENSITY CORRECTION
PEFZ   .B/E   : HRDD STANDARD RESOLUTION FORMATION PHOTOELECTRIC FACTOR
RHOZ   .G/C3  : HRDD STANDARD RESOLUTION FORMATION DENSITY
RLA3   .OHMM  : APPARENT RESISTIVITY FROM COMPUTED FOCUSING MODE 3
RLA5   .OHMM  : APPARENT RESISTIVITY FROM COMPUTED FOCUSING MODE 5
RXOZ   .OHMM  : INVADED FORMATION RESISTIVITY FILTERED AT 18 INCHES
TNPH_LS.DEC   : THERMAL NEUTRON POROSITY [LIMESTONE]
~Params ----------------------------------------------------
~Other -----------------------------------------------------
~ASCII -----------------------------------------------------
# ...
 5864.00000    8.73570   -0.00790   53.31460   85.16320   26.61180    0.00900    4.63550    2.71380 1282.13920 1451.55980 1118.64000    0.01390
 5864.50000    8.72980    0.00000   53.36740   94.82850   26.71560    0.00970    4.67270    2.70810 1174.20960 1203.54760 1185.22060    0.01350
 5865.00000    8.73470   -0.00260   53.33600   94.85890   23.54200    0.01040    4.68780    2.72010 1296.26590 1376.51400 1206.62520    0.01300
 5865.50000    8.73050   -0.01300   53.35610   95.03590   21.46720    0.01310    4.70720    2.73640 1685.14330 1771.57300 1199.65490    0.01110
 5866.00000    8.73810   -0.01730   53.39100   95.30420   21.85820    0.01130    4.68030    2.73580 1996.24520 2008.60840 1249.22270    0.01060
 5866.50000    8.73400   -0.01270   53.34860   95.51890   23.45000    0.00960    4.66170    2.72390 2312.63440 3168.44880 1219.62960    0.01170
 5867.00000    8.72990   -0.00070   53.28750   95.33970   24.38460    0.00640    4.63540    2.70820 1908.00290 2415.24460 1278.22030    0.01230
 5867.50000    8.72680    0.00660   53.25640   95.16060   25.90650    0.00230    4.67870    2.69640 1466.79110 1632.58060 1208.32840    0.01380
 5868.00000    8.72540    0.01150   53.39740   95.26600   27.20150   -0.00190    4.65220    2.69030 1328.43940 1391.36830 1100.37980    0.01420
 5868.50000    8.72390    0.01400   53.47910   95.23040   27.05460   -0.00520    4.65630    2.68290 1243.10380 1329.24630  993.32020    0.01440
 5869.00000    8.72250    0.01690   53.49670   94.49290   28.81650   -0.00440    4.66980    2.68130 1218.49040 1280.15140 1002.92480    0.01470
 5869.50000    8.72100    0.01340   53.49820   93.53290   25.72180   -0.00010    4.68330    2.70460 1476.64610 1787.42780 1082.32270    0.01470
 5870.00000    8.71950    0.00020   53.48740   94.70620   25.19570    0.00420    4.69680    2.72300 1830.30220 2429.26360 1133.97040    0.01440
 5870.50000    8.72750   -0.01130   53.38970   94.86070   24.65590    0.00640    4.68040    2.72900 2614.12150 4133.09990 1180.58690    0.01350
 5871.00000    8.73470   -0.00280   53.27590   94.65390   23.70310    0.00140    4.67240    2.70790 2719.63810 3671.29000 1204.37680    0.01200
 5871.50000    8.72910    0.00990   53.20580   94.44710   23.50220   -0.00350    4.70020    2.68150 2243.83670 2901.60690 1246.67200    0.01340
 5872.00000    8.73000    0.01800   53.02430   94.50200   22.94530   -0.00240    4.72690    2.67990 1983.97610 2131.92380 1276.34890    0.01510
 5872.50000    8.73510    0.01180   53.52430   96.15060   24.11420    0.00200    4.71080    2.70380 1710.87690 1976.02900 1197.30290    0.01680
 5873.00000    8.74030   -0.00250   53.99600   94.88530   28.14520    0.00640    4.61680    2.71330 1780.99890 1968.90720 1305.75300    0.01850
 5873.50000    8.74540    0.00540   54.19710   95.78740   36.31720    0.00730    4.50180    2.69990 1971.76460 2314.36950 1196.72640    0.02020
 5874.00000    8.72390    0.01870   54.59710   95.89260   43.71470    0.00480    4.42430    2.67760 2657.00680 3825.93260 1249.47820    0.02190
 5874.50000    8.72540    0.02600   55.05640   95.91960   45.26380    0.00230    4.37190    2.66760 3434.58090 7132.18720 1081.81330    0.02360
 5875.00000    8.72600    0.01790   55.35160   95.57080   44.09650   -0.00020    4.31940    2.66680 3634.66890 7984.01780 1000.84430    0.02300
 5875.50000    8.72600    0.01510   55.49980   95.14850   40.80200    0.00130    4.28620    2.68360 3634.66890 7691.50180  912.34950    0.02170
 5876.00000    8.72600    0.02270   55.17620   94.85710   35.50480    0.00150    4.33700    2.67610 3718.23890 7515.99210  955.09200    0.01930
 5876.50000    8.72600    0.01670   54.59580   94.55570   27.20340    0.00170    4.33820    2.69610 3748.55290 7463.69800  948.33590    0.01610
 5877.00000    8.72600    0.00040   54.33430   94.59800   22.80900    0.00400    4.33950    2.71600 3354.49080 5329.64400  794.77070    0.01300
 5877.50000    8.72960   -0.01480   53.99940   93.94590   22.14900    0.00620    4.31600    2.73590 2635.44730 3536.04050  766.44920    0.01120
 5878.00000    8.72830   -0.00940   53.61570   93.96610   22.99470    0.00850    4.29730    2.72580 2060.21250 2101.15780  829.10350    0.01150
 5878.50000    8.72850   -0.00180   53.38410   94.13140   23.19720    0.00500    4.32470    2.70820 1687.03590 1732.11840  904.01270    0.01190
 5879.00000    8.73750    0.00460   53.49260   94.51430   22.60560    0.00160    4.35690    2.70410 1707.99690 1865.23890  967.05700    0.01260
 5879.50000    8.74360    0.00120   53.36170   94.45100   21.94120   -0.00180    4.37570    2.71080 1873.45850 1983.97610 1120.28810    0.01320
 5880.00000    8.73790   -0.00360   53.27410   94.69240   23.48740    0.00110    4.36370    2.71650 2257.58170 2501.39190 1025.46130    0.01340
 5880.50000    8.73220   -0.00120   53.42050   94.61340   27.05620    0.00630    4.33580    2.71340 2523.62240 3245.93330  988.41680    0.01390
 5881.00000    8.72650   -0.00100   53.49070   94.41600   28.10050    0.01160    4.30800    2.70880 2968.79550 5482.56920  829.09010    0.01450
 5881.50000    8.72090    0.00050   53.55470   94.41300   27.59370    0.01820    4.36920    2.70190 4130.49790 10315.49710  958.82510    0.01480
 5882.00000    8.72130    0.00830   53.59230   94.37580   23.10390    0.01310    4.45210    2.68710 4637.96380 14784.39470  955.31320    0.01430
 5882.50000    8.74630    0.01940   53.93040   94.01170   22.07380    0.00790    4.51410    2.66050 4566.89000 14863.15050 1087.63490    0.01250
 5883.00000    8.74750    0.03800   54.35440   94.35830   21.26230    0.00170    4.56980    2.64850 4884.75810 18743.82600 1104.15440    0.01180
 5883.50000    8.74880    0.03670   54.70570   95.14990   21.21440   -0.00020    4.63040    2.64700 4901.04220 18830.74230 1133.82390    0.01370
 5884.00000    8.75980    0.03430   54.87270   94.28160   21.39030   -0.00210    4.67640    2.65850 4664.59450 15384.64850 1194.32450    0.01580
 5884.50000    8.75690    0.02530   54.61960   95.30020   22.02100   -0.00170    4.72990    2.67420 4428.14690 14896.18110 1164.66240    0.01680
 5885.00000    8.75390    0.01250   55.03370   95.80460   23.13460    0.00150    4.77820    2.69590 4797.99490 15237.76040 1016.35370    0.01780
 5885.50000    8.76710    0.00250   55.13410   95.89200   25.58030    0.00440    4.80460    2.70690 4194.04530 11178.03050  792.31170    0.01750
 5886.00000    8.76800   -0.00120   54.56300   95.68250   28.78700    0.00740    4.83110    2.71790 3590.09580 7118.30060  691.12180    0.01690
 5886.50000    8.76390   -0.00500   54.05760   95.47300   32.21960    0.00830    4.81780    2.71810 3870.00370 8520.86980  772.46750    0.01660
 5887.00000    8.74870   -0.00310   53.97500   95.86880   29.72760    0.00680    4.74790    2.71090 4149.91170 9983.59380 1041.38880    0.01630
 5887.50000    8.74640    0.00130   54.45840   95.91460   29.28280    0.00540    4.65660    2.70370 4373.83810 9903.67740 1146.56390    0.01650
 5888.00000    8.74420    0.00830   54.89630   95.94110   29.05370    0.00400    4.52320    2.69650 4240.95510 9923.43910 1124.81950    0.01660
 5888.50000    8.74190    0.01100   54.81120   96.41200   28.20210    0.00240    4.44970    2.68920 4538.82150 11918.58700 1060.25280    0.01620
 5889.00000    8.73970    0.01310   54.56840   96.74050   27.31600    0.00070    4.49270    2.68550 4179.08030 12276.07930  953.72230    0.01670
 5889.50000    8.73750    0.01430   54.88710   96.41490   27.67360   -0.00110    4.55370    2.68450 3579.51170 6948.38570  757.61760    0.01760
 5890.00000    8.73520    0.01330   54.69890   96.45740   29.47040    0.00140    4.55940    2.68750 3657.44130 8387.44650  684.03160    0.01770
 5890.50000    8.73300    0.01320   54.56230   96.63680   30.83600    0.00560    4.54400    2.69920 3987.18020 10186.27240  723.43550    0.01610
 5891.00000    8.73070    0.00730   54.55740   96.81620   31.48450    0.00970    4.52860    2.69040 3798.13260 8430.07600  866.16220    0.01520
 5891.50000    8.72910    0.01160   54.74300   96.75160   34.91090    0.01140    4.51320    2.67680 3546.06920 7248.49280  845.01370    0.01660
