~Version ---------------------------------------------------
VERS.   2.0 : CWLS log ASCII Standard -VERSION 2.0
WRAP.    NO : One line per depth step
DLM . SPACE : Column Data Section Delimiter
~Well ------------------------------------------------------
STRT .FT                124.0 : START DEPTH
STOP .FT               8459.0 : STOP DEPTH
STEP .FT                  0.5 : STEP
NULL .               -9999.25 : NULL VALUE
COMP .                        : COMPANY
WELL .                        : WELL
FLD  .                        : FIELD
LOC  .                        : LOCATION
PROV .                        : PROVINCE
CNTY .                        : COUNTY
STAT .                        : STATE
CTRY .                        : COUNTRY
SRVC .                        : SERVICE COMPANY
DATE .                        : DATE
UWI  .                        : UNIQUE WELL ID
API  .                        : API NUMBER
SLAT .WGS84 2.824751013335998 : SURFACE LATITUDE
SLON .WGS84 8.884745930231006 : SURFACE LONGITUDE
DATUM.F                   nan : DEPTH DATUM ELEV
~Curve Information -----------------------------------------
DEPT   .FT    : 
CALD   .IN    : CALIPER FROM DENSITY LOG
DPHZ_LS.DEC   : HGRD STANDARD RESOLUTION DENSITY POROSITY
DT4P   .US/F  : DELTA-T COMPRESSIONAL - MONOPOLE P & S
DTSM   .US/F  : DELTA-T SHEAR
GRD    .GAPI  : GAMMA RAY FROM DENSITY LOG
HDRA   .G/C3  : HRDD SPINE AND RIBS DENSITY CORRECTION
PEFZ   .B/E   : HRDD STANDARD RESOLUTION FORMATION PHOTOELECTRIC FACTOR
RHOZ   .G/C3  : HRDD STANDARD RESOLUTION FORMATION DENSITY
RLA3   .OHMM  : APPARENT RESISTIVITY FROM COMPUTED FOCUSING MODE 3
RLA5   .OHMM  : APPARENT RESISTIVITY FROM COMPUTED FOCUSING MODE 5
RXOZ   .OHMM  : INVADED FORMATION RESISTIVITY FILTERED AT 18 INCHES
TNPH_LS.DEC   : THERMAL NEUTRON POROSITY [LIMESTONE]
~Params ----------------------------------------------------
~Other -----------------------------------------------------
~ASCII -----------------------------------------------------
# ...
 8412.00000    8.66310    0.05460   63.81010   -9999.25   81.08670   -0.00060    2.60020    2.62290   33.87930   41.28620   26.76630    0.05270
 8412.50000    8.66310    0.04820   63.00930   -9999.25   -9999.25   -0.00100    2.62290    2.62700   39.44680   46.94010   30.10850    0.05200
 8413.00000    8.66300    0.04560   63.76250   -9999.25   -9999.25   -0.00020    2.58880    2.63100   37.20020   46.24090   30.30030    0.04880
 8413.50000    8.66300    0.04900   64.66070   -9999.25   -9999.25    0.00130    2.51070    2.63180   33.45570   41.66590   27.49240    0.05200
 8414.00000    8.66300    0.05230   65.21720   -9999.25   -9999.25    0.00290    2.46700    2.62110   29.53240   37.09080   25.26930    0.05610
 8414.50000    8.66290    0.04910   65.22200   -9999.25   -9999.25    0.00410    2.46510    2.62740   28.82860   35.99240   23.96420    0.05930
 8415.00000    8.66370    0.04170   64.67360   -9999.25   -9999.25    0.00300    2.49430    2.63790   27.72740   36.16450   22.92010    0.06090
 8415.50000    8.66470    0.03550   63.92670   -9999.25   -9999.25    0.00190    2.53730    2.64850   26.56730   35.77390   22.92010    0.06360
 8416.00000    8.66570    0.03270   62.82760   -9999.25   -9999.25    0.00080    2.55760    2.65380   28.53440   35.34380   23.65890    0.06620
 8416.50000    8.66680    0.03240   62.15800   -9999.25   -9999.25    0.00100    2.89670    2.66440   50.26620   66.10840   28.27520    0.06780
 8417.00000    8.66780    0.02490   62.00600   -9999.25   -9999.25    0.00320    3.22810    2.67420  118.13250  115.94440   42.92400    0.06190
 8417.50000    8.66880    0.01330   61.79750   -9999.25   -9999.25    0.00550    3.41970    2.68340  159.81250  201.92720   60.11840    0.05090
 8418.00000    8.66980    0.00660   62.37000  102.17880   -9999.25    0.00610    3.36540    2.69260   77.15760  138.31440   50.35790    0.04250
 8418.50000    8.67080    0.01440   63.12010  102.36580   -9999.25    0.00360    3.14240    2.69490   41.59430   41.66530   33.45200    0.04070
 8419.00000    8.67630    0.03030   63.96840  103.11660   -9999.25    0.00100    2.83200    2.67100   36.47640   37.09080   24.89070    0.03870
 8419.50000    8.67450    0.04090   63.14110  103.30370   -9999.25   -0.00160    2.72640    2.64710   37.59310   38.94640   24.89070   -9999.25
 8420.00000    8.67260    0.04710   62.15570  102.65850   -9999.25   -0.00120    2.75390    2.62760   37.48050   38.90780   25.51850   -9999.25
 8420.50000    8.67070    0.05090   60.33540  102.09640   -9999.25   -0.00080    2.97740    2.63640   36.47250   37.09080   28.67690   -9999.25
 8421.00000    8.66890    0.03740   58.41140   97.14850   -9999.25   -0.00040    3.20080    2.66470   55.82410   65.88160   46.46620   -9999.25
 8421.50000    8.68490    0.01590   56.48740   94.76950   -9999.25    0.02170    4.04800    2.69300  101.41190  115.24780   99.71880   -9999.25
 8422.00000    8.74100   -0.00880   54.46170   95.92750   -9999.25    0.03730    4.51870    2.72120  670.45340 1022.58010  110.53770   -9999.25
 8422.50000    8.81690   -0.00900   53.03870   97.85630   -9999.25    0.04740    4.96020    2.73260  586.68330  860.55790   79.47630   -9999.25
 8423.00000    8.87510    0.00510   53.01960   99.78500   -9999.25    0.05330    4.98030    2.70200  453.77980  610.95330   61.66390   -9999.25
 8423.50000    8.91840    0.01580   53.03920  101.71380   -9999.25    0.04900    4.98030    2.68350  269.71640  435.68570   77.88710   -9999.25
 8424.00000    8.85190    0.01040   52.83300  102.86240   -9999.25    0.04480    4.98030    2.68720  308.92750  360.25990  104.27210   -9999.25
 8424.50000    8.66420    0.00440   52.69800  103.05220   -9999.25    0.04060    4.98030    2.70380  406.95540  599.36840  142.46790   -9999.25
 8425.00000    8.67280    0.00630   53.32870  102.86650   -9999.25    0.02980    4.98030    2.70350  504.98330  742.83350  132.76910   -9999.25
 8425.50000    8.64560    0.00590   53.66380  100.54440   -9999.25    0.01740    4.94020    2.69780  492.62630  678.19320  134.21740   -9999.25
 8426.00000    8.62340    0.00620   53.87510   98.23940   -9999.25    0.01200    4.90000    2.70440  430.84110  608.52590  154.53040   -9999.25
 8426.50000    8.63450    0.00330   53.09940   96.85720   -9999.25    0.00830    4.77960    2.69890  369.05590  525.91200  150.26110   -9999.25
 8427.00000    8.62850    0.01270   52.69810   97.46090   -9999.25    0.00470    4.67120    2.68410  257.01260  391.51150  136.82620   -9999.25
 8427.50000    8.62260    0.01940   52.55390   97.80080   -9999.25    0.00110    4.65950    2.67700  330.72190  406.58740  150.91850   -9999.25
 8428.00000    8.61670    0.01690   52.46740   97.33320   -9999.25    0.00290    4.66760    2.69230  420.91670  500.41600  200.91920   -9999.25
 8428.50000    8.62680    0.00470   52.65390   96.86520   -9999.25    0.00610    4.70670    2.71560  511.11150  594.24470  217.92970   -9999.25
 8429.00000    8.61570   -0.00740   53.09950   96.39730   -9999.25    0.00930    4.73540    2.72600  594.27980  708.03680  236.66590   -9999.25
 8429.50000    8.61770   -0.00020   -9999.25   -9999.25   -9999.25    0.01120    4.71790    2.72650  576.62990  823.02670  224.59760   -9999.25
 8430.00000    8.62010    0.02420   -9999.25   -9999.25   -9999.25    0.00810    4.62990    2.66050  310.96420  533.73080  153.15670   -9999.25
 8430.50000    8.60890    0.05150   -9999.25   -9999.25   -9999.25    0.00510    4.55350    2.59460  138.93730  225.19600    4.66450   -9999.25
 8431.00000    8.61670    0.07610   -9999.25   -9999.25   -9999.25    0.00210    4.51830    2.57060  117.14890  125.15800    3.85580   -9999.25
 8431.50000    8.62470    0.07950   -9999.25   -9999.25   -9999.25    0.00310    4.54550    2.58050   99.71820  115.94440    3.32400   -9999.25
 8432.00000    8.61500    0.05650   -9999.25   -9999.25   -9999.25    0.00420    4.63520    2.62670  235.82570  178.93440   10.80050   -9999.25
 8432.50000    8.61490    0.02120   -9999.25   -9999.25   -9999.25    0.00520    4.72490    2.66830  405.96010  549.23440   54.43480   -9999.25
 8433.00000    8.61030    0.00470   -9999.25   -9999.25   -9999.25    0.00510    4.89510    2.69200  542.88290  770.20400  129.78730   -9999.25
 8433.50000    8.61080    0.00880   -9999.25   -9999.25   -9999.25    0.00470    4.97220    2.69650  474.30130  621.74400  178.99560   -9999.25
 8434.00000    8.61250    0.00780   -9999.25   -9999.25   -9999.25    0.00430    5.03480    2.70670  337.13810  343.29150  243.40370   -9999.25
 8434.50000    8.60960   -0.00200   -9999.25   -9999.25   -9999.25    0.00280    4.98460    2.72080  377.95490  472.66710  246.40700   -9999.25
 8435.00000    8.60660   -0.01630   -9999.25   -9999.25   -9999.25    0.00430    4.88430    2.73690  561.58450  726.57420  249.41030   -9999.25
 8435.50000    8.60940   -0.02660   -9999.25   -9999.25   -9999.25    0.00570    4.77780    2.75430  674.51190 1048.31680  252.41360   -9999.25
 8436.00000    8.61220   -0.03140   -9999.25   -9999.25   -9999.25    0.00720    4.75520    2.76270  658.62730  942.76020  255.41700   -9999.25
 8436.50000    8.61500   -0.03290   -9999.25   -9999.25   -9999.25    0.00890    4.84880    2.76490   -9999.25   -9999.25   -9999.25   -9999.25
 8437.00000    8.61420   -0.03010   -9999.25   -9999.25   -9999.25    0.01080    4.94240    2.75860   -9999.25   -9999.25   -9999.25   -9999.25
 8437.50000    8.60790   -0.02560   -9999.25   -9999.25   -9999.25    0.01270    5.03600    2.75000   -9999.25   -9999.25   -9999.25   -9999.25
 8438.00000    8.60820   -0.02010   -9999.25   -9999.25   -9999.25    0.01310    5.00100    2.74140   -9999.25   -9999.25   -9999.25   -9999.25
 8438.50000    8.61020   -0.01690   -9999.25   -9999.25   -9999.25    0.01300    4.96610    2.73970   -9999.25   -9999.25   -9999.25   -9999.25
 8439.00000    8.61220   -0.01970   -9999.25   -9999.25   -9999.25    0.01290    4.93110    2.74440   -9999.25   -9999.25   -9999.25   -9999.25
 8439.50000    8.61420   -0.02140   -9999.25   -9999.25   -9999.25    0.01280    4.89620    2.74280   -9999.25   -9999.25   -9999.25   -9999.25
