~Version ---------------------------------------------------
VERS.   2.0 : CWLS log ASCII Standard -VERSION 2.0
WRAP.    NO : One line per depth step
DLM . SPACE : Column Data Section Delimiter
~Well ------------------------------------------------------
STRT .FT                124.0 : START DEPTH
STOP .FT               8459.0 : STOP DEPTH
STEP .FT                  0.5 : STEP
NULL .               -9999.25 : NULL VALUE
COMP .                        : COMPANY
WELL .                        : WELL
FLD  .                        : FIELD
LOC  .                        : LOCATION
PROV .                        : PROVINCE
CNTY .                        : COUNTY
STAT .                        : STATE
CTRY .                        : COUNTRY
SRVC .                        : SERVICE COMPANY
DATE .                        : DATE
UWI  .                        : UNIQUE WELL ID
API  .                        : API NUMBER
SLAT .WGS84 2.824751013335998 : SURFACE LATITUDE
SLON .WGS84 8.884745930231006 : SURFACE LONGITUDE
DATUM.F                   nan : DEPTH DATUM ELEV
~Curve Information -----------------------------------------
DEPT   .FT    : 
CALD   .IN    : CALIPER FROM DENSITY LOG
DPHZ_LS.DEC   : HGRD STANDARD RESOLUTION DENSITY POROSITY
DT4P   .US/F  : DELTA-T COMPRESSIONAL - MONOPOLE P & S
DTSM   .US/F  : DELTA-T SHEAR
GRD    .GAPI  : GAMMA RAY FROM DENSITY LOG
HDRA   .G/C3  : HRDD SPINE AND RIBS DENSITY CORRECTION
PEFZ   .B/E   : HRDD STANDARD RESOLUTION FORMATION PHOTOELECTRIC FACTOR
RHOZ   .G/C3  : HRDD STANDARD RESOLUTION FORMATION DENSITY
RLA3   .OHMM  : APPARENT RESISTIVITY FROM COMPUTED FOCUSING MODE 3
RLA5   .OHMM  : APPARENT RESISTIVITY FROM COMPUTED FOCUSING MODE 5
RXOZ   .OHMM  : INVADED FORMATION RESISTIVITY FILTERED AT 18 INCHES
TNPH_LS.DEC   : THERMAL NEUTRON POROSITY [LIMESTONE]
~Params ----------------------------------------------------
~Other -----------------------------------------------------
~ASCII -----------------------------------------------------
# ...
 7152.00000    8.74490    0.03840   57.40230  100.97730   33.85600    0.00500    4.13400    2.64730 1753.62370 2488.36490 1268.64280    0.05290
 7152.50000    8.75080    0.03790   57.85600  101.43640   35.43780    0.00350    4.15200    2.65210 1732.11840 2518.60630 1248.14750    0.05140
 7153.00000    8.75030    0.03060   58.06770  101.76730   35.21320    0.00200    4.18490    2.65690 1670.41930 2353.53860 1215.60650    0.05010
 7153.50000    8.74980    0.02960   58.37660  101.48430   36.16630    0.00160    4.17920    2.65980 1569.27530 2113.87800 1079.09150    0.04740
 7154.00000    8.74930    0.03130   58.95410  101.31600   39.09900    0.00190    4.15880    2.65980 1559.61630 2365.86260 1141.33200    0.04820
 7154.50000    8.74880    0.03670   58.36990  101.68620   40.19180    0.00220    4.16700    2.64320 1608.48410 2564.64640 1148.62370    0.04810
 7155.00000    8.74820    0.03900   57.97590  101.30550   39.31160    0.00250    4.18920    2.63840 1799.24150 3291.57680 1190.90300    0.04700
 7155.50000    8.74800    0.04040   57.65390  101.39240   36.29870    0.00270    4.23810    2.64040 1971.76460 4311.61220  971.43360    0.04430
 7156.00000    8.75600    0.03760   57.38370  101.24700   34.43250    0.00270    4.31100    2.64370 1947.58420 3628.10260  684.58290    0.03960
 7156.50000    8.76570    0.04000   57.78340   98.97690   35.05480    0.00270    4.36420    2.64710 1833.15580 2944.59300  642.27100    0.04160
 7157.00000    8.76090    0.03530   58.21490  100.10560   34.93340    0.00260    4.38780    2.65040 1705.10460 2757.45780  623.22100    0.04670
 7157.50000    8.75610    0.03280   58.41900  101.54620   37.42050    0.00210    4.39080    2.64980 1890.66160 3406.65440  709.56040    0.05110
 7158.00000    8.75120    0.03570   58.86070  101.76110   36.19530    0.00170    4.31160    2.64640 1996.24520 3121.38000  605.44050    0.05230
 7158.50000    8.76110    0.04130   58.84050  101.72790   37.25310    0.00120    4.33640    2.65170 1618.44580 2611.55320  483.14430    0.04910
 7159.00000    8.75190    0.03470   57.90770  100.93460   34.79250    0.00260    4.47560    2.66170 1681.41240 3666.17200  430.22260    0.04490
 7159.50000    8.74120    0.02200   57.79470  100.78380   32.07420    0.00620    4.64340    2.67160 1996.24520 6263.13430  477.37380    0.04140
 7160.00000    8.74550    0.01120   57.83710  100.85090   29.84900    0.00980    4.73970    2.68150 1935.62460 3639.54820  674.46630    0.03290
 7160.50000    8.73550    0.01280   57.35330  101.24480   32.56260    0.00980    4.75980    2.68630 1439.87910 1837.96430  876.68250    0.02620
 7161.00000    8.74560    0.01540   57.56710  101.12900   39.55310    0.00910    4.79930    2.69120  633.51050 1107.90490  825.53940    0.03190
 7161.50000    8.75570    0.00790   57.92810  101.13150   48.30910    0.00840    4.80880    2.69790  629.61050  815.90040  562.63680    0.04160
 7162.00000    8.76580    0.00730   58.11430  101.12190   51.13370    0.00710    4.68610    2.69440  808.38420 1089.73280  554.15990    0.05120
 7162.50000    8.75710    0.01590   58.11220  101.37860   51.13370    0.00540    4.60970    2.67630  897.09540 1412.99070  610.28330    0.05450
 7163.00000    8.77980    0.02780   58.16190  102.37810   47.84720    0.00370    4.58640    2.66120  867.81850 1288.07960  655.55310    0.05460
 7163.50000    8.80390    0.02720   58.87200  102.67040   44.93060    0.00350    4.65050    2.66530 1031.48810 1628.46910  600.00840    0.05380
 7164.00000    8.81400    0.02000   59.36870  102.42600   40.68660    0.00400    4.71100    2.67860  921.91270 1337.85770  503.35460    0.05110
 7164.50000    8.82780    0.01160   58.81470  102.50550   37.43960    0.00450    4.66890    2.69010  792.86810 1044.30410  521.45850    0.04820
 7165.00000    8.84430    0.01180   58.26060  102.12160   40.55950    0.00490    4.58370    2.68750  901.80960 1057.26970  413.97860    0.04540
 7165.50000    8.86070    0.01790   57.62190  101.82520   37.76550    0.00460    4.38430    2.67850 1103.93540 1550.03070  450.17310    0.04250
 7166.00000    8.84860    0.02370   57.19330  102.58050   41.11310    0.00380    4.26440    2.66950  957.14940 1337.96970  340.77480    0.03840
 7166.50000    8.86350    0.02610   58.04820  103.02000   42.57240    0.00300    4.21190    2.66600  712.50620  925.54290  271.25540    0.04250
 7167.00000    8.83970    0.02380   58.17030  103.41720   46.41700    0.00210    4.23660    2.66290  513.61540  595.60140  229.72840    0.04970
 7167.50000    8.81590    0.02840   58.66050  103.75240   44.65260    0.00260    4.28700    2.65590  538.84650  651.32580  240.77340    0.05500
 7168.00000    8.79210    0.03380   59.26030  103.74780   42.51120    0.00320    4.31470    2.64900  614.26360  725.62490  254.13830    0.05960
 7168.50000    8.78250    0.03840   60.16840  103.42640   40.34790    0.00380    4.24990    2.64450  578.05840  690.67370  243.62980    0.05880
 7169.00000    8.77530    0.03560   60.37080  103.10500   41.05180    0.00360    4.15860    2.64720  590.51630  721.15860  260.01580    0.05480
 7169.50000    8.76800    0.03370   60.10770  102.78360   42.86410    0.00090    4.08130    2.65120  666.91740  800.92270  252.52950    0.05470
 7170.00000    8.76440    0.03620   59.84460  102.46230   40.94290   -0.00180    4.15060    2.64110  705.78180  963.97870  275.93430    0.05450
 7170.50000    8.76080    0.04170   59.58140  102.14090   39.80150   -0.00190    4.36660    2.63110  883.74100 1362.13270  350.65260    0.05130
 7171.00000    8.76040    0.04920   59.07770  101.81950   41.18010   -0.00130    4.51100    2.62500 1310.59580 1983.97610  502.34650    0.04720
 7171.50000    8.76310    0.04140   58.21310  101.26660   43.60990    0.00260    4.60450    2.64080 1554.22990 2026.35780  471.77150    0.04090
 7172.00000    8.75060    0.03160   57.93320  100.77060   46.30460    0.00660    4.58380    2.65660  969.76420 1499.63420  400.50210    0.03560
 7172.50000    8.73820    0.02180   57.45550  100.76850   45.76210    0.00940    4.47090    2.67230 1228.05370 1562.57050  428.23600    0.03330
 7173.00000    8.73760    0.01200   57.51560  100.59020   46.14010    0.01140    4.42630    2.68780 1260.65450 1966.08020  585.88460    0.03130
 7173.50000    8.73690    0.01020   57.41440  100.38730   44.73530    0.01350    4.42740    2.70270 1043.56750 1563.68330  586.13660    0.03070
 7174.00000    8.73950    0.00000   57.10850  100.26560   41.96920    0.01220    4.44440    2.70940 1041.52980 1616.26010  582.06500    0.03130
 7174.50000    8.74940    0.01000   57.11240  100.20020   37.82400    0.00850    4.36520    2.68770 1279.16320 1983.97610  570.03980    0.03010
 7175.00000    8.76240    0.02210   56.85540  100.13470   37.85360    0.00490    4.28600    2.66600 1421.74320 2503.43070  503.99490    0.02740
 7175.50000    8.77360    0.03190   56.47930  100.11770   42.90010    0.00410    4.19260    2.64430  912.00920 1435.23200  360.83720    0.02880
 7176.00000    8.80420    0.04000   55.97160  100.29460   47.65700    0.00410    4.11930    2.64660  529.70870  703.57310  311.03770    0.03590
 7176.50000    8.82670    0.03420   55.88920  100.56250   45.29250    0.00410    4.17450    2.66550  906.29790 1428.25400  334.32280    0.03490
 7177.00000    8.84030    0.02130   55.88920  100.56860   40.42780    0.00410    4.25540    2.68430 1377.03450 1971.76460  426.56210    0.03070
 7177.50000    8.86990    0.01330   56.00920  100.39820   36.74510   -0.00050    4.30300    2.68640 1753.62370 3345.47030  534.87220    0.02830
 7178.00000    8.86920    0.01960   56.48790  100.03200   41.25400   -0.00400    4.21910    2.67040  929.54040 1497.55140  465.23050    0.03080
 7178.50000    8.84760    0.03270   57.42830  100.09100   45.56530   -0.00760    4.11530    2.65440  639.40130  776.58260  420.79760    0.03900
 7179.00000    8.82410    0.03770   59.24010  101.91660   51.48160   -0.00350    3.97900    2.63840  633.51050  795.99300  427.00100    0.04460
 7179.50000    8.80340    0.04250   60.05790  102.91050   53.56980   -0.00260    3.84790    2.63310  524.11640  624.60670  410.03740    0.04650
