~Version ---------------------------------------------------
VERS.   2.0 : CWLS log ASCII Standard -VERSION 2.0
WRAP.    NO : One line per depth step
DLM . SPACE : Column Data Section Delimiter
~Well ------------------------------------------------------
STRT .FT                124.0 : START DEPTH
STOP .FT               8459.0 : STOP DEPTH
STEP .FT                  0.5 : STEP
NULL .               -9999.25 : NULL VALUE
COMP .                        : COMPANY
WELL .                        : WELL
FLD  .                        : FIELD
LOC  .                        : LOCATION
PROV .                        : PROVINCE
CNTY .                        : COUNTY
STAT .                        : STATE
CTRY .                        : COUNTRY
SRVC .                        : SERVICE COMPANY
DATE .                        : DATE
UWI  .                        : UNIQUE WELL ID
API  .                        : API NUMBER
SLAT .WGS84 2.824751013335998 : SURFACE LATITUDE
SLON .WGS84 8.884745930231006 : SURFACE LONGITUDE
DATUM.F                   nan : DEPTH DATUM ELEV
~Curve Information -----------------------------------------
DEPT   .FT    : 
CALD   .IN    : CALIPER FROM DENSITY LOG
DPHZ_LS.DEC   : HGRD STANDARD RESOLUTION DENSITY POROSITY
DT4P   .US/F  : DELTA-T COMPRESSIONAL - MONOPOLE P & S
DTSM   .US/F  : DELTA-T SHEAR
GRD    .GAPI  : GAMMA RAY FROM DENSITY LOG
HDRA   .G/C3  : HRDD SPINE AND RIBS DENSITY CORRECTION
PEFZ   .B/E   : HRDD STANDARD RESOLUTION FORMATION PHOTOELECTRIC FACTOR
RHOZ   .G/C3  : HRDD STANDARD RESOLUTION FORMATION DENSITY
RLA3   .OHMM  : APPARENT RESISTIVITY FROM COMPUTED FOCUSING MODE 3
RLA5   .OHMM  : APPARENT RESISTIVITY FROM COMPUTED FOCUSING MODE 5
RXOZ   .OHMM  : INVADED FORMATION RESISTIVITY FILTERED AT 18 INCHES
TNPH_LS.DEC   : THERMAL NEUTRON POROSITY [LIMESTONE]
~Params ----------------------------------------------------
~Other -----------------------------------------------------
~ASCII -----------------------------------------------------
# ...
 4604.00000    8.76440    0.05060   53.88410   91.76170   18.98680   -0.00510    3.58350    2.61990 1366.30230 1562.02790  435.13480    0.00540
 4604.50000    8.76470    0.04250   54.04690   91.00460   19.38640   -0.00590    3.55200    2.63520  565.31970  631.37230  302.53680    0.00680
 4605.00000    8.76510    0.03570   54.52150   89.88900   20.94340   -0.00590    3.54540    2.65050 1013.29430 1235.05400  323.74020    0.00690
 4605.50000    8.76290    0.03530   53.83070   90.53350   20.85940   -0.00590    3.56640    2.64930 1573.26270 1989.65600  342.08310    0.00700
 4606.00000    8.75700    0.03870   53.90880   91.39280   18.54910   -0.00590    3.54290    2.64510 1654.34380 2069.61670  411.50960    0.00710
 4606.50000    8.75110    0.03930   54.36830  101.58100   18.13360   -0.00510    3.28550    2.64380  952.15940 1244.22390  329.06370    0.00710
 4607.00000    8.75760    0.03760   54.59200  114.08130   17.97080   -0.00110    3.08540    2.65090  290.29990  312.43370  181.58650    0.00800
 4607.50000    8.75160    0.03430   54.86330  116.01750   17.26000    0.00300    2.90490    2.66140  506.01880  795.15880  172.02450    0.00940
 4608.00000    8.74050    0.02130   54.83110  107.98470   17.33990    0.00650    2.98520    2.67440 1566.57730 2001.97160  270.85850    0.00770
 4608.50000    8.75760    0.01260   55.11120   96.95260   19.42910    0.00790    3.15080    2.69340 1940.96920 2214.97770  598.75520    0.00800
 4609.00000    8.75300    0.00590   54.62230   89.69340   20.79260    0.00930    3.27060    2.69650 3597.07800 6602.99890  706.64700    0.00820
 4609.50000    8.74850    0.00620   53.48620   88.96630   22.26930    0.01070    3.31120    2.69880 3560.28010 5688.72990  859.63690    0.00840
 4610.00000    8.75620    0.01030   53.90060   89.17100   23.04990    0.00690    3.39410    2.69080 1800.25990 2031.65390  658.98060    0.00870
 4610.50000    8.76710    0.01400   54.31580   89.22310   20.74930    0.00380    3.47690    2.68710  785.90910 1160.55220  458.32440    0.00850
 4611.00000    8.76770    0.00980   54.34600   90.58110   18.20970    0.00190    3.55900    2.69790  586.64380  885.23340  450.34970    0.00750
 4611.50000    8.76960    0.00450   54.40210   92.89710   17.10870    0.00280    3.56130    2.70240 1279.79990 1567.84630  490.96880    0.00650
 4612.00000    8.77430    0.01120   54.37250  100.38490   20.05160    0.00220    3.46190    2.69130 1716.74650 1977.41400  779.21790    0.00540
 4612.50000    8.77910    0.02270   54.74830  104.84940   21.18940    0.00170    3.35920    2.67560  911.86920  838.62620  526.10530    0.00430
 4613.00000    8.78390    0.03080   55.27750   91.39270   20.31950    0.00110    3.37470    2.65990  966.26570 1200.53590  391.41030    0.00580
 4613.50000    8.78660    0.03230   54.67510   90.82880   18.56020    0.00110    3.39970    2.65150 1594.20940 1977.41400  357.51250    0.00780
 4614.00000    8.77250    0.03670   54.87770   90.82880   16.95640    0.00110    3.38320    2.64610  973.06380 2056.87810  458.25140    0.00760
 4614.50000    8.75690    0.03860   54.99010   90.92520   16.14330    0.00110    3.42070    2.64230 1421.42430 1716.53270  417.94720    0.00670
 4615.00000    8.78720    0.03750   54.79000   91.42750   17.82450    0.00110    3.66740    2.65050 2001.50440 2923.96640  358.84970    0.00570
 4615.50000    8.81760    0.02970   54.61160   91.37380   19.67030    0.00110    3.83310    2.65980 1993.37570 2623.42370  375.70360    0.00460
 4616.00000    8.79060    0.01940   53.82790   91.13410   20.48280    0.00110    3.98460    2.67620 1984.52600 2910.34060  430.69400    0.00350
 4616.50000    8.75640    0.01590   52.72530   91.10520   21.41680    0.00110    4.03650    2.68380 1524.86410 2082.43430  553.91760    0.00330
 4617.00000    8.74750    0.01430   53.20420   91.29820   21.47250    0.00110    3.89820    2.68940  844.30930  954.66250  527.20910    0.00490
 4617.50000    8.74920    0.01200   52.53790   91.58210   21.89240    0.00110    3.81330    2.68970 1444.33320 2001.97160  430.48470    0.00740
 4618.00000    8.75100    0.01910   53.28720   91.85910   21.46030    0.00110    3.70160    2.66240 1007.30440 2056.87810  332.48150    0.01040
 4618.50000    8.75270    0.02890   54.03500   91.72890   21.03830    0.00110    3.57150    2.64590 1173.95350 1525.93060  328.48840    0.01100
 4619.00000    8.75050    0.03760   53.69550   91.18770   21.81630    0.00090    3.46360    2.64590 1286.09640 1386.82660  434.63300    0.00910
 4619.50000    8.76470    0.03160   53.90180   91.62840   23.48140    0.00060    3.42470    2.66270 1489.58720 1709.36210  567.66310    0.00690
 4620.00000    8.78270    0.03060   54.45350   90.71810   25.27590    0.00040    3.37100    2.66200  805.15130 1285.25430  615.21450    0.00550
 4620.50000    8.79070    0.03610   55.02430   90.22930   24.31500    0.00020    3.26660    2.65380  727.51720  914.85140  537.26970    0.00560
 4621.00000    8.77900    0.03800   54.60780   90.99870   24.48410    0.00000    3.13480    2.64550 1186.86330 1470.46400  510.76680    0.00570
 4621.50000    8.76720    0.03890   54.50540   91.69100   23.12330    0.00140    3.07970    2.64060 1646.20940 1872.71060  405.10030    0.00610
 4622.00000    8.78340    0.03170   55.77630   91.66590   27.41270    0.00210    3.13290    2.65530 1504.93180 2191.18990  353.04600    0.00690
 4622.50000    8.79970    0.03710   54.25750   91.46610   33.32600    0.00270    3.23230    2.65570  568.82080  604.67880  323.89190    0.00880
 4623.00000    8.77680    0.04340   55.04490   91.35870   34.51250    0.00180    3.33170    2.63370  854.47340  906.83790  395.83330    0.01100
 4623.50000    8.76530    0.04740   54.62860   90.80510   29.06520    0.00140    3.40480    2.62830 1411.31820 1671.53510  479.15890    0.01150
 4624.00000    8.76150    0.03700   54.95660   94.77630   20.27390   -0.00450    3.50710    2.65420 1685.25640 2001.97160  573.21350    0.00930
 4624.50000    8.75770    0.01270   56.41040  109.43840   20.54500    0.01260    3.59850    2.68610 1331.50040 1723.82950  567.57590    0.00800
 4625.00000    8.73440    0.01080   54.95660   90.82890   25.24320    0.02630    3.45460    2.69230  741.90700 1089.86810  608.77370    0.00860
 4625.50000    8.74590    0.03170   55.24860   91.95670   30.34700    0.01900    3.29680    2.65410  512.17230  582.69910  425.18620    0.01020
 4626.00000    8.73490    0.05930   55.86410   91.37190   31.62910    0.01160    3.21970    2.60700 1308.18890 1698.47100  364.63730    0.01060
 4626.50000    8.73960    0.05600   55.42110   90.64090   29.47460    0.00620    3.22090    2.60700 1727.37870 2632.76770  340.97700    0.01070
 4627.00000    8.74100    0.04750   56.63570   90.97510   28.92000    0.00350    3.16820    2.62810 1215.13280 1497.94060  441.16350    0.01000
 4627.50000    8.75480    0.04680   55.85280   91.39280   31.72040    0.00140    3.11550    2.62920 1181.85920 1364.09480  529.84100    0.00950
 4628.00000    8.76870    0.05260   56.81920   91.25850   35.09050    0.00000    2.99070    2.61720 1200.23250 1439.27050  708.51170    0.01170
 4628.50000    8.76030    0.05380   56.52950   90.92280   32.86370   -0.00170    2.91320    2.61710 1942.27460 1965.24950  920.49350    0.01340
 4629.00000    8.74480    0.04720   55.67200   90.58720   29.94430   -0.00340    3.00710    2.63000 1617.82430 2478.15290  979.08680    0.01450
 4629.50000    8.74970    0.04790   54.91590   90.45290   29.44980   -0.00340    3.19930    2.62910  684.50640 1139.16120  515.34020    0.01560
 4630.00000    8.75350    0.05140   55.00970   90.45290   29.89230   -0.00480    3.37100    2.61860  684.50640  968.59550  441.52230    0.01580
 4630.50000    8.75050    0.05400   55.66540   93.78950   26.68080   -0.00610    3.46110    2.61650 1859.70760 1989.16180  410.68670    0.01590
 4631.00000    8.74750    0.04910   55.98410   98.72380   21.78920   -0.00610    3.55120    2.64730 1847.86170 2692.13910  646.24960    0.01480
 4631.50000    8.76260    0.02500   55.02970   88.57320   16.57570   -0.00210    3.62750    2.66940  688.32130  740.80780  387.90230    0.01420
