~Version ---------------------------------------------------
VERS.   2.0 : CWLS log ASCII Standard -VERSION 2.0
WRAP.    NO : One line per depth step
DLM . SPACE : Column Data Section Delimiter
~Well ------------------------------------------------------
STRT .FT                124.0 : START DEPTH
STOP .FT               8459.0 : STOP DEPTH
STEP .FT                  0.5 : STEP
NULL .               -9999.25 : NULL VALUE
COMP .                        : COMPANY
WELL .                        : WELL
FLD  .                        : FIELD
LOC  .                        : LOCATION
PROV .                        : PROVINCE
CNTY .                        : COUNTY
STAT .                        : STATE
CTRY .                        : COUNTRY
SRVC .                        : SERVICE COMPANY
DATE .                        : DATE
UWI  .                        : UNIQUE WELL ID
API  .                        : API NUMBER
SLAT .WGS84 2.824751013335998 : SURFACE LATITUDE
SLON .WGS84 8.884745930231006 : SURFACE LONGITUDE
DATUM.F                   nan : DEPTH DATUM ELEV
~Curve Information -----------------------------------------
DEPT   .FT    : 
CALD   .IN    : CALIPER FROM DENSITY LOG
DPHZ_LS.DEC   : HGRD STANDARD RESOLUTION DENSITY POROSITY
DT4P   .US/F  : DELTA-T COMPRESSIONAL - MONOPOLE P & S
DTSM   .US/F  : DELTA-T SHEAR
GRD    .GAPI  : GAMMA RAY FROM DENSITY LOG
HDRA   .G/C3  : HRDD SPINE AND RIBS DENSITY CORRECTION
PEFZ   .B/E   : HRDD STANDARD RESOLUTION FORMATION PHOTOELECTRIC FACTOR
RHOZ   .G/C3  : HRDD STANDARD RESOLUTION FORMATION DENSITY
RLA3   .OHMM  : APPARENT RESISTIVITY FROM COMPUTED FOCUSING MODE 3
RLA5   .OHMM  : APPARENT RESISTIVITY FROM COMPUTED FOCUSING MODE 5
RXOZ   .OHMM  : INVADED FORMATION RESISTIVITY FILTERED AT 18 INCHES
TNPH_LS.DEC   : THERMAL NEUTRON POROSITY [LIMESTONE]
~Params ----------------------------------------------------
~Other -----------------------------------------------------
~ASCII -----------------------------------------------------
# ...
 2896.00000    9.26550    0.14780   -9999.25   -9999.25   80.34420   -0.00790    2.43740    2.45900    6.37700    6.93830    6.12990    0.16920
 2896.50000    9.28050    0.14340   -9999.25   -9999.25   80.03430   -0.00580    2.44830    2.46400    6.40940    6.90050    7.26000    0.16490
 2897.00000    9.29560    0.13720   -9999.25   -9999.25   78.15310   -0.00380    2.41690    2.47380    4.92570    5.02380    7.76880    0.16490
 2897.50000    9.30610    0.13350   -9999.25   -9999.25   76.29680   -0.00180    2.40000    2.48040    4.81970    4.90740    6.25890    0.17070
 2898.00000    9.30710    0.13600   -9999.25   -9999.25   73.33810   -0.00010    2.38670    2.47730    4.85590    4.92350    6.14320    0.16770
 2898.50000    9.31700    0.13950   -9999.25   -9999.25   72.75330    0.00080    2.37330    2.47170    4.58580    4.89920    5.79000    0.16820
 2899.00000    9.32700    0.14400   -9999.25   -9999.25   76.31390    0.00180    2.38100    2.46350    4.38150    4.68860    5.91070    0.17330
 2899.50000    9.33700    0.14900   -9999.25   -9999.25   79.18060    0.00160    2.37150    2.45160    4.39050    4.49240    5.69480    0.17740
 2900.00000    9.32930    0.15610   -9999.25   -9999.25   76.67150    0.00020    2.36470    2.44200    4.39960    4.46390    5.58630    0.17330
 2900.50000    9.32150    0.15890   -9999.25   -9999.25   70.85280   -0.00120    2.33380    2.44100    4.46130    4.55860    5.66980    0.16300
 2901.00000    9.33300    0.15390   -9999.25   -9999.25   66.56260   -0.00260    2.28170    2.45100    4.55800    4.65330    5.77650    0.15250
 2901.50000    9.34450    0.14890   -9999.25   -9999.25   65.62440   -0.00200    2.27320    2.46090    4.65470    4.74810    5.96160    0.14100
 2902.00000    9.35590    0.14280   -9999.25   -9999.25   69.20940   -0.00090    2.30860    2.46930    4.65230    4.86670    6.07320    0.13790
 2902.50000    9.36160    0.13770   -9999.25   -9999.25   72.46870    0.00020    2.33420    2.46600    4.61330    4.88180    6.12550    0.14130
 2903.00000    9.36620    0.14360   -9999.25   -9999.25   70.07630    0.00160    2.34620    2.45200    4.63210    4.89680    6.19110    0.14760
 2903.50000    9.39340    0.15110   -9999.25   -9999.25   69.18150    0.00390    2.35270    2.43810    4.68960    5.01920    6.25670    0.15380
 2904.00000    9.39800    0.15370   -9999.25   -9999.25   65.62700    0.00620    2.36630    2.43490    4.77920    5.12380    6.32230    0.16010
 2904.50000    9.40260    0.15110   -9999.25   -9999.25   69.15190    0.00710    2.37980    2.44540    4.89030    5.14470    6.38790    0.15900
 2905.00000    9.40720    0.15080   -9999.25   -9999.25   65.74280    0.00540    2.39060    2.45840    4.92860    5.14470    6.38130    0.15410
 2905.50000    9.41170    0.14280   -9999.25   -9999.25   64.83140    0.00380    2.38190    2.47040    4.99250    5.17650    6.38990    0.15770
 2906.00000    9.39880    0.13580   -9999.25   -9999.25   67.11670    0.00210    2.38350    2.47910    5.14020    5.46680    6.48250    0.16120
 2906.50000    9.36940    0.13390   -9999.25   -9999.25   74.78180   -0.00050    2.39200    2.48520    5.62360    5.86910    6.67430    0.16260
 2907.00000    9.35040    0.13110   -9999.25   -9999.25   82.82780   -0.00110    2.38700    2.49400    6.10690    6.19100    6.94610    0.15580
 2907.50000    9.31130    0.12720   -9999.25   -9999.25   84.80010   -0.00170    2.37240    2.49970    5.95660    6.10990    6.96770    0.15050
 2908.00000    9.25410    0.12260   -9999.25   -9999.25   78.13470   -0.00330    2.35550    2.50650    5.70610    6.19100    7.20810    0.14100
 2908.50000    9.19690    0.11690   -9999.25   -9999.25   75.46910   -0.00250    2.39050    2.51350    6.99900    7.40430    8.12420    0.13390
 2909.00000    9.18580    0.11180   -9999.25   -9999.25   81.50240   -0.00140    2.45040    2.52050    9.15390   10.18000   13.54260    0.13210
 2909.50000    9.18600    0.10690   -9999.25   -9999.25   88.82790   -0.00020    2.45630    2.52760   10.44690   11.33470   13.60270    0.13190
 2910.00000    9.18520    0.11240   -9999.25   -9999.25   91.47170    0.00000    2.46220    2.51660    7.52820    8.25130   10.74110    0.13390
 2910.50000    9.19010    0.12320   -9999.25   -9999.25   89.63990   -0.00100    2.43460    2.50120    5.60220    5.71370    7.87960    0.13680
 2911.00000    9.18840    0.13550   -9999.25   -9999.25   86.23750   -0.00210    2.40220    2.48580    5.62720    5.73920    6.73570    0.13980
 2911.50000    9.18670    0.14080   -9999.25   -9999.25   85.53820   -0.00470    2.38540    2.47040    5.54610    5.65650    6.94610    0.14510
 2912.00000    9.19510    0.14310   -9999.25   -9999.25   74.57120   -0.00390    2.36520    2.46600    4.74240    4.83680    6.81870    0.14910
 2912.50000    9.19190    0.14640   -9999.25   -9999.25   70.88290   -0.00280    2.38240    2.45260    4.59830    4.68980    6.13700    0.15220
 2913.00000    9.17540    0.15290   -9999.25   -9999.25   68.93620   -0.00170    2.40560    2.45290    4.62670    4.71880    5.68900    0.15040
 2913.50000    9.17360    0.14730   -9999.25   -9999.25   70.38750   -0.00060    2.42020    2.46420    4.59250    4.77750    5.73850    0.14720
 2914.00000    9.17550    0.13880   -9999.25   -9999.25   70.40010   -0.00120    2.40640    2.47790    4.54980    4.96450    6.02830    0.14750
 2914.50000    9.17740    0.12930   -9999.25   -9999.25   70.66740   -0.00170    2.40180    2.49170    4.89690    5.15160    6.58330    0.15270
 2915.00000    9.17130    0.12630   -9999.25   -9999.25   71.30170   -0.00220    2.38860    2.49150    5.07480    5.33870    7.19090    0.15690
 2915.50000    9.16400    0.12930   -9999.25   -9999.25   68.47650   -0.00190    2.38680    2.48190    4.72390    5.06120    6.69260    0.14240
 2916.00000    9.16400    0.13480   -9999.25   -9999.25   67.10710   -0.00160    2.38510    2.47220    4.45790    4.71420    5.85440    0.14470
 2916.50000    9.16100    0.14130   -9999.25   -9999.25   71.60940   -0.00130    2.39220    2.46260    4.46390    4.54910    5.36580    0.15210
 2917.00000    9.15360    0.14680   -9999.25   -9999.25   77.01320   -0.00090    2.34630    2.46090    4.47130    4.55790    5.25470    0.15420
 2917.50000    9.14610    0.14170   -9999.25   -9999.25   80.48920   -0.00130    2.29960    2.46490    4.47870    4.56670    5.23990    0.15020
 2918.00000    9.14830    0.14140   -9999.25   -9999.25   73.57670   -0.00190    2.27200    2.46880    4.48620    4.57550    5.37320    0.15320
 2918.50000    9.15270    0.14140   -9999.25   -9999.25   70.44950   -0.00250    2.27360    2.46950    4.47390    4.56300    5.51520    0.15410
 2919.00000    9.14820    0.14010   -9999.25   -9999.25   67.71640   -0.00300    2.27520    2.46810    4.44340    4.53180    5.70210    0.14800
 2919.50000    9.15950    0.14180   -9999.25   -9999.25   68.86340   -0.00360    2.29520    2.46570    4.43120    4.51930    5.59770    0.14180
 2920.00000    9.15530    0.14740   -9999.25   -9999.25   68.63290   -0.00420    2.32750    2.45430    4.38120    4.46840    5.68510    0.13450
 2920.50000    9.16210    0.15300   -9999.25   -9999.25   66.70490   -0.00470    2.35980    2.44260    4.31870    4.40470    5.33700    0.14210
 2921.00000    9.16890    0.15750   -9999.25   -9999.25   63.41890   -0.00450    2.34990    2.44180    4.25630    4.34100    5.09870    0.15070
 2921.50000    9.16210    0.15670   -9999.25   -9999.25   61.99870   -0.00390    2.32930    2.44710    4.29370    4.37910    4.88580    0.15330
 2922.00000    9.16560    0.15280   -9999.25   -9999.25   68.30060   -0.00330    2.30880    2.45230    4.37680    4.46390    4.95270    0.15380
 2922.50000    9.16200    0.14890   -9999.25   -9999.25   71.13780   -0.00270    2.32960    2.45750    4.37340    4.46050    5.26930    0.15300
 2923.00000    9.16760    0.14530   -9999.25   -9999.25   70.78520   -0.00240    2.35020    2.46210    4.35660    4.44330    5.53800    0.15170
 2923.50000    9.17310    0.14480   -9999.25   -9999.25   66.22910   -0.00220    2.37080    2.46570    4.39600    4.48350    5.78050    0.15350
